$GPGGA,032226.00,3135.5406838,N,12046.3766876,E,4,14,2.0,2.4399,M,8.296,M,01,0004*60
$GPHPD,0,0.000,241.60,0.32,-16.71,31.5923447,120.7729448,2.440,13630124.950,24921614.774,2.440,0.000,0.000,0.000,0.000,0.000,0.000,0.000,14,13,4*59
$GPGGA,032226.20,3135.5406827,N,12046.3766888,E,4,14,2.0,2.4411,M,8.296,M,01,0004*6A
$GPHPD,0,0.000,241.48,0.70,-16.66,31.5923447,120.7729448,2.441,13630124.968,24921614.795,2.441,0.000,0.000,0.000,0.000,0.000,0.000,0.000,14,13,4*57
$GPGGA,032226.40,3135.5406822,N,12046.3766879,E,4,14,2.0,2.4401,M,8.296,M,01,0004*66
$GPHPD,0,0.000,241.61,0.48,-16.63,31.5923447,120.7729448,2.440,13630124.974,24921614.787,2.440,0.000,0.000,0.000,0.000,0.000,0.000,0.000,14,13,4*5C
$GPGGA,032226.60,3135.5406814,N,12046.3766847,E,4,14,2.0,2.4409,M,8.296,M,00,0004*65
$GPHPD,0,0.000,241.62,0.47,-16.60,31.5923447,120.7729447,2.441,13630124.979,24921614.753,2.441,0.000,0.000,0.000,0.000,0.000,0.000,0.000,14,13,4*58
$GPGGA,032226.80,3135.5406787,N,12046.3766757,E,4,14,2.0,2.4384,M,8.296,M,00,0004*62
$GPHPD,0,0.000,241.71,0.31,-16.62,31.5923446,120.7729446,2.438,13630124.999,24921614.660,2.438,0.000,0.000,0.000,0.000,0.000,0.000,0.000,14,13,4*56
$GPGGA,032227.00,3135.5406724,N,12046.3766618,E,4,14,2.0,2.4418,M,8.296,M,01,0004*6B
$GPHPD,0,0.000,241.64,0.46,-16.65,31.5923445,120.7729444,2.442,13630125.060,24921614.529,2.442,0.000,0.000,0.000,0.000,0.000,0.000,0.000,14,13,4*54
$GPGGA,032227.20,3135.5406639,N,12046.3766385,E,4,14,2.0,2.4424,M,8.296,M,01,0004*6A
$GPHPD,0,0.000,241.79,0.27,-16.67,31.5923444,120.7729440,2.442,13630125.134,24921614.298,2.442,0.000,0.000,0.000,0.000,0.000,0.000,0.000,14,13,4*55
$GPGGA,032227.40,3135.5406503,N,12046.3766096,E,4,14,2.0,2.4365,M,8.296,M,01,0004*65
$GPHPD,0,0.000,242.04,0.23,-16.72,31.5923442,120.7729435,2.437,13630125.270,24921614.029,2.437,0.000,0.000,0.000,0.000,0.000,0.000,0.000,14,13,4*53
$GPGGA,032227.60,3135.5406334,N,12046.3765692,E,4,14,2.0,2.4432,M,8.296,M,00,0004*60
$GPHPD,0,0.000,242.46,0.25,-16.74,31.5923439,120.7729428,2.443,13630125.428,24921613.640,2.443,0.000,0.000,0.000,0.000,0.000,0.000,0.000,14,13,4*50
$GPGGA,032227.80,3135.5406125,N,12046.3765193,E,4,14,2.0,2.4478,M,8.296,M,00,0004*64
$GPHPD,0,0.000,242.71,0.55,-16.74,31.5923435,120.7729420,2.448,13630125.625,24921613.160,2.448,0.000,0.000,0.000,0.000,0.000,0.000,0.000,14,13,4*5D
$GPGGA,032228.00,3135.5405901,N,12046.3764578,E,4,14,2.0,2.4467,M,8.296,M,01,0004*61
$GPHPD,0,0.000,243.31,0.35,-16.75,31.5923432,120.7729410,2.447,13630125.820,24921612.549,2.447,0.000,0.000,0.000,0.000,0.000,0.000,0.000,14,13,4*5E
$GPGGA,032228.20,3135.5405620,N,12046.3763909,E,4,14,2.0,2.4520,M,8.296,M,01,0004*60
$GPHPD,0,0.000,243.85,0.10,-16.72,31.5923427,120.7729398,2.452,13630126.084,24921611.906,2.452,0.000,0.000,0.000,0.000,0.000,0.000,0.000,14,13,4*53
$GPGGA,032228.40,3135.5405324,N,12046.3763144,E,4,14,2.0,2.4489,M,8.296,M,01,0004*64
$GPHPD,0,0.000,244.39,-0.22,-16.59,31.5923422,120.7729386,2.449,13630126.351,24921611.156,2.449,0.000,0.000,0.000,0.000,0.000,0.000,0.000,14,13,4*7A
$GPGGA,032228.60,3135.5405004,N,12046.3762390,E,4,14,2.0,2.4545,M,8.296,M,00,0004*6D
$GPHPD,0,0.000,244.52,0.12,-16.43,31.5923417,120.7729373,2.455,13630126.654,24921610.433,2.455,0.000,0.000,0.000,0.000,0.000,0.000,0.000,14,13,4*59
$GPGGA,032228.80,3135.5404739,N,12046.3761691,E,4,14,2.0,2.4442,M,8.296,M,00,0004*6A
$GPHPD,0,0.000,244.57,-0.10,-16.28,31.5923412,120.7729362,2.444,13630126.890,24921609.744,2.444,0.000,0.000,0.000,0.000,0.000,0.000,0.000,14,13,4*76
$GPGGA,032229.00,3135.5404496,N,12046.3761082,E,4,14,2.0,2.4567,M,8.296,M,01,0004*66
$GPHPD,0,0.000,244.52,0.12,-16.19,31.5923408,120.7729351,2.457,13630127.113,24921609.152,2.457,0.000,0.000,0.000,0.000,0.000,0.000,0.000,14,13,4*57
$GPGGA,032229.20,3135.5404245,N,12046.3760494,E,4,14,2.0,2.4469,M,8.296,M,01,0004*61
$GPHPD,0,0.000,244.60,-0.37,-16.12,31.5923404,120.7729342,2.447,13630127.351,24921608.589,2.447,0.000,0.000,0.000,0.000,0.000,0.000,0.000,14,13,4*7E
$GPGGA,032229.40,3135.5404049,N,12046.3759953,E,4,14,2.0,2.4433,M,8.296,M,01,0004*6A
$GPHPD,0,0.000,244.62,0.01,-16.03,31.5923401,120.7729333,2.443,13630127.521,24921608.051,2.443,0.000,0.000,0.000,0.000,0.000,0.000,0.000,14,13,4*56
$GPGGA,032229.60,3135.5403864,N,12046.3759469,E,4,14,2.0,2.4523,M,8.296,M,00,0004*6D
$GPHPD,0,0.000,244.53,-0.07,-15.92,31.5923398,120.7729324,2.452,13630127.686,24921607.575,2.452,0.000,0.000,0.000,0.000,0.000,0.000,0.000,14,13,4*77
$GPGGA,032229.80,3135.5403673,N,12046.3759015,E,4,14,2.0,2.4537,M,8.296,M,00,0004*61
$GPHPD,0,0.000,244.51,-0.15,-15.82,31.5923395,120.7729317,2.454,13630127.867,24921607.138,2.454,0.000,0.000,0.000,0.000,0.000,0.000,0.000,14,13,4*76
$GPGGA,032230.00,3135.5403519,N,12046.3758603,E,4,14,2.0,2.4539,M,8.296,M,01,0004*61
$GPHPD,0,0.000,244.40,-0.12,-15.71,31.5923392,120.7729310,2.454,13630128.002,24921606.731,2.454,0.000,0.000,0.000,0.000,0.000,0.000,0.000,14,13,4*77
$GPGGA,032230.20,3135.5403388,N,12046.3758241,E,4,14,2.0,2.4548,M,8.296,M,01,0004*69
$GPHPD,0,0.000,244.43,0.05,-15.66,31.5923390,120.7729304,2.455,13630128.116,24921606.371,2.455,0.000,0.000,0.000,0.000,0.000,0.000,0.000,14,13,4*5A
$GPGGA,032230.40,3135.5403248,N,12046.3757875,E,4,14,2.0,2.4489,M,8.296,M,01,0004*6C
$GPHPD,0,0.000,244.47,-0.28,-15.57,31.5923387,120.7729298,2.449,13630128.241,24921606.011,2.449,0.000,0.000,0.000,0.000,0.000,0.000,0.000,14,13,4*78
$GPGGA,032230.60,3135.5403136,N,12046.3757537,E,4,14,2.0,2.4524,M,8.296,M,00,0004*68
$GPHPD,0,0.000,244.36,-0.13,-15.49,31.5923386,120.7729292,2.452,13630128.332,24921605.669,2.452,0.000,0.000,0.000,0.000,0.000,0.000,0.000,14,13,4*7D
$GPGGA,032230.80,3135.5402986,N,12046.3757233,E,4,14,2.0,2.4543,M,8.296,M,00,0004*66
$GPHPD,0,0.000,244.00,-0.24,-15.44,31.5923383,120.7729287,2.454,13630128.484,24921605.390,2.454,0.000,0.000,0.000,0.000,0.000,0.000,0.000,14,13,4*79
$GPGGA,032231.00,3135.5402853,N,12046.3756909,E,4,14,2.0,2.4478,M,8.296,M,01,0004*6D
$GPHPD,0,0.000,244.11,-0.12,-15.39,31.5923381,120.7729282,2.448,13630128.608,24921605.077,2.448,0.000,0.000,0.000,0.000,0.000,0.000,0.000,14,13,4*7D
$GPGGA,032231.20,3135.5402727,N,12046.3756592,E,4,14,2.0,2.4542,M,8.296,M,01,0004*65
$GPHPD,0,0.000,244.15,0.05,-15.35,31.5923379,120.7729277,2.454,13630128.723,24921604.768,2.454,0.000,0.000,0.000,0.000,0.000,0.000,0.000,14,13,4*53
$GPGGA,032231.40,3135.5402575,N,12046.3756225,E,4,14,2.0,2.4498,M,8.296,M,01,0004*6B
$GPHPD,0,0.000,244.06,0.20,-15.33,31.5923376,120.7729270,2.450,13630128.866,24921604.414,2.450,0.000,0.000,0.000,0.000,0.000,0.000,0.000,14,13,4*5E
$GPGGA,032231.60,3135.5402428,N,12046.3755826,E,4,14,2.0,2.4482,M,8.296,M,00,0004*60
$GPHPD,0,0.000,243.91,0.10,-15.31,31.5923374,120.7729264,2.448,13630128.994,24921604.018,2.448,0.000,0.000,0.000,0.000,0.000,0.000,0.000,14,13,4*55
$GPGGA,032231.80,3135.5402270,N,12046.3755411,E,4,14,2.0,2.4466,M,8.296,M,00,0004*67
$GPHPD,0,0.000,243.88,0.50,-15.30,31.5923371,120.7729257,2.447,13630129.135,24921603.610,2.447,0.000,0.000,0.000,0.000,0.000,0.000,0.000,14,13,4*56
$GPGGA,032232.00,3135.5402067,N,12046.3754956,E,4,14,2.0,2.4514,M,8.296,M,01,0004*62
$GPHPD,0,0.000,244.05,-0.02,-15.31,31.5923368,120.7729249,2.451,13630129.332,24921603.179,2.451,0.000,0.000,0.000,0.000,0.000,0.000,0.000,14,13,4*75
$GPGGA,032232.20,3135.5401847,N,12046.3754453,E,4,14,2.0,2.4575,M,8.296,M,01,0004*66
$GPHPD,0,0.000,243.85,-0.13,-15.32,31.5923364,120.7729241,2.458,13630129.544,24921602.701,2.458,0.000,0.000,0.000,0.000,0.000,0.000,0.000,14,13,4*72
$GPGGA,032232.40,3135.5401624,N,12046.3753904,E,4,14,2.0,2.4555,M,8.296,M,01,0004*61
$GPHPD,0,0.000,243.79,0.10,-15.32,31.5923360,120.7729232,2.456,13630129.750,24921602.169,2.456,0.000,0.000,0.000,0.000,0.000,0.000,0.000,14,13,4*50
$GPGGA,032232.60,3135.5401376,N,12046.3753305,E,4,14,2.0,2.4567,M,8.296,M,00,0004*6A
$GPHPD,0,0.000,243.58,-0.16,-15.30,31.5923356,120.7729222,2.457,13630129.982,24921601.591,2.457,0.000,0.000,0.000,0.000,0.000,0.000,0.000,14,13,4*7F
$GPGGA,032232.80,3135.5401106,N,12046.3752697,E,4,14,2.0,2.4499,M,8.296,M,00,0004*6E
$GPHPD,0,0.000,243.22,-0.16,-15.24,31.5923352,120.7729212,2.450,13630130.243,24921601.015,2.450,0.000,0.000,0.000,0.000,0.000,0.000,0.000,14,13,4*77
$GPGGA,032233.00,3135.5400866,N,12046.3752101,E,4,14,2.0,2.4576,M,8.296,M,01,0004*60
$GPHPD,0,0.000,243.17,0.11,-15.15,31.5923348,120.7729202,2.458,13630130.464,24921600.436,2.458,0.000,0.000,0.000,0.000,0.000,0.000,0.000,14,13,4*54
$GPGGA,032233.20,3135.5400646,N,12046.3751521,E,4,14,2.0,2.4508,M,8.296,M,01,0004*62
$GPHPD,0,0.000,243.32,0.00,-15.14,31.5923344,120.7729192,2.451,13630130.660,24921599.865,2.451,0.000,0.000,0.000,0.000,0.000,0.000,0.000,14,13,4*5B
$GPGGA,032233.40,3135.5400423,N,12046.3750949,E,4,14,2.0,2.4560,M,8.296,M,01,0004*68
$GPHPD,0,0.000,243.29,0.08,-15.14,31.5923340,120.7729182,2.456,13630130.862,24921599.305,2.456,0.000,0.000,0.000,0.000,0.000,0.000,0.000,14,13,4*5D
$GPGGA,032233.60,3135.5400175,N,12046.3750368,E,4,14,2.0,2.4493,M,8.296,M,00,0004*69
$GPHPD,0,0.000,243.51,0.01,-15.11,31.5923336,120.7729173,2.449,13630131.098,24921598.749,2.449,0.000,0.000,0.000,0.000,0.000,0.000,0.000,14,13,4*50
$GPGGA,032233.80,3135.5399954,N,12046.3749844,E,4,14,2.0,2.4560,M,8.296,M,00,0004*6B
$GPHPD,0,0.000,243.59,0.29,-15.06,31.5923333,120.7729164,2.456,13630131.306,24921598.246,2.456,0.000,0.000,0.000,0.000,0.000,0.000,0.000,14,13,4*59
$GPGGA,032234.00,3135.5399728,N,12046.3749256,E,4,13,2.0,2.4607,M,8.296,M,01,0004*6C
$GPHPD,0,0.000,243.97,0.06,-15.00,31.5923329,120.7729154,2.461,13630131.509,24921597.668,2.461,0.000,0.000,0.000,0.000,0.000,0.000,0.000,13,12,4*50
$GPGGA,032234.20,3135.5399507,N,12046.3748742,E,4,13,2.0,2.4488,M,8.296,M,01,0004*65
$GPHPD,0,0.000,243.90,0.23,-14.95,31.5923325,120.7729146,2.449,13630131.720,24921597.177,2.449,0.000,0.000,0.000,0.000,0.000,0.000,0.000,13,12,4*52
$GPGGA,032234.40,3135.5399320,N,12046.3748228,E,4,13,2.0,2.4520,M,8.296,M,01,0004*6A
$GPHPD,0,0.000,244.20,0.30,-14.93,31.5923322,120.7729137,2.452,13630131.882,24921596.666,2.452,0.000,0.000,0.000,0.000,0.000,0.000,0.000,13,12,4*5A
$GPGGA,032234.60,3135.5399095,N,12046.3747703,E,4,13,2.0,2.4545,M,8.296,M,00,0004*64
$GPHPD,0,0.000,244.19,0.38,-14.91,31.5923318,120.7729128,2.455,13630132.096,24921596.164,2.455,0.000,0.000,0.000,0.000,0.000,0.000,0.000,13,12,4*56
$GPGGA,032234.80,3135.5398907,N,12046.3747193,E,4,13,2.0,2.4535,M,8.296,M,00,0004*61
$GPHPD,0,0.000,244.35,-0.03,-14.87,31.5923315,120.7729120,2.454,13630132.261,24921595.659,2.454,0.000,0.000,0.000,0.000,0.000,0.000,0.000,13,12,4*7F
$GPGGA,032235.00,3135.5398711,N,12046.3746680,E,4,13,2.0,2.4476,M,8.296,M,01,0004*62
$GPHPD,0,0.000,244.26,0.18,-14.85,31.5923312,120.7729111,2.448,13630132.436,24921595.154,2.448,0.000,0.000,0.000,0.000,0.000,0.000,0.000,13,12,4*53
$GPGGA,032235.20,3135.5398517,N,12046.3746177,E,4,13,2.0,2.4422,M,8.296,M,01,0004*6A
$GPHPD,0,0.000,244.27,0.00,-14.83,31.5923309,120.7729103,2.442,13630132.611,24921594.661,2.442,0.000,0.000,0.000,0.000,0.000,0.000,0.000,13,12,4*53
$GPGGA,032235.40,3135.5398343,N,12046.3745728,E,4,13,2.0,2.4488,M,8.296,M,01,0004*64
$GPHPD,0,0.000,244.29,0.48,-14.82,31.5923306,120.7729095,2.449,13630132.768,24921594.221,2.449,0.000,0.000,0.000,0.000,0.000,0.000,0.000,13,12,4*5E
$GPGGA,032235.60,3135.5398135,N,12046.3745229,E,4,13,2.0,2.4473,M,8.296,M,00,0004*64
$GPHPD,0,0.000,244.38,0.02,-14.83,31.5923302,120.7729087,2.447,13630132.963,24921593.740,2.447,0.000,0.000,0.000,0.000,0.000,0.000,0.000,13,12,4*56
$GPGGA,032235.80,3135.5397944,N,12046.3744762,E,4,13,2.0,2.4360,M,8.296,M,00,0004*65
$GPHPD,0,0.000,244.36,0.45,-14.82,31.5923299,120.7729079,2.436,13630133.140,24921593.288,2.436,0.000,0.000,0.000,0.000,0.000,0.000,0.000,13,12,4*51
$GPGGA,032236.00,3135.5397752,N,12046.3744278,E,4,13,2.0,2.4542,M,8.296,M,01,0004*6E
$GPHPD,0,0.000,244.66,0.17,-14.80,31.5923296,120.7729071,2.454,13630133.316,24921592.817,2.454,0.000,0.000,0.000,0.000,0.000,0.000,0.000,13,12,4*5A
$GPGGA,032236.20,3135.5397589,N,12046.3743779,E,4,13,2.0,2.4468,M,8.296,M,01,0004*62
$GPHPD,0,0.000,244.65,0.18,-14.80,31.5923293,120.7729063,2.447,13630133.447,24921592.310,2.447,0.000,0.000,0.000,0.000,0.000,0.000,0.000,13,12,4*5F
$GPGGA,032236.40,3135.5397396,N,12046.3743256,E,4,13,2.0,2.4426,M,8.296,M,01,0004*6E
$GPHPD,0,0.000,244.90,0.13,-14.82,31.5923290,120.7729054,2.443,13630133.616,24921591.792,2.443,0.000,0.000,0.000,0.000,0.000,0.000,0.000,13,12,4*50
$GPGGA,032236.60,3135.5397163,N,12046.3742693,E,4,13,2.0,2.4463,M,8.296,M,00,0004*68
$GPHPD,0,0.000,244.96,0.40,-14.85,31.5923286,120.7729045,2.446,13630133.834,24921591.248,2.446,0.000,0.000,0.000,0.000,0.000,0.000,0.000,13,12,4*5C
$GPGGA,032236.80,3135.5396986,N,12046.3742121,E,4,13,2.0,2.4400,M,8.296,M,00,0004*6F
$GPHPD,0,0.000,245.20,0.34,-14.85,31.5923283,120.7729035,2.440,13630133.970,24921590.662,2.440,0.000,0.000,0.000,0.000,0.000,0.000,0.000,13,12,4*5D
$GPGGA,032237.00,3135.5396757,N,12046.3741582,E,4,13,2.0,2.4554,M,8.296,M,01,0004*6B
$GPHPD,0,0.000,245.28,0.70,-14.85,31.5923279,120.7729026,2.455,13630134.187,24921590.145,2.455,0.000,0.000,0.000,0.000,0.000,0.000,0.000,13,12,4*57
$GPGGA,032237.20,3135.5396537,N,12046.3741014,E,4,13,2.0,2.4570,M,8.296,M,01,0004*61
$GPHPD,0,0.000,245.40,0.40,-14.87,31.5923276,120.7729017,2.457,13630134.386,24921589.588,2.457,0.000,0.000,0.000,0.000,0.000,0.000,0.000,13,12,4*5B
$GPGGA,032237.40,3135.5396307,N,12046.3740441,E,4,13,2.0,2.4679,M,8.296,M,01,0004*6D
$GPHPD,0,0.000,245.62,0.16,-14.90,31.5923272,120.7729007,2.468,13630134.597,24921589.031,2.468,0.000,0.000,0.000,0.000,0.000,0.000,0.000,13,12,4*5A
$GPGGA,032237.60,3135.5396067,N,12046.3739803,E,4,13,2.0,2.4598,M,8.296,M,00,0004*63
$GPHPD,0,0.000,245.73,-0.12,-14.96,31.5923268,120.7728997,2.460,13630134.810,24921588.402,2.460,0.000,0.000,0.000,0.000,0.000,0.000,0.000,13,12,4*78
$GPGGA,032237.80,3135.5395834,N,12046.3739113,E,4,13,2.0,2.4666,M,8.296,M,00,0004*6A
$GPHPD,0,0.000,245.65,0.01,-14.98,31.5923264,120.7728985,2.467,13630135.002,24921587.706,2.467,0.000,0.000,0.000,0.000,0.000,0.000,0.000,13,12,4*53
$GPGGA,032238.00,3135.5395537,N,12046.3738401,E,4,13,2.0,2.4556,M,8.296,M,01,0004*65
$GPHPD,0,0.000,245.56,-0.33,-15.00,31.5923259,120.7728973,2.456,13630135.281,24921587.020,2.456,0.000,0.000,0.000,0.000,0.000,0.000,0.000,13,12,4*72
$GPGGA,032238.20,3135.5395251,N,12046.3737639,E,4,13,2.0,2.4471,M,8.296,M,01,0004*62
$GPHPD,0,0.000,245.55,-0.18,-15.03,31.5923254,120.7728961,2.447,13630135.534,24921586.268,2.447,0.000,0.000,0.000,0.000,0.000,0.000,0.000,13,12,4*73
$GPGGA,032238.40,3135.5394956,N,12046.3736829,E,4,13,2.0,2.4528,M,8.296,M,01,0004*6A
$GPHPD,0,0.000,245.18,0.41,-15.11,31.5923249,120.7728947,2.453,13630135.790,24921585.463,2.453,0.000,0.000,0.000,0.000,0.000,0.000,0.000,13,12,4*52
$GPGGA,032238.60,3135.5394622,N,12046.3735966,E,4,13,2.0,2.4445,M,8.296,M,01,0004*67
$GPHPD,0,0.000,245.15,0.13,-15.16,31.5923244,120.7728933,2.445,13630136.091,24921584.617,2.445,0.000,0.000,0.000,0.000,0.000,0.000,0.000,13,12,4*54
$GPGGA,032238.80,3135.5394257,N,12046.3735061,E,4,13,2.0,2.4363,M,8.296,M,01,0004*62
$GPHPD,0,0.000,245.30,-0.23,-15.17,31.5923238,120.7728918,2.436,13630136.428,24921583.738,2.436,0.000,0.000,0.000,0.000,0.000,0.000,0.000,13,12,4*73
$GPGGA,032239.00,3135.5393848,N,12046.3734162,E,4,13,2.0,2.4501,M,8.296,M,02,0004*6A
$GPHPD,0,0.000,245.05,0.21,-15.22,31.5923231,120.7728903,2.450,13630136.828,24921582.892,2.450,0.000,0.000,0.000,0.000,0.000,0.000,0.000,13,12,4*5D
$GPGGA,032239.20,3135.5393459,N,12046.3733106,E,4,13,2.0,2.4403,M,8.296,M,02,0004*62
$GPHPD,0,0.000,244.90,-0.02,-15.25,31.5923224,120.7728885,2.440,13630137.169,24921581.845,2.440,0.000,0.000,0.000,0.000,0.000,0.000,0.000,13,12,4*74
$GPGGA,032239.40,3135.5393054,N,12046.3732034,E,4,13,2.0,2.4390,M,8.296,M,02,0004*61
$GPHPD,0,0.000,244.69,0.52,-15.31,31.5923218,120.7728867,2.439,13630137.529,24921580.789,2.439,0.000,0.000,0.000,0.000,0.000,0.000,0.000,13,12,4*52
$GPGGA,032239.60,3135.5392605,N,12046.3730911,E,4,13,2.0,2.4466,M,8.296,M,02,0004*62
$GPHPD,0,0.000,244.64,0.21,-15.34,31.5923210,120.7728849,2.447,13630137.941,24921579.696,2.447,0.000,0.000,0.000,0.000,0.000,0.000,0.000,13,12,4*51
$GPGGA,032239.80,3135.5392132,N,12046.3729675,E,4,13,2.0,2.4315,M,8.296,M,00,0004*6B
$GPHPD,0,0.000,244.48,0.07,-15.41,31.5923202,120.7728828,2.432,13630138.364,24921578.481,2.432,0.000,0.000,0.000,0.000,0.000,0.000,0.000,13,12,4*5A
$GPGGA,032240.00,3135.5391639,N,12046.3728402,E,4,13,2.0,2.4513,M,8.296,M,01,0004*60
$GPHPD,0,0.000,244.28,0.47,-15.43,31.5923194,120.7728807,2.451,13630138.809,24921577.233,2.451,0.000,0.000,0.000,0.000,0.000,0.000,0.000,13,12,4*5B
$GPGGA,032240.20,3135.5391145,N,12046.3727074,E,4,13,2.0,2.4446,M,8.296,M,01,0004*65
$GPHPD,0,0.000,244.24,-0.62,-15.45,31.5923186,120.7728785,2.445,13630139.243,24921575.920,2.445,0.000,0.000,0.000,0.000,0.000,0.000,0.000,13,12,4*73
$GPGGA,032240.40,3135.5390593,N,12046.3725747,E,4,13,2.0,2.4455,M,8.296,M,01,0004*6A
$GPHPD,0,0.000,244.05,-0.11,-15.44,31.5923177,120.7728762,2.446,13630139.761,24921574.641,2.446,0.000,0.000,0.000,0.000,0.000,0.000,0.000,13,12,4*7E
$GPGGA,032240.60,3135.5389975,N,12046.3724341,E,4,13,2.0,2.4576,M,8.296,M,00,0004*66
$GPHPD,0,0.000,243.97,0.45,-15.37,31.5923166,120.7728739,2.458,13630140.356,24921573.305,2.458,0.000,0.000,0.000,0.000,0.000,0.000,0.000,13,12,4*58
$GPGGA,032240.80,3135.5389458,N,12046.3723045,E,4,13,2.0,2.4684,M,8.296,M,00,0004*64
$GPHPD,0,0.000,244.37,-0.45,-15.31,31.5923158,120.7728717,2.468,13630140.830,24921572.044,2.468,0.000,0.000,0.000,0.000,0.000,0.000,0.000,13,12,4*73
$GPGGA,032241.00,3135.5388949,N,12046.3721692,E,4,13,2.0,2.4587,M,8.296,M,01,0004*6E
$GPHPD,0,0.000,244.12,-0.52,-15.28,31.5923149,120.7728695,2.459,13630141.281,24921570.709,2.459,0.000,0.000,0.000,0.000,0.000,0.000,0.000,13,12,4*7C
$GPGGA,032241.20,3135.5388389,N,12046.3720421,E,4,13,2.0,2.4630,M,8.296,M,01,0004*6E
$GPHPD,0,0.000,243.59,0.10,-15.25,31.5923140,120.7728674,2.463,13630141.821,24921569.502,2.463,0.000,0.000,0.000,0.000,0.000,0.000,0.000,13,12,4*55
$GPGGA,032241.40,3135.5387864,N,12046.3719044,E,4,13,2.0,2.4437,M,8.296,M,01,0004*67
$GPHPD,0,0.000,243.43,-0.11,-15.18,31.5923131,120.7728651,2.444,13630142.290,24921568.148,2.444,0.000,0.000,0.000,0.000,0.000,0.000,0.000,13,12,4*75
$GPGGA,032241.60,3135.5387299,N,12046.3717806,E,4,13,2.0,2.4591,M,8.296,M,00,0004*61
$GPHPD,0,0.000,243.06,0.36,-15.11,31.5923122,120.7728630,2.459,13630142.844,24921566.984,2.459,0.000,0.000,0.000,0.000,0.000,0.000,0.000,13,12,4*55
$GPGGA,032241.80,3135.5386816,N,12046.3716576,E,4,13,2.0,2.4587,M,8.296,M,00,0004*6F
$GPHPD,0,0.000,242.90,0.57,-15.05,31.5923114,120.7728610,2.459,13630143.283,24921565.782,2.459,0.000,0.000,0.000,0.000,0.000,0.000,0.000,13,12,4*55
$GPGGA,032242.00,3135.5386279,N,12046.3715315,E,4,13,2.0,2.4582,M,8.296,M,01,0004*63
$GPHPD,0,0.000,242.77,0.29,-15.03,31.5923105,120.7728589,2.458,13630143.793,24921564.574,2.458,0.000,0.000,0.000,0.000,0.000,0.000,0.000,13,12,4*5E
$GPGGA,032242.20,3135.5385775,N,12046.3714107,E,4,13,2.0,2.4543,M,8.296,M,01,0004*66
$GPHPD,0,0.000,242.99,0.37,-15.03,31.5923096,120.7728568,2.454,13630144.266,24921563.411,2.454,0.000,0.000,0.000,0.000,0.000,0.000,0.000,13,12,4*58
$GPGGA,032242.40,3135.5385247,N,12046.3712892,E,4,13,2.0,2.4513,M,8.296,M,01,0004*62
$GPHPD,0,0.000,242.60,0.35,-15.03,31.5923087,120.7728548,2.451,13630144.772,24921562.254,2.451,0.000,0.000,0.000,0.000,0.000,0.000,0.000,13,12,4*58
$GPGGA,032242.60,3135.5384708,N,12046.3711687,E,4,13,2.0,2.4596,M,8.296,M,00,0004*6A
$GPHPD,0,0.000,243.07,0.36,-15.04,31.5923078,120.7728528,2.460,13630145.295,24921561.114,2.460,0.000,0.000,0.000,0.000,0.000,0.000,0.000,13,12,4*53
$GPGGA,032242.80,3135.5384133,N,12046.3710483,E,4,13,2.0,2.4624,M,8.296,M,00,0004*67
$GPHPD,0,0.000,242.71,0.36,-15.00,31.5923069,120.7728508,2.462,13630145.870,24921559.997,2.462,0.000,0.000,0.000,0.000,0.000,0.000,0.000,13,12,4*5C
$GPGGA,032243.00,3135.5383601,N,12046.3709305,E,4,13,2.0,2.4631,M,8.296,M,01,0004*6B
$GPHPD,0,0.000,242.65,0.33,-14.99,31.5923060,120.7728488,2.463,13630146.389,24921558.887,2.463,0.000,0.000,0.000,0.000,0.000,0.000,0.000,13,12,4*52
$GPGGA,032243.20,3135.5383056,N,12046.3708138,E,4,13,2.0,2.4722,M,8.296,M,01,0004*63
$GPHPD,0,0.000,242.86,-0.06,-14.99,31.5923051,120.7728469,2.472,13630146.929,24921557.797,2.472,0.000,0.000,0.000,0.000,0.000,0.000,0.000,13,12,4*78
$GPGGA,032243.40,3135.5382509,N,12046.3706840,E,4,13,2.0,2.4365,M,8.296,M,01,0004*64
$GPHPD,0,0.000,243.18,-0.75,-15.02,31.5923042,120.7728447,2.437,13630147.445,24921556.550,2.437,0.000,0.000,0.000,0.000,0.000,0.000,0.000,13,12,4*79
$GPGGA,032243.60,3135.5381951,N,12046.3705616,E,4,13,2.0,2.4484,M,8.296,M,00,0004*63
$GPHPD,0,0.000,242.62,0.43,-15.03,31.5923033,120.7728427,2.448,13630147.992,24921555.399,2.448,0.000,0.000,0.000,0.000,0.000,0.000,0.000,13,12,4*5B
$GPGGA,032243.80,3135.5381458,N,12046.3704318,E,4,13,2.0,2.4406,M,8.296,M,00,0004*69
$GPHPD,0,0.000,242.66,-0.05,-15.05,31.5923024,120.7728405,2.441,13630148.431,24921554.121,2.441,0.000,0.000,0.000,0.000,0.000,0.000,0.000,13,12,4*7B
$GPGGA,032244.00,3135.5380930,N,12046.3702986,E,4,13,2.0,2.4451,M,8.296,M,01,0004*6C
$GPHPD,0,0.000,242.12,1.23,-15.06,31.5923016,120.7728383,2.445,13630148.913,24921552.823,2.445,0.000,0.000,0.000,0.000,0.000,0.000,0.000,13,12,4*5B
$GPGGA,032244.20,3135.5380360,N,12046.3701731,E,4,13,2.0,2.4514,M,8.296,M,01,0004*60
$GPHPD,0,0.000,241.76,0.26,-15.05,31.5923006,120.7728362,2.451,13630149.471,24921551.641,2.451,0.000,0.000,0.000,0.000,0.000,0.000,0.000,13,12,4*52
$GPGGA,032244.40,3135.5379797,N,12046.3700337,E,4,13,2.0,2.4412,M,8.296,M,01,0004*68
$GPHPD,0,0.000,242.02,-0.08,-15.09,31.5922997,120.7728339,2.441,13630149.990,24921550.288,2.441,0.000,0.000,0.000,0.000,0.000,0.000,0.000,13,12,4*73
$GPGGA,032244.60,3135.5379264,N,12046.3699022,E,4,13,2.0,2.4467,M,8.296,M,00,0004*66
$GPHPD,0,0.000,241.72,0.08,-15.10,31.5922988,120.7728317,2.447,13630150.483,24921549.013,2.447,0.000,0.000,0.000,0.000,0.000,0.000,0.000,13,12,4*5F
$GPGGA,032244.80,3135.5378676,N,12046.3697695,E,4,13,2.0,2.4536,M,8.296,M,00,0004*6F
$GPHPD,0,0.000,241.78,0.56,-15.08,31.5922978,120.7728295,2.454,13630151.052,24921547.755,2.454,0.000,0.000,0.000,0.000,0.000,0.000,0.000,13,12,4*51
$GPGGA,032245.00,3135.5377997,N,12046.3696369,E,4,13,2.0,2.4686,M,8.296,M,01,0004*67
$GPHPD,0,0.000,241.93,-0.85,-15.01,31.5922967,120.7728273,2.469,13630151.750,24921546.552,2.469,0.000,0.000,0.000,0.000,0.000,0.000,0.000,13,12,4*79
$GPGGA,032245.20,3135.5377410,N,12046.3694981,E,4,13,2.0,2.4640,M,8.296,M,01,0004*63
$GPHPD,0,0.000,242.04,-0.24,-15.00,31.5922957,120.7728250,2.464,13630152.305,24921545.220,2.464,0.000,0.000,0.000,0.000,0.000,0.000,0.000,13,12,4*7A
$GPGGA,032245.40,3135.5376763,N,12046.3693623,E,4,13,2.0,2.4595,M,8.296,M,01,0004*68
$GPHPD,0,0.000,242.08,-0.29,-15.04,31.5922946,120.7728227,2.460,13630152.951,24921543.959,2.460,0.000,0.000,0.000,0.000,0.000,0.000,0.000,13,12,4*77
$GPGGA,032245.60,3135.5376172,N,12046.3692262,E,4,13,2.0,2.4604,M,8.296,M,00,0004*66
$GPHPD,0,0.000,242.59,-0.57,-15.02,31.5922936,120.7728204,2.460,13630153.517,24921542.662,2.460,0.000,0.000,0.000,0.000,0.000,0.000,0.000,13,12,4*73
$GPGGA,032245.80,3135.5375561,N,12046.3690864,E,4,13,2.0,2.4559,M,8.296,M,00,0004*68
$GPHPD,0,0.000,242.24,-0.33,-14.98,31.5922926,120.7728181,2.456,13630154.104,24921541.332,2.456,0.000,0.000,0.000,0.000,0.000,0.000,0.000,13,12,4*74
$GPGGA,032246.00,3135.5374963,N,12046.3689480,E,4,13,2.0,2.4609,M,8.296,M,01,0004*65
$GPHPD,0,0.000,241.81,-0.68,-15.00,31.5922916,120.7728158,2.461,13630154.676,24921540.012,2.461,0.000,0.000,0.000,0.000,0.000,0.000,0.000,13,12,4*73
$GPGGA,032246.20,3135.5374298,N,12046.3688024,E,4,13,2.0,2.4519,M,8.296,M,01,0004*61
$GPHPD,0,0.000,241.38,0.34,-15.01,31.5922905,120.7728134,2.452,13630155.328,24921538.643,2.452,0.000,0.000,0.000,0.000,0.000,0.000,0.000,13,12,4*5E
$GPGGA,032246.40,3135.5373667,N,12046.3686599,E,4,13,2.0,2.4561,M,8.296,M,01,0004*66
$GPHPD,0,0.000,241.77,-0.25,-15.04,31.5922894,120.7728110,2.456,13630155.938,24921537.293,2.456,0.000,0.000,0.000,0.000,0.000,0.000,0.000,13,12,4*7F
$GPGGA,032246.60,3135.5373036,N,12046.3685099,E,4,13,2.0,2.4464,M,8.296,M,00,0004*65
$GPHPD,0,0.000,241.49,-0.52,-15.02,31.5922884,120.7728085,2.446,13630156.533,24921535.851,2.446,0.000,0.000,0.000,0.000,0.000,0.000,0.000,13,12,4*7A
$GPGGA,032246.80,3135.5372357,N,12046.3683640,E,4,13,2.0,2.4624,M,8.296,M,00,0004*6C
$GPHPD,0,0.000,240.98,-0.12,-15.01,31.5922873,120.7728061,2.462,13630157.204,24921534.487,2.462,0.000,0.000,0.000,0.000,0.000,0.000,0.000,13,12,4*76
$GPGGA,032247.00,3135.5371683,N,12046.3682205,E,4,13,2.0,2.4560,M,8.296,M,01,0004*6C
$GPHPD,0,0.000,241.03,-0.35,-15.01,31.5922861,120.7728037,2.456,13630157.873,24921533.149,2.456,0.000,0.000,0.000,0.000,0.000,0.000,0.000,13,12,4*7A
$GPGGA,032247.20,3135.5371019,N,12046.3680762,E,4,13,2.0,2.4689,M,8.296,M,01,0004*69
$GPHPD,0,0.000,241.01,1.08,-15.02,31.5922850,120.7728013,2.469,13630158.526,24921531.796,2.469,0.000,0.000,0.000,0.000,0.000,0.000,0.000,13,12,4*59
$GPGGA,032247.40,3135.5370385,N,12046.3679263,E,4,13,2.0,2.4537,M,8.296,M,01,0004*6C
$GPHPD,0,0.000,241.28,-0.13,-15.00,31.5922840,120.7727988,2.454,13630159.126,24921530.358,2.454,0.000,0.000,0.000,0.000,0.000,0.000,0.000,13,12,4*71
$GPGGA,032247.60,3135.5369707,N,12046.3677785,E,4,13,2.0,2.4541,M,8.296,M,00,0004*6B
$GPHPD,0,0.000,240.92,0.59,-15.00,31.5922828,120.7727963,2.454,13630159.792,24921528.970,2.454,0.000,0.000,0.000,0.000,0.000,0.000,0.000,13,12,4*59
$GPGGA,032247.80,3135.5369018,N,12046.3676325,E,4,13,2.0,2.4518,M,8.296,M,00,0004*6F
$GPHPD,0,0.000,241.21,0.33,-15.00,31.5922817,120.7727939,2.452,13630160.477,24921527.611,2.452,0.000,0.000,0.000,0.000,0.000,0.000,0.000,13,12,4*5A
$GPGGA,032248.00,3135.5368327,N,12046.3674821,E,4,13,2.0,2.4411,M,8.296,M,01,0004*62
$GPHPD,0,0.000,241.75,0.27,-15.01,31.5922805,120.7727914,2.441,13630161.157,24921526.200,2.441,0.000,0.000,0.000,0.000,0.000,0.000,0.000,13,12,4*50
$GPGGA,032248.20,3135.5367634,N,12046.3673351,E,4,13,2.0,2.4660,M,8.296,M,01,0004*67
$GPHPD,0,0.000,241.78,0.53,-15.00,31.5922794,120.7727889,2.466,13630161.846,24921524.831,2.466,0.000,0.000,0.000,0.000,0.000,0.000,0.000,13,12,4*5E
$GPGGA,032248.40,3135.5366989,N,12046.3671834,E,4,13,2.0,2.4271,M,8.296,M,01,0004*67
$GPHPD,0,0.000,241.98,-0.16,-14.99,31.5922783,120.7727864,2.427,13630162.457,24921523.377,2.427,0.000,0.000,0.000,0.000,0.000,0.000,0.000,13,12,4*79
$GPGGA,032248.60,3135.5366300,N,12046.3670406,E,4,13,2.0,2.4522,M,8.296,M,00,0004*62
$GPHPD,0,0.000,241.30,1.19,-14.99,31.5922772,120.7727840,2.452,13630163.149,24921522.057,2.452,0.000,0.000,0.000,0.000,0.000,0.000,0.000,13,12,4*5B
$GPGGA,032248.80,3135.5365650,N,12046.3668904,E,4,13,2.0,2.4532,M,8.296,M,00,0004*68
$GPHPD,0,0.000,242.18,-0.57,-15.03,31.5922761,120.7727815,2.453,13630163.770,24921520.624,2.453,0.000,0.000,0.000,0.000,0.000,0.000,0.000,13,12,4*78
$GPGGA,032249.00,3135.5364987,N,12046.3667420,E,4,13,2.0,2.4541,M,8.296,M,01,0004*64
$GPHPD,0,0.000,242.12,-0.44,-15.01,31.5922750,120.7727790,2.454,13630164.414,24921519.221,2.454,0.000,0.000,0.000,0.000,0.000,0.000,0.000,13,12,4*7F
$GPGGA,032249.20,3135.5364373,N,12046.3665922,E,4,13,2.0,2.4517,M,8.296,M,01,0004*69
$GPHPD,0,0.000,242.33,0.73,-15.01,31.5922740,120.7727765,2.452,13630164.985,24921517.772,2.452,0.000,0.000,0.000,0.000,0.000,0.000,0.000,13,12,4*56
$GPGGA,032249.40,3135.5363712,N,12046.3664384,E,4,13,2.0,2.4535,M,8.296,M,01,0004*6C
$GPHPD,0,0.000,241.76,0.49,-15.01,31.5922729,120.7727740,2.454,13630165.615,24921516.302,2.454,0.000,0.000,0.000,0.000,0.000,0.000,0.000,13,12,4*50
$GPGGA,032249.60,3135.5362989,N,12046.3662869,E,4,13,2.0,2.4500,M,8.296,M,00,0004*6A
$GPHPD,0,0.000,241.76,-0.18,-15.02,31.5922716,120.7727714,2.450,13630166.338,24921514.897,2.450,0.000,0.000,0.000,0.000,0.000,0.000,0.000,13,12,4*7B
$GPGGA,032249.80,3135.5362377,N,12046.3661383,E,4,13,2.0,2.4455,M,8.296,M,00,0004*62
$GPHPD,0,0.000,242.48,-0.40,-15.00,31.5922706,120.7727690,2.446,13630166.908,24921513.461,2.446,0.000,0.000,0.000,0.000,0.000,0.000,0.000,13,12,4*7D
$GPGGA,032250.00,3135.5361699,N,12046.3659904,E,4,13,2.0,2.4412,M,8.296,M,01,0004*68
$GPHPD,0,0.000,242.04,-0.02,-15.01,31.5922695,120.7727665,2.441,13630167.574,24921512.073,2.441,0.000,0.000,0.000,0.000,0.000,0.000,0.000,13,12,4*73
$GPGGA,032250.20,3135.5361053,N,12046.3658427,E,4,13,2.0,2.4596,M,8.296,M,01,0004*6A
$GPHPD,0,0.000,242.29,0.07,-15.01,31.5922684,120.7727640,2.460,13630168.195,24921510.668,2.460,0.000,0.000,0.000,0.000,0.000,0.000,0.000,13,12,4*59
$GPGGA,032250.40,3135.5360447,N,12046.3656981,E,4,13,2.0,2.4657,M,8.296,M,01,0004*6D
$GPHPD,0,0.000,242.40,-0.65,-15.00,31.5922674,120.7727616,2.466,13630168.765,24921509.277,2.466,0.000,0.000,0.000,0.000,0.000,0.000,0.000,13,12,4*79
$GPGGA,032250.60,3135.5359859,N,12046.3655539,E,4,13,2.0,2.4395,M,8.296,M,00,0004*60
$GPHPD,0,0.000,242.61,-1.25,-15.03,31.5922664,120.7727592,2.440,13630169.311,24921507.881,2.440,0.000,0.000,0.000,0.000,0.000,0.000,0.000,13,12,4*79
$GPGGA,032250.80,3135.5359242,N,12046.3654094,E,4,13,2.0,2.4545,M,8.296,M,00,0004*66
$GPHPD,0,0.000,242.56,-0.73,-15.03,31.5922654,120.7727568,2.455,13630169.897,24921506.498,2.455,0.000,0.000,0.000,0.000,0.000,0.000,0.000,13,12,4*79
$GPGGA,032251.00,3135.5358595,N,12046.3652620,E,4,13,2.0,2.4480,M,8.296,M,01,0004*65
$GPHPD,0,0.000,242.39,-0.50,-15.01,31.5922643,120.7727544,2.448,13630170.520,24921505.097,2.448,0.000,0.000,0.000,0.000,0.000,0.000,0.000,13,12,4*7A
$GPGGA,032251.20,3135.5357991,N,12046.3651159,E,4,13,2.0,2.4461,M,8.296,M,01,0004*65
$GPHPD,0,0.000,242.46,-1.14,-14.99,31.5922633,120.7727519,2.446,13630171.084,24921503.687,2.446,0.000,0.000,0.000,0.000,0.000,0.000,0.000,13,12,4*77
$GPGGA,032251.40,3135.5357349,N,12046.3649737,E,4,13,2.0,2.4530,M,8.296,M,01,0004*6E
$GPHPD,0,0.000,242.43,-0.49,-14.96,31.5922622,120.7727496,2.453,13630171.710,24921502.346,2.453,0.000,0.000,0.000,0.000,0.000,0.000,0.000,13,12,4*71
$GPGGA,032251.60,3135.5356728,N,12046.3648255,E,4,13,2.0,2.4376,M,8.296,M,00,0004*6B
$GPHPD,0,0.000,242.35,-0.19,-14.95,31.5922612,120.7727471,2.438,13630172.295,24921500.921,2.438,0.000,0.000,0.000,0.000,0.000,0.000,0.000,13,12,4*7E
$GPGGA,032251.80,3135.5356074,N,12046.3646791,E,4,13,2.0,2.4391,M,8.296,M,00,0004*61
$GPHPD,0,0.000,242.40,-0.53,-14.92,31.5922601,120.7727447,2.439,13630172.930,24921499.536,2.439,0.000,0.000,0.000,0.000,0.000,0.000,0.000,13,12,4*7D
$GPGGA,032252.00,3135.5355421,N,12046.3645316,E,4,13,2.0,2.4376,M,8.296,M,01,0004*6D
$GPHPD,0,0.000,242.05,0.69,-14.89,31.5922590,120.7727422,2.438,13630173.561,24921498.138,2.438,0.000,0.000,0.000,0.000,0.000,0.000,0.000,13,12,4*58
$GPGGA,032252.20,3135.5354804,N,12046.3643875,E,4,13,2.0,2.4440,M,8.296,M,01,0004*6F
$GPHPD,0,0.000,242.27,0.12,-14.90,31.5922580,120.7727398,2.444,13630174.148,24921496.760,2.444,0.000,0.000,0.000,0.000,0.000,0.000,0.000,13,12,4*56
$GPGGA,032252.40,3135.5354175,N,12046.3642412,E,4,13,2.0,2.4466,M,8.296,M,01,0004*6E
$GPHPD,0,0.000,242.22,-0.34,-14.89,31.5922570,120.7727374,2.447,13630174.747,24921495.362,2.447,0.000,0.000,0.000,0.000,0.000,0.000,0.000,13,12,4*73
$GPGGA,032252.60,3135.5353537,N,12046.3640906,E,4,13,2.0,2.4405,M,8.296,M,00,0004*67
$GPHPD,0,0.000,242.16,0.10,-14.90,31.5922559,120.7727348,2.441,13630175.351,24921493.918,2.441,0.000,0.000,0.000,0.000,0.000,0.000,0.000,13,12,4*50
$GPGGA,032252.80,3135.5352874,N,12046.3639440,E,4,13,2.0,2.4379,M,8.296,M,00,0004*6F
$GPHPD,0,0.000,241.97,0.98,-14.87,31.5922548,120.7727324,2.438,13630175.998,24921492.536,2.438,0.000,0.000,0.000,0.000,0.000,0.000,0.000,13,12,4*58
$GPGGA,032253.00,3135.5352238,N,12046.3637966,E,4,13,2.0,2.4527,M,8.296,M,01,0004*6F
$GPHPD,0,0.000,242.31,-0.09,-14.88,31.5922537,120.7727299,2.453,13630176.605,24921491.129,2.453,0.000,0.000,0.000,0.000,0.000,0.000,0.000,13,12,4*73
$GPGGA,032253.20,3135.5351571,N,12046.3636502,E,4,13,2.0,2.4322,M,8.296,M,01,0004*68
$GPHPD,0,0.000,242.07,-0.10,-14.92,31.5922526,120.7727275,2.432,13630177.259,24921489.752,2.432,0.000,0.000,0.000,0.000,0.000,0.000,0.000,13,12,4*78
$GPGGA,032253.40,3135.5350919,N,12046.3635075,E,4,13,2.0,2.4247,M,8.296,M,01,0004*69
$GPHPD,0,0.000,241.81,0.77,-14.95,31.5922515,120.7727251,2.425,13630177.898,24921488.411,2.425,0.000,0.000,0.000,0.000,0.000,0.000,0.000,13,12,4*5A
$GPGGA,032253.60,3135.5350272,N,12046.3633660,E,4,13,2.0,2.4490,M,8.295,M,00,0004*67
$GPHPD,0,0.000,241.81,1.52,-14.98,31.5922505,120.7727228,2.449,13630178.533,24921487.082,2.449,0.000,0.000,0.000,0.000,0.000,0.000,0.000,13,12,4*5C
$GPGGA,032253.80,3135.5349647,N,12046.3632205,E,4,13,2.0,2.4450,M,8.295,M,00,0004*69
$GPHPD,0,0.000,241.91,0.52,-15.01,31.5922494,120.7727203,2.445,13630179.128,24921485.691,2.445,0.000,0.000,0.000,0.000,0.000,0.000,0.000,13,12,4*54
$GPGGA,032254.00,3135.5349047,N,12046.3630700,E,4,13,2.0,2.4322,M,8.295,M,01,0004*61
$GPHPD,0,0.000,242.15,0.44,-15.00,31.5922484,120.7727178,2.432,13630179.678,24921484.226,2.432,0.000,0.000,0.000,0.000,0.000,0.000,0.000,13,12,4*58
$GPGGA,032254.20,3135.5348352,N,12046.3629187,E,4,13,2.0,2.4523,M,8.295,M,01,0004*63
$GPHPD,0,0.000,241.75,0.87,-14.98,31.5922473,120.7727153,2.452,13630180.361,24921482.806,2.452,0.000,0.000,0.000,0.000,0.000,0.000,0.000,13,12,4*56
$GPGGA,032254.40,3135.5347705,N,12046.3627638,E,4,13,2.0,2.4415,M,8.295,M,01,0004*65
$GPHPD,0,0.000,242.18,0.46,-14.88,31.5922462,120.7727127,2.442,13630180.969,24921481.315,2.442,0.000,0.000,0.000,0.000,0.000,0.000,0.000,13,12,4*59
$GPGGA,032254.60,3135.5347061,N,12046.3626146,E,4,13,2.0,2.4485,M,8.295,M,00,0004*65
$GPHPD,0,0.000,242.32,0.11,-14.85,31.5922451,120.7727102,2.449,13630181.584,24921479.891,2.449,0.000,0.000,0.000,0.000,0.000,0.000,0.000,13,12,4*57
$GPGGA,032254.80,3135.5346383,N,12046.3624617,E,4,13,2.0,2.4560,M,8.295,M,00,0004*6E
$GPHPD,0,0.000,242.88,-0.31,-14.82,31.5922440,120.7727077,2.456,13630182.240,24921478.442,2.456,0.000,0.000,0.000,0.000,0.000,0.000,0.000,13,12,4*72
$GPGGA,032255.00,3135.5345749,N,12046.3623094,E,4,13,2.0,2.4594,M,8.295,M,01,0004*66
$GPHPD,0,0.000,243.04,-0.10,-14.79,31.5922429,120.7727052,2.459,13630182.834,24921476.975,2.459,0.000,0.000,0.000,0.000,0.000,0.000,0.000,13,12,4*76
$GPGGA,032255.20,3135.5345090,N,12046.3621565,E,4,13,2.0,2.4587,M,8.295,M,01,0004*6C
$GPHPD,0,0.000,242.99,-0.01,-14.72,31.5922418,120.7727026,2.459,13630183.463,24921475.515,2.459,0.000,0.000,0.000,0.000,0.000,0.000,0.000,13,12,4*7F
$GPGGA,032255.40,3135.5344483,N,12046.3620064,E,4,13,2.0,2.4704,M,8.295,M,01,0004*61
$GPHPD,0,0.000,243.18,-0.46,-14.64,31.5922408,120.7727001,2.470,13630184.024,24921474.059,2.470,0.000,0.000,0.000,0.000,0.000,0.000,0.000,13,12,4*7B
$GPGGA,032255.60,3135.5343859,N,12046.3618566,E,4,13,2.0,2.4686,M,8.295,M,00,0004*69
$GPHPD,0,0.000,243.38,-0.97,-14.62,31.5922398,120.7726976,2.469,13630184.609,24921472.616,2.469,0.000,0.000,0.000,0.000,0.000,0.000,0.000,13,12,4*77
$GPGGA,032255.80,3135.5343227,N,12046.3617011,E,4,13,2.0,2.4621,M,8.295,M,00,0004*63
$GPHPD,0,0.000,243.29,-0.56,-14.55,31.5922387,120.7726950,2.462,13630185.194,24921471.109,2.462,0.000,0.000,0.000,0.000,0.000,0.000,0.000,13,12,4*7C
$GPGGA,032256.00,3135.5342631,N,12046.3615499,E,4,13,2.0,2.4536,M,8.295,M,01,0004*68
$GPHPD,0,0.000,243.58,-0.89,-14.58,31.5922377,120.7726925,2.454,13630185.737,24921469.633,2.454,0.000,0.000,0.000,0.000,0.000,0.000,0.000,13,12,4*70
$GPGGA,032256.20,3135.5341970,N,12046.3613982,E,4,13,2.0,2.4561,M,8.295,M,01,0004*60
$GPHPD,0,0.000,243.18,-0.45,-14.61,31.5922366,120.7726900,2.456,13630186.371,24921468.188,2.456,0.000,0.000,0.000,0.000,0.000,0.000,0.000,13,12,4*7A
$GPGGA,032256.40,3135.5341336,N,12046.3612444,E,4,13,2.0,2.4441,M,8.295,M,01,0004*6B
$GPHPD,0,0.000,243.20,-0.58,-14.64,31.5922356,120.7726874,2.444,13630186.963,24921466.703,2.444,0.000,0.000,0.000,0.000,0.000,0.000,0.000,13,12,4*7B
$GPGGA,032256.60,3135.5340682,N,12046.3610931,E,4,13,2.0,2.4448,M,8.295,M,00,0004*67
$GPHPD,0,0.000,243.12,-0.33,-14.68,31.5922345,120.7726849,2.445,13630187.588,24921465.259,2.445,0.000,0.000,0.000,0.000,0.000,0.000,0.000,13,12,4*76
$GPGGA,032256.80,3135.5340028,N,12046.3609410,E,4,13,2.0,2.4492,M,8.295,M,00,0004*6E
$GPHPD,0,0.000,243.17,-0.26,-14.69,31.5922334,120.7726824,2.449,13630188.211,24921463.806,2.449,0.000,0.000,0.000,0.000,0.000,0.000,0.000,13,12,4*75
$GPGGA,032257.00,3135.5339394,N,12046.3607862,E,4,13,2.0,2.4297,M,8.295,M,01,0004*68
$GPHPD,0,0.000,243.03,0.22,-14.74,31.5922323,120.7726798,2.430,13630188.801,24921462.309,2.430,0.000,0.000,0.000,0.000,0.000,0.000,0.000,13,12,4*55
$GPGGA,032257.20,3135.5338750,N,12046.3606326,E,4,13,2.0,2.4379,M,8.295,M,01,0004*6C
$GPHPD,0,0.000,242.84,0.34,-14.76,31.5922313,120.7726772,2.438,13630189.407,24921460.832,2.438,0.000,0.000,0.000,0.000,0.000,0.000,0.000,13,12,4*53
$GPGGA,032257.40,3135.5338146,N,12046.3604834,E,4,13,2.0,2.4430,M,8.295,M,01,0004*6B
$GPHPD,0,0.000,242.83,0.10,-14.79,31.5922302,120.7726747,2.443,13630189.965,24921459.384,2.443,0.000,0.000,0.000,0.000,0.000,0.000,0.000,13,12,4*5E
$GPGGA,032257.60,3135.5337506,N,12046.3603342,E,4,13,2.0,2.4446,M,8.295,M,00,0004*6B
$GPHPD,0,0.000,242.89,0.37,-14.79,31.5922292,120.7726722,2.445,13630190.574,24921457.958,2.445,0.000,0.000,0.000,0.000,0.000,0.000,0.000,13,12,4*5B
$GPGGA,032257.80,3135.5336864,N,12046.3601858,E,4,13,2.0,2.4344,M,8.295,M,00,0004*6A
$GPHPD,0,0.000,242.93,0.17,-14.82,31.5922281,120.7726698,2.434,13630191.188,24921456.542,2.434,0.000,0.000,0.000,0.000,0.000,0.000,0.000,13,12,4*54
$GPGGA,032258.00,3135.5336206,N,12046.3600357,E,4,13,2.0,2.4412,M,8.295,M,01,0004*63
$GPHPD,0,0.000,243.04,0.44,-14.86,31.5922270,120.7726673,2.441,13630191.821,24921455.116,2.441,0.000,0.000,0.000,0.000,0.000,0.000,0.000,13,12,4*5E
$GPGGA,032258.20,3135.5335569,N,12046.3598865,E,4,13,2.0,2.4416,M,8.295,M,01,0004*60
$GPHPD,0,0.000,242.86,0.04,-14.86,31.5922259,120.7726648,2.442,13630192.426,24921453.688,2.442,0.000,0.000,0.000,0.000,0.000,0.000,0.000,13,12,4*5C
$GPGGA,032258.40,3135.5334939,N,12046.3597388,E,4,13,2.0,2.4437,M,8.295,M,01,0004*6A
$GPHPD,0,0.000,243.03,-0.19,-14.87,31.5922249,120.7726623,2.444,13630193.024,24921452.273,2.444,0.000,0.000,0.000,0.000,0.000,0.000,0.000,13,12,4*7A
$GPGGA,032258.60,3135.5334300,N,12046.3595951,E,4,13,2.0,2.4503,M,8.295,M,00,0004*63
$GPHPD,0,0.000,242.85,-0.22,-14.87,31.5922238,120.7726599,2.450,13630193.643,24921450.913,2.450,0.000,0.000,0.000,0.000,0.000,0.000,0.000,13,12,4*71
$GPGGA,032258.80,3135.5333696,N,12046.3594454,E,4,13,2.0,2.4479,M,8.295,M,00,0004*65
$GPHPD,0,0.000,242.98,-0.17,-14.86,31.5922228,120.7726574,2.448,13630194.200,24921449.459,2.448,0.000,0.000,0.000,0.000,0.000,0.000,0.000,13,12,4*77
$GPGGA,032259.00,3135.5333085,N,12046.3592987,E,4,13,2.0,2.4473,M,8.295,M,01,0004*66
$GPHPD,0,0.000,242.77,-0.55,-14.81,31.5922218,120.7726550,2.447,13630194.773,24921448.046,2.447,0.000,0.000,0.000,0.000,0.000,0.000,0.000,13,12,4*78
$GPGGA,032259.20,3135.5332432,N,12046.3591549,E,4,13,2.0,2.4397,M,8.295,M,01,0004*6D
$GPHPD,0,0.000,242.80,-0.50,-14.76,31.5922207,120.7726526,2.440,13630195.412,24921446.693,2.440,0.000,0.000,0.000,0.000,0.000,0.000,0.000,13,12,4*77
$GPGGA,032259.40,3135.5331833,N,12046.3590047,E,4,13,2.0,2.4331,M,8.295,M,01,0004*63
$GPHPD,0,0.000,242.97,-0.02,-14.75,31.5922197,120.7726501,2.433,13630195.961,24921445.230,2.433,0.000,0.000,0.000,0.000,0.000,0.000,0.000,13,12,4*7D
$GPGGA,032259.60,3135.5331191,N,12046.3588635,E,4,13,2.0,2.4348,M,8.295,M,00,0004*65
$GPHPD,0,0.000,242.63,0.17,-14.72,31.5922187,120.7726477,2.435,13630196.589,24921443.902,2.435,0.000,0.000,0.000,0.000,0.000,0.000,0.000,13,12,4*5C
$GPGGA,032259.80,3135.5330597,N,12046.3587164,E,4,13,2.0,2.4370,M,8.295,M,00,0004*6F
$GPHPD,0,0.000,242.63,0.24,-14.79,31.5922177,120.7726453,2.437,13630197.137,24921442.474,2.437,0.000,0.000,0.000,0.000,0.000,0.000,0.000,13,12,4*53
$GPGGA,032300.00,3135.5329981,N,12046.3585712,E,4,13,2.0,2.4248,M,8.295,M,01,0004*67
$GPHPD,0,0.000,242.46,0.22,-14.80,31.5922166,120.7726429,2.425,13630197.721,24921441.082,2.425,0.000,0.000,0.000,0.000,0.000,0.000,0.000,13,12,4*56
$GPGGA,032300.20,3135.5329341,N,12046.3584288,E,4,14,2.0,2.4306,M,8.295,M,01,0004*68
$GPHPD,0,0.000,242.63,0.58,-14.78,31.5922156,120.7726405,2.431,13630198.344,24921439.737,2.431,0.000,0.000,0.000,0.000,0.000,0.000,0.000,14,12,4*5F
$GPGGA,032300.40,3135.5328751,N,12046.3582814,E,4,14,1.5,2.4306,M,8.295,M,01,0004*65
$GPHPD,0,0.000,242.24,0.91,-14.77,31.5922146,120.7726380,2.431,13630198.886,24921438.303,2.431,0.000,0.000,0.000,0.000,0.000,0.000,0.000,14,13,4*5B
$GPGGA,032300.60,3135.5328113,N,12046.3581373,E,4,14,1.5,2.4317,M,8.295,M,00,0004*6F
$GPHPD,0,0.000,242.01,-0.03,-14.77,31.5922135,120.7726356,2.432,13630199.502,24921436.937,2.432,0.000,0.000,0.000,0.000,0.000,0.000,0.000,14,13,4*76
$GPGGA,032300.80,3135.5327471,N,12046.3579942,E,4,14,1.5,2.4534,M,8.295,M,00,0004*67
$GPHPD,0,0.000,242.12,0.14,-14.79,31.5922125,120.7726332,2.453,13630200.127,24921435.586,2.453,0.000,0.000,0.000,0.000,0.000,0.000,0.000,14,13,4*57
$GPGGA,032301.00,3135.5326874,N,12046.3578522,E,4,14,1.5,2.4499,M,8.295,M,01,0004*6A
$GPHPD,0,0.000,241.71,0.35,-14.77,31.5922115,120.7726309,2.450,13630200.689,24921434.221,2.450,0.000,0.000,0.000,0.000,0.000,0.000,0.000,14,13,4*5F
$GPGGA,032301.20,3135.5326242,N,12046.3577066,E,4,14,1.5,2.4497,M,8.295,M,01,0004*63
$GPHPD,0,0.000,242.17,-0.21,-14.78,31.5922104,120.7726284,2.450,13630201.295,24921432.833,2.450,0.000,0.000,0.000,0.000,0.000,0.000,0.000,14,13,4*78
$GPGGA,032301.40,3135.5325582,N,12046.3575643,E,4,14,1.5,2.4382,M,8.295,M,01,0004*6D
$GPHPD,0,0.000,242.08,0.59,-14.87,31.5922093,120.7726261,2.438,13630201.946,24921431.502,2.438,0.000,0.000,0.000,0.000,0.000,0.000,0.000,14,13,4*59
$GPGGA,032301.60,3135.5324970,N,12046.3574200,E,4,14,1.5,2.4219,M,8.295,M,00,0004*6F
$GPHPD,0,0.000,242.14,-0.19,-14.88,31.5922083,120.7726237,2.422,13630202.526,24921430.118,2.422,0.000,0.000,0.000,0.000,0.000,0.000,0.000,14,13,4*77
$GPGGA,032301.80,3135.5324300,N,12046.3572771,E,4,14,1.5,2.4205,M,8.295,M,00,0004*64
$GPHPD,0,0.000,242.09,0.97,-14.89,31.5922072,120.7726213,2.421,13630203.190,24921428.785,2.421,0.000,0.000,0.000,0.000,0.000,0.000,0.000,14,13,4*5A
$GPGGA,032302.00,3135.5323638,N,12046.3571364,E,4,14,1.5,2.4303,M,8.295,M,01,0004*63
$GPHPD,0,0.000,242.53,0.29,-14.88,31.5922061,120.7726189,2.430,13630203.848,24921427.474,2.430,0.000,0.000,0.000,0.000,0.000,0.000,0.000,14,13,4*5D
$GPGGA,032302.20,3135.5322973,N,12046.3569900,E,4,14,1.5,2.4210,M,8.295,M,01,0004*62
$GPHPD,0,0.000,242.60,-0.24,-14.88,31.5922050,120.7726165,2.421,13630204.498,24921426.096,2.421,0.000,0.000,0.000,0.000,0.000,0.000,0.000,14,13,4*72
$GPGGA,032302.40,3135.5322342,N,12046.3568440,E,4,14,1.5,2.4235,M,8.295,M,01,0004*63
$GPHPD,0,0.000,242.13,0.84,-14.90,31.5922039,120.7726141,2.424,13630205.101,24921424.703,2.424,0.000,0.000,0.000,0.000,0.000,0.000,0.000,14,13,4*5C
$GPGGA,032302.60,3135.5321760,N,12046.3566970,E,4,14,1.5,2.4263,M,8.295,M,00,0004*64
$GPHPD,0,0.000,242.18,-0.06,-14.93,31.5922029,120.7726116,2.426,13630205.633,24921423.270,2.426,0.000,0.000,0.000,0.000,0.000,0.000,0.000,14,13,4*70
$GPGGA,032302.80,3135.5321083,N,12046.3565495,E,4,14,1.5,2.4233,M,8.295,M,00,0004*60
$GPHPD,0,0.000,242.19,0.87,-14.95,31.5922018,120.7726092,2.423,13630206.298,24921421.885,2.423,0.000,0.000,0.000,0.000,0.000,0.000,0.000,14,13,4*58
$GPGGA,032303.00,3135.5320449,N,12046.3564072,E,4,14,1.5,2.4141,M,8.295,M,01,0004*61
$GPHPD,0,0.000,242.50,-0.14,-14.96,31.5922007,120.7726068,2.414,13630206.912,24921420.539,2.414,0.000,0.000,0.000,0.000,0.000,0.000,0.000,14,13,4*78
$GPGGA,032303.20,3135.5319792,N,12046.3562597,E,4,14,1.5,2.4014,M,8.295,M,01,0004*65
$GPHPD,0,0.000,242.30,0.76,-14.94,31.5921997,120.7726043,2.401,13630207.549,24921419.143,2.401,0.000,0.000,0.000,0.000,0.000,0.000,0.000,14,13,4*5F
$GPGGA,032303.40,3135.5319115,N,12046.3561094,E,4,14,1.5,2.4304,M,8.295,M,01,0004*6D
$GPHPD,0,0.000,242.54,0.66,-14.89,31.5921985,120.7726018,2.430,13630208.209,24921417.724,2.430,0.000,0.000,0.000,0.000,0.000,0.000,0.000,14,13,4*58
$GPGGA,032303.60,3135.5318523,N,12046.3559533,E,4,14,1.5,2.4292,M,8.295,M,00,0004*63
$GPHPD,0,0.000,242.87,-0.40,-14.86,31.5921975,120.7725992,2.429,13630208.736,24921416.187,2.429,0.000,0.000,0.000,0.000,0.000,0.000,0.000,14,13,4*70
$GPGGA,032303.80,3135.5317949,N,12046.3558040,E,4,14,1.5,2.4377,M,8.295,M,00,0004*68
$GPHPD,0,0.000,242.68,-0.74,-14.90,31.5921966,120.7725967,2.438,13630209.252,24921414.721,2.438,0.000,0.000,0.000,0.000,0.000,0.000,0.000,14,13,4*77
$GPGGA,032304.00,3135.5317362,N,12046.3556580,E,4,14,1.5,2.4260,M,8.295,M,01,0004*65
$GPHPD,0,0.000,242.96,-1.75,-14.94,31.5921956,120.7725943,2.426,13630209.792,24921413.302,2.426,0.000,0.000,0.000,0.000,0.000,0.000,0.000,14,13,4*7C
$GPGGA,032304.20,3135.5316683,N,12046.3555077,E,4,14,1.5,2.4433,M,8.295,M,01,0004*62
$GPHPD,0,0.000,242.53,0.05,-14.92,31.5921945,120.7725918,2.443,13630210.454,24921411.885,2.443,0.000,0.000,0.000,0.000,0.000,0.000,0.000,14,13,4*53
$GPGGA,032304.40,3135.5316056,N,12046.3553590,E,4,14,1.5,2.4394,M,8.295,M,01,0004*6A
$GPHPD,0,0.000,243.18,-1.32,-14.89,31.5921934,120.7725893,2.439,13630211.046,24921410.457,2.439,0.000,0.000,0.000,0.000,0.000,0.000,0.000,14,12,4*7E
$GPGGA,032304.60,3135.5315434,N,12046.3552133,E,4,14,1.5,2.4459,M,8.295,M,00,0004*60
$GPHPD,0,0.000,242.75,-0.71,-14.88,31.5921924,120.7725869,2.446,13630211.637,24921409.063,2.446,0.000,0.000,0.000,0.000,0.000,0.000,0.000,14,12,4*7C
$GPGGA,032304.80,3135.5314781,N,12046.3550658,E,4,14,1.5,2.4451,M,8.295,M,00,0004*62
$GPHPD,0,0.000,242.85,-0.95,-14.83,31.5921913,120.7725844,2.445,13630212.268,24921407.664,2.445,0.000,0.000,0.000,0.000,0.000,0.000,0.000,14,12,4*7B
$GPGGA,032305.00,3135.5314132,N,12046.3549171,E,4,14,1.5,2.4594,M,8.295,M,01,0004*68
$GPHPD,0,0.000,242.69,-0.63,-14.80,31.5921902,120.7725820,2.459,13630212.891,24921406.249,2.459,0.000,0.000,0.000,0.000,0.000,0.000,0.000,14,12,4*77
$GPGGA,032305.20,3135.5313511,N,12046.3547669,E,4,14,1.5,2.4501,M,8.295,M,01,0004*64
$GPHPD,0,0.000,242.58,-0.98,-14.84,31.5921892,120.7725794,2.450,13630213.472,24921404.800,2.450,0.000,0.000,0.000,0.000,0.000,0.000,0.000,14,12,4*78
$GPGGA,032305.40,3135.5312862,N,12046.3546243,E,4,14,1.5,2.4614,M,8.295,M,01,0004*60
$GPHPD,0,0.000,242.21,-0.23,-14.85,31.5921881,120.7725771,2.461,13630214.107,24921403.458,2.461,0.000,0.000,0.000,0.000,0.000,0.000,0.000,14,12,4*78
$GPGGA,032305.60,3135.5312207,N,12046.3544745,E,4,14,2.0,2.4423,M,8.295,M,00,0004*6B
$GPHPD,0,0.000,242.14,-0.44,-14.85,31.5921870,120.7725746,2.442,13630214.736,24921402.033,2.442,0.000,0.000,0.000,0.000,0.000,0.000,0.000,14,12,4*79
$GPGGA,032305.80,3135.5311599,N,12046.3543290,E,4,14,2.0,2.4478,M,8.295,M,00,0004*62
$GPHPD,0,0.000,241.75,0.38,-14.87,31.5921860,120.7725722,2.448,13630215.308,24921400.633,2.448,0.000,0.000,0.000,0.000,0.000,0.000,0.000,14,12,4*56
$GPGGA,032306.00,3135.5310945,N,12046.3541815,E,4,14,1.5,2.4488,M,8.295,M,01,0004*68
$GPHPD,0,0.000,241.15,1.42,-14.85,31.5921849,120.7725697,2.449,13630215.940,24921399.235,2.449,0.000,0.000,0.000,0.000,0.000,0.000,0.000,14,12,4*59
$GPGGA,032306.20,3135.5310246,N,12046.3540308,E,4,13,2.0,2.4438,M,8.295,M,01,0004*6E
$GPHPD,0,0.000,241.11,2.03,-14.86,31.5921837,120.7725672,2.444,13630216.630,24921397.825,2.444,0.000,0.000,0.000,0.000,0.000,0.000,0.000,13,11,4*50
$GPGGA,032306.40,3135.5309530,N,12046.3538805,E,4,12,3.1,2.4370,M,8.295,M,01,0004*65
$GPHPD,0,0.000,241.44,0.71,-14.84,31.5921826,120.7725647,2.437,13630217.345,24921396.430,2.437,0.000,0.000,0.000,0.000,0.000,0.000,0.000,12,11,4*5D
$GPGGA,032306.60,3135.5308867,N,12046.3537374,E,4,13,2.0,2.4469,M,8.295,M,01,0004*65
$GPHPD,0,0.000,241.49,0.40,-14.86,31.5921814,120.7725623,2.447,13630218.000,24921395.090,2.447,0.000,0.000,0.000,0.000,0.000,0.000,0.000,13,11,4*52
$GPGGA,032306.80,3135.5308152,N,12046.3535970,E,4,13,2.0,2.4839,M,8.295,M,00,0004*60
$GPHPD,0,0.000,241.03,0.87,-14.86,31.5921803,120.7725600,2.484,13630218.733,24921393.814,2.484,0.000,0.000,0.000,0.000,0.000,0.000,0.000,13,11,4*55
$GPGGA,032307.00,3135.5307492,N,12046.3534389,E,4,13,2.0,2.4558,M,8.295,M,01,0004*69
$GPHPD,0,0.000,241.03,1.04,-14.87,31.5921792,120.7725573,2.456,13630219.353,24921392.292,2.456,0.000,0.000,0.000,0.000,0.000,0.000,0.000,13,11,4*58
$GPGGA,032307.20,3135.5306833,N,12046.3532883,E,4,13,2.0,2.4593,M,8.295,M,01,0004*6D
$GPHPD,0,0.000,240.94,1.29,-14.87,31.5921781,120.7725548,2.459,13630219.987,24921390.859,2.459,0.000,0.000,0.000,0.000,0.000,0.000,0.000,13,11,4*5E
$GPGGA,032307.40,3135.5306200,N,12046.3531407,E,4,14,2.0,2.4595,M,8.295,M,01,0004*63
$GPHPD,0,0.000,240.89,0.78,-14.86,31.5921770,120.7725523,2.460,13630220.589,24921389.448,2.460,0.000,0.000,0.000,0.000,0.000,0.000,0.000,14,14,4*5B
$GPGGA,032307.60,3135.5305501,N,12046.3529929,E,4,14,2.0,2.4597,M,8.295,M,01,0004*6E
$GPHPD,0,0.000,241.02,0.41,-14.86,31.5921758,120.7725499,2.460,13630221.285,24921388.073,2.460,0.000,0.000,0.000,0.000,0.000,0.000,0.000,14,14,4*5E
$GPGGA,032307.80,3135.5304795,N,12046.3528473,E,4,14,2.0,2.4534,M,8.295,M,01,0004*64
$GPHPD,0,0.000,241.35,-0.46,-14.87,31.5921747,120.7725475,2.453,13630221.995,24921386.729,2.453,0.000,0.000,0.000,0.000,0.000,0.000,0.000,14,14,4*71
$GPGGA,032308.00,3135.5304119,N,12046.3526993,E,4,14,2.0,2.4719,M,8.295,M,02,0004*62
$GPHPD,0,0.000,241.59,-0.71,-14.81,31.5921735,120.7725450,2.472,13630222.658,24921385.338,2.472,0.000,0.000,0.000,0.000,0.000,0.000,0.000,14,14,4*71
$GPGGA,032308.20,3135.5303450,N,12046.3525540,E,4,13,2.0,2.4626,M,8.295,M,02,0004*64
$GPHPD,0,0.000,241.72,-1.46,-14.81,31.5921724,120.7725426,2.463,13630223.317,24921383.975,2.463,0.000,0.000,0.000,0.000,0.000,0.000,0.000,13,14,4*71
$GPGGA,032308.40,3135.5302802,N,12046.3524088,E,4,14,2.0,2.4704,M,8.295,M,02,0004*6E
$GPHPD,0,0.000,241.79,-1.55,-14.88,31.5921713,120.7725401,2.470,13630223.945,24921382.602,2.470,0.000,0.000,0.000,0.000,0.000,0.000,0.000,14,14,4*74
$GPGGA,032308.60,3135.5302155,N,12046.3522607,E,4,13,2.0,2.4530,M,8.295,M,02,0004*62
$GPHPD,0,0.000,241.75,-1.93,-14.91,31.5921703,120.7725377,2.453,13630224.567,24921381.193,2.453,0.000,0.000,0.000,0.000,0.000,0.000,0.000,13,13,4*7A
$GPGGA,032308.80,3135.5301511,N,12046.3521134,E,4,13,2.0,2.4487,M,8.295,M,00,0004*60
$GPHPD,0,0.000,241.77,-1.09,-14.90,31.5921692,120.7725352,2.449,13630225.186,24921379.791,2.449,0.000,0.000,0.000,0.000,0.000,0.000,0.000,13,13,4*7D
$GPGGA,032309.00,3135.5300875,N,12046.3519678,E,4,13,2.0,2.4540,M,8.295,M,01,0004*68
$GPHPD,0,0.000,241.66,-0.79,-14.89,31.5921681,120.7725328,2.454,13630225.796,24921378.406,2.454,0.000,0.000,0.000,0.000,0.000,0.000,0.000,13,13,4*77
$GPGGA,032309.20,3135.5300195,N,12046.3518205,E,4,13,2.0,2.4382,M,8.295,M,01,0004*6A
$GPHPD,0,0.000,241.55,-0.25,-14.89,31.5921670,120.7725303,2.438,13630226.466,24921377.026,2.438,0.000,0.000,0.000,0.000,0.000,0.000,0.000,13,13,4*7F
$GPGGA,032309.40,3135.5299575,N,12046.3516787,E,4,13,2.0,2.4467,M,8.295,M,01,0004*6A
$GPHPD,0,0.000,240.95,0.44,-14.93,31.5921660,120.7725280,2.447,13630227.062,24921375.677,2.447,0.000,0.000,0.000,0.000,0.000,0.000,0.000,13,13,4*59
$GPGGA,032309.60,3135.5298903,N,12046.3515372,E,4,13,2.0,2.4587,M,8.295,M,00,0004*67
$GPHPD,0,0.000,241.29,0.29,-14.93,31.5921648,120.7725256,2.459,13630227.732,24921374.362,2.459,0.000,0.000,0.000,0.000,0.000,0.000,0.000,13,13,4*57
$GPGGA,032309.80,3135.5298255,N,12046.3513916,E,4,13,2.0,2.4531,M,8.295,M,00,0004*62
$GPHPD,0,0.000,241.33,0.52,-14.92,31.5921638,120.7725232,2.453,13630228.360,24921372.984,2.453,0.000,0.000,0.000,0.000,0.000,0.000,0.000,13,13,4*5C
$GPGGA,032310.00,3135.5297560,N,12046.3512453,E,4,13,2.0,2.4503,M,8.295,M,01,0004*61
$GPHPD,0,0.000,241.51,-0.02,-14.92,31.5921626,120.7725208,2.450,13630229.054,24921371.624,2.450,0.000,0.000,0.000,0.000,0.000,0.000,0.000,13,13,4*75
$GPGGA,032310.20,3135.5296896,N,12046.3511019,E,4,13,2.0,2.4435,M,8.295,M,01,0004*6B
$GPHPD,0,0.000,241.63,-0.30,-14.94,31.5921615,120.7725184,2.444,13630229.709,24921370.282,2.444,0.000,0.000,0.000,0.000,0.000,0.000,0.000,13,13,4*72
$GPGGA,032310.40,3135.5296181,N,12046.3509580,E,4,13,2.0,2.4509,M,8.295,M,01,0004*60
$GPHPD,0,0.000,241.58,0.97,-14.94,31.5921603,120.7725160,2.451,13630230.435,24921368.963,2.451,0.000,0.000,0.000,0.000,0.000,0.000,0.000,13,13,4*5E
$GPGGA,032310.60,3135.5295512,N,12046.3508095,E,4,13,2.0,2.4324,M,8.295,M,00,0004*67
$GPHPD,0,0.000,242.18,0.03,-14.90,31.5921592,120.7725135,2.432,13630231.087,24921367.562,2.432,0.000,0.000,0.000,0.000,0.000,0.000,0.000,13,13,4*55
$GPGGA,032310.80,3135.5294811,N,12046.3506653,E,4,13,2.0,2.4337,M,8.295,M,00,0004*66
$GPHPD,0,0.000,241.20,2.58,-14.85,31.5921580,120.7725111,2.434,13630231.793,24921366.232,2.434,0.000,0.000,0.000,0.000,0.000,0.000,0.000,13,13,4*51
$GPGGA,032311.00,3135.5294257,N,12046.3505155,E,4,13,2.0,2.4302,M,8.295,M,01,0004*62
$GPHPD,0,0.000,241.46,1.87,-14.82,31.5921571,120.7725086,2.430,13630232.279,24921364.748,2.430,0.000,0.000,0.000,0.000,0.000,0.000,0.000,13,13,4*5E
$GPGGA,032311.20,3135.5293618,N,12046.3503628,E,4,13,2.0,2.4330,M,8.295,M,01,0004*62
$GPHPD,0,0.000,241.25,3.81,-14.84,31.5921560,120.7725060,2.433,13630232.880,24921363.279,2.433,0.000,0.000,0.000,0.000,0.000,0.000,0.000,13,13,4*5D
$GPGGA,032311.40,3135.5292980,N,12046.3502097,E,4,13,2.0,2.4646,M,8.295,M,01,0004*6C
$GPHPD,0,0.000,241.26,1.35,-14.80,31.5921550,120.7725035,2.465,13630233.479,24921361.804,2.465,0.000,0.000,0.000,0.000,0.000,0.000,0.000,13,13,4*5D
$GPGGA,032311.60,3135.5292355,N,12046.3500653,E,4,13,2.0,2.4413,M,8.295,M,00,0004*63
$GPHPD,0,0.000,242.14,-1.43,-14.76,31.5921539,120.7725011,2.441,13630234.076,24921360.427,2.441,0.000,0.000,0.000,0.000,0.000,0.000,0.000,13,13,4*73
$GPGGA,032311.80,3135.5291698,N,12046.3499153,E,4,13,2.0,2.4791,M,8.295,M,00,0004*65
$GPHPD,0,0.000,241.76,-0.76,-14.79,31.5921528,120.7724986,2.479,13630234.708,24921359.001,2.479,0.000,0.000,0.000,0.000,0.000,0.000,0.000,13,13,4*7E
$GPGGA,032312.00,3135.5290998,N,12046.3497710,E,4,13,2.0,2.4720,M,8.295,M,01,0004*64
$GPHPD,0,0.000,241.91,-2.70,-14.79,31.5921517,120.7724962,2.472,13630235.412,24921357.668,2.472,0.000,0.000,0.000,0.000,0.000,0.000,0.000,13,13,4*7B
$GPGGA,032312.20,3135.5290361,N,12046.3496320,E,4,13,2.0,2.4939,M,8.295,M,01,0004*6A
$GPHPD,0,0.000,241.64,0.91,-14.82,31.5921506,120.7724939,2.494,13630236.038,24921356.363,2.494,0.000,0.000,0.000,0.000,0.000,0.000,0.000,13,13,4*5B
$GPGGA,032312.40,3135.5289755,N,12046.3494849,E,4,13,2.0,2.4512,M,8.295,M,01,0004*64
$GPHPD,0,0.000,241.73,0.30,-14.89,31.5921496,120.7724914,2.451,13630236.603,24921354.942,2.451,0.000,0.000,0.000,0.000,0.000,0.000,0.000,13,13,4*5F
$GPGGA,032312.60,3135.5289111,N,12046.3493405,E,4,13,2.0,2.4487,M,8.295,M,00,0004*6F
$GPHPD,0,0.000,241.63,0.08,-14.94,31.5921485,120.7724890,2.449,13630237.228,24921353.576,2.449,0.000,0.000,0.000,0.000,0.000,0.000,0.000,13,13,4*56
$GPGGA,032312.80,3135.5288452,N,12046.3491936,E,4,13,2.0,2.4492,M,8.295,M,00,0004*69
$GPHPD,0,0.000,241.74,0.74,-14.95,31.5921474,120.7724866,2.449,13630237.869,24921352.189,2.449,0.000,0.000,0.000,0.000,0.000,0.000,0.000,13,12,4*56
$GPGGA,032313.00,3135.5287780,N,12046.3490456,E,4,13,2.0,2.4536,M,8.295,M,01,0004*67
$GPHPD,0,0.000,241.91,0.36,-14.98,31.5921463,120.7724841,2.454,13630238.526,24921350.795,2.454,0.000,0.000,0.000,0.000,0.000,0.000,0.000,13,12,4*55
$GPGGA,032313.20,3135.5287092,N,12046.3489146,E,4,13,2.0,2.5171,M,8.295,M,01,0004*6B
$GPHPD,0,0.000,241.65,0.83,-14.98,31.5921452,120.7724819,2.517,13630239.240,24921349.616,2.517,0.000,0.000,0.000,0.000,0.000,0.000,0.000,13,12,4*5B
$GPGGA,032313.40,3135.5286489,N,12046.3487587,E,4,13,2.0,2.4863,M,8.295,M,01,0004*6E
$GPHPD,0,0.000,242.53,-0.94,-15.00,31.5921441,120.7724793,2.486,13630239.783,24921348.088,2.486,0.000,0.000,0.000,0.000,0.000,0.000,0.000,13,12,4*73
$GPGGA,032313.60,3135.5285886,N,12046.3486158,E,4,13,2.0,2.4544,M,8.295,M,00,0004*62
$GPHPD,0,0.000,241.97,-0.86,-15.04,31.5921431,120.7724769,2.454,13630240.353,24921346.716,2.454,0.000,0.000,0.000,0.000,0.000,0.000,0.000,13,12,4*74
$GPGGA,032313.80,3135.5285234,N,12046.3484592,E,4,13,2.0,2.4692,M,8.295,M,00,0004*67
$GPHPD,0,0.000,241.44,0.65,-15.04,31.5921421,120.7724743,2.469,13630240.964,24921345.207,2.469,0.000,0.000,0.000,0.000,0.000,0.000,0.000,13,12,4*5B
$GPGGA,032314.00,3135.5284633,N,12046.3483220,E,4,13,2.0,2.4676,M,8.295,M,01,0004*68
$GPHPD,0,0.000,241.23,-0.37,-15.02,31.5921411,120.7724720,2.468,13630241.542,24921343.903,2.468,0.000,0.000,0.000,0.000,0.000,0.000,0.000,13,12,4*70
$GPGGA,032314.20,3135.5283919,N,12046.3481712,E,4,13,2.0,2.4763,M,8.295,M,01,0004*69
$GPHPD,0,0.000,241.63,0.65,-15.03,31.5921399,120.7724695,2.476,13630242.253,24921342.500,2.476,0.000,0.000,0.000,0.000,0.000,0.000,0.000,13,12,4*5D
$GPGGA,032314.40,3135.5283307,N,12046.3480230,E,4,13,2.0,2.4404,M,8.295,M,01,0004*6C
$GPHPD,0,0.000,241.79,0.70,-15.03,31.5921388,120.7724671,2.440,13630242.825,24921341.069,2.440,0.000,0.000,0.000,0.000,0.000,0.000,0.000,13,12,4*5A
$GPGGA,032314.60,3135.5282615,N,12046.3478802,E,4,13,2.0,2.4444,M,8.295,M,00,0004*60
$GPHPD,0,0.000,241.90,0.29,-14.99,31.5921377,120.7724647,2.444,13630243.521,24921339.750,2.444,0.000,0.000,0.000,0.000,0.000,0.000,0.000,13,12,4*5C
$GPGGA,032314.80,3135.5281997,N,12046.3477429,E,4,13,2.0,2.4416,M,8.295,M,00,0004*65
$GPHPD,0,0.000,241.53,0.18,-14.96,31.5921367,120.7724624,2.442,13630244.123,24921338.455,2.442,0.000,0.000,0.000,0.000,0.000,0.000,0.000,13,12,4*5C
$GPGGA,032315.00,3135.5281339,N,12046.3475967,E,4,13,2.0,2.4524,M,8.295,M,01,0004*66
$GPHPD,0,0.000,242.01,0.86,-14.97,31.5921356,120.7724599,2.452,13630244.764,24921337.075,2.452,0.000,0.000,0.000,0.000,0.000,0.000,0.000,13,12,4*55
$GPGGA,032315.20,3135.5280697,N,12046.3474466,E,4,13,2.0,2.4600,M,8.295,M,01,0004*6C
$GPHPD,0,0.000,242.57,0.29,-14.98,31.5921345,120.7724574,2.460,13630245.374,24921335.639,2.460,0.000,0.000,0.000,0.000,0.000,0.000,0.000,13,12,4*55
$GPGGA,032315.40,3135.5280085,N,12046.3472981,E,4,13,2.0,2.4726,M,8.295,M,01,0004*68
$GPHPD,0,0.000,242.34,0.88,-14.98,31.5921335,120.7724550,2.473,13630245.945,24921334.205,2.473,0.000,0.000,0.000,0.000,0.000,0.000,0.000,13,12,4*58
$GPGGA,032315.60,3135.5279515,N,12046.3471474,E,4,13,2.0,2.4728,M,8.295,M,00,0004*6B
$GPHPD,0,0.000,242.64,0.67,-14.99,31.5921325,120.7724525,2.473,13630246.452,24921332.719,2.473,0.000,0.000,0.000,0.000,0.000,0.000,0.000,13,12,4*58
$GPGGA,032315.80,3135.5278792,N,12046.3469964,E,4,13,2.0,2.4847,M,8.295,M,00,0004*6A
$GPHPD,0,0.000,242.35,0.76,-14.94,31.5921313,120.7724499,2.485,13630247.175,24921331.320,2.485,0.000,0.000,0.000,0.000,0.000,0.000,0.000,13,12,4*5E
$GPGGA,032316.00,3135.5278199,N,12046.3468490,E,4,13,2.0,2.4692,M,8.295,M,01,0004*6C
$GPHPD,0,0.000,243.16,-0.09,-14.91,31.5921303,120.7724475,2.469,13630247.722,24921329.888,2.469,0.000,0.000,0.000,0.000,0.000,0.000,0.000,13,12,4*79
$GPGGA,032316.20,3135.5277535,N,12046.3466954,E,4,13,2.0,2.4690,M,8.295,M,01,0004*6A
$GPHPD,0,0.000,242.66,0.53,-14.89,31.5921292,120.7724449,2.469,13630248.356,24921328.422,2.469,0.000,0.000,0.000,0.000,0.000,0.000,0.000,13,12,4*57
$GPGGA,032316.40,3135.5276842,N,12046.3465493,E,4,13,2.0,2.4908,M,8.294,M,01,0004*6A
$GPHPD,0,0.000,243.11,0.43,-14.85,31.5921281,120.7724425,2.491,13630249.047,24921327.064,2.491,0.000,0.000,0.000,0.000,0.000,0.000,0.000,13,12,4*58
$GPGGA,032316.60,3135.5276226,N,12046.3463985,E,4,13,2.0,2.4924,M,8.294,M,00,0004*63
$GPHPD,0,0.000,243.24,-0.95,-14.82,31.5921270,120.7724400,2.492,13630249.619,24921325.604,2.492,0.000,0.000,0.000,0.000,0.000,0.000,0.000,13,12,4*79
$GPGGA,032316.80,3135.5275565,N,12046.3462463,E,4,13,2.0,2.4751,M,8.294,M,00,0004*66
