$GPGGA,032404.80,3135.5240784,N,12046.3382668,E,4,16,1.4,2.5024,M,8.294,M,00,0004*6F
$GPHPD,0,0.000,241.66,0.10,-14.88,31.5920680,120.7723044,2.502,13630283.623,24921248.190,2.502,0.000,0.000,0.000,0.000,0.000,0.000,0.000,16,16,4*50
$GPGGA,032405.00,3135.5240793,N,12046.3382681,E,4,16,1.4,2.4955,M,8.294,M,01,0004*68
$GPHPD,0,0.000,241.68,-0.13,-14.88,31.5920680,120.7723045,2.496,13630283.613,24921248.200,2.496,0.000,0.000,0.000,0.000,0.000,0.000,0.000,16,16,4*78
$GPGGA,032405.20,3135.5240779,N,12046.3382669,E,4,16,1.4,2.5004,M,8.294,M,01,0004*64
$GPHPD,0,0.000,241.67,-0.21,-14.87,31.5920680,120.7723044,2.500,13630283.630,24921248.194,2.500,0.000,0.000,0.000,0.000,0.000,0.000,0.000,16,16,4*77
$GPGGA,032405.40,3135.5240792,N,12046.3382669,E,4,16,1.4,2.5007,M,8.294,M,01,0004*64
$GPHPD,0,0.000,241.69,-0.23,-14.87,31.5920680,120.7723044,2.501,13630283.612,24921248.186,2.501,0.000,0.000,0.000,0.000,0.000,0.000,0.000,16,16,4*78
$GPGGA,032405.60,3135.5240784,N,12046.3382673,E,4,16,1.4,2.4989,M,8.294,M,00,0004*65
$GPHPD,0,0.000,241.62,-0.11,-14.87,31.5920680,120.7723045,2.499,13630283.624,24921248.196,2.499,0.000,0.000,0.000,0.000,0.000,0.000,0.000,16,16,4*77
$GPGGA,032405.80,3135.5240796,N,12046.3382677,E,4,16,1.4,2.4931,M,8.294,M,00,0004*6F
$GPHPD,0,0.000,241.77,-0.18,-14.87,31.5920680,120.7723045,2.493,13630283.608,24921248.194,2.493,0.000,0.000,0.000,0.000,0.000,0.000,0.000,16,16,4*76
$GPGGA,032406.00,3135.5240777,N,12046.3382672,E,4,16,1.4,2.4951,M,8.294,M,01,0004*69
$GPHPD,0,0.000,241.62,0.19,-14.88,31.5920680,120.7723045,2.495,13630283.634,24921248.199,2.495,0.000,0.000,0.000,0.000,0.000,0.000,0.000,16,16,4*53
$GPGGA,032406.20,3135.5240782,N,12046.3382683,E,4,16,1.4,2.4901,M,8.294,M,01,0004*6A
$GPHPD,0,0.000,241.83,-0.04,-14.89,31.5920680,120.7723045,2.490,13630283.629,24921248.209,2.490,0.000,0.000,0.000,0.000,0.000,0.000,0.000,16,16,4*7A
$GPGGA,032406.40,3135.5240787,N,12046.3382694,E,4,16,1.3,2.4980,M,8.294,M,01,0004*61
$GPHPD,0,0.000,241.78,0.21,-14.88,31.5920680,120.7723045,2.498,13630283.624,24921248.220,2.498,0.000,0.000,0.000,0.000,0.000,0.000,0.000,16,16,4*53
$GPGGA,032406.60,3135.5240778,N,12046.3382673,E,4,16,1.3,2.4928,M,8.294,M,00,0004*69
$GPHPD,0,0.000,241.83,-0.25,-14.89,31.5920680,120.7723045,2.493,13630283.633,24921248.199,2.493,0.000,0.000,0.000,0.000,0.000,0.000,0.000,16,16,4*78
$GPGGA,032406.80,3135.5240785,N,12046.3382677,E,4,16,1.3,2.4949,M,8.294,M,00,0004*66
$GPHPD,0,0.000,241.74,0.39,-14.89,31.5920680,120.7723045,2.495,13630283.623,24921248.200,2.495,0.000,0.000,0.000,0.000,0.000,0.000,0.000,16,16,4*52
$GPGGA,032407.00,3135.5240768,N,12046.3382656,E,4,16,1.3,2.4950,M,8.294,M,01,0004*66
$GPHPD,0,0.000,241.72,0.09,-14.88,31.5920679,120.7723044,2.495,13630283.643,24921248.185,2.495,0.000,0.000,0.000,0.000,0.000,0.000,0.000,16,16,4*59
$GPGGA,032407.20,3135.5240763,N,12046.3382660,E,4,16,1.3,2.4915,M,8.294,M,01,0004*6B
$GPHPD,0,0.000,241.79,-0.02,-14.88,31.5920679,120.7723044,2.492,13630283.651,24921248.193,2.492,0.000,0.000,0.000,0.000,0.000,0.000,0.000,16,16,4*70
$GPGGA,032407.40,3135.5240778,N,12046.3382652,E,4,16,1.3,2.4875,M,8.294,M,01,0004*61
$GPHPD,0,0.000,241.82,0.38,-14.87,31.5920680,120.7723044,2.488,13630283.628,24921248.174,2.488,0.000,0.000,0.000,0.000,0.000,0.000,0.000,16,16,4*5E
$GPGGA,032407.60,3135.5240791,N,12046.3382660,E,4,16,1.3,2.4969,M,8.294,M,00,0004*68
$GPHPD,0,0.000,241.66,0.52,-14.87,31.5920680,120.7723044,2.497,13630283.612,24921248.176,2.497,0.000,0.000,0.000,0.000,0.000,0.000,0.000,16,16,4*53
$GPGGA,032431.00,3135.5176223,N,12046.3507632,E,4,16,1.4,2.4618,M,8.295,M,01,0004*63
$GPHPD,0,0.000,60.92,-0.63,-14.73,31.5919604,120.7725127,2.462,13630400.521,24921436.428,2.462,0.000,0.000,0.000,0.000,0.000,0.000,0.000,16,15,4*45
$GPGGA,032431.20,3135.5176811,N,12046.3508941,E,4,16,1.4,2.4662,M,8.295,M,01,0004*63
$GPHPD,0,0.000,60.81,-1.66,-14.58,31.5919614,120.7725149,2.466,13630399.949,24921437.664,2.466,0.000,0.000,0.000,0.000,0.000,0.000,0.000,16,15,4*4D
$GPGGA,032431.40,3135.5177387,N,12046.3510110,E,4,16,1.4,2.4674,M,8.295,M,01,0004*62
$GPHPD,0,0.000,60.13,-0.09,-14.51,31.5919623,120.7725169,2.467,13630399.366,24921438.738,2.467,0.000,0.000,0.000,0.000,0.000,0.000,0.000,16,15,4*41
$GPGGA,032431.60,3135.5177922,N,12046.3511197,E,4,16,1.4,2.4768,M,8.295,M,00,0004*66
$GPHPD,0,0.000,60.17,0.42,-14.52,31.5919632,120.7725187,2.477,13630398.824,24921439.738,2.477,0.000,0.000,0.000,0.000,0.000,0.000,0.000,16,15,4*69
$GPGGA,032431.80,3135.5178438,N,12046.3512313,E,4,16,1.4,2.4673,M,8.295,M,00,0004*67
$GPHPD,0,0.000,60.17,-0.01,-14.54,31.5919641,120.7725205,2.467,13630398.315,24921440.783,2.467,0.000,0.000,0.000,0.000,0.000,0.000,0.000,16,15,4*4F
$GPGGA,032432.00,3135.5178959,N,12046.3513384,E,4,16,1.4,2.4572,M,8.295,M,01,0004*6A
$GPHPD,0,0.000,60.26,0.48,-14.57,31.5919649,120.7725223,2.457,13630397.790,24921441.771,2.457,0.000,0.000,0.000,0.000,0.000,0.000,0.000,16,15,4*68
$GPGGA,032432.20,3135.5179446,N,12046.3514470,E,4,16,1.5,2.4566,M,8.295,M,01,0004*65
$GPHPD,0,0.000,59.98,0.93,-14.59,31.5919657,120.7725241,2.457,13630397.317,24921442.797,2.457,0.000,0.000,0.000,0.000,0.000,0.000,0.000,16,15,4*64
$GPGGA,032432.40,3135.5179946,N,12046.3515483,E,4,16,1.5,2.4437,M,8.295,M,01,0004*66
$GPHPD,0,0.000,60.15,1.72,-14.60,31.5919666,120.7725258,2.444,13630396.810,24921443.727,2.444,0.000,0.000,0.000,0.000,0.000,0.000,0.000,16,15,4*62
$GPGGA,032432.60,3135.5180479,N,12046.3516539,E,4,16,1.5,2.4426,M,8.295,M,00,0004*61
$GPHPD,0,0.000,60.68,2.32,-14.61,31.5919675,120.7725276,2.443,13630396.265,24921444.690,2.443,0.000,0.000,0.000,0.000,0.000,0.000,0.000,16,15,4*62
$GPGGA,032432.80,3135.5180953,N,12046.3517581,E,4,16,1.5,2.4561,M,8.295,M,00,0004*6A
$GPHPD,0,0.000,61.32,2.18,-14.66,31.5919683,120.7725293,2.456,13630395.801,24921445.671,2.456,0.000,0.000,0.000,0.000,0.000,0.000,0.000,16,15,4*64
$GPGGA,032433.00,3135.5181454,N,12046.3518627,E,4,16,1.5,2.4553,M,8.295,M,01,0004*68
$GPHPD,0,0.000,61.31,0.33,-14.70,31.5919691,120.7725310,2.455,13630395.300,24921446.640,2.455,0.000,0.000,0.000,0.000,0.000,0.000,0.000,16,15,4*69
$GPGGA,032433.20,3135.5181976,N,12046.3519737,E,4,16,1.5,2.4549,M,8.295,M,01,0004*6D
$GPHPD,0,0.000,61.88,-0.35,-14.73,31.5919700,120.7725329,2.455,13630394.781,24921447.675,2.455,0.000,0.000,0.000,0.000,0.000,0.000,0.000,16,15,4*4B
$GPGGA,032433.40,3135.5182408,N,12046.3520806,E,4,16,1.5,2.4485,M,8.295,M,01,0004*6A
$GPHPD,0,0.000,62.57,0.09,-14.76,31.5919707,120.7725347,2.449,13630394.383,24921448.712,2.449,0.000,0.000,0.000,0.000,0.000,0.000,0.000,16,15,4*6B
$GPGGA,032433.60,3135.5182940,N,12046.3521891,E,4,16,1.5,2.4396,M,8.295,M,00,0004*62
$GPHPD,0,0.000,62.26,0.45,-14.74,31.5919716,120.7725365,2.440,13630393.845,24921449.711,2.440,0.000,0.000,0.000,0.000,0.000,0.000,0.000,16,15,4*63
$GPGGA,032433.80,3135.5183384,N,12046.3522992,E,4,16,1.5,2.4675,M,8.295,M,00,0004*66
$GPHPD,0,0.000,62.81,-0.11,-14.75,31.5919723,120.7725383,2.468,13630393.435,24921450.780,2.468,0.000,0.000,0.000,0.000,0.000,0.000,0.000,16,15,4*46
$GPGGA,032434.00,3135.5183913,N,12046.3524167,E,4,16,1.5,2.4943,M,8.295,M,01,0004*62
$GPHPD,0,0.000,62.54,-0.93,-14.74,31.5919732,120.7725403,2.494,13630392.920,24921451.889,2.494,0.000,0.000,0.000,0.000,0.000,0.000,0.000,16,15,4*45
$GPGGA,032434.20,3135.5184356,N,12046.3525309,E,4,16,1.5,2.4841,M,8.295,M,01,0004*64
$GPHPD,0,0.000,62.47,-1.09,-14.72,31.5919739,120.7725422,2.484,13630392.520,24921453.008,2.484,0.000,0.000,0.000,0.000,0.000,0.000,0.000,16,15,4*44
$GPGGA,032434.40,3135.5184885,N,12046.3526457,E,4,16,1.5,2.4551,M,8.295,M,01,0004*64
$GPHPD,0,0.000,62.05,-1.04,-14.72,31.5919748,120.7725441,2.455,13630392.000,24921454.084,2.455,0.000,0.000,0.000,0.000,0.000,0.000,0.000,16,15,4*48
$GPGGA,032434.60,3135.5185432,N,12046.3527667,E,4,16,1.5,2.4503,M,8.295,M,01,0004*60
$GPHPD,0,0.000,62.22,0.21,-14.71,31.5919757,120.7725461,2.450,13630391.466,24921455.225,2.450,0.000,0.000,0.000,0.000,0.000,0.000,0.000,16,15,4*66
$GPGGA,032434.80,3135.5185971,N,12046.3528939,E,4,16,1.9,2.4512,M,8.295,M,01,0004*63
$GPHPD,0,0.000,62.16,0.23,-14.73,31.5919766,120.7725482,2.451,13630390.956,24921456.444,2.451,0.000,0.000,0.000,0.000,0.000,0.000,0.000,16,15,4*63
$GPGGA,032435.00,3135.5186531,N,12046.3530192,E,4,16,1.9,2.4551,M,8.295,M,02,0004*65
$GPHPD,0,0.000,61.74,0.46,-14.78,31.5919776,120.7725503,2.455,13630390.412,24921457.629,2.455,0.000,0.000,0.000,0.000,0.000,0.000,0.000,16,15,4*60
$GPGGA,032435.20,3135.5187115,N,12046.3531489,E,4,16,1.9,2.4537,M,8.295,M,02,0004*6A
$GPHPD,0,0.000,61.68,0.11,-14.80,31.5919785,120.7725525,2.454,13630389.843,24921458.853,2.454,0.000,0.000,0.000,0.000,0.000,0.000,0.000,16,15,4*6C
$GPGGA,032435.40,3135.5187706,N,12046.3532809,E,4,16,1.9,2.4563,M,8.295,M,02,0004*6E
$GPHPD,0,0.000,61.67,0.48,-14.83,31.5919795,120.7725547,2.456,13630389.269,24921460.101,2.456,0.000,0.000,0.000,0.000,0.000,0.000,0.000,16,15,4*6E
$GPGGA,032435.60,3135.5188312,N,12046.3534124,E,4,16,1.9,2.4620,M,8.295,M,02,0004*66
$GPHPD,0,0.000,61.73,0.43,-14.84,31.5919805,120.7725569,2.462,13630388.672,24921461.333,2.462,0.000,0.000,0.000,0.000,0.000,0.000,0.000,16,15,4*60
$GPGGA,032435.80,3135.5188911,N,12046.3535547,E,4,16,1.9,2.4800,M,8.295,M,02,0004*6D
$GPHPD,0,0.000,61.78,0.27,-14.85,31.5919815,120.7725592,2.480,13630388.107,24921462.701,2.480,0.000,0.000,0.000,0.000,0.000,0.000,0.000,16,15,4*6E
$GPGGA,032436.00,3135.5189549,N,12046.3536948,E,4,16,1.9,2.4580,M,8.295,M,03,0004*62
$GPHPD,0,0.000,61.67,-0.27,-14.85,31.5919826,120.7725616,2.458,13630387.483,24921464.018,2.458,0.000,0.000,0.000,0.000,0.000,0.000,0.000,16,15,4*4D
$GPGGA,032436.20,3135.5190168,N,12046.3538355,E,4,16,1.9,2.4719,M,8.295,M,03,0004*65
$GPHPD,0,0.000,61.72,0.15,-14.87,31.5919836,120.7725639,2.472,13630386.886,24921465.355,2.472,0.000,0.000,0.000,0.000,0.000,0.000,0.000,16,15,4*68
$GPGGA,032436.40,3135.5190825,N,12046.3539795,E,4,16,1.9,2.4642,M,8.295,M,03,0004*65
$GPHPD,0,0.000,61.63,-0.13,-14.88,31.5919847,120.7725663,2.464,13630386.242,24921466.708,2.464,0.000,0.000,0.000,0.000,0.000,0.000,0.000,16,15,4*48
$GPGGA,032436.60,3135.5191479,N,12046.3541280,E,4,16,1.9,2.4694,M,8.295,M,03,0004*66
$GPHPD,0,0.000,61.66,0.27,-14.87,31.5919858,120.7725688,2.469,13630385.611,24921468.118,2.469,0.000,0.000,0.000,0.000,0.000,0.000,0.000,16,15,4*6B
$GPGGA,032436.80,3135.5192135,N,12046.3542758,E,4,16,1.9,2.4709,M,8.295,M,00,0004*63
$GPHPD,0,0.000,61.39,-0.02,-14.84,31.5919869,120.7725713,2.471,13630384.977,24921469.518,2.471,0.000,0.000,0.000,0.000,0.000,0.000,0.000,16,15,4*42
$GPGGA,032437.00,3135.5192826,N,12046.3544244,E,4,16,1.9,2.4721,M,8.295,M,01,0004*64
$GPHPD,0,0.000,61.71,0.06,-14.82,31.5919880,120.7725737,2.472,13630384.294,24921470.908,2.472,0.000,0.000,0.000,0.000,0.000,0.000,0.000,16,15,4*63
$GPGGA,032437.20,3135.5193471,N,12046.3545774,E,4,16,1.6,2.4720,M,8.295,M,01,0004*60
$GPHPD,0,0.000,61.80,0.49,-14.78,31.5919891,120.7725763,2.472,13630383.685,24921472.377,2.472,0.000,0.000,0.000,0.000,0.000,0.000,0.000,16,15,4*61
$GPGGA,032437.40,3135.5194172,N,12046.3547288,E,4,16,1.6,2.4826,M,8.295,M,01,0004*6A
$GPHPD,0,0.000,61.79,0.19,-14.77,31.5919903,120.7725788,2.483,13630382.993,24921473.795,2.483,0.000,0.000,0.000,0.000,0.000,0.000,0.000,16,15,4*62
$GPGGA,032437.60,3135.5194885,N,12046.3548773,E,4,16,1.7,2.4789,M,8.295,M,00,0004*6D
$GPHPD,0,0.000,61.73,0.20,-14.74,31.5919915,120.7725813,2.479,13630382.279,24921475.170,2.479,0.000,0.000,0.000,0.000,0.000,0.000,0.000,16,15,4*6F
$GPGGA,032437.80,3135.5195557,N,12046.3550302,E,4,16,1.7,2.4741,M,8.295,M,00,0004*6F
$GPHPD,0,0.000,61.92,-0.07,-14.71,31.5919926,120.7725838,2.474,13630381.632,24921476.622,2.474,0.000,0.000,0.000,0.000,0.000,0.000,0.000,16,15,4*4F
$GPGGA,032438.00,3135.5196228,N,12046.3551793,E,4,16,1.7,2.4667,M,8.295,M,01,0004*6D
$GPHPD,0,0.000,61.91,-0.89,-14.74,31.5919937,120.7725863,2.467,13630380.978,24921478.030,2.467,0.000,0.000,0.000,0.000,0.000,0.000,0.000,16,15,4*4A
$GPGGA,032438.20,3135.5196863,N,12046.3553323,E,4,15,1.7,2.4708,M,8.295,M,01,0004*6C
$GPHPD,0,0.000,62.11,-0.20,-14.78,31.5919948,120.7725889,2.471,13630380.383,24921479.505,2.471,0.000,0.000,0.000,0.000,0.000,0.000,0.000,15,15,4*4D
$GPGGA,032438.40,3135.5197544,N,12046.3554832,E,4,15,1.9,2.4872,M,8.295,M,01,0004*63
$GPHPD,0,0.000,62.08,-0.18,-14.83,31.5919959,120.7725914,2.487,13630379.719,24921480.928,2.487,0.000,0.000,0.000,0.000,0.000,0.000,0.000,15,15,4*4B
$GPGGA,032438.60,3135.5198233,N,12046.3556291,E,4,14,1.9,2.4687,M,8.295,M,00,0004*6C
$GPHPD,0,0.000,62.81,-1.47,-14.86,31.5919971,120.7725938,2.469,13630379.034,24921482.286,2.469,0.000,0.000,0.000,0.000,0.000,0.000,0.000,14,14,4*45
$GPGGA,032438.80,3135.5198848,N,12046.3557818,E,4,14,1.9,2.4628,M,8.295,M,00,0004*6B
$GPHPD,0,0.000,62.62,0.15,-14.91,31.5919981,120.7725964,2.463,13630378.467,24921483.769,2.463,0.000,0.000,0.000,0.000,0.000,0.000,0.000,14,14,4*65
$GPGGA,032439.00,3135.5199550,N,12046.3559315,E,4,14,1.9,2.4654,M,8.295,M,01,0004*65
$GPHPD,0,0.000,62.33,0.26,-14.95,31.5919993,120.7725989,2.465,13630377.771,24921485.165,2.465,0.000,0.000,0.000,0.000,0.000,0.000,0.000,14,14,4*62
$GPGGA,032439.20,3135.5200207,N,12046.3560866,E,4,14,1.9,2.4678,M,8.295,M,01,0004*6A
$GPHPD,0,0.000,62.40,1.03,-14.96,31.5920003,120.7726014,2.468,13630377.149,24921486.653,2.468,0.000,0.000,0.000,0.000,0.000,0.000,0.000,14,14,4*6B
$GPGGA,032439.40,3135.5200849,N,12046.3562337,E,4,14,1.9,2.4809,M,8.295,M,01,0004*69
$GPHPD,0,0.000,62.17,0.23,-14.95,31.5920014,120.7726039,2.481,13630376.533,24921488.053,2.481,0.000,0.000,0.000,0.000,0.000,0.000,0.000,14,14,4*60
$GPGGA,032439.60,3135.5201508,N,12046.3563890,E,4,14,1.9,2.4767,M,8.295,M,00,0004*63
$GPHPD,0,0.000,61.76,0.57,-14.94,31.5920025,120.7726065,2.477,13630375.909,24921489.542,2.477,0.000,0.000,0.000,0.000,0.000,0.000,0.000,14,14,4*6F
$GPGGA,032439.80,3135.5202191,N,12046.3565441,E,4,14,1.9,2.4849,M,8.295,M,00,0004*6F
$GPHPD,0,0.000,61.72,0.17,-14.88,31.5920037,120.7726091,2.485,13630375.250,24921491.014,2.485,0.000,0.000,0.000,0.000,0.000,0.000,0.000,14,14,4*62
$GPGGA,032440.00,3135.5202872,N,12046.3566914,E,4,14,1.9,2.4779,M,8.295,M,01,0004*6E
$GPHPD,0,0.000,61.45,0.19,-14.81,31.5920048,120.7726115,2.478,13630374.579,24921492.394,2.478,0.000,0.000,0.000,0.000,0.000,0.000,0.000,14,14,4*61
$GPGGA,032440.20,3135.5203521,N,12046.3568445,E,4,14,1.9,2.4818,M,8.295,M,01,0004*69
$GPHPD,0,0.000,61.57,0.37,-14.75,31.5920059,120.7726141,2.482,13630373.965,24921493.862,2.482,0.000,0.000,0.000,0.000,0.000,0.000,0.000,14,14,4*61
$GPGGA,032440.40,3135.5204175,N,12046.3569920,E,4,14,1.9,2.4756,M,8.295,M,01,0004*67
$GPHPD,0,0.000,61.47,0.38,-14.72,31.5920070,120.7726165,2.476,13630373.332,24921495.260,2.476,0.000,0.000,0.000,0.000,0.000,0.000,0.000,14,14,4*63
$GPGGA,032440.60,3135.5204857,N,12046.3571402,E,4,14,1.5,2.4835,M,8.295,M,00,0004*6F
$GPHPD,0,0.000,61.55,0.42,-14.65,31.5920081,120.7726190,2.484,13630372.661,24921496.650,2.484,0.000,0.000,0.000,0.000,0.000,0.000,0.000,14,14,4*69
$GPGGA,032440.80,3135.5205537,N,12046.3572871,E,4,14,1.5,2.4843,M,8.295,M,00,0004*61
$GPHPD,0,0.000,61.75,-0.26,-14.64,31.5920092,120.7726215,2.484,13630371.990,24921498.025,2.484,0.000,0.000,0.000,0.000,0.000,0.000,0.000,14,14,4*41
$GPGGA,032441.00,3135.5206209,N,12046.3574337,E,4,14,1.5,2.4847,M,8.295,M,01,0004*6B
$GPHPD,0,0.000,61.74,-0.06,-14.64,31.5920103,120.7726239,2.485,13630371.330,24921499.402,2.485,0.000,0.000,0.000,0.000,0.000,0.000,0.000,14,14,4*45
$GPGGA,032441.20,3135.5206851,N,12046.3575768,E,4,14,1.5,2.4832,M,8.295,M,01,0004*63
$GPHPD,0,0.000,61.88,-0.42,-14.60,31.5920114,120.7726263,2.483,13630370.706,24921500.753,2.483,0.000,0.000,0.000,0.000,0.000,0.000,0.000,14,14,4*4D
$GPGGA,032441.40,3135.5207512,N,12046.3577241,E,4,14,1.5,2.4793,M,8.295,M,01,0004*66
$GPHPD,0,0.000,62.27,-0.81,-14.59,31.5920125,120.7726287,2.479,13630370.063,24921502.145,2.479,0.000,0.000,0.000,0.000,0.000,0.000,0.000,14,14,4*41
$GPGGA,032441.60,3135.5208158,N,12046.3578726,E,4,14,1.5,2.4789,M,8.295,M,00,0004*60
$GPHPD,0,0.000,62.71,-0.68,-14.61,31.5920136,120.7726312,2.479,13630369.444,24921503.559,2.479,0.000,0.000,0.000,0.000,0.000,0.000,0.000,14,14,4*40
$GPGGA,032441.80,3135.5208811,N,12046.3580237,E,4,14,1.5,2.4813,M,8.295,M,00,0004*64
$GPHPD,0,0.000,62.62,-0.94,-14.64,31.5920147,120.7726337,2.481,13630368.820,24921505.001,2.481,0.000,0.000,0.000,0.000,0.000,0.000,0.000,14,14,4*44
$GPGGA,032442.00,3135.5209448,N,12046.3581734,E,4,14,1.5,2.4813,M,8.295,M,01,0004*68
$GPHPD,0,0.000,62.75,-0.50,-14.67,31.5920157,120.7726362,2.481,13630368.216,24921506.435,2.481,0.000,0.000,0.000,0.000,0.000,0.000,0.000,14,14,4*47
$GPGGA,032442.20,3135.5210075,N,12046.3583193,E,4,14,1.5,2.4797,M,8.295,M,01,0004*62
$GPHPD,0,0.000,62.93,-1.02,-14.70,31.5920168,120.7726387,2.480,13630367.618,24921507.829,2.480,0.000,0.000,0.000,0.000,0.000,0.000,0.000,14,14,4*4D
$GPGGA,032442.40,3135.5210707,N,12046.3584691,E,4,14,1.5,2.4732,M,8.295,M,01,0004*6B
$GPHPD,0,0.000,63.10,-0.71,-14.72,31.5920178,120.7726412,2.473,13630367.022,24921509.267,2.473,0.000,0.000,0.000,0.000,0.000,0.000,0.000,14,14,4*4B
$GPGGA,032442.60,3135.5211316,N,12046.3586150,E,4,14,1.5,2.4639,M,8.295,M,00,0004*6F
$GPHPD,0,0.000,63.17,-0.44,-14.74,31.5920189,120.7726436,2.464,13630366.450,24921510.672,2.464,0.000,0.000,0.000,0.000,0.000,0.000,0.000,14,14,4*4C
$GPGGA,032442.80,3135.5211969,N,12046.3587697,E,4,15,1.5,2.4600,M,8.295,M,00,0004*65
$GPHPD,0,0.000,63.46,-0.09,-14.75,31.5920199,120.7726462,2.460,13630365.833,24921512.157,2.460,0.000,0.000,0.000,0.000,0.000,0.000,0.000,15,14,4*49
$GPGGA,032443.00,3135.5212575,N,12046.3589191,E,4,15,1.5,2.4636,M,8.295,M,01,0004*65
$GPHPD,0,0.000,63.60,0.14,-14.68,31.5920210,120.7726487,2.464,13630365.272,24921513.606,2.464,0.000,0.000,0.000,0.000,0.000,0.000,0.000,15,14,4*64
$GPGGA,032443.20,3135.5213206,N,12046.3590677,E,4,15,1.5,2.4568,M,8.295,M,01,0004*6A
$GPHPD,0,0.000,63.59,0.10,-14.68,31.5920220,120.7726511,2.457,13630364.675,24921515.030,2.457,0.000,0.000,0.000,0.000,0.000,0.000,0.000,15,14,4*60
$GPGGA,032443.40,3135.5213850,N,12046.3592181,E,4,16,1.4,2.4513,M,8.295,M,01,0004*67
$GPHPD,0,0.000,63.58,0.16,-14.70,31.5920231,120.7726536,2.451,13630364.062,24921516.469,2.451,0.000,0.000,0.000,0.000,0.000,0.000,0.000,16,16,4*61
$GPGGA,032443.60,3135.5214441,N,12046.3593702,E,4,16,1.4,2.4598,M,8.295,M,01,0004*61
$GPHPD,0,0.000,63.66,-0.08,-14.67,31.5920241,120.7726562,2.460,13630363.528,24921517.959,2.460,0.000,0.000,0.000,0.000,0.000,0.000,0.000,16,16,4*4D
$GPGGA,032443.80,3135.5215095,N,12046.3595224,E,4,16,1.4,2.4752,M,8.295,M,00,0004*61
$GPHPD,0,0.000,63.17,-0.02,-14.63,31.5920252,120.7726587,2.475,13630362.905,24921519.413,2.475,0.000,0.000,0.000,0.000,0.000,0.000,0.000,16,16,4*43
$GPGGA,032444.00,3135.5215718,N,12046.3596759,E,4,16,1.4,2.4599,M,8.295,M,01,0004*64
$GPHPD,0,0.000,63.28,-0.18,-14.60,31.5920262,120.7726613,2.460,13630362.329,24921520.901,2.460,0.000,0.000,0.000,0.000,0.000,0.000,0.000,16,16,4*4A
$GPGGA,032444.20,3135.5216328,N,12046.3598260,E,4,16,1.4,2.4639,M,8.295,M,01,0004*6A
$GPHPD,0,0.000,63.19,-0.19,-14.59,31.5920272,120.7726638,2.464,13630361.764,24921522.356,2.464,0.000,0.000,0.000,0.000,0.000,0.000,0.000,16,16,4*4F
$GPGGA,032444.40,3135.5216968,N,12046.3599747,E,4,16,1.4,2.4562,M,8.295,M,01,0004*6E
$GPHPD,0,0.000,63.06,-0.74,-14.59,31.5920283,120.7726662,2.456,13630361.154,24921523.776,2.456,0.000,0.000,0.000,0.000,0.000,0.000,0.000,16,15,4*4A
$GPGGA,032444.60,3135.5217583,N,12046.3601168,E,4,16,1.3,2.4677,M,8.295,M,00,0004*6C
$GPHPD,0,0.000,63.06,-0.04,-14.59,31.5920293,120.7726686,2.468,13630360.565,24921525.132,2.468,0.000,0.000,0.000,0.000,0.000,0.000,0.000,16,15,4*41
$GPGGA,032444.80,3135.5218189,N,12046.3602623,E,4,16,1.3,2.4692,M,8.295,M,00,0004*63
$GPHPD,0,0.000,62.98,-0.25,-14.60,31.5920303,120.7726710,2.469,13630359.997,24921526.533,2.469,0.000,0.000,0.000,0.000,0.000,0.000,0.000,16,15,4*45
$GPGGA,032445.00,3135.5218829,N,12046.3604030,E,4,16,1.4,2.4569,M,8.295,M,01,0004*6A
$GPHPD,0,0.000,62.89,-0.64,-14.64,31.5920314,120.7726734,2.457,13630359.371,24921527.857,2.457,0.000,0.000,0.000,0.000,0.000,0.000,0.000,16,15,4*48
$GPGGA,032445.20,3135.5219441,N,12046.3605527,E,4,16,1.4,2.4518,M,8.295,M,01,0004*6F
$GPHPD,0,0.000,62.90,-0.17,-14.67,31.5920324,120.7726759,2.452,13630358.802,24921529.306,2.452,0.000,0.000,0.000,0.000,0.000,0.000,0.000,16,15,4*40
$GPGGA,032445.40,3135.5220060,N,12046.3606986,E,4,16,1.4,2.4459,M,8.295,M,01,0004*64
$GPHPD,0,0.000,62.58,-0.08,-14.68,31.5920334,120.7726783,2.446,13630358.216,24921530.705,2.446,0.000,0.000,0.000,0.000,0.000,0.000,0.000,16,15,4*43
$GPGGA,032445.60,3135.5220700,N,12046.3608452,E,4,15,1.4,2.4527,M,8.295,M,00,0004*67
$GPHPD,0,0.000,62.88,0.85,-14.73,31.5920345,120.7726808,2.453,13630357.602,24921532.100,2.453,0.000,0.000,0.000,0.000,0.000,0.000,0.000,15,15,4*6A
$GPGGA,032445.80,3135.5221348,N,12046.3609957,E,4,16,1.5,2.4378,M,8.295,M,00,0004*67
$GPHPD,0,0.000,62.78,0.11,-14.78,31.5920356,120.7726833,2.438,13630356.984,24921533.537,2.438,0.000,0.000,0.000,0.000,0.000,0.000,0.000,16,15,4*6B
$GPGGA,032446.00,3135.5222005,N,12046.3611429,E,4,16,1.4,2.4441,M,8.295,M,01,0004*65
$GPHPD,0,0.000,62.83,0.76,-14.78,31.5920367,120.7726857,2.444,13630356.346,24921534.930,2.444,0.000,0.000,0.000,0.000,0.000,0.000,0.000,16,15,4*66
$GPGGA,032446.20,3135.5222616,N,12046.3612912,E,4,16,1.4,2.4565,M,8.295,M,01,0004*62
$GPHPD,0,0.000,62.74,1.25,-14.76,31.5920377,120.7726882,2.457,13630355.776,24921536.362,2.457,0.000,0.000,0.000,0.000,0.000,0.000,0.000,16,15,4*65
$GPGGA,032446.40,3135.5223285,N,12046.3614365,E,4,16,1.4,2.4651,M,8.295,M,01,0004*63
$GPHPD,0,0.000,62.76,1.16,-14.71,31.5920388,120.7726906,2.465,13630355.118,24921537.725,2.465,0.000,0.000,0.000,0.000,0.000,0.000,0.000,16,15,4*65
$GPGGA,032446.60,3135.5223905,N,12046.3615837,E,4,16,1.4,2.4726,M,8.295,M,00,0004*6F
$GPHPD,0,0.000,63.11,0.27,-14.66,31.5920398,120.7726931,2.473,13630354.533,24921539.138,2.473,0.000,0.000,0.000,0.000,0.000,0.000,0.000,16,15,4*6D
$GPGGA,032446.80,3135.5224521,N,12046.3617298,E,4,16,1.4,2.4726,M,8.296,M,00,0004*62
$GPHPD,0,0.000,62.79,-0.01,-14.63,31.5920409,120.7726955,2.473,13630353.951,24921540.541,2.473,0.000,0.000,0.000,0.000,0.000,0.000,0.000,16,15,4*48
$GPGGA,032447.00,3135.5225163,N,12046.3618795,E,4,16,1.4,2.4631,M,8.296,M,01,0004*69
$GPHPD,0,0.000,62.46,0.87,-14.64,31.5920419,120.7726980,2.463,13630353.340,24921541.973,2.463,0.000,0.000,0.000,0.000,0.000,0.000,0.000,16,15,4*6F
$GPGGA,032447.20,3135.5225777,N,12046.3620220,E,4,16,1.4,2.4766,M,8.296,M,01,0004*6B
$GPHPD,0,0.000,62.44,0.57,-14.66,31.5920430,120.7727004,2.477,13630352.755,24921543.333,2.477,0.000,0.000,0.000,0.000,0.000,0.000,0.000,16,15,4*60
$GPGGA,032447.40,3135.5226391,N,12046.3621740,E,4,16,1.4,2.4761,M,8.296,M,01,0004*67
$GPHPD,0,0.000,62.66,0.26,-14.67,31.5920440,120.7727029,2.476,13630352.188,24921544.809,2.476,0.000,0.000,0.000,0.000,0.000,0.000,0.000,16,15,4*6C
$GPGGA,032447.60,3135.5227026,N,12046.3623232,E,4,16,1.3,2.4824,M,8.296,M,00,0004*61
$GPHPD,0,0.000,62.41,-0.38,-14.71,31.5920450,120.7727054,2.482,13630351.586,24921546.238,2.482,0.000,0.000,0.000,0.000,0.000,0.000,0.000,16,15,4*44
$GPGGA,032447.80,3135.5227707,N,12046.3624692,E,4,16,1.3,2.4834,M,8.296,M,00,0004*63
$GPHPD,0,0.000,62.37,0.25,-14.73,31.5920462,120.7727078,2.483,13630350.912,24921547.602,2.483,0.000,0.000,0.000,0.000,0.000,0.000,0.000,16,15,4*65
$GPGGA,032448.00,3135.5228328,N,12046.3626146,E,4,16,1.3,2.4952,M,8.296,M,01,0004*6E
$GPHPD,0,0.000,62.63,-0.82,-14.72,31.5920472,120.7727102,2.495,13630350.322,24921548.994,2.495,0.000,0.000,0.000,0.000,0.000,0.000,0.000,16,15,4*4E
$GPGGA,032448.20,3135.5228984,N,12046.3627645,E,4,16,1.3,2.4889,M,8.296,M,01,0004*62
$GPHPD,0,0.000,62.59,-0.70,-14.73,31.5920483,120.7727127,2.489,13630349.691,24921550.419,2.489,0.000,0.000,0.000,0.000,0.000,0.000,0.000,16,15,4*46
$GPGGA,032448.40,3135.5229613,N,12046.3629132,E,4,16,1.3,2.4944,M,8.296,M,01,0004*6D
$GPHPD,0,0.000,62.66,-0.40,-14.74,31.5920494,120.7727152,2.494,13630349.096,24921551.846,2.494,0.000,0.000,0.000,0.000,0.000,0.000,0.000,16,15,4*4C
$GPGGA,032448.60,3135.5230263,N,12046.3630608,E,4,16,1.3,2.4869,M,8.296,M,00,0004*6D
$GPHPD,0,0.000,62.52,-1.13,-14.72,31.5920504,120.7727177,2.487,13630348.470,24921553.247,2.487,0.000,0.000,0.000,0.000,0.000,0.000,0.000,16,15,4*41
$GPGGA,032448.80,3135.5230887,N,12046.3632072,E,4,16,1.3,2.4860,M,8.296,M,00,0004*63
$GPHPD,0,0.000,62.67,-0.74,-14.71,31.5920515,120.7727201,2.486,13630347.877,24921554.649,2.486,0.000,0.000,0.000,0.000,0.000,0.000,0.000,16,15,4*4F
$GPGGA,032449.00,3135.5231552,N,12046.3633541,E,4,16,1.3,2.4774,M,8.296,M,01,0004*61
$GPHPD,0,0.000,62.60,-0.85,-14.70,31.5920526,120.7727226,2.477,13630347.228,24921556.033,2.477,0.000,0.000,0.000,0.000,0.000,0.000,0.000,16,15,4*4B
$GPGGA,032449.20,3135.5232165,N,12046.3635004,E,4,16,1.3,2.4786,M,8.296,M,01,0004*6F
$GPHPD,0,0.000,62.68,-0.29,-14.70,31.5920536,120.7727250,2.479,13630346.651,24921557.440,2.479,0.000,0.000,0.000,0.000,0.000,0.000,0.000,16,15,4*4F
$GPGGA,032449.40,3135.5232814,N,12046.3636433,E,4,16,1.4,2.4666,M,8.296,M,01,0004*6D
$GPHPD,0,0.000,62.51,-1.02,-14.73,31.5920547,120.7727274,2.467,13630346.016,24921558.786,2.467,0.000,0.000,0.000,0.000,0.000,0.000,0.000,16,16,4*4E
$GPGGA,032449.60,3135.5233470,N,12046.3637882,E,4,16,1.4,2.4558,M,8.296,M,00,0004*68
$GPHPD,0,0.000,62.34,-0.48,-14.73,31.5920558,120.7727298,2.456,13630345.376,24921560.151,2.456,0.000,0.000,0.000,0.000,0.000,0.000,0.000,16,16,4*4F
$GPGGA,032449.80,3135.5234085,N,12046.3639350,E,4,16,1.5,2.4631,M,8.296,M,00,0004*68
$GPHPD,0,0.000,62.12,-0.18,-14.76,31.5920568,120.7727323,2.463,13630344.797,24921561.563,2.463,0.000,0.000,0.000,0.000,0.000,0.000,0.000,16,16,4*47
$GPGGA,032450.00,3135.5234748,N,12046.3640849,E,4,16,1.5,2.4557,M,8.296,M,01,0004*61
$GPHPD,0,0.000,62.17,-0.31,-14.77,31.5920579,120.7727347,2.456,13630344.157,24921562.984,2.456,0.000,0.000,0.000,0.000,0.000,0.000,0.000,16,16,4*46
$GPGGA,032450.20,3135.5235356,N,12046.3642281,E,4,16,1.5,2.4628,M,8.296,M,01,0004*6E
$GPHPD,0,0.000,62.07,0.20,-14.76,31.5920589,120.7727371,2.463,13630343.581,24921564.357,2.463,0.000,0.000,0.000,0.000,0.000,0.000,0.000,16,16,4*6B
$GPGGA,032450.40,3135.5236021,N,12046.3643738,E,4,16,1.5,2.4541,M,8.296,M,01,0004*62
$GPHPD,0,0.000,62.35,-0.44,-14.76,31.5920600,120.7727396,2.454,13630342.929,24921565.727,2.454,0.000,0.000,0.000,0.000,0.000,0.000,0.000,16,16,4*43
$GPGGA,032450.60,3135.5236638,N,12046.3645188,E,4,16,1.5,2.4621,M,8.296,M,00,0004*61
$GPHPD,0,0.000,62.65,-0.58,-14.78,31.5920611,120.7727420,2.462,13630342.344,24921567.116,2.462,0.000,0.000,0.000,0.000,0.000,0.000,0.000,16,16,4*48
$GPGGA,032450.80,3135.5237334,N,12046.3646632,E,4,16,1.5,2.4635,M,8.296,M,00,0004*67
$GPHPD,0,0.000,61.83,0.02,-14.78,31.5920622,120.7727444,2.464,13630341.645,24921568.452,2.464,0.000,0.000,0.000,0.000,0.000,0.000,0.000,16,16,4*6E
$GPGGA,032451.00,3135.5237960,N,12046.3648078,E,4,16,1.4,2.4647,M,8.296,M,01,0004*66
$GPHPD,0,0.000,62.07,0.27,-14.78,31.5920633,120.7727468,2.465,13630341.047,24921569.831,2.465,0.000,0.000,0.000,0.000,0.000,0.000,0.000,16,16,4*64
$GPGGA,032451.20,3135.5238628,N,12046.3649526,E,4,16,1.4,2.4678,M,8.296,M,01,0004*6B
$GPHPD,0,0.000,61.66,0.47,-14.77,31.5920644,120.7727492,2.468,13630340.389,24921571.188,2.468,0.000,0.000,0.000,0.000,0.000,0.000,0.000,16,16,4*6E
$GPGGA,032451.40,3135.5239249,N,12046.3651037,E,4,16,1.4,2.4626,M,8.296,M,01,0004*68
$GPHPD,0,0.000,61.49,0.94,-14.77,31.5920654,120.7727517,2.463,13630339.810,24921572.648,2.463,0.000,0.000,0.000,0.000,0.000,0.000,0.000,16,16,4*6D
$GPGGA,032451.60,3135.5239882,N,12046.3652551,E,4,16,1.3,2.4684,M,8.296,M,00,0004*6F
$GPHPD,0,0.000,61.18,1.43,-14.75,31.5920665,120.7727543,2.468,13630339.215,24921574.105,2.468,0.000,0.000,0.000,0.000,0.000,0.000,0.000,16,16,4*64
$GPGGA,032451.80,3135.5240594,N,12046.3653984,E,4,16,1.3,2.4832,M,8.296,M,00,0004*63
$GPHPD,0,0.000,61.32,1.55,-14.74,31.5920677,120.7727566,2.483,13630338.492,24921575.419,2.483,0.000,0.000,0.000,0.000,0.000,0.000,0.000,16,16,4*6F
$GPGGA,032452.00,3135.5241237,N,12046.3655506,E,4,16,1.3,2.4687,M,8.296,M,01,0004*66
$GPHPD,0,0.000,61.98,0.64,-14.72,31.5920687,120.7727592,2.469,13630337.884,24921576.879,2.469,0.000,0.000,0.000,0.000,0.000,0.000,0.000,16,16,4*63
$GPGGA,032452.20,3135.5241906,N,12046.3656943,E,4,16,1.3,2.4717,M,8.296,M,01,0004*6B
$GPHPD,0,0.000,62.10,0.38,-14.72,31.5920698,120.7727616,2.472,13630337.223,24921578.223,2.472,0.000,0.000,0.000,0.000,0.000,0.000,0.000,16,16,4*64
$GPGGA,032452.40,3135.5242559,N,12046.3658409,E,4,15,1.3,2.4855,M,8.296,M,01,0004*6F
$GPHPD,0,0.000,62.52,0.07,-14.74,31.5920709,120.7727640,2.486,13630336.590,24921579.610,2.486,0.000,0.000,0.000,0.000,0.000,0.000,0.000,15,16,4*6A
$GPGGA,032452.60,3135.5243217,N,12046.3659880,E,4,16,1.3,2.4851,M,8.296,M,00,0004*6B
$GPHPD,0,0.000,62.59,-1.17,-14.74,31.5920720,120.7727665,2.485,13630335.951,24921581.001,2.485,0.000,0.000,0.000,0.000,0.000,0.000,0.000,16,16,4*40
$GPGGA,032452.80,3135.5243862,N,12046.3661358,E,4,16,1.3,2.4862,M,8.296,M,00,0004*68
$GPHPD,0,0.000,62.62,-1.26,-14.73,31.5920731,120.7727689,2.486,13630335.331,24921582.407,2.486,0.000,0.000,0.000,0.000,0.000,0.000,0.000,16,16,4*42
$GPGGA,032453.00,3135.5244513,N,12046.3662823,E,4,16,1.3,2.4839,M,8.296,M,01,0004*66
$GPHPD,0,0.000,62.69,-0.86,-14.72,31.5920742,120.7727714,2.484,13630334.701,24921583.795,2.484,0.000,0.000,0.000,0.000,0.000,0.000,0.000,16,16,4*4D
$GPGGA,032453.20,3135.5245116,N,12046.3664322,E,4,16,1.3,2.4771,M,8.296,M,01,0004*6B
$GPHPD,0,0.000,62.60,-0.80,-14.73,31.5920752,120.7727739,2.477,13630334.146,24921585.251,2.477,0.000,0.000,0.000,0.000,0.000,0.000,0.000,16,16,4*43
$GPGGA,032453.40,3135.5245762,N,12046.3665807,E,4,16,1.3,2.4783,M,8.296,M,01,0004*68
$GPHPD,0,0.000,62.50,-0.85,-14.73,31.5920763,120.7727763,2.478,13630333.526,24921586.666,2.478,0.000,0.000,0.000,0.000,0.000,0.000,0.000,16,16,4*4E
$GPGGA,032453.60,3135.5246401,N,12046.3667265,E,4,16,1.3,2.4713,M,8.296,M,01,0004*6A
$GPHPD,0,0.000,62.44,-0.89,-14.74,31.5920773,120.7727788,2.471,13630332.912,24921588.052,2.471,0.000,0.000,0.000,0.000,0.000,0.000,0.000,16,16,4*41
$GPGGA,032453.80,3135.5247061,N,12046.3668756,E,4,16,1.3,2.4709,M,8.296,M,00,0004*67
$GPHPD,0,0.000,62.62,-0.40,-14.75,31.5920784,120.7727813,2.471,13630332.274,24921589.465,2.471,0.000,0.000,0.000,0.000,0.000,0.000,0.000,16,16,4*4E
$GPGGA,032454.00,3135.5247661,N,12046.3670252,E,4,16,1.3,2.4693,M,8.296,M,01,0004*65
$GPHPD,0,0.000,62.84,0.08,-14.76,31.5920794,120.7727838,2.469,13630331.722,24921590.920,2.469,0.000,0.000,0.000,0.000,0.000,0.000,0.000,16,16,4*6D
$GPGGA,032454.20,3135.5248311,N,12046.3671733,E,4,16,1.3,2.4742,M,8.296,M,01,0004*64
$GPHPD,0,0.000,62.77,0.08,-14.77,31.5920805,120.7727862,2.474,13630331.096,24921592.327,2.474,0.000,0.000,0.000,0.000,0.000,0.000,0.000,16,16,4*6F
$GPGGA,032454.40,3135.5248963,N,12046.3673218,E,4,16,1.3,2.4639,M,8.296,M,01,0004*6E
$GPHPD,0,0.000,62.73,-0.36,-14.77,31.5920816,120.7727887,2.464,13630330.469,24921593.738,2.464,0.000,0.000,0.000,0.000,0.000,0.000,0.000,16,16,4*4C
$GPGGA,032454.60,3135.5249634,N,12046.3674696,E,4,16,1.3,2.4650,M,8.296,M,00,0004*6B
$GPHPD,0,0.000,62.52,0.40,-14.74,31.5920827,120.7727912,2.465,13630329.813,24921595.129,2.465,0.000,0.000,0.000,0.000,0.000,0.000,0.000,16,16,4*66
$GPGGA,032454.80,3135.5250278,N,12046.3676169,E,4,16,1.3,2.4694,M,8.296,M,00,0004*6C
$GPHPD,0,0.000,62.76,-0.43,-14.74,31.5920838,120.7727936,2.469,13630329.194,24921596.531,2.469,0.000,0.000,0.000,0.000,0.000,0.000,0.000,16,16,4*4E
$GPGGA,032455.00,3135.5250915,N,12046.3677656,E,4,16,1.3,2.4719,M,8.296,M,01,0004*6A
$GPHPD,0,0.000,62.86,-0.53,-14.73,31.5920849,120.7727961,2.472,13630328.588,24921597.953,2.472,0.000,0.000,0.000,0.000,0.000,0.000,0.000,16,15,4*41
$GPGGA,032455.20,3135.5251540,N,12046.3679200,E,4,16,1.3,2.4618,M,8.296,M,01,0004*6C
$GPHPD,0,0.000,62.64,-0.52,-14.72,31.5920859,120.7727987,2.462,13630328.010,24921599.451,2.462,0.000,0.000,0.000,0.000,0.000,0.000,0.000,16,15,4*41
$GPGGA,032455.40,3135.5252191,N,12046.3680668,E,4,16,1.3,2.4701,M,8.296,M,01,0004*64
$GPHPD,0,0.000,62.63,0.38,-14.71,31.5920870,120.7728011,2.470,13630327.380,24921600.842,2.470,0.000,0.000,0.000,0.000,0.000,0.000,0.000,16,16,4*6D
$GPGGA,032455.60,3135.5252847,N,12046.3682138,E,4,16,1.3,2.4845,M,8.296,M,00,0004*6A
$GPHPD,0,0.000,62.36,0.68,-14.69,31.5920881,120.7728036,2.485,13630326.744,24921602.232,2.485,0.000,0.000,0.000,0.000,0.000,0.000,0.000,16,16,4*68
$GPGGA,032455.80,3135.5253497,N,12046.3683678,E,4,15,1.3,2.4700,M,8.296,M,00,0004*6B
$GPHPD,0,0.000,62.08,-0.30,-14.69,31.5920892,120.7728061,2.470,13630326.130,24921603.711,2.470,0.000,0.000,0.000,0.000,0.000,0.000,0.000,15,15,4*45
$GPGGA,032456.00,3135.5254151,N,12046.3685118,E,4,15,1.3,2.4777,M,8.296,M,01,0004*6E
$GPHPD,0,0.000,62.41,0.00,-14.68,31.5920903,120.7728085,2.478,13630325.490,24921605.066,2.478,0.000,0.000,0.000,0.000,0.000,0.000,0.000,15,15,4*69
$GPGGA,032456.20,3135.5254799,N,12046.3686623,E,4,15,1.3,2.4750,M,8.296,M,01,0004*67
$GPHPD,0,0.000,62.72,-0.31,-14.68,31.5920913,120.7728110,2.475,13630324.872,24921606.504,2.475,0.000,0.000,0.000,0.000,0.000,0.000,0.000,15,15,4*49
$GPGGA,032456.40,3135.5255399,N,12046.3688112,E,4,15,1.3,2.4839,M,8.296,M,01,0004*6F
$GPHPD,0,0.000,62.06,1.27,-14.69,31.5920923,120.7728135,2.484,13630324.319,24921607.950,2.484,0.000,0.000,0.000,0.000,0.000,0.000,0.000,15,15,4*6E
$GPGGA,032456.60,3135.5256094,N,12046.3689510,E,4,15,1.3,2.4816,M,8.296,M,00,0004*6B
$GPHPD,0,0.000,62.19,0.55,-14.76,31.5920935,120.7728159,2.482,13630323.613,24921609.231,2.482,0.000,0.000,0.000,0.000,0.000,0.000,0.000,15,15,4*6D
$GPGGA,032456.80,3135.5256747,N,12046.3690982,E,4,15,1.3,2.4759,M,8.296,M,00,0004*67
$GPHPD,0,0.000,62.80,0.06,-14.77,31.5920946,120.7728183,2.476,13630322.981,24921610.625,2.476,0.000,0.000,0.000,0.000,0.000,0.000,0.000,15,15,4*65
$GPGGA,032457.00,3135.5257358,N,12046.3692430,E,4,15,1.3,2.4816,M,8.296,M,01,0004*66
$GPHPD,0,0.000,63.10,-0.64,-14.82,31.5920956,120.7728207,2.482,13630322.404,24921612.016,2.482,0.000,0.000,0.000,0.000,0.000,0.000,0.000,15,15,4*44
$GPGGA,032457.20,3135.5258016,N,12046.3693897,E,4,15,1.3,2.4964,M,8.296,M,01,0004*66
$GPHPD,0,0.000,63.15,-0.39,-14.80,31.5920967,120.7728232,2.496,13630321.764,24921613.401,2.496,0.000,0.000,0.000,0.000,0.000,0.000,0.000,15,15,4*4A
$GPGGA,032457.40,3135.5258643,N,12046.3695351,E,4,15,1.3,2.4890,M,8.296,M,01,0004*6B
$GPHPD,0,0.000,62.87,-0.70,-14.79,31.5920977,120.7728256,2.489,13630321.166,24921614.790,2.489,0.000,0.000,0.000,0.000,0.000,0.000,0.000,15,15,4*40
$GPGGA,032457.60,3135.5259305,N,12046.3696880,E,4,15,1.3,2.4823,M,8.296,M,00,0004*62
$GPHPD,0,0.000,62.97,-1.19,-14.73,31.5920988,120.7728281,2.482,13630320.533,24921616.248,2.482,0.000,0.000,0.000,0.000,0.000,0.000,0.000,15,15,4*48
$GPGGA,032457.80,3135.5259940,N,12046.3698388,E,4,15,1.3,2.4841,M,8.296,M,00,0004*6E
$GPHPD,0,0.000,62.90,-0.88,-14.74,31.5920999,120.7728306,2.484,13630319.934,24921617.696,2.484,0.000,0.000,0.000,0.000,0.000,0.000,0.000,15,15,4*48
$GPGGA,032458.00,3135.5260536,N,12046.3699935,E,4,15,1.3,2.4651,M,8.296,M,01,0004*6D
$GPHPD,0,0.000,62.70,-1.17,-14.77,31.5921009,120.7728332,2.465,13630319.398,24921619.215,2.465,0.000,0.000,0.000,0.000,0.000,0.000,0.000,15,15,4*49
$GPGGA,032458.20,3135.5261159,N,12046.3701396,E,4,15,1.3,2.4747,M,8.296,M,01,0004*66
$GPHPD,0,0.000,62.52,-0.04,-14.80,31.5921019,120.7728357,2.475,13630318.807,24921620.614,2.475,0.000,0.000,0.000,0.000,0.000,0.000,0.000,15,15,4*43
$GPGGA,032458.40,3135.5261809,N,12046.3702861,E,4,15,1.3,2.4603,M,8.296,M,01,0004*6D
$GPHPD,0,0.000,62.48,-0.44,-14.80,31.5921030,120.7728381,2.460,13630318.178,24921622.002,2.460,0.000,0.000,0.000,0.000,0.000,0.000,0.000,15,15,4*4E
$GPGGA,032458.60,3135.5262438,N,12046.3704337,E,4,15,1.3,2.4661,M,8.296,M,00,0004*69
$GPHPD,0,0.000,62.83,0.05,-14.75,31.5921041,120.7728406,2.466,13630317.581,24921623.415,2.466,0.000,0.000,0.000,0.000,0.000,0.000,0.000,15,15,4*6B
$GPGGA,032458.80,3135.5263081,N,12046.3705807,E,4,15,1.3,2.4701,M,8.296,M,00,0004*6E
$GPHPD,0,0.000,62.59,0.15,-14.67,31.5921051,120.7728430,2.470,13630316.963,24921624.813,2.470,0.000,0.000,0.000,0.000,0.000,0.000,0.000,15,15,4*66
$GPGGA,032459.00,3135.5263693,N,12046.3707236,E,4,15,1.3,2.4756,M,8.296,M,01,0004*6B
$GPHPD,0,0.000,62.51,-0.04,-14.68,31.5921062,120.7728454,2.476,13630316.381,24921626.180,2.476,0.000,0.000,0.000,0.000,0.000,0.000,0.000,15,15,4*49
$GPGGA,032459.20,3135.5264354,N,12046.3708734,E,4,15,1.3,2.4767,M,8.296,M,01,0004*6A
$GPHPD,0,0.000,62.40,-0.17,-14.65,31.5921073,120.7728479,2.477,13630315.743,24921627.601,2.477,0.000,0.000,0.000,0.000,0.000,0.000,0.000,15,15,4*4F
$GPGGA,032459.40,3135.5264991,N,12046.3710196,E,4,15,1.3,2.4730,M,8.296,M,01,0004*6A
$GPHPD,0,0.000,62.43,-0.65,-14.66,31.5921083,120.7728503,2.473,13630315.132,24921628.993,2.473,0.000,0.000,0.000,0.000,0.000,0.000,0.000,15,15,4*42
$GPGGA,032459.60,3135.5265672,N,12046.3711703,E,4,15,1.3,2.4661,M,8.296,M,00,0004*64
$GPHPD,0,0.000,62.21,-0.29,-14.74,31.5921095,120.7728528,2.466,13630314.467,24921630.414,2.466,0.000,0.000,0.000,0.000,0.000,0.000,0.000,15,15,4*4C
$GPGGA,032459.80,3135.5266337,N,12046.3713202,E,4,15,1.3,2.4603,M,8.296,M,00,0004*6F
$GPHPD,0,0.000,62.23,0.14,-14.78,31.5921106,120.7728553,2.460,13630313.824,24921631.834,2.460,0.000,0.000,0.000,0.000,0.000,0.000,0.000,15,15,4*65
$GPGGA,032500.00,3135.5266987,N,12046.3714724,E,4,15,1.3,2.4641,M,8.296,M,01,0004*6A
$GPHPD,0,0.000,61.93,0.16,-14.71,31.5921116,120.7728579,2.464,13630313.206,24921633.291,2.464,0.000,0.000,0.000,0.000,0.000,0.000,0.000,15,15,4*62
$GPGGA,032500.20,3135.5267660,N,12046.3716235,E,4,15,1.3,2.4693,M,8.296,M,01,0004*67
$GPHPD,0,0.000,62.03,0.07,-14.64,31.5921128,120.7728604,2.469,13630312.554,24921634.721,2.469,0.000,0.000,0.000,0.000,0.000,0.000,0.000,15,15,4*60
$GPGGA,032500.40,3135.5268328,N,12046.3717694,E,4,15,1.3,2.4742,M,8.296,M,01,0004*64
$GPHPD,0,0.000,61.79,0.59,-14.59,31.5921139,120.7728628,2.474,13630311.898,24921636.091,2.474,0.000,0.000,0.000,0.000,0.000,0.000,0.000,15,15,4*65
$GPGGA,032500.60,3135.5268988,N,12046.3719220,E,4,15,1.3,2.4682,M,8.296,M,00,0004*6F
$GPHPD,0,0.000,61.88,0.19,-14.56,31.5921150,120.7728654,2.468,13630311.267,24921637.547,2.468,0.000,0.000,0.000,0.000,0.000,0.000,0.000,15,15,4*61
$GPGGA,032500.80,3135.5269635,N,12046.3720655,E,4,15,1.3,2.4856,M,8.296,M,00,0004*62
$GPHPD,0,0.000,62.08,0.29,-14.53,31.5921161,120.7728678,2.486,13630310.636,24921638.901,2.486,0.000,0.000,0.000,0.000,0.000,0.000,0.000,15,15,4*60
$GPGGA,032501.00,3135.5270299,N,12046.3722160,E,4,15,1.3,2.4846,M,8.296,M,01,0004*62
$GPHPD,0,0.000,62.08,-0.25,-14.51,31.5921172,120.7728703,2.485,13630309.996,24921640.329,2.485,0.000,0.000,0.000,0.000,0.000,0.000,0.000,15,15,4*4E
$GPGGA,032501.20,3135.5270952,N,12046.3723645,E,4,15,1.3,2.4820,M,8.296,M,01,0004*6D
$GPHPD,0,0.000,62.43,-0.99,-14.53,31.5921183,120.7728727,2.482,13630309.367,24921641.739,2.482,0.000,0.000,0.000,0.000,0.000,0.000,0.000,15,15,4*4C
$GPGGA,032501.40,3135.5271632,N,12046.3725096,E,4,15,1.3,2.4904,M,8.296,M,01,0004*6A
$GPHPD,0,0.000,62.68,-0.08,-14.59,31.5921194,120.7728752,2.490,13630308.692,24921643.093,2.490,0.000,0.000,0.000,0.000,0.000,0.000,0.000,15,15,4*48
$GPGGA,032501.60,3135.5272243,N,12046.3726649,E,4,15,1.3,2.4789,M,8.296,M,00,0004*64
$GPHPD,0,0.000,62.80,-1.02,-14.63,31.5921204,120.7728777,2.479,13630308.136,24921644.610,2.479,0.000,0.000,0.000,0.000,0.000,0.000,0.000,15,15,4*42
$GPGGA,032501.80,3135.5272901,N,12046.3728153,E,4,15,1.3,2.4774,M,8.296,M,00,0004*67
$GPHPD,0,0.000,62.95,-1.21,-14.65,31.5921215,120.7728803,2.477,13630307.504,24921646.040,2.477,0.000,0.000,0.000,0.000,0.000,0.000,0.000,15,15,4*46
$GPGGA,032502.00,3135.5273583,N,12046.3729647,E,4,15,1.3,2.4787,M,8.296,M,01,0004*65
$GPHPD,0,0.000,62.95,-0.52,-14.65,31.5921226,120.7728827,2.479,13630306.835,24921647.445,2.479,0.000,0.000,0.000,0.000,0.000,0.000,0.000,15,15,4*4B
$GPGGA,032502.20,3135.5274206,N,12046.3731154,E,4,15,1.3,2.4740,M,8.296,M,01,0004*6D
$GPHPD,0,0.000,62.62,-1.35,-14.65,31.5921237,120.7728853,2.474,13630306.253,24921648.899,2.474,0.000,0.000,0.000,0.000,0.000,0.000,0.000,15,15,4*48
$GPGGA,032502.40,3135.5274837,N,12046.3732650,E,4,15,1.3,2.4628,M,8.296,M,01,0004*6C
$GPHPD,0,0.000,62.52,-0.33,-14.65,31.5921247,120.7728878,2.463,13630305.657,24921650.335,2.463,0.000,0.000,0.000,0.000,0.000,0.000,0.000,15,15,4*45
$GPGGA,032502.60,3135.5275515,N,12046.3734137,E,4,15,1.3,2.4626,M,8.296,M,00,0004*6D
$GPHPD,0,0.000,62.10,-0.03,-14.66,31.5921259,120.7728902,2.463,13630304.993,24921651.734,2.463,0.000,0.000,0.000,0.000,0.000,0.000,0.000,15,15,4*42
$GPGGA,032502.80,3135.5276135,N,12046.3735661,E,4,15,1.3,2.4568,M,8.296,M,00,0004*6A
$GPHPD,0,0.000,62.51,0.41,-14.67,31.5921269,120.7728928,2.457,13630304.419,24921653.210,2.457,0.000,0.000,0.000,0.000,0.000,0.000,0.000,15,15,4*68
$GPGGA,032503.00,3135.5276780,N,12046.3737134,E,4,15,1.3,2.4646,M,8.296,M,01,0004*60
$GPHPD,0,0.000,62.18,0.95,-14.67,31.5921280,120.7728952,2.465,13630303.798,24921654.611,2.465,0.000,0.000,0.000,0.000,0.000,0.000,0.000,15,15,4*69
$GPGGA,032503.20,3135.5277444,N,12046.3738615,E,4,15,1.3,2.4644,M,8.296,M,01,0004*61
$GPHPD,0,0.000,62.23,-0.87,-14.66,31.5921291,120.7728977,2.464,13630303.153,24921656.010,2.464,0.000,0.000,0.000,0.000,0.000,0.000,0.000,15,15,4*4D
$GPGGA,032503.40,3135.5278089,N,12046.3740082,E,4,15,1.4,2.4717,M,8.296,M,01,0004*6A
$GPHPD,0,0.000,62.36,-0.90,-14.67,31.5921301,120.7729001,2.472,13630302.531,24921657.403,2.472,0.000,0.000,0.000,0.000,0.000,0.000,0.000,15,15,4*49
$GPGGA,032503.60,3135.5278742,N,12046.3741541,E,4,15,1.3,2.4645,M,8.296,M,00,0004*63
$GPHPD,0,0.000,62.52,-0.75,-14.66,31.5921312,120.7729026,2.465,13630301.897,24921658.782,2.465,0.000,0.000,0.000,0.000,0.000,0.000,0.000,15,15,4*41
$GPGGA,032503.80,3135.5279358,N,12046.3743074,E,4,15,1.6,2.4591,M,8.296,M,00,0004*6D
$GPHPD,0,0.000,62.91,-0.20,-14.66,31.5921323,120.7729051,2.459,13630301.330,24921660.272,2.459,0.000,0.000,0.000,0.000,0.000,0.000,0.000,15,15,4*4B
$GPGGA,032504.00,3135.5279991,N,12046.3744525,E,4,15,1.3,2.4632,M,8.296,M,01,0004*65
$GPHPD,0,0.000,62.63,-0.59,-14.66,31.5921333,120.7729075,2.463,13630300.722,24921661.653,2.463,0.000,0.000,0.000,0.000,0.000,0.000,0.000,15,15,4*4F
$GPGGA,032504.20,3135.5280650,N,12046.3746008,E,4,15,1.6,2.4479,M,8.296,M,01,0004*63
$GPHPD,0,0.000,62.39,-0.91,-14.67,31.5921344,120.7729100,2.448,13630300.084,24921663.058,2.448,0.000,0.000,0.000,0.000,0.000,0.000,0.000,15,15,4*42
$GPGGA,032504.40,3135.5281281,N,12046.3747413,E,4,15,1.6,2.4577,M,8.296,M,01,0004*6C
$GPHPD,0,0.000,62.37,0.07,-14.66,31.5921355,120.7729124,2.458,13630299.470,24921664.384,2.458,0.000,0.000,0.000,0.000,0.000,0.000,0.000,15,15,4*62
$GPGGA,032504.60,3135.5281922,N,12046.3748926,E,4,15,1.6,2.4589,M,8.296,M,00,0004*68
$GPHPD,0,0.000,62.74,0.14,-14.68,31.5921365,120.7729149,2.459,13630298.864,24921665.836,2.459,0.000,0.000,0.000,0.000,0.000,0.000,0.000,15,15,4*6A
$GPGGA,032504.80,3135.5282525,N,12046.3750398,E,4,15,1.6,2.4601,M,8.296,M,00,0004*6B
$GPHPD,0,0.000,62.13,0.85,-14.68,31.5921375,120.7729173,2.460,13630298.303,24921667.259,2.460,0.000,0.000,0.000,0.000,0.000,0.000,0.000,15,15,4*60
$GPGGA,032505.00,3135.5283178,N,12046.3751812,E,4,15,1.6,2.4733,M,8.296,M,01,0004*66
$GPHPD,0,0.000,62.16,0.56,-14.69,31.5921386,120.7729197,2.473,13630297.660,24921668.584,2.473,0.000,0.000,0.000,0.000,0.000,0.000,0.000,15,15,4*6B
$GPGGA,032505.20,3135.5283832,N,12046.3753248,E,4,15,1.6,2.4749,M,8.296,M,01,0004*69
$GPHPD,0,0.000,62.39,0.10,-14.70,31.5921397,120.7729221,2.475,13630297.019,24921669.935,2.475,0.000,0.000,0.000,0.000,0.000,0.000,0.000,15,15,4*6D
$GPGGA,032505.40,3135.5284465,N,12046.3754731,E,4,15,1.6,2.4742,M,8.296,M,01,0004*61
$GPHPD,0,0.000,62.30,-0.29,-14.70,31.5921408,120.7729246,2.474,13630296.418,24921671.354,2.474,0.000,0.000,0.000,0.000,0.000,0.000,0.000,15,15,4*43
$GPGGA,032505.60,3135.5285105,N,12046.3756146,E,4,15,1.3,2.4819,M,8.296,M,00,0004*60
$GPHPD,0,0.000,62.02,0.47,-14.70,31.5921418,120.7729269,2.482,13630295.793,24921672.688,2.482,0.000,0.000,0.000,0.000,0.000,0.000,0.000,15,15,4*6F
$GPGGA,032505.80,3135.5285761,N,12046.3757647,E,4,15,1.3,2.4852,M,8.296,M,00,0004*62
$GPHPD,0,0.000,62.44,-0.59,-14.70,31.5921429,120.7729294,2.485,13630295.163,24921674.116,2.485,0.000,0.000,0.000,0.000,0.000,0.000,0.000,15,15,4*40
$GPGGA,032506.00,3135.5286403,N,12046.3759170,E,4,15,1.3,2.4792,M,8.296,M,01,0004*62
$GPHPD,0,0.000,62.76,-0.73,-14.68,31.5921440,120.7729320,2.479,13630294.557,24921675.579,2.479,0.000,0.000,0.000,0.000,0.000,0.000,0.000,15,15,4*4F
$GPGGA,032506.20,3135.5287036,N,12046.3760648,E,4,15,1.3,2.4766,M,8.296,M,01,0004*6E
$GPHPD,0,0.000,62.71,0.24,-14.67,31.5921451,120.7729344,2.477,13630293.955,24921676.992,2.477,0.000,0.000,0.000,0.000,0.000,0.000,0.000,15,15,4*69
$GPGGA,032506.40,3135.5287726,N,12046.3762176,E,4,15,1.3,2.4634,M,8.296,M,01,0004*60
$GPHPD,0,0.000,62.70,0.11,-14.64,31.5921462,120.7729370,2.463,13630293.282,24921678.433,2.463,0.000,0.000,0.000,0.000,0.000,0.000,0.000,15,15,4*63
$GPGGA,032506.60,3135.5288368,N,12046.3763666,E,4,15,1.3,2.4741,M,8.296,M,00,0004*66
$GPHPD,0,0.000,63.20,0.62,-14.63,31.5921473,120.7729394,2.474,13630292.669,24921679.856,2.474,0.000,0.000,0.000,0.000,0.000,0.000,0.000,15,15,4*60
$GPGGA,032506.80,3135.5288951,N,12046.3765155,E,4,15,1.3,2.4672,M,8.296,M,00,0004*68
$GPHPD,0,0.000,63.25,0.26,-14.63,31.5921483,120.7729419,2.467,13630292.140,24921681.312,2.467,0.000,0.000,0.000,0.000,0.000,0.000,0.000,15,15,4*68
$GPGGA,032507.00,3135.5289596,N,12046.3766627,E,4,15,1.3,2.4806,M,8.296,M,01,0004*6A
$GPHPD,0,0.000,62.91,0.34,-14.65,31.5921493,120.7729444,2.481,13630291.520,24921682.711,2.481,0.000,0.000,0.000,0.000,0.000,0.000,0.000,15,15,4*6F
$GPGGA,032507.20,3135.5290212,N,12046.3768099,E,4,15,1.3,2.4737,M,8.296,M,01,0004*6B
$GPHPD,0,0.000,63.18,-1.22,-14.63,31.5921504,120.7729468,2.474,13630290.941,24921684.127,2.474,0.000,0.000,0.000,0.000,0.000,0.000,0.000,15,15,4*4C
$GPGGA,032507.40,3135.5290843,N,12046.3769565,E,4,15,1.3,2.4860,M,8.296,M,01,0004*69
$GPHPD,0,0.000,63.12,-1.24,-14.64,31.5921514,120.7729493,2.486,13630290.339,24921685.528,2.486,0.000,0.000,0.000,0.000,0.000,0.000,0.000,15,14,4*4C
$GPGGA,032507.60,3135.5291462,N,12046.3771024,E,4,15,1.3,2.4946,M,8.296,M,00,0004*68
$GPHPD,0,0.000,63.25,-1.54,-14.65,31.5921524,120.7729517,2.495,13630289.753,24921686.926,2.495,0.000,0.000,0.000,0.000,0.000,0.000,0.000,15,14,4*41
$GPGGA,032507.80,3135.5292093,N,12046.3772529,E,4,15,1.3,2.4866,M,8.296,M,00,0004*67
$GPHPD,0,0.000,63.02,-1.49,-14.67,31.5921535,120.7729542,2.487,13630289.159,24921688.374,2.487,0.000,0.000,0.000,0.000,0.000,0.000,0.000,15,14,4*45
$GPGGA,032508.00,3135.5292727,N,12046.3774041,E,4,15,1.6,2.4776,M,8.296,M,01,0004*6F
$GPHPD,0,0.000,62.99,-1.46,-14.67,31.5921545,120.7729567,2.478,13630288.562,24921689.828,2.478,0.000,0.000,0.000,0.000,0.000,0.000,0.000,15,14,4*47
$GPGGA,032508.20,3135.5293378,N,12046.3775534,E,4,15,1.6,2.4526,M,8.296,M,01,0004*63
$GPHPD,0,0.000,63.14,-0.70,-14.69,31.5921556,120.7729592,2.453,13630287.937,24921691.249,2.453,0.000,0.000,0.000,0.000,0.000,0.000,0.000,15,14,4*46
$GPGGA,032508.40,3135.5293995,N,12046.3777065,E,4,15,1.6,2.4522,M,8.296,M,01,0004*6B
$GPHPD,0,0.000,63.00,-0.33,-14.69,31.5921567,120.7729618,2.452,13630287.369,24921692.736,2.452,0.000,0.000,0.000,0.000,0.000,0.000,0.000,15,14,4*48
$GPGGA,032508.60,3135.5294644,N,12046.3778575,E,4,14,1.6,2.4554,M,8.296,M,00,0004*67
$GPHPD,0,0.000,62.79,-0.06,-14.70,31.5921577,120.7729643,2.455,13630286.750,24921694.179,2.455,0.000,0.000,0.000,0.000,0.000,0.000,0.000,14,14,4*43
$GPGGA,032508.80,3135.5295294,N,12046.3780053,E,4,14,1.6,2.4580,M,8.296,M,00,0004*6E
$GPHPD,0,0.000,62.64,-0.15,-14.69,31.5921588,120.7729668,2.458,13630286.124,24921695.582,2.458,0.000,0.000,0.000,0.000,0.000,0.000,0.000,14,14,4*48
$GPGGA,032509.00,3135.5295950,N,12046.3781593,E,4,14,1.6,2.4538,M,8.296,M,01,0004*6E
$GPHPD,0,0.000,62.71,-0.04,-14.63,31.5921599,120.7729693,2.454,13630285.501,24921697.057,2.454,0.000,0.000,0.000,0.000,0.000,0.000,0.000,14,14,4*4D
$GPGGA,032509.20,3135.5296601,N,12046.3783110,E,4,14,1.6,2.4612,M,8.296,M,01,0004*62
$GPHPD,0,0.000,62.65,0.54,-14.62,31.5921610,120.7729719,2.461,13630284.881,24921698.507,2.461,0.000,0.000,0.000,0.000,0.000,0.000,0.000,14,14,4*6B
$GPGGA,032509.40,3135.5297244,N,12046.3784591,E,4,14,1.6,2.4597,M,8.297,M,01,0004*65
$GPHPD,0,0.000,62.78,0.37,-14.59,31.5921621,120.7729743,2.460,13630284.266,24921699.919,2.460,0.000,0.000,0.000,0.000,0.000,0.000,0.000,14,14,4*66
$GPGGA,032509.60,3135.5297892,N,12046.3786046,E,4,14,1.6,2.4731,M,8.297,M,00,0004*64
$GPHPD,0,0.000,62.41,0.87,-14.58,31.5921632,120.7729767,2.473,13630283.638,24921701.296,2.473,0.000,0.000,0.000,0.000,0.000,0.000,0.000,14,14,4*66
$GPGGA,032509.80,3135.5298540,N,12046.3787514,E,4,14,1.6,2.4805,M,8.297,M,00,0004*6C
$GPHPD,0,0.000,62.46,-0.01,-14.59,31.5921642,120.7729792,2.481,13630283.012,24921702.689,2.481,0.000,0.000,0.000,0.000,0.000,0.000,0.000,14,14,4*49
$GPGGA,032510.00,3135.5299182,N,12046.3788989,E,4,14,1.6,2.4724,M,8.297,M,01,0004*6D
$GPHPD,0,0.000,62.69,0.39,-14.64,31.5921653,120.7729816,2.472,13630282.396,24921704.093,2.472,0.000,0.000,0.000,0.000,0.000,0.000,0.000,14,14,4*6A
$GPGGA,032510.20,3135.5299823,N,12046.3790457,E,4,14,1.6,2.4793,M,8.297,M,01,0004*66
$GPHPD,0,0.000,63.07,0.05,-14.67,31.5921664,120.7729841,2.479,13630281.781,24921705.490,2.479,0.000,0.000,0.000,0.000,0.000,0.000,0.000,14,14,4*6E
$GPGGA,032510.40,3135.5300426,N,12046.3791945,E,4,14,1.6,2.4880,M,8.297,M,01,0004*6A
$GPHPD,0,0.000,63.20,-0.63,-14.70,31.5921674,120.7729866,2.488,13630281.223,24921706.933,2.488,0.000,0.000,0.000,0.000,0.000,0.000,0.000,14,14,4*4E
$GPGGA,032510.60,3135.5301053,N,12046.3793401,E,4,14,1.6,2.4833,M,8.297,M,00,0004*69
$GPHPD,0,0.000,63.05,-0.67,-14.71,31.5921684,120.7729890,2.483,13630280.625,24921708.324,2.483,0.000,0.000,0.000,0.000,0.000,0.000,0.000,14,14,4*4B
$GPGGA,032510.80,3135.5301700,N,12046.3794913,E,4,14,1.6,2.4820,M,8.297,M,00,0004*6D
$GPHPD,0,0.000,63.34,-1.12,-14.73,31.5921695,120.7729915,2.482,13630280.010,24921709.770,2.482,0.000,0.000,0.000,0.000,0.000,0.000,0.000,14,14,4*40
$GPGGA,032511.00,3135.5302339,N,12046.3796423,E,4,14,1.6,2.4827,M,8.297,M,01,0004*63
$GPHPD,0,0.000,63.18,-0.98,-14.73,31.5921706,120.7729940,2.483,13630279.406,24921711.219,2.483,0.000,0.000,0.000,0.000,0.000,0.000,0.000,14,14,4*40
$GPGGA,032511.20,3135.5302962,N,12046.3797928,E,4,14,1.6,2.4747,M,8.297,M,01,0004*6B
$GPHPD,0,0.000,63.02,-0.71,-14.73,31.5921716,120.7729965,2.475,13630278.823,24921712.671,2.475,0.000,0.000,0.000,0.000,0.000,0.000,0.000,14,14,4*49
$GPGGA,032511.40,3135.5303601,N,12046.3799384,E,4,14,1.6,2.4834,M,8.297,M,01,0004*6F
$GPHPD,0,0.000,62.67,-0.54,-14.70,31.5921727,120.7729990,2.483,13630278.208,24921714.055,2.483,0.000,0.000,0.000,0.000,0.000,0.000,0.000,14,14,4*42
$GPGGA,032511.60,3135.5304263,N,12046.3800924,E,4,14,1.6,2.4852,M,8.297,M,00,0004*64
$GPHPD,0,0.000,62.45,-0.74,-14.69,31.5921738,120.7730015,2.485,13630277.577,24921715.526,2.485,0.000,0.000,0.000,0.000,0.000,0.000,0.000,14,14,4*4A
$GPGGA,032511.80,3135.5304895,N,12046.3802367,E,4,14,1.6,2.4799,M,8.297,M,00,0004*6E
$GPHPD,0,0.000,62.44,-0.90,-14.69,31.5921748,120.7730039,2.480,13630276.969,24921716.898,2.480,0.000,0.000,0.000,0.000,0.000,0.000,0.000,14,14,4*41
$GPGGA,032512.00,3135.5305558,N,12046.3803822,E,4,14,1.6,2.4648,M,8.297,M,01,0004*6F
$GPHPD,0,0.000,62.28,-0.94,-14.67,31.5921759,120.7730064,2.465,13630276.320,24921718.266,2.465,0.000,0.000,0.000,0.000,0.000,0.000,0.000,14,14,4*4B
$GPGGA,032512.20,3135.5306175,N,12046.3805295,E,4,14,1.6,2.4749,M,8.297,M,01,0004*65
$GPHPD,0,0.000,62.43,-0.50,-14.67,31.5921770,120.7730088,2.475,13630275.740,24921719.683,2.475,0.000,0.000,0.000,0.000,0.000,0.000,0.000,14,14,4*48
$GPGGA,032512.40,3135.5306813,N,12046.3806733,E,4,14,1.6,2.4731,M,8.297,M,01,0004*6F
$GPHPD,0,0.000,62.42,-0.96,-14.68,31.5921780,120.7730112,2.473,13630275.122,24921721.046,2.473,0.000,0.000,0.000,0.000,0.000,0.000,0.000,14,14,4*47
$GPGGA,032512.60,3135.5307421,N,12046.3808168,E,4,14,1.6,2.4608,M,8.297,M,00,0004*6D
$GPHPD,0,0.000,62.36,-0.40,-14.68,31.5921790,120.7730136,2.461,13630274.547,24921722.422,2.461,0.000,0.000,0.000,0.000,0.000,0.000,0.000,14,14,4*4B
$GPGGA,032512.80,3135.5308055,N,12046.3809639,E,4,14,1.6,2.4575,M,8.297,M,00,0004*60
$GPHPD,0,0.000,62.55,-0.33,-14.73,31.5921801,120.7730161,2.458,13630273.942,24921723.827,2.458,0.000,0.000,0.000,0.000,0.000,0.000,0.000,14,14,4*43
$GPGGA,032513.00,3135.5308711,N,12046.3811089,E,4,14,1.6,2.4580,M,8.297,M,01,0004*61
$GPHPD,0,0.000,62.48,-0.15,-14.70,31.5921812,120.7730185,2.458,13630273.301,24921725.193,2.458,0.000,0.000,0.000,0.000,0.000,0.000,0.000,14,14,4*4D
$GPGGA,032513.20,3135.5309328,N,12046.3812579,E,4,14,1.6,2.4545,M,8.297,M,01,0004*6C
$GPHPD,0,0.000,62.19,0.17,-14.72,31.5921822,120.7730210,2.455,13630272.724,24921726.630,2.455,0.000,0.000,0.000,0.000,0.000,0.000,0.000,14,14,4*67
$GPGGA,032513.40,3135.5309982,N,12046.3814056,E,4,15,1.6,2.4505,M,8.297,M,01,0004*6B
$GPHPD,0,0.000,61.69,1.61,-14.70,31.5921833,120.7730234,2.451,13630272.092,24921728.030,2.451,0.000,0.000,0.000,0.000,0.000,0.000,0.000,15,15,4*65
$GPGGA,032513.60,3135.5310620,N,12046.3815512,E,4,15,1.6,2.4523,M,8.297,M,00,0004*67
$GPHPD,0,0.000,61.96,1.40,-14.69,31.5921844,120.7730259,2.452,13630271.478,24921729.415,2.452,0.000,0.000,0.000,0.000,0.000,0.000,0.000,15,15,4*64
$GPGGA,032513.80,3135.5311287,N,12046.3817031,E,4,15,1.6,2.4533,M,8.297,M,00,0004*66
$GPHPD,0,0.000,62.10,0.91,-14.67,31.5921855,120.7730284,2.453,13630270.836,24921730.858,2.453,0.000,0.000,0.000,0.000,0.000,0.000,0.000,15,15,4*60
$GPGGA,032514.00,3135.5311934,N,12046.3818492,E,4,15,1.6,2.4528,M,8.297,M,01,0004*63
$GPHPD,0,0.000,61.91,1.50,-14.64,31.5921866,120.7730308,2.453,13630270.211,24921732.243,2.453,0.000,0.000,0.000,0.000,0.000,0.000,0.000,15,15,4*6D
$GPGGA,032514.20,3135.5312611,N,12046.3819922,E,4,15,1.6,2.4568,M,8.297,M,01,0004*69
$GPHPD,0,0.000,61.66,1.58,-14.62,31.5921877,120.7730332,2.457,13630269.536,24921733.573,2.457,0.000,0.000,0.000,0.000,0.000,0.000,0.000,15,15,4*6D
$GPGGA,032514.40,3135.5313275,N,12046.3821359,E,4,15,1.6,2.4852,M,8.297,M,01,0004*61
$GPHPD,0,0.000,62.00,1.26,-14.61,31.5921888,120.7730356,2.485,13630268.882,24921734.919,2.485,0.000,0.000,0.000,0.000,0.000,0.000,0.000,15,15,4*62
$GPGGA,032514.60,3135.5313919,N,12046.3822841,E,4,15,1.6,2.4858,M,8.297,M,00,0004*68
$GPHPD,0,0.000,62.45,-0.52,-14.61,31.5921899,120.7730381,2.486,13630268.265,24921736.331,2.486,0.000,0.000,0.000,0.000,0.000,0.000,0.000,15,15,4*47
$GPGGA,032514.80,3135.5314536,N,12046.3824343,E,4,15,1.6,2.4864,M,8.297,M,00,0004*60
$GPHPD,0,0.000,62.66,-0.80,-14.64,31.5921909,120.7730406,2.486,13630267.690,24921737.783,2.486,0.000,0.000,0.000,0.000,0.000,0.000,0.000,15,15,4*41
$GPGGA,032515.00,3135.5315218,N,12046.3825823,E,4,15,1.6,2.4921,M,8.297,M,01,0004*6E
$GPHPD,0,0.000,62.63,-0.76,-14.65,31.5921920,120.7730430,2.492,13630267.019,24921739.170,2.492,0.000,0.000,0.000,0.000,0.000,0.000,0.000,15,15,4*41
$GPGGA,032515.20,3135.5315842,N,12046.3827292,E,4,15,1.6,2.4911,M,8.297,M,01,0004*68
$GPHPD,0,0.000,63.04,-1.48,-14.72,31.5921931,120.7730455,2.491,13630266.428,24921740.578,2.491,0.000,0.000,0.000,0.000,0.000,0.000,0.000,15,15,4*4D
$GPGGA,032515.40,3135.5316474,N,12046.3828759,E,4,15,1.6,2.4902,M,8.297,M,01,0004*6B
$GPHPD,0,0.000,62.83,-1.24,-14.74,31.5921941,120.7730479,2.490,13630265.825,24921741.979,2.490,0.000,0.000,0.000,0.000,0.000,0.000,0.000,15,15,4*48
$GPGGA,032515.60,3135.5317103,N,12046.3830245,E,4,15,1.6,2.4740,M,8.297,M,00,0004*65
$GPHPD,0,0.000,62.62,-1.48,-14.76,31.5921952,120.7730504,2.474,13630265.230,24921743.405,2.474,0.000,0.000,0.000,0.000,0.000,0.000,0.000,15,15,4*4C
$GPGGA,032515.80,3135.5317742,N,12046.3831720,E,4,15,1.6,2.4729,M,8.297,M,00,0004*60
$GPHPD,0,0.000,62.37,-0.93,-14.77,31.5921962,120.7730529,2.473,13630264.618,24921744.811,2.473,0.000,0.000,0.000,0.000,0.000,0.000,0.000,15,15,4*47
$GPGGA,032516.00,3135.5318372,N,12046.3833194,E,4,15,1.3,2.4685,M,8.297,M,01,0004*6B
$GPHPD,0,0.000,62.50,-0.84,-14.79,31.5921973,120.7730553,2.469,13630264.020,24921746.222,2.469,0.000,0.000,0.000,0.000,0.000,0.000,0.000,15,15,4*46
$GPGGA,032516.20,3135.5319023,N,12046.3834697,E,4,15,1.3,2.4704,M,8.297,M,01,0004*64
$GPHPD,0,0.000,62.21,-1.12,-14.79,31.5921984,120.7730578,2.470,13630263.397,24921747.655,2.470,0.000,0.000,0.000,0.000,0.000,0.000,0.000,15,15,4*42
$GPGGA,032516.40,3135.5319696,N,12046.3836175,E,4,15,1.3,2.4665,M,8.297,M,01,0004*65
$GPHPD,0,0.000,62.15,-0.40,-14.76,31.5921995,120.7730603,2.467,13630262.738,24921749.045,2.467,0.000,0.000,0.000,0.000,0.000,0.000,0.000,15,15,4*4A
$GPGGA,032516.60,3135.5320347,N,12046.3837625,E,4,15,1.3,2.4730,M,8.297,M,00,0004*67
$GPHPD,0,0.000,62.39,-0.04,-14.74,31.5922006,120.7730627,2.473,13630262.105,24921750.415,2.473,0.000,0.000,0.000,0.000,0.000,0.000,0.000,15,15,4*41
$GPGGA,032516.80,3135.5321014,N,12046.3839111,E,4,15,1.3,2.4726,M,8.297,M,00,0004*64
$GPHPD,0,0.000,62.21,-0.14,-14.71,31.5922017,120.7730652,2.473,13630261.456,24921751.818,2.473,0.000,0.000,0.000,0.000,0.000,0.000,0.000,15,15,4*4E
$GPGGA,032517.00,3135.5321654,N,12046.3840602,E,4,15,1.3,2.4651,M,8.297,M,01,0004*64
$GPHPD,0,0.000,62.51,-0.31,-14.66,31.5922028,120.7730677,2.465,13630260.846,24921753.243,2.465,0.000,0.000,0.000,0.000,0.000,0.000,0.000,15,15,4*49
$GPGGA,032517.20,3135.5322282,N,12046.3842085,E,4,15,1.3,2.4656,M,8.297,M,01,0004*66
$GPHPD,0,0.000,62.62,-0.97,-14.65,31.5922038,120.7730701,2.466,13630260.252,24921754.666,2.466,0.000,0.000,0.000,0.000,0.000,0.000,0.000,15,15,4*4C
$GPGGA,032517.40,3135.5322959,N,12046.3843562,E,4,15,1.3,2.4682,M,8.297,M,01,0004*69
$GPHPD,0,0.000,62.38,-0.41,-14.61,31.5922049,120.7730726,2.468,13630259.587,24921756.053,2.468,0.000,0.000,0.000,0.000,0.000,0.000,0.000,15,15,4*48
$GPGGA,032517.60,3135.5323623,N,12046.3845058,E,4,15,1.3,2.4737,M,8.297,M,00,0004*6C
$GPHPD,0,0.000,62.18,-0.97,-14.58,31.5922060,120.7730751,2.474,13630258.945,24921757.470,2.474,0.000,0.000,0.000,0.000,0.000,0.000,0.000,15,15,4*47
$GPGGA,032517.80,3135.5324289,N,12046.3846517,E,4,15,1.3,2.4667,M,8.297,M,00,0004*68
$GPHPD,0,0.000,62.43,-0.75,-14.58,31.5922071,120.7730775,2.467,13630258.292,24921758.841,2.467,0.000,0.000,0.000,0.000,0.000,0.000,0.000,15,14,4*42
$GPGGA,032518.00,3135.5324918,N,12046.3848030,E,4,16,1.3,2.4685,M,8.297,M,01,0004*6C
$GPHPD,0,0.000,62.38,-0.83,-14.59,31.5922082,120.7730801,2.469,13630257.702,24921760.299,2.469,0.000,0.000,0.000,0.000,0.000,0.000,0.000,16,16,4*40
$GPGGA,032518.20,3135.5325588,N,12046.3849545,E,4,16,1.3,2.4631,M,8.297,M,01,0004*63
$GPHPD,0,0.000,62.08,0.59,-14.59,31.5922093,120.7730826,2.463,13630257.055,24921761.736,2.463,0.000,0.000,0.000,0.000,0.000,0.000,0.000,16,16,4*68
$GPGGA,032518.40,3135.5326227,N,12046.3850999,E,4,16,1.3,2.4769,M,8.297,M,01,0004*6D
$GPHPD,0,0.000,61.86,0.98,-14.59,31.5922104,120.7730850,2.477,13630256.439,24921763.117,2.477,0.000,0.000,0.000,0.000,0.000,0.000,0.000,16,16,4*66
$GPGGA,032518.60,3135.5326865,N,12046.3852501,E,4,16,1.3,2.4645,M,8.297,M,00,0004*62
$GPHPD,0,0.000,61.99,-0.52,-14.58,31.5922114,120.7730875,2.465,13630255.835,24921764.557,2.465,0.000,0.000,0.000,0.000,0.000,0.000,0.000,16,16,4*40
$GPGGA,032518.80,3135.5327506,N,12046.3854010,E,4,16,1.3,2.4804,M,8.297,M,00,0004*6D
$GPHPD,0,0.000,62.07,-0.23,-14.58,31.5922125,120.7730900,2.480,13630255.228,24921766.003,2.480,0.000,0.000,0.000,0.000,0.000,0.000,0.000,16,16,4*43
$GPGGA,032519.00,3135.5328177,N,12046.3855489,E,4,16,1.3,2.4717,M,8.297,M,01,0004*60
