$GPGGA,032752.60,3135.5804463,N,12046.4930527,E,4,16,1.3,2.4188,M,8.303,M,00,0004*63
$GPHPD,0,0.000,63.51,-0.06,-13.36,31.5930074,120.7748842,2.419,13629793.987,24922786.330,2.419,0.000,0.000,0.000,0.000,0.000,0.000,0.000,16,16,4*40
$GPGGA,032752.80,3135.5804806,N,12046.4931302,E,4,16,1.3,2.4110,M,8.303,M,00,0004*63
$GPHPD,0,0.000,63.50,-0.38,-13.43,31.5930080,120.7748855,2.411,13629793.656,24922787.065,2.411,0.000,0.000,0.000,0.000,0.000,0.000,0.000,16,16,4*42
$GPGGA,032753.00,3135.5805133,N,12046.4932104,E,4,16,1.3,2.4039,M,8.303,M,01,0004*68
$GPHPD,0,0.000,63.42,-0.23,-13.51,31.5930086,120.7748868,2.404,13629793.353,24922787.841,2.404,0.000,0.000,0.000,0.000,0.000,0.000,0.000,16,16,4*4E
$GPGGA,032753.20,3135.5805436,N,12046.4932931,E,4,16,1.3,2.4152,M,8.303,M,01,0004*68
$GPHPD,0,0.000,63.53,0.08,-13.56,31.5930091,120.7748882,2.415,13629793.088,24922788.662,2.415,0.000,0.000,0.000,0.000,0.000,0.000,0.000,16,16,4*6A
$GPGGA,032753.40,3135.5805831,N,12046.4933728,E,4,16,1.3,2.4081,M,8.303,M,01,0004*6D
$GPHPD,0,0.000,63.42,-0.32,-13.63,31.5930097,120.7748895,2.408,13629792.687,24922789.393,2.408,0.000,0.000,0.000,0.000,0.000,0.000,0.000,16,16,4*4A
$GPGGA,032753.60,3135.5806171,N,12046.4934570,E,4,16,1.3,2.4127,M,8.303,M,00,0004*65
$GPHPD,0,0.000,63.40,0.22,-13.71,31.5930103,120.7748910,2.413,13629792.373,24922790.210,2.413,0.000,0.000,0.000,0.000,0.000,0.000,0.000,16,16,4*6B
$GPGGA,032753.80,3135.5806521,N,12046.4935485,E,4,16,1.3,2.4098,M,8.303,M,00,0004*65
$GPHPD,0,0.000,63.53,-0.30,-13.79,31.5930109,120.7748925,2.410,13629792.060,24922791.110,2.410,0.000,0.000,0.000,0.000,0.000,0.000,0.000,16,16,4*40
$GPGGA,032754.00,3135.5806888,N,12046.4936418,E,4,16,1.3,2.4102,M,8.303,M,01,0004*60
$GPHPD,0,0.000,63.11,-0.64,-13.90,31.5930115,120.7748940,2.410,13629791.726,24922792.021,2.410,0.000,0.000,0.000,0.000,0.000,0.000,0.000,16,16,4*48
$GPGGA,032754.20,3135.5807342,N,12046.4937425,E,4,16,1.3,2.4166,M,8.303,M,01,0004*63
$GPHPD,0,0.000,63.06,-1.04,-13.96,31.5930122,120.7748957,2.417,13629791.284,24922792.971,2.417,0.000,0.000,0.000,0.000,0.000,0.000,0.000,16,16,4*4C
$GPGGA,032754.40,3135.5807772,N,12046.4938480,E,4,16,1.3,2.4147,M,8.303,M,01,0004*61
$GPHPD,0,0.000,62.73,0.42,-14.03,31.5930130,120.7748975,2.415,13629790.885,24922793.992,2.415,0.000,0.000,0.000,0.000,0.000,0.000,0.000,16,16,4*6F
$GPGGA,032754.60,3135.5808229,N,12046.4939597,E,4,16,1.3,2.4140,M,8.303,M,00,0004*67
$GPHPD,0,0.000,62.80,0.23,-14.14,31.5930137,120.7748993,2.414,13629790.460,24922795.073,2.414,0.000,0.000,0.000,0.000,0.000,0.000,0.000,16,16,4*6A
$GPGGA,032754.80,3135.5808719,N,12046.4940701,E,4,16,1.3,2.4101,M,8.303,M,00,0004*69
$GPHPD,0,0.000,62.52,1.18,-14.24,31.5930145,120.7749012,2.410,13629789.986,24922796.119,2.410,0.000,0.000,0.000,0.000,0.000,0.000,0.000,16,16,4*68
$GPGGA,032755.00,3135.5809333,N,12046.4941884,E,4,16,1.3,2.4432,M,8.303,M,01,0004*6A
$GPHPD,0,0.000,62.12,1.57,-14.35,31.5930156,120.7749031,2.443,13629789.351,24922797.188,2.443,0.000,0.000,0.000,0.000,0.000,0.000,0.000,16,16,4*6D
$GPGGA,032755.20,3135.5809963,N,12046.4943179,E,4,16,1.3,2.4862,M,8.303,M,01,0004*67
$GPHPD,0,0.000,62.46,2.07,-14.43,31.5930166,120.7749053,2.486,13629788.716,24922798.383,2.486,0.000,0.000,0.000,0.000,0.000,0.000,0.000,16,16,4*6C
$GPGGA,032755.40,3135.5810576,N,12046.4944472,E,4,16,1.4,2.4801,M,8.303,M,01,0004*6A
$GPHPD,0,0.000,61.98,1.92,-14.49,31.5930176,120.7749075,2.480,13629788.105,24922799.585,2.480,0.000,0.000,0.000,0.000,0.000,0.000,0.000,16,16,4*69
$GPGGA,032755.60,3135.5811112,N,12046.4945824,E,4,15,1.4,2.4867,M,8.303,M,00,0004*63
$GPHPD,0,0.000,62.15,2.34,-14.57,31.5930185,120.7749097,2.487,13629787.615,24922800.903,2.487,0.000,0.000,0.000,0.000,0.000,0.000,0.000,15,15,4*6B
$GPGGA,032755.80,3135.5811695,N,12046.4947211,E,4,15,1.4,2.4765,M,8.303,M,00,0004*66
$GPHPD,0,0.000,62.66,-1.03,-14.62,31.5930195,120.7749120,2.477,13629787.066,24922802.236,2.477,0.000,0.000,0.000,0.000,0.000,0.000,0.000,15,15,4*42
$GPGGA,032756.00,3135.5812260,N,12046.4948638,E,4,15,1.4,2.4686,M,8.303,M,01,0004*6D
$GPHPD,0,0.000,62.90,-0.59,-14.65,31.5930204,120.7749144,2.469,13629786.550,24922803.627,2.469,0.000,0.000,0.000,0.000,0.000,0.000,0.000,15,15,4*4F
$GPGGA,032756.20,3135.5812893,N,12046.4950059,E,4,15,1.4,2.4611,M,8.303,M,01,0004*6F
$GPHPD,0,0.000,62.72,0.79,-14.66,31.5930215,120.7749168,2.461,13629785.936,24922804.972,2.461,0.000,0.000,0.000,0.000,0.000,0.000,0.000,15,15,4*66
$GPGGA,032756.40,3135.5813521,N,12046.4951514,E,4,15,1.4,2.4816,M,8.303,M,01,0004*68
$GPHPD,0,0.000,63.85,-0.62,-14.71,31.5930225,120.7749192,2.482,13629785.337,24922806.361,2.482,0.000,0.000,0.000,0.000,0.000,0.000,0.000,15,15,4*49
$GPGGA,032756.60,3135.5814133,N,12046.4952933,E,4,15,1.4,2.4705,M,8.303,M,00,0004*6C
$GPHPD,0,0.000,63.85,-0.37,-14.71,31.5930236,120.7749216,2.471,13629784.752,24922807.716,2.471,0.000,0.000,0.000,0.000,0.000,0.000,0.000,15,15,4*47
$GPGGA,032756.80,3135.5814790,N,12046.4954435,E,4,15,1.4,2.4950,M,8.303,M,00,0004*6E
$GPHPD,0,0.000,62.37,0.05,-14.71,31.5930247,120.7749241,2.495,13629784.121,24922809.144,2.495,0.000,0.000,0.000,0.000,0.000,0.000,0.000,15,15,4*6A
$GPGGA,032757.00,3135.5815373,N,12046.4955803,E,4,15,1.4,2.4680,M,8.303,M,01,0004*64
$GPHPD,0,0.000,62.38,1.06,-14.67,31.5930256,120.7749263,2.468,13629783.567,24922810.454,2.468,0.000,0.000,0.000,0.000,0.000,0.000,0.000,15,15,4*6D
$GPGGA,032757.20,3135.5815924,N,12046.4957287,E,4,15,1.4,2.4575,M,8.303,M,01,0004*63
$GPHPD,0,0.000,62.19,0.30,-14.67,31.5930265,120.7749288,2.458,13629783.083,24922811.923,2.458,0.000,0.000,0.000,0.000,0.000,0.000,0.000,15,15,4*6C
$GPGGA,032757.40,3135.5816490,N,12046.4958780,E,4,15,1.4,2.4561,M,8.304,M,01,0004*6B
$GPHPD,0,0.000,62.49,-0.59,-14.68,31.5930275,120.7749313,2.456,13629782.579,24922813.393,2.456,0.000,0.000,0.000,0.000,0.000,0.000,0.000,15,15,4*44
$GPGGA,032757.60,3135.5817127,N,12046.4960140,E,4,15,1.4,2.4730,M,8.304,M,00,0004*67
$GPHPD,0,0.000,62.08,-0.24,-14.67,31.5930285,120.7749336,2.473,13629781.947,24922814.662,2.473,0.000,0.000,0.000,0.000,0.000,0.000,0.000,15,15,4*42
$GPGGA,032757.80,3135.5817822,N,12046.4961480,E,4,16,1.4,2.4927,M,8.304,M,00,0004*66
$GPHPD,0,0.000,62.07,-0.62,-14.67,31.5930297,120.7749358,2.493,13629781.229,24922815.873,2.493,0.000,0.000,0.000,0.000,0.000,0.000,0.000,16,15,4*4B
$GPGGA,032758.00,3135.5818514,N,12046.4962924,E,4,16,1.4,2.4956,M,8.304,M,01,0004*61
$GPHPD,0,0.000,62.81,-0.98,-14.69,31.5930309,120.7749382,2.496,13629780.536,24922817.211,2.496,0.000,0.000,0.000,0.000,0.000,0.000,0.000,16,15,4*4B
$GPGGA,032758.20,3135.5819118,N,12046.4964336,E,4,16,1.4,2.4821,M,8.304,M,01,0004*64
$GPHPD,0,0.000,62.75,-1.11,-14.70,31.5930319,120.7749406,2.482,13629779.962,24922818.562,2.482,0.000,0.000,0.000,0.000,0.000,0.000,0.000,16,15,4*45
$GPGGA,032758.40,3135.5819692,N,12046.4965739,E,4,16,1.3,2.4630,M,8.304,M,01,0004*64
$GPHPD,0,0.000,62.49,0.00,-14.71,31.5930328,120.7749429,2.463,13629779.428,24922819.920,2.463,0.000,0.000,0.000,0.000,0.000,0.000,0.000,16,15,4*60
$GPGGA,032758.60,3135.5820261,N,12046.4967191,E,4,16,1.3,2.4747,M,8.304,M,00,0004*62
$GPHPD,0,0.000,62.13,0.76,-14.68,31.5930338,120.7749453,2.475,13629778.912,24922821.339,2.475,0.000,0.000,0.000,0.000,0.000,0.000,0.000,16,15,4*66
$GPGGA,032758.80,3135.5820920,N,12046.4968659,E,4,16,1.3,2.4936,M,8.304,M,00,0004*66
$GPHPD,0,0.000,61.88,0.46,-14.67,31.5930349,120.7749478,2.494,13629778.270,24922822.726,2.494,0.000,0.000,0.000,0.000,0.000,0.000,0.000,16,14,4*63
$GPGGA,032759.00,3135.5821601,N,12046.4970083,E,4,16,1.3,2.4865,M,8.304,M,01,0004*6C
$GPHPD,0,0.000,62.23,0.00,-14.66,31.5930360,120.7749501,2.487,13629777.589,24922824.046,2.487,0.000,0.000,0.000,0.000,0.000,0.000,0.000,16,15,4*6E
$GPGGA,032759.20,3135.5822215,N,12046.4971547,E,4,16,1.3,2.4660,M,8.304,M,01,0004*6B
$GPHPD,0,0.000,62.96,-0.14,-14.66,31.5930370,120.7749526,2.466,13629777.011,24922825.454,2.466,0.000,0.000,0.000,0.000,0.000,0.000,0.000,16,15,4*4E
$GPGGA,032759.40,3135.5822831,N,12046.4973011,E,4,16,1.3,2.5035,M,8.304,M,01,0004*62
$GPHPD,0,0.000,62.89,0.05,-14.65,31.5930381,120.7749550,2.504,13629776.430,24922826.860,2.504,0.000,0.000,0.000,0.000,0.000,0.000,0.000,16,14,4*6E
$GPGGA,032759.60,3135.5823500,N,12046.4974477,E,4,16,1.3,2.4836,M,8.304,M,00,0004*66
$GPHPD,0,0.000,63.15,-0.97,-14.61,31.5930392,120.7749575,2.484,13629775.774,24922828.238,2.484,0.000,0.000,0.000,0.000,0.000,0.000,0.000,16,14,4*44
$GPGGA,032759.80,3135.5824111,N,12046.4976003,E,4,16,1.3,2.4886,M,8.304,M,00,0004*65
$GPHPD,0,0.000,63.10,-0.91,-14.59,31.5930402,120.7749600,2.489,13629775.213,24922829.723,2.489,0.000,0.000,0.000,0.000,0.000,0.000,0.000,16,14,4*49
$GPGGA,032800.00,3135.5824732,N,12046.4977480,E,4,16,1.3,2.4857,M,8.304,M,01,0004*6A
$GPHPD,0,0.000,62.69,-0.85,-14.60,31.5930412,120.7749625,2.486,13629774.627,24922831.142,2.486,0.000,0.000,0.000,0.000,0.000,0.000,0.000,16,15,4*44
$GPGGA,032800.20,3135.5825374,N,12046.4978942,E,4,16,1.3,2.4646,M,8.304,M,01,0004*6D
$GPHPD,0,0.000,62.43,-0.41,-14.59,31.5930423,120.7749649,2.465,13629774.009,24922832.531,2.465,0.000,0.000,0.000,0.000,0.000,0.000,0.000,16,14,4*4E
$GPGGA,032800.40,3135.5826013,N,12046.4980389,E,4,16,1.3,2.4809,M,8.304,M,01,0004*65
$GPHPD,0,0.000,62.54,-0.11,-14.58,31.5930434,120.7749673,2.481,13629773.392,24922833.904,2.481,0.000,0.000,0.000,0.000,0.000,0.000,0.000,16,14,4*4E
$GPGGA,032800.60,3135.5826659,N,12046.4981860,E,4,16,1.3,2.4508,M,8.304,M,00,0004*6F
$GPHPD,0,0.000,62.41,-0.28,-14.58,31.5930444,120.7749698,2.451,13629772.770,24922835.301,2.451,0.000,0.000,0.000,0.000,0.000,0.000,0.000,16,14,4*42
$GPGGA,032800.80,3135.5827267,N,12046.4983349,E,4,15,1.4,2.4708,M,8.304,M,00,0004*6D
$GPHPD,0,0.000,62.17,-0.38,-14.60,31.5930454,120.7749722,2.471,13629772.205,24922836.743,2.471,0.000,0.000,0.000,0.000,0.000,0.000,0.000,15,14,4*4F
$GPGGA,032801.00,3135.5827904,N,12046.4984814,E,4,15,1.4,2.4658,M,8.304,M,01,0004*6B
$GPHPD,0,0.000,62.51,-0.03,-14.61,31.5930465,120.7749747,2.466,13629771.595,24922838.138,2.466,0.000,0.000,0.000,0.000,0.000,0.000,0.000,15,14,4*4C
$GPGGA,032801.20,3135.5828560,N,12046.4986270,E,4,15,1.4,2.4587,M,8.304,M,01,0004*63
$GPHPD,0,0.000,62.32,-0.07,-14.63,31.5930476,120.7749771,2.459,13629770.955,24922839.512,2.459,0.000,0.000,0.000,0.000,0.000,0.000,0.000,15,14,4*44
$GPGGA,032801.40,3135.5829179,N,12046.4987746,E,4,15,1.4,2.4665,M,8.304,M,01,0004*66
$GPHPD,0,0.000,62.21,-0.04,-14.65,31.5930486,120.7749796,2.467,13629770.373,24922840.931,2.467,0.000,0.000,0.000,0.000,0.000,0.000,0.000,15,15,4*49
$GPGGA,032801.60,3135.5829845,N,12046.4989205,E,4,15,1.4,2.4615,M,8.304,M,00,0004*68
$GPHPD,0,0.000,62.18,-0.23,-14.68,31.5930497,120.7749820,2.462,13629769.720,24922842.302,2.462,0.000,0.000,0.000,0.000,0.000,0.000,0.000,15,15,4*4B
$GPGGA,032801.80,3135.5830504,N,12046.4990674,E,4,15,1.4,2.4632,M,8.304,M,00,0004*69
$GPHPD,0,0.000,61.99,0.26,-14.73,31.5930508,120.7749845,2.463,13629769.079,24922843.690,2.463,0.000,0.000,0.000,0.000,0.000,0.000,0.000,15,15,4*63
$GPGGA,032802.00,3135.5831146,N,12046.4992157,E,4,15,1.4,2.4703,M,8.304,M,01,0004*67
$GPHPD,0,0.000,62.07,0.02,-14.74,31.5930519,120.7749869,2.470,13629768.465,24922845.104,2.470,0.000,0.000,0.000,0.000,0.000,0.000,0.000,15,15,4*6C
$GPGGA,032802.20,3135.5831799,N,12046.4993590,E,4,15,1.5,2.4720,M,8.304,M,01,0004*6F
$GPHPD,0,0.000,61.83,0.11,-14.75,31.5930530,120.7749893,2.472,13629767.825,24922846.452,2.472,0.000,0.000,0.000,0.000,0.000,0.000,0.000,15,15,4*6C
$GPGGA,032802.40,3135.5832475,N,12046.4995075,E,4,15,1.4,2.4664,M,8.304,M,01,0004*63
$GPHPD,0,0.000,61.56,-0.33,-14.72,31.5930541,120.7749918,2.466,13629767.163,24922847.849,2.466,0.000,0.000,0.000,0.000,0.000,0.000,0.000,15,15,4*46
$GPGGA,032802.60,3135.5833118,N,12046.4996506,E,4,15,1.4,2.4658,M,8.304,M,00,0004*62
$GPHPD,0,0.000,61.73,-0.17,-14.72,31.5930552,120.7749942,2.466,13629766.537,24922849.200,2.466,0.000,0.000,0.000,0.000,0.000,0.000,0.000,15,15,4*47
$GPGGA,032802.80,3135.5833761,N,12046.4997976,E,4,15,1.4,2.4694,M,8.304,M,00,0004*6E
$GPHPD,0,0.000,61.84,-0.52,-14.72,31.5930563,120.7749966,2.469,13629765.919,24922850.598,2.469,0.000,0.000,0.000,0.000,0.000,0.000,0.000,15,15,4*47
$GPGGA,032803.00,3135.5834436,N,12046.4999446,E,4,15,1.4,2.4704,M,8.304,M,01,0004*68
$GPHPD,0,0.000,61.26,-0.07,-14.72,31.5930574,120.7749991,2.470,13629765.255,24922851.977,2.470,0.000,0.000,0.000,0.000,0.000,0.000,0.000,15,15,4*4E
$GPGGA,032803.20,3135.5835055,N,12046.5000905,E,4,15,1.4,2.4721,M,8.304,M,01,0004*6F
$GPHPD,0,0.000,61.73,0.07,-14.74,31.5930584,120.7750015,2.472,13629764.669,24922853.376,2.472,0.000,0.000,0.000,0.000,0.000,0.000,0.000,15,15,4*64
$GPGGA,032803.40,3135.5835700,N,12046.5002344,E,4,15,1.4,2.4626,M,8.304,M,01,0004*65
$GPHPD,0,0.000,61.64,-0.22,-14.76,31.5930595,120.7750039,2.463,13629764.042,24922854.736,2.463,0.000,0.000,0.000,0.000,0.000,0.000,0.000,15,15,4*4C
$GPGGA,032803.60,3135.5836371,N,12046.5003819,E,4,15,1.4,2.4644,M,8.304,M,00,0004*61
$GPHPD,0,0.000,62.13,0.15,-14.74,31.5930606,120.7750064,2.464,13629763.385,24922856.124,2.464,0.000,0.000,0.000,0.000,0.000,0.000,0.000,15,15,4*6D
$GPGGA,032803.80,3135.5837021,N,12046.5005304,E,4,15,1.4,2.4654,M,8.304,M,00,0004*68
$GPHPD,0,0.000,62.35,-0.52,-14.71,31.5930617,120.7750088,2.465,13629762.760,24922857.536,2.465,0.000,0.000,0.000,0.000,0.000,0.000,0.000,15,15,4*48
$GPGGA,032804.00,3135.5837666,N,12046.5006730,E,4,15,1.4,2.4664,M,8.304,M,01,0004*60
$GPHPD,0,0.000,62.33,0.29,-14.68,31.5930628,120.7750112,2.466,13629762.130,24922858.880,2.466,0.000,0.000,0.000,0.000,0.000,0.000,0.000,15,15,4*65
$GPGGA,032804.20,3135.5838320,N,12046.5008267,E,4,15,1.4,2.4550,M,8.304,M,01,0004*67
$GPHPD,0,0.000,62.73,-0.26,-14.70,31.5930639,120.7750138,2.455,13629761.510,24922860.352,2.455,0.000,0.000,0.000,0.000,0.000,0.000,0.000,15,15,4*48
$GPGGA,032804.40,3135.5838954,N,12046.5009700,E,4,15,1.4,2.4687,M,8.304,M,01,0004*64
$GPHPD,0,0.000,62.53,0.29,-14.69,31.5930649,120.7750162,2.469,13629760.897,24922861.711,2.469,0.000,0.000,0.000,0.000,0.000,0.000,0.000,15,15,4*69
$GPGGA,032804.60,3135.5839589,N,12046.5011192,E,4,15,1.4,2.4702,M,8.304,M,00,0004*62
$GPHPD,0,0.000,62.48,-0.37,-14.69,31.5930660,120.7750187,2.470,13629760.295,24922863.140,2.470,0.000,0.000,0.000,0.000,0.000,0.000,0.000,15,15,4*49
$GPGGA,032804.80,3135.5840258,N,12046.5012661,E,4,15,1.4,2.4674,M,8.304,M,00,0004*61
$GPHPD,0,0.000,62.57,-0.80,-14.70,31.5930671,120.7750211,2.467,13629759.640,24922864.522,2.467,0.000,0.000,0.000,0.000,0.000,0.000,0.000,15,15,4*4E
$GPGGA,032805.00,3135.5840880,N,12046.5014147,E,4,15,1.4,2.4675,M,8.304,M,01,0004*62
$GPHPD,0,0.000,62.65,-0.81,-14.69,31.5930681,120.7750236,2.468,13629759.055,24922865.951,2.468,0.000,0.000,0.000,0.000,0.000,0.000,0.000,15,15,4*47
$GPGGA,032805.20,3135.5841508,N,12046.5015643,E,4,15,1.4,2.4648,M,8.304,M,01,0004*60
$GPHPD,0,0.000,62.52,-0.85,-14.70,31.5930692,120.7750261,2.465,13629758.463,24922867.389,2.465,0.000,0.000,0.000,0.000,0.000,0.000,0.000,15,15,4*42
$GPGGA,032805.40,3135.5842131,N,12046.5017125,E,4,15,1.4,2.4682,M,8.304,M,01,0004*68
$GPHPD,0,0.000,62.46,-0.67,-14.70,31.5930702,120.7750285,2.468,13629757.876,24922868.814,2.468,0.000,0.000,0.000,0.000,0.000,0.000,0.000,15,15,4*4E
$GPGGA,032805.60,3135.5842789,N,12046.5018583,E,4,15,1.4,2.4643,M,8.304,M,00,0004*64
$GPHPD,0,0.000,62.36,0.03,-14.71,31.5930713,120.7750310,2.464,13629757.234,24922870.188,2.464,0.000,0.000,0.000,0.000,0.000,0.000,0.000,15,15,4*63
$GPGGA,032805.80,3135.5843432,N,12046.5020048,E,4,15,1.4,2.4729,M,8.304,M,00,0004*6C
$GPHPD,0,0.000,62.56,0.45,-14.70,31.5930724,120.7750334,2.473,13629756.615,24922871.581,2.473,0.000,0.000,0.000,0.000,0.000,0.000,0.000,15,15,4*6E
$GPGGA,032806.00,3135.5844048,N,12046.5021563,E,4,15,1.4,2.4725,M,8.304,M,01,0004*69
$GPHPD,0,0.000,62.37,-0.19,-14.74,31.5930734,120.7750359,2.473,13629756.044,24922873.049,2.473,0.000,0.000,0.000,0.000,0.000,0.000,0.000,15,15,4*42
$GPGGA,032806.20,3135.5844710,N,12046.5023047,E,4,15,1.4,2.4680,M,8.304,M,01,0004*6E
$GPHPD,0,0.000,62.40,-0.01,-14.73,31.5930745,120.7750384,2.468,13629755.402,24922874.452,2.468,0.000,0.000,0.000,0.000,0.000,0.000,0.000,15,15,4*46
$GPGGA,032806.40,3135.5845377,N,12046.5024530,E,4,15,1.4,2.4552,M,8.304,M,01,0004*62
$GPHPD,0,0.000,62.59,0.37,-14.70,31.5930756,120.7750409,2.455,13629754.752,24922875.852,2.455,0.000,0.000,0.000,0.000,0.000,0.000,0.000,15,15,4*6F
$GPGGA,032806.60,3135.5846022,N,12046.5026038,E,4,15,1.4,2.4593,M,8.304,M,00,0004*63
$GPHPD,0,0.000,62.40,0.05,-14.71,31.5930767,120.7750434,2.459,13629754.139,24922877.295,2.459,0.000,0.000,0.000,0.000,0.000,0.000,0.000,15,15,4*63
$GPGGA,032806.80,3135.5846670,N,12046.5027516,E,4,15,1.4,2.4643,M,8.304,M,00,0004*6A
$GPHPD,0,0.000,62.45,-0.16,-14.72,31.5930778,120.7750459,2.464,13629753.515,24922878.700,2.464,0.000,0.000,0.000,0.000,0.000,0.000,0.000,15,15,4*44
$GPGGA,032807.00,3135.5847329,N,12046.5029031,E,4,15,1.4,2.4650,M,8.304,M,01,0004*66
$GPHPD,0,0.000,62.66,-0.38,-14.71,31.5930789,120.7750484,2.465,13629752.884,24922880.143,2.465,0.000,0.000,0.000,0.000,0.000,0.000,0.000,15,15,4*46
$GPGGA,032807.20,3135.5847963,N,12046.5030549,E,4,15,1.4,2.4616,M,8.304,M,01,0004*60
$GPHPD,0,0.000,62.40,-0.15,-14.68,31.5930799,120.7750509,2.462,13629752.288,24922881.604,2.462,0.000,0.000,0.000,0.000,0.000,0.000,0.000,15,15,4*43
$GPGGA,032807.40,3135.5848598,N,12046.5032012,E,4,16,1.4,2.4645,M,8.304,M,01,0004*6D
$GPHPD,0,0.000,62.23,0.18,-14.65,31.5930810,120.7750534,2.465,13629751.680,24922882.998,2.465,0.000,0.000,0.000,0.000,0.000,0.000,0.000,16,16,4*6D
$GPGGA,032807.60,3135.5849246,N,12046.5033473,E,4,16,1.4,2.4670,M,8.304,M,01,0004*6E
$GPHPD,0,0.000,62.36,-0.27,-14.64,31.5930821,120.7750558,2.467,13629751.053,24922884.383,2.467,0.000,0.000,0.000,0.000,0.000,0.000,0.000,16,16,4*4F
$GPGGA,032807.80,3135.5849904,N,12046.5035002,E,4,16,1.4,2.4629,M,8.304,M,01,0004*65
$GPHPD,0,0.000,62.57,-0.30,-14.65,31.5930832,120.7750583,2.463,13629750.425,24922885.843,2.463,0.000,0.000,0.000,0.000,0.000,0.000,0.000,16,16,4*49
$GPGGA,032808.00,3135.5850530,N,12046.5036473,E,4,16,1.4,2.4734,M,8.304,M,02,0004*6E
$GPHPD,0,0.000,62.52,-0.08,-14.62,31.5930842,120.7750608,2.473,13629749.832,24922887.252,2.473,0.000,0.000,0.000,0.000,0.000,0.000,0.000,16,16,4*4D
$GPGGA,032808.20,3135.5851200,N,12046.5037943,E,4,16,1.4,2.4721,M,8.304,M,02,0004*62
$GPHPD,0,0.000,61.86,-0.01,-14.65,31.5930853,120.7750632,2.472,13629749.175,24922888.635,2.472,0.000,0.000,0.000,0.000,0.000,0.000,0.000,16,16,4*40
$GPGGA,032808.40,3135.5851849,N,12046.5039446,E,4,16,1.4,2.4792,M,8.304,M,02,0004*6D
$GPHPD,0,0.000,62.60,-0.36,-14.69,31.5930864,120.7750657,2.479,13629748.555,24922890.069,2.479,0.000,0.000,0.000,0.000,0.000,0.000,0.000,16,16,4*45
$GPGGA,032808.60,3135.5852477,N,12046.5040948,E,4,16,1.4,2.4694,M,8.304,M,02,0004*67
$GPHPD,0,0.000,62.71,-0.20,-14.71,31.5930875,120.7750682,2.469,13629747.965,24922891.514,2.469,0.000,0.000,0.000,0.000,0.000,0.000,0.000,16,16,4*4D
$GPGGA,032808.80,3135.5853105,N,12046.5042438,E,4,16,1.4,2.4550,M,8.304,M,00,0004*69
$GPHPD,0,0.000,62.78,-0.03,-14.71,31.5930885,120.7750707,2.455,13629747.372,24922892.945,2.455,0.000,0.000,0.000,0.000,0.000,0.000,0.000,16,16,4*41
$GPGGA,032809.00,3135.5853757,N,12046.5043905,E,4,16,1.4,2.4781,M,8.304,M,01,0004*6C
$GPHPD,0,0.000,62.75,-0.04,-14.71,31.5930896,120.7750732,2.478,13629746.741,24922894.334,2.478,0.000,0.000,0.000,0.000,0.000,0.000,0.000,16,16,4*40
$GPGGA,032809.20,3135.5854418,N,12046.5045398,E,4,16,1.4,2.4770,M,8.304,M,01,0004*67
$GPHPD,0,0.000,63.38,-1.03,-14.71,31.5930907,120.7750757,2.477,13629746.101,24922895.750,2.477,0.000,0.000,0.000,0.000,0.000,0.000,0.000,16,16,4*41
$GPGGA,032809.40,3135.5855014,N,12046.5046870,E,4,16,1.4,2.4654,M,8.304,M,01,0004*61
$GPHPD,0,0.000,63.41,-0.24,-14.72,31.5930917,120.7750781,2.465,13629745.551,24922897.178,2.465,0.000,0.000,0.000,0.000,0.000,0.000,0.000,16,15,4*4D
$GPGGA,032809.60,3135.5855642,N,12046.5048373,E,4,16,1.3,2.4719,M,8.304,M,00,0004*6E
$GPHPD,0,0.000,63.16,-0.23,-14.75,31.5930927,120.7750806,2.472,13629744.960,24922898.624,2.472,0.000,0.000,0.000,0.000,0.000,0.000,0.000,16,15,4*42
$GPGGA,032809.80,3135.5856285,N,12046.5049849,E,4,16,1.3,2.4663,M,8.304,M,00,0004*63
$GPHPD,0,0.000,62.99,-0.33,-14.75,31.5930938,120.7750831,2.466,13629744.344,24922900.030,2.466,0.000,0.000,0.000,0.000,0.000,0.000,0.000,16,15,4*40
$GPGGA,032810.00,3135.5856935,N,12046.5051328,E,4,16,1.3,2.4606,M,8.304,M,01,0004*64
$GPHPD,0,0.000,63.06,-0.84,-14.76,31.5930949,120.7750855,2.461,13629743.717,24922901.434,2.461,0.000,0.000,0.000,0.000,0.000,0.000,0.000,16,15,4*48
$GPGGA,032810.20,3135.5857529,N,12046.5052798,E,4,16,1.3,2.4537,M,8.304,M,01,0004*6B
$GPHPD,0,0.000,62.86,0.30,-14.78,31.5930959,120.7750880,2.454,13629743.169,24922902.861,2.454,0.000,0.000,0.000,0.000,0.000,0.000,0.000,16,15,4*64
$GPGGA,032810.40,3135.5858151,N,12046.5054233,E,4,16,1.3,2.4580,M,8.304,M,01,0004*67
$GPHPD,0,0.000,62.55,0.39,-14.77,31.5930969,120.7750904,2.458,13629742.574,24922904.229,2.458,0.000,0.000,0.000,0.000,0.000,0.000,0.000,16,16,4*68
$GPGGA,032810.60,3135.5858799,N,12046.5055772,E,4,16,1.3,2.4496,M,8.304,M,00,0004*61
$GPHPD,0,0.000,62.41,0.39,-14.75,31.5930980,120.7750930,2.450,13629741.962,24922905.707,2.450,0.000,0.000,0.000,0.000,0.000,0.000,0.000,16,16,4*6F
$GPGGA,032810.80,3135.5859420,N,12046.5057224,E,4,16,1.4,2.4656,M,8.304,M,00,0004*62
$GPHPD,0,0.000,62.44,0.03,-14.74,31.5930990,120.7750954,2.466,13629741.372,24922907.097,2.466,0.000,0.000,0.000,0.000,0.000,0.000,0.000,16,15,4*65
$GPGGA,032811.00,3135.5860056,N,12046.5058706,E,4,16,1.4,2.4543,M,8.304,M,01,0004*68
$GPHPD,0,0.000,62.44,-0.62,-14.73,31.5931001,120.7750978,2.454,13629740.766,24922908.513,2.454,0.000,0.000,0.000,0.000,0.000,0.000,0.000,16,16,4*43
$GPGGA,032811.20,3135.5860684,N,12046.5060190,E,4,16,1.4,2.4599,M,8.304,M,01,0004*66
$GPHPD,0,0.000,62.28,0.06,-14.73,31.5931011,120.7751003,2.460,13629740.172,24922909.937,2.460,0.000,0.000,0.000,0.000,0.000,0.000,0.000,16,16,4*6B
$GPGGA,032811.40,3135.5861337,N,12046.5061627,E,4,16,1.4,2.4643,M,8.304,M,01,0004*62
$GPHPD,0,0.000,61.91,-0.44,-14.74,31.5931022,120.7751027,2.464,13629739.533,24922911.289,2.464,0.000,0.000,0.000,0.000,0.000,0.000,0.000,16,16,4*48
$GPGGA,032811.60,3135.5861992,N,12046.5063061,E,4,16,1.4,2.4693,M,8.304,M,00,0004*6F
$GPHPD,0,0.000,62.09,0.02,-14.75,31.5931033,120.7751051,2.469,13629738.891,24922912.637,2.469,0.000,0.000,0.000,0.000,0.000,0.000,0.000,16,16,4*63
$GPGGA,032811.80,3135.5862641,N,12046.5064564,E,4,16,1.5,2.4757,M,8.304,M,00,0004*6C
$GPHPD,0,0.000,61.96,0.33,-14.76,31.5931044,120.7751076,2.476,13629738.271,24922914.071,2.476,0.000,0.000,0.000,0.000,0.000,0.000,0.000,16,16,4*64
$GPGGA,032812.00,3135.5863271,N,12046.5066024,E,4,15,1.5,2.4792,M,8.304,M,01,0004*69
$GPHPD,0,0.000,62.08,0.85,-14.78,31.5931055,120.7751100,2.479,13629737.669,24922915.465,2.479,0.000,0.000,0.000,0.000,0.000,0.000,0.000,15,15,4*61
$GPGGA,032812.20,3135.5863889,N,12046.5067474,E,4,15,1.5,2.4867,M,8.304,M,01,0004*63
$GPHPD,0,0.000,62.47,0.87,-14.79,31.5931065,120.7751125,2.487,13629737.082,24922916.854,2.487,0.000,0.000,0.000,0.000,0.000,0.000,0.000,15,15,4*63
$GPGGA,032812.40,3135.5864550,N,12046.5068895,E,4,15,1.5,2.4873,M,8.304,M,01,0004*62
$GPHPD,0,0.000,62.21,1.08,-14.82,31.5931076,120.7751148,2.487,13629736.429,24922918.182,2.487,0.000,0.000,0.000,0.000,0.000,0.000,0.000,15,15,4*60
$GPGGA,032812.60,3135.5865183,N,12046.5070344,E,4,15,1.3,2.4779,M,8.304,M,00,0004*67
$GPHPD,0,0.000,62.71,-0.14,-14.83,31.5931086,120.7751172,2.478,13629735.821,24922919.561,2.478,0.000,0.000,0.000,0.000,0.000,0.000,0.000,15,15,4*4C
$GPGGA,032812.80,3135.5865851,N,12046.5071791,E,4,15,1.3,2.4820,M,8.304,M,00,0004*61
$GPHPD,0,0.000,62.97,-0.23,-14.86,31.5931098,120.7751197,2.482,13629735.163,24922920.916,2.482,0.000,0.000,0.000,0.000,0.000,0.000,0.000,15,15,4*48
$GPGGA,032813.00,3135.5866510,N,12046.5073317,E,4,15,1.3,2.4795,M,8.304,M,01,0004*6B
$GPHPD,0,0.000,63.34,-1.48,-14.86,31.5931109,120.7751222,2.480,13629734.533,24922922.373,2.480,0.000,0.000,0.000,0.000,0.000,0.000,0.000,15,14,4*42
$GPGGA,032813.20,3135.5867097,N,12046.5074781,E,4,15,1.3,2.4711,M,8.304,M,01,0004*62
$GPHPD,0,0.000,63.06,-0.26,-14.85,31.5931118,120.7751246,2.471,13629733.993,24922923.796,2.471,0.000,0.000,0.000,0.000,0.000,0.000,0.000,15,14,4*44
$GPGGA,032813.40,3135.5867712,N,12046.5076247,E,4,15,1.3,2.4881,M,8.304,M,01,0004*65
$GPHPD,0,0.000,62.43,0.22,-14.85,31.5931129,120.7751271,2.488,13629733.414,24922925.206,2.488,0.000,0.000,0.000,0.000,0.000,0.000,0.000,15,14,4*63
$GPGGA,032813.60,3135.5868339,N,12046.5077765,E,4,15,1.3,2.4972,M,8.304,M,01,0004*6C
$GPHPD,0,0.000,62.88,-0.32,-14.84,31.5931139,120.7751296,2.497,13629732.828,24922926.671,2.497,0.000,0.000,0.000,0.000,0.000,0.000,0.000,15,14,4*44
$GPGGA,032813.80,3135.5868983,N,12046.5079245,E,4,15,1.3,2.4972,M,8.304,M,01,0004*60
$GPHPD,0,0.000,62.75,-0.70,-14.81,31.5931150,120.7751321,2.497,13629732.211,24922928.080,2.497,0.000,0.000,0.000,0.000,0.000,0.000,0.000,15,14,4*41
$GPGGA,032814.00,3135.5869568,N,12046.5080757,E,4,16,1.3,2.4624,M,8.304,M,02,0004*6B
$GPHPD,0,0.000,62.71,-0.15,-14.80,31.5931159,120.7751346,2.462,13629731.684,24922929.563,2.462,0.000,0.000,0.000,0.000,0.000,0.000,0.000,16,15,4*4F
$GPGGA,032814.20,3135.5870253,N,12046.5082227,E,4,16,1.3,2.4773,M,8.304,M,02,0004*6D
$GPHPD,0,0.000,62.57,0.20,-14.81,31.5931171,120.7751370,2.477,13629731.006,24922930.937,2.477,0.000,0.000,0.000,0.000,0.000,0.000,0.000,16,15,4*67
$GPGGA,032814.40,3135.5870899,N,12046.5083657,E,4,16,1.3,2.4740,M,8.304,M,02,0004*65
$GPHPD,0,0.000,62.61,-0.12,-14.82,31.5931182,120.7751394,2.474,13629730.376,24922932.285,2.474,0.000,0.000,0.000,0.000,0.000,0.000,0.000,16,15,4*4E
$GPGGA,032814.60,3135.5871540,N,12046.5085112,E,4,16,1.3,2.4865,M,8.304,M,00,0004*65
$GPHPD,0,0.000,62.64,-0.55,-14.82,31.5931192,120.7751419,2.487,13629729.757,24922933.666,2.487,0.000,0.000,0.000,0.000,0.000,0.000,0.000,16,15,4*4C
$GPGGA,032814.80,3135.5872181,N,12046.5086591,E,4,16,1.3,2.4677,M,8.304,M,00,0004*60
$GPHPD,0,0.000,62.62,-0.44,-14.83,31.5931203,120.7751443,2.468,13629729.144,24922935.076,2.468,0.000,0.000,0.000,0.000,0.000,0.000,0.000,16,15,4*4A
$GPGGA,032815.00,3135.5872772,N,12046.5088099,E,4,16,1.4,2.4589,M,8.304,M,01,0004*64
$GPHPD,0,0.000,62.60,-0.21,-14.84,31.5931213,120.7751468,2.459,13629728.607,24922936.550,2.459,0.000,0.000,0.000,0.000,0.000,0.000,0.000,16,15,4*47
$GPGGA,032815.20,3135.5873424,N,12046.5089557,E,4,16,1.4,2.4607,M,8.304,M,01,0004*64
$GPHPD,0,0.000,62.28,-0.73,-14.86,31.5931224,120.7751493,2.461,13629727.974,24922937.928,2.461,0.000,0.000,0.000,0.000,0.000,0.000,0.000,16,15,4*48
$GPGGA,032815.40,3135.5874076,N,12046.5091008,E,4,16,1.4,2.4758,M,8.304,M,01,0004*6B
$GPHPD,0,0.000,62.52,-0.69,-14.89,31.5931235,120.7751517,2.476,13629727.339,24922939.298,2.476,0.000,0.000,0.000,0.000,0.000,0.000,0.000,16,15,4*41
$GPGGA,032815.60,3135.5874740,N,12046.5092467,E,4,16,1.4,2.4677,M,8.304,M,00,0004*68
$GPHPD,0,0.000,62.38,-0.07,-14.90,31.5931246,120.7751541,2.468,13629726.689,24922940.671,2.468,0.000,0.000,0.000,0.000,0.000,0.000,0.000,16,15,4*48
$GPGGA,032815.80,3135.5875374,N,12046.5093952,E,4,16,1.4,2.4625,M,8.304,M,00,0004*69
$GPHPD,0,0.000,62.38,0.54,-14.91,31.5931256,120.7751566,2.463,13629726.087,24922942.092,2.463,0.000,0.000,0.000,0.000,0.000,0.000,0.000,16,15,4*67
$GPGGA,032816.00,3135.5876017,N,12046.5095416,E,4,16,1.4,2.4717,M,8.304,M,01,0004*6D
$GPHPD,0,0.000,62.22,0.10,-14.91,31.5931267,120.7751590,2.472,13629725.467,24922943.483,2.472,0.000,0.000,0.000,0.000,0.000,0.000,0.000,16,15,4*6B
$GPGGA,032816.20,3135.5876696,N,12046.5096891,E,4,16,1.4,2.4794,M,8.304,M,01,0004*6B
$GPHPD,0,0.000,62.14,0.13,-14.89,31.5931278,120.7751615,2.479,13629724.799,24922944.866,2.479,0.000,0.000,0.000,0.000,0.000,0.000,0.000,16,15,4*67
$GPGGA,032816.40,3135.5877330,N,12046.5098383,E,4,16,1.4,2.4817,M,8.304,M,01,0004*67
$GPHPD,0,0.000,62.41,-0.18,-14.84,31.5931289,120.7751640,2.482,13629724.198,24922946.296,2.482,0.000,0.000,0.000,0.000,0.000,0.000,0.000,16,15,4*42
$GPGGA,032816.60,3135.5877975,N,12046.5099901,E,4,16,1.4,2.4824,M,8.304,M,00,0004*6E
$GPHPD,0,0.000,61.96,0.36,-14.82,31.5931300,120.7751665,2.482,13629723.587,24922947.751,2.482,0.000,0.000,0.000,0.000,0.000,0.000,0.000,16,15,4*69
$GPGGA,032816.80,3135.5878639,N,12046.5101383,E,4,16,1.4,2.4757,M,8.304,M,00,0004*63
$GPHPD,0,0.000,62.24,-0.44,-14.77,31.5931311,120.7751690,2.476,13629722.942,24922949.151,2.476,0.000,0.000,0.000,0.000,0.000,0.000,0.000,16,15,4*47
$GPGGA,032817.00,3135.5879284,N,12046.5102856,E,4,16,1.4,2.4723,M,8.304,M,01,0004*6B
$GPHPD,0,0.000,62.30,-0.34,-14.72,31.5931321,120.7751714,2.472,13629722.321,24922950.552,2.472,0.000,0.000,0.000,0.000,0.000,0.000,0.000,16,15,4*4E
$GPGGA,032817.20,3135.5879936,N,12046.5104359,E,4,16,1.4,2.4794,M,8.304,M,01,0004*65
$GPHPD,0,0.000,62.17,-0.34,-14.72,31.5931332,120.7751739,2.479,13629721.697,24922951.984,2.479,0.000,0.000,0.000,0.000,0.000,0.000,0.000,16,15,4*4B
$GPGGA,032817.40,3135.5880608,N,12046.5105865,E,4,15,1.5,2.4707,M,8.304,M,01,0004*6A
$GPHPD,0,0.000,62.02,-0.31,-14.72,31.5931343,120.7751764,2.471,13629721.045,24922953.409,2.471,0.000,0.000,0.000,0.000,0.000,0.000,0.000,15,15,4*44
$GPGGA,032817.60,3135.5881274,N,12046.5107297,E,4,16,1.3,2.4810,M,8.304,M,00,0004*6E
$GPHPD,0,0.000,61.47,0.24,-14.70,31.5931355,120.7751788,2.481,13629720.386,24922954.748,2.481,0.000,0.000,0.000,0.000,0.000,0.000,0.000,16,15,4*67
$GPGGA,032817.80,3135.5881886,N,12046.5108824,E,4,16,1.3,2.4816,M,8.304,M,00,0004*6C
$GPHPD,0,0.000,62.08,0.05,-14.70,31.5931365,120.7751814,2.482,13629719.824,24922956.233,2.482,0.000,0.000,0.000,0.000,0.000,0.000,0.000,16,15,4*67
$GPGGA,032818.00,3135.5882536,N,12046.5110331,E,4,16,1.3,2.4847,M,8.304,M,01,0004*6D
$GPHPD,0,0.000,62.38,-0.53,-14.69,31.5931376,120.7751839,2.485,13629719.203,24922957.671,2.485,0.000,0.000,0.000,0.000,0.000,0.000,0.000,16,14,4*42
$GPGGA,032818.20,3135.5883211,N,12046.5111817,E,4,16,1.3,2.4787,M,8.304,M,01,0004*61
$GPHPD,0,0.000,62.28,0.04,-14.70,31.5931387,120.7751864,2.479,13629718.543,24922959.070,2.479,0.000,0.000,0.000,0.000,0.000,0.000,0.000,16,15,4*68
$GPGGA,032818.40,3135.5883845,N,12046.5113304,E,4,16,1.3,2.4914,M,8.304,M,01,0004*63
$GPHPD,0,0.000,62.66,0.44,-14.71,31.5931397,120.7751888,2.491,13629717.941,24922960.494,2.491,0.000,0.000,0.000,0.000,0.000,0.000,0.000,16,15,4*61
$GPGGA,032818.60,3135.5884518,N,12046.5114802,E,4,16,1.3,2.4973,M,8.304,M,00,0004*69
$GPHPD,0,0.000,62.93,0.04,-14.73,31.5931409,120.7751913,2.497,13629717.286,24922961.908,2.497,0.000,0.000,0.000,0.000,0.000,0.000,0.000,16,14,4*66
$GPGGA,032818.80,3135.5885155,N,12046.5116271,E,4,16,1.3,2.4918,M,8.304,M,00,0004*6A
$GPHPD,0,0.000,63.16,-0.17,-14.74,31.5931419,120.7751938,2.492,13629716.676,24922963.309,2.492,0.000,0.000,0.000,0.000,0.000,0.000,0.000,16,13,4*4E
$GPGGA,032819.00,3135.5885799,N,12046.5117776,E,4,15,1.4,2.4789,M,8.304,M,01,0004*65
$GPHPD,0,0.000,62.80,-0.07,-14.78,31.5931430,120.7751963,2.479,13629716.064,24922964.748,2.479,0.000,0.000,0.000,0.000,0.000,0.000,0.000,15,14,4*4F
$GPGGA,032819.20,3135.5886469,N,12046.5119265,E,4,15,1.4,2.4826,M,8.304,M,01,0004*6B
$GPHPD,0,0.000,62.61,-0.16,-14.78,31.5931441,120.7751988,2.483,13629715.411,24922966.153,2.483,0.000,0.000,0.000,0.000,0.000,0.000,0.000,15,14,4*48
$GPGGA,032819.40,3135.5887099,N,12046.5120749,E,4,16,1.4,2.4873,M,8.304,M,01,0004*65
$GPHPD,0,0.000,62.38,-0.59,-14.79,31.5931452,120.7752012,2.487,13629714.814,24922967.576,2.487,0.000,0.000,0.000,0.000,0.000,0.000,0.000,16,14,4*4C
$GPGGA,032819.60,3135.5887728,N,12046.5122251,E,4,16,1.4,2.4786,M,8.304,M,00,0004*60
$GPHPD,0,0.000,62.28,-0.94,-14.79,31.5931462,120.7752038,2.479,13629714.222,24922969.021,2.479,0.000,0.000,0.000,0.000,0.000,0.000,0.000,16,14,4*41
$GPGGA,032819.80,3135.5888376,N,12046.5123726,E,4,15,1.4,2.4737,M,8.304,M,00,0004*63
$GPHPD,0,0.000,62.17,-0.10,-14.78,31.5931473,120.7752062,2.474,13629713.598,24922970.422,2.474,0.000,0.000,0.000,0.000,0.000,0.000,0.000,15,14,4*42
$GPGGA,032820.00,3135.5889015,N,12046.5125210,E,4,16,1.4,2.4711,M,8.304,M,01,0004*66
$GPHPD,0,0.000,62.11,0.42,-14.77,31.5931484,120.7752087,2.471,13629712.989,24922971.839,2.471,0.000,0.000,0.000,0.000,0.000,0.000,0.000,16,15,4*6A
$GPGGA,032820.20,3135.5889661,N,12046.5126672,E,4,16,1.4,2.4711,M,8.305,M,01,0004*63
$GPHPD,0,0.000,62.03,-0.14,-14.78,31.5931494,120.7752111,2.471,13629712.365,24922973.226,2.471,0.000,0.000,0.000,0.000,0.000,0.000,0.000,16,15,4*49
$GPGGA,032820.40,3135.5890310,N,12046.5128107,E,4,16,1.4,2.4676,M,8.305,M,01,0004*65
$GPHPD,0,0.000,61.82,0.09,-14.77,31.5931505,120.7752135,2.468,13629711.731,24922974.578,2.468,0.000,0.000,0.000,0.000,0.000,0.000,0.000,16,15,4*6F
$GPGGA,032820.60,3135.5890965,N,12046.5129565,E,4,16,1.4,2.4677,M,8.305,M,00,0004*6E
$GPHPD,0,0.000,62.10,0.45,-14.79,31.5931516,120.7752159,2.468,13629711.093,24922975.955,2.468,0.000,0.000,0.000,0.000,0.000,0.000,0.000,16,15,4*64
$GPGGA,032820.80,3135.5891618,N,12046.5131039,E,4,16,1.4,2.4632,M,8.305,M,00,0004*60
$GPHPD,0,0.000,61.62,0.74,-14.78,31.5931527,120.7752184,2.463,13629710.462,24922977.352,2.463,0.000,0.000,0.000,0.000,0.000,0.000,0.000,16,15,4*67
$GPGGA,032821.00,3135.5892264,N,12046.5132478,E,4,16,1.4,2.4678,M,8.305,M,01,0004*68
$GPHPD,0,0.000,61.87,0.32,-14.80,31.5931538,120.7752208,2.468,13629709.833,24922978.711,2.468,0.000,0.000,0.000,0.000,0.000,0.000,0.000,16,15,4*6C
$GPGGA,032821.20,3135.5892925,N,12046.5133923,E,4,16,1.4,2.4631,M,8.305,M,01,0004*6B
$GPHPD,0,0.000,62.01,-0.08,-14.83,31.5931549,120.7752232,2.463,13629709.184,24922980.068,2.463,0.000,0.000,0.000,0.000,0.000,0.000,0.000,16,15,4*42
$GPGGA,032821.40,3135.5893551,N,12046.5135385,E,4,16,1.4,2.4821,M,8.305,M,01,0004*6C
$GPHPD,0,0.000,61.87,0.55,-14.81,31.5931559,120.7752256,2.482,13629708.589,24922981.467,2.482,0.000,0.000,0.000,0.000,0.000,0.000,0.000,16,15,4*69
$GPGGA,032821.60,3135.5894164,N,12046.5136847,E,4,16,1.4,2.4811,M,8.305,M,00,0004*6F
$GPHPD,0,0.000,62.46,-0.15,-14.83,31.5931569,120.7752281,2.481,13629708.012,24922982.873,2.481,0.000,0.000,0.000,0.000,0.000,0.000,0.000,16,15,4*48
$GPGGA,032821.80,3135.5894869,N,12046.5138324,E,4,16,1.4,2.4803,M,8.305,M,00,0004*66
$GPHPD,0,0.000,61.74,0.76,-14.80,31.5931581,120.7752305,2.480,13629707.307,24922984.243,2.480,0.000,0.000,0.000,0.000,0.000,0.000,0.000,16,15,4*6D
$GPGGA,032822.00,3135.5895500,N,12046.5139813,E,4,16,1.4,2.4838,M,8.305,M,01,0004*69
$GPHPD,0,0.000,62.25,-0.31,-14.79,31.5931592,120.7752330,2.484,13629706.710,24922985.671,2.484,0.000,0.000,0.000,0.000,0.000,0.000,0.000,16,15,4*41
$GPGGA,032822.20,3135.5896106,N,12046.5141317,E,4,16,1.3,2.4893,M,8.305,M,01,0004*6C
$GPHPD,0,0.000,62.38,-0.43,-14.79,31.5931602,120.7752355,2.489,13629706.151,24922987.132,2.489,0.000,0.000,0.000,0.000,0.000,0.000,0.000,16,15,4*40
$GPGGA,032822.40,3135.5896771,N,12046.5142798,E,4,16,1.3,2.4866,M,8.305,M,01,0004*66
$GPHPD,0,0.000,62.17,0.14,-14.80,31.5931613,120.7752380,2.487,13629705.504,24922988.530,2.487,0.000,0.000,0.000,0.000,0.000,0.000,0.000,16,15,4*62
$GPGGA,032822.60,3135.5897397,N,12046.5144303,E,4,16,1.3,2.4976,M,8.305,M,00,0004*68
$GPHPD,0,0.000,62.53,0.16,-14.74,31.5931623,120.7752405,2.498,13629704.917,24922989.980,2.498,0.000,0.000,0.000,0.000,0.000,0.000,0.000,16,14,4*6A
$GPGGA,032822.80,3135.5898054,N,12046.5145791,E,4,16,1.3,2.5044,M,8.305,M,00,0004*62
$GPHPD,0,0.000,62.66,-0.13,-14.76,31.5931634,120.7752430,2.504,13629704.283,24922991.392,2.504,0.000,0.000,0.000,0.000,0.000,0.000,0.000,16,14,4*40
$GPGGA,032823.00,3135.5898736,N,12046.5147225,E,4,16,1.3,2.4900,M,8.305,M,01,0004*69
$GPHPD,0,0.000,63.19,-0.82,-14.74,31.5931646,120.7752454,2.490,13629703.602,24922992.724,2.490,0.000,0.000,0.000,0.000,0.000,0.000,0.000,16,14,4*44
$GPGGA,032823.20,3135.5899390,N,12046.5148711,E,4,16,1.3,2.4919,M,8.305,M,01,0004*67
$GPHPD,0,0.000,63.24,-0.37,-14.73,31.5931657,120.7752479,2.492,13629702.971,24922994.135,2.492,0.000,0.000,0.000,0.000,0.000,0.000,0.000,16,14,4*46
$GPGGA,032823.40,3135.5900034,N,12046.5150256,E,4,16,1.3,2.4958,M,8.305,M,01,0004*67
$GPHPD,0,0.000,63.07,-0.44,-14.69,31.5931667,120.7752504,2.496,13629702.367,24922995.623,2.496,0.000,0.000,0.000,0.000,0.000,0.000,0.000,16,14,4*4C
$GPGGA,032823.60,3135.5900686,N,12046.5151754,E,4,15,1.5,2.5014,M,8.305,M,00,0004*68
$GPHPD,0,0.000,62.76,-1.22,-14.70,31.5931678,120.7752529,2.501,13629701.742,24922997.049,2.501,0.000,0.000,0.000,0.000,0.000,0.000,0.000,15,14,4*48
$GPGGA,032823.80,3135.5901302,N,12046.5153239,E,4,16,1.5,2.4929,M,8.305,M,00,0004*67
$GPHPD,0,0.000,62.69,-0.89,-14.69,31.5931688,120.7752554,2.493,13629701.165,24922998.481,2.493,0.000,0.000,0.000,0.000,0.000,0.000,0.000,16,14,4*44
$GPGGA,032824.00,3135.5901949,N,12046.5154719,E,4,16,1.5,2.4853,M,8.305,M,01,0004*60
$GPHPD,0,0.000,62.17,-0.35,-14.71,31.5931699,120.7752579,2.485,13629700.543,24922999.889,2.485,0.000,0.000,0.000,0.000,0.000,0.000,0.000,16,14,4*48
$GPGGA,032824.20,3135.5902591,N,12046.5156202,E,4,16,1.5,2.4836,M,8.305,M,01,0004*66
$GPHPD,0,0.000,62.38,0.36,-14.69,31.5931710,120.7752603,2.484,13629699.929,24923001.303,2.484,0.000,0.000,0.000,0.000,0.000,0.000,0.000,16,14,4*6D
$GPGGA,032824.40,3135.5903252,N,12046.5157720,E,4,16,1.5,2.4813,M,8.305,M,01,0004*6A
$GPHPD,0,0.000,62.56,0.00,-14.66,31.5931721,120.7752629,2.481,13629699.295,24923002.749,2.481,0.000,0.000,0.000,0.000,0.000,0.000,0.000,16,14,4*60
$GPGGA,032824.60,3135.5903889,N,12046.5159217,E,4,16,1.5,2.4764,M,8.305,M,00,0004*65
$GPHPD,0,0.000,62.42,0.05,-14.67,31.5931731,120.7752654,2.476,13629698.691,24923004.183,2.476,0.000,0.000,0.000,0.000,0.000,0.000,0.000,16,14,4*6D
$GPGGA,032824.80,3135.5904524,N,12046.5160701,E,4,16,1.5,2.4755,M,8.305,M,00,0004*6C
$GPHPD,0,0.000,62.50,-0.18,-14.70,31.5931742,120.7752678,2.476,13629698.087,24923005.602,2.476,0.000,0.000,0.000,0.000,0.000,0.000,0.000,16,15,4*4C
$GPGGA,032825.00,3135.5905198,N,12046.5162146,E,4,16,1.4,2.4908,M,8.305,M,01,0004*66
$GPHPD,0,0.000,62.23,0.58,-14.70,31.5931753,120.7752702,2.491,13629697.420,24923006.952,2.491,0.000,0.000,0.000,0.000,0.000,0.000,0.000,16,15,4*62
$GPGGA,032825.20,3135.5905828,N,12046.5163670,E,4,16,1.4,2.4980,M,8.305,M,01,0004*65
$GPHPD,0,0.000,62.24,0.25,-14.69,31.5931764,120.7752728,2.498,13629696.831,24923008.423,2.498,0.000,0.000,0.000,0.000,0.000,0.000,0.000,16,15,4*63
$GPGGA,032825.40,3135.5906508,N,12046.5165126,E,4,16,1.4,2.5044,M,8.305,M,01,0004*6D
$GPHPD,0,0.000,61.70,0.13,-14.68,31.5931775,120.7752752,2.504,13629696.158,24923009.783,2.504,0.000,0.000,0.000,0.000,0.000,0.000,0.000,16,15,4*66
$GPGGA,032825.60,3135.5907163,N,12046.5166632,E,4,16,1.4,2.5037,M,8.305,M,00,0004*63
$GPHPD,0,0.000,62.25,0.07,-14.71,31.5931786,120.7752777,2.504,13629695.530,24923011.217,2.504,0.000,0.000,0.000,0.000,0.000,0.000,0.000,16,15,4*6B
$GPGGA,032825.80,3135.5907791,N,12046.5168101,E,4,16,1.4,2.4992,M,8.305,M,00,0004*68
$GPHPD,0,0.000,62.45,-0.47,-14.69,31.5931797,120.7752802,2.499,13629694.933,24923012.623,2.499,0.000,0.000,0.000,0.000,0.000,0.000,0.000,16,15,4*4E
$GPGGA,032826.00,3135.5908458,N,12046.5169557,E,4,16,1.4,2.5170,M,8.305,M,01,0004*68
$GPHPD,0,0.000,61.93,-0.18,-14.69,31.5931808,120.7752826,2.517,13629694.278,24923013.990,2.517,0.000,0.000,0.000,0.000,0.000,0.000,0.000,16,15,4*41
$GPGGA,032826.20,3135.5909100,N,12046.5171038,E,4,16,1.4,2.5191,M,8.305,M,01,0004*69
$GPHPD,0,0.000,62.45,-0.22,-14.71,31.5931818,120.7752851,2.519,13629693.663,24923015.402,2.519,0.000,0.000,0.000,0.000,0.000,0.000,0.000,16,15,4*41
$GPGGA,032826.40,3135.5909732,N,12046.5172569,E,4,16,1.4,2.5027,M,8.305,M,01,0004*66
$GPHPD,0,0.000,62.37,0.75,-14.72,31.5931829,120.7752876,2.503,13629693.073,24923016.880,2.503,0.000,0.000,0.000,0.000,0.000,0.000,0.000,16,14,4*6C
$GPGGA,032826.60,3135.5910366,N,12046.5174047,E,4,16,1.3,2.5085,M,8.305,M,00,0004*68
$GPHPD,0,0.000,62.71,-0.34,-14.75,31.5931839,120.7752901,2.509,13629692.469,24923018.293,2.509,0.000,0.000,0.000,0.000,0.000,0.000,0.000,16,14,4*49
$GPGGA,032826.80,3135.5911006,N,12046.5175523,E,4,16,1.3,2.5130,M,8.305,M,00,0004*6B
$GPHPD,0,0.000,62.48,-0.38,-14.75,31.5931850,120.7752925,2.513,13629691.857,24923019.700,2.513,0.000,0.000,0.000,0.000,0.000,0.000,0.000,16,14,4*4A
$GPGGA,032827.00,3135.5911671,N,12046.5177086,E,4,16,1.4,2.5013,M,8.305,M,01,0004*6A
$GPHPD,0,0.000,62.88,-0.97,-14.74,31.5931861,120.7752951,2.501,13629691.226,24923021.197,2.501,0.000,0.000,0.000,0.000,0.000,0.000,0.000,16,14,4*4C
$GPGGA,032827.20,3135.5912333,N,12046.5178583,E,4,16,1.3,2.5003,M,8.305,M,01,0004*61
$GPHPD,0,0.000,63.36,-0.46,-14.71,31.5931872,120.7752976,2.500,13629690.586,24923022.617,2.500,0.000,0.000,0.000,0.000,0.000,0.000,0.000,16,14,4*46
$GPGGA,032827.40,3135.5912958,N,12046.5180062,E,4,16,1.3,2.5082,M,8.305,M,01,0004*64
$GPHPD,0,0.000,62.83,-0.12,-14.71,31.5931883,120.7753001,2.508,13629689.996,24923024.036,2.508,0.000,0.000,0.000,0.000,0.000,0.000,0.000,16,14,4*48
$GPGGA,032827.60,3135.5913608,N,12046.5181507,E,4,16,1.3,2.4850,M,8.305,M,00,0004*6D
$GPHPD,0,0.000,62.47,-1.36,-14.73,31.5931893,120.7753025,2.485,13629689.362,24923025.400,2.485,0.000,0.000,0.000,0.000,0.000,0.000,0.000,16,14,4*43
$GPGGA,032827.80,3135.5914214,N,12046.5182994,E,4,16,1.3,2.4905,M,8.305,M,00,0004*69
$GPHPD,0,0.000,62.74,-0.70,-14.73,31.5931904,120.7753050,2.491,13629688.800,24923026.840,2.491,0.000,0.000,0.000,0.000,0.000,0.000,0.000,16,15,4*49
$GPGGA,032828.00,3135.5914851,N,12046.5184467,E,4,16,1.3,2.4755,M,8.305,M,01,0004*68
$GPHPD,0,0.000,62.47,-0.11,-14.73,31.5931914,120.7753074,2.476,13629688.191,24923028.245,2.476,0.000,0.000,0.000,0.000,0.000,0.000,0.000,16,15,4*49
$GPGGA,032828.20,3135.5915459,N,12046.5185940,E,4,16,1.3,2.4802,M,8.305,M,01,0004*6B
$GPHPD,0,0.000,62.30,0.41,-14.74,31.5931924,120.7753099,2.480,13629687.624,24923029.667,2.480,0.000,0.000,0.000,0.000,0.000,0.000,0.000,16,15,4*65
$GPGGA,032828.40,3135.5916126,N,12046.5187354,E,4,16,1.4,2.4857,M,8.305,M,01,0004*69
$GPHPD,0,0.000,62.26,0.22,-14.73,31.5931935,120.7753123,2.486,13629686.960,24923030.984,2.486,0.000,0.000,0.000,0.000,0.000,0.000,0.000,16,15,4*64
$GPGGA,032828.60,3135.5916785,N,12046.5188789,E,4,16,1.5,2.4764,M,8.305,M,00,0004*60
$GPHPD,0,0.000,62.32,-0.13,-14.77,31.5931946,120.7753146,2.476,13629686.312,24923032.331,2.476,0.000,0.000,0.000,0.000,0.000,0.000,0.000,16,15,4*44
$GPGGA,032828.80,3135.5917395,N,12046.5190276,E,4,16,1.4,2.4785,M,8.305,M,00,0004*68
$GPHPD,0,0.000,62.67,-0.08,-14.77,31.5931957,120.7753171,2.479,13629685.744,24923033.768,2.479,0.000,0.000,0.000,0.000,0.000,0.000,0.000,16,15,4*47
$GPGGA,032829.00,3135.5918035,N,12046.5191706,E,4,16,1.4,2.4874,M,8.305,M,01,0004*64
$GPHPD,0,0.000,61.71,1.90,-14.80,31.5931967,120.7753195,2.487,13629685.123,24923035.120,2.487,0.000,0.000,0.000,0.000,0.000,0.000,0.000,16,15,4*64
$GPGGA,032829.20,3135.5918699,N,12046.5193216,E,4,15,1.6,2.4777,M,8.305,M,01,0004*6D
$GPHPD,0,0.000,61.99,0.65,-14.79,31.5931978,120.7753220,2.478,13629684.483,24923036.554,2.478,0.000,0.000,0.000,0.000,0.000,0.000,0.000,15,14,4*64
$GPGGA,032829.40,3135.5919355,N,12046.5194706,E,4,16,1.6,2.4913,M,8.305,M,01,0004*63
$GPHPD,0,0.000,62.05,-0.38,-14.72,31.5931989,120.7753245,2.491,13629683.850,24923037.969,2.491,0.000,0.000,0.000,0.000,0.000,0.000,0.000,16,14,4*44
$GPGGA,032829.60,3135.5920022,N,12046.5196174,E,4,15,1.6,2.4860,M,8.305,M,01,0004*6F
$GPHPD,0,0.000,62.31,-0.34,-14.71,31.5932000,120.7753270,2.486,13629683.197,24923039.350,2.486,0.000,0.000,0.000,0.000,0.000,0.000,0.000,15,13,4*49
$GPGGA,032829.80,3135.5920658,N,12046.5197683,E,4,15,1.6,2.4918,M,8.305,M,01,0004*6A
$GPHPD,0,0.000,61.93,1.04,-14.65,31.5932011,120.7753295,2.492,13629682.597,24923040.799,2.492,0.000,0.000,0.000,0.000,0.000,0.000,0.000,15,13,4*69
$GPGGA,032830.00,3135.5921338,N,12046.5199186,E,4,14,1.6,2.4941,M,8.305,M,02,0004*6A
$GPHPD,0,0.000,60.89,0.78,-14.63,31.5932022,120.7753320,2.494,13629681.933,24923042.216,2.494,0.000,0.000,0.000,0.000,0.000,0.000,0.000,14,13,4*60
$GPGGA,032830.20,3135.5921998,N,12046.5200689,E,4,14,1.6,2.4924,M,8.305,M,02,0004*60
$GPHPD,0,0.000,62.31,-0.41,-14.62,31.5932033,120.7753345,2.492,13629681.297,24923043.644,2.492,0.000,0.000,0.000,0.000,0.000,0.000,0.000,14,13,4*43
$GPGGA,032830.40,3135.5922662,N,12046.5202091,E,4,14,1.6,2.5165,M,8.305,M,02,0004*6E
$GPHPD,0,0.000,62.11,-0.04,-14.66,31.5932044,120.7753368,2.517,13629680.636,24923044.948,2.517,0.000,0.000,0.000,0.000,0.000,0.000,0.000,14,13,4*41
$GPGGA,032830.60,3135.5923291,N,12046.5203612,E,4,15,1.6,2.5176,M,8.305,M,02,0004*6A
$GPHPD,0,0.000,61.72,-0.90,-14.67,31.5932055,120.7753394,2.518,13629680.048,24923046.415,2.518,0.000,0.000,0.000,0.000,0.000,0.000,0.000,15,14,4*46
$GPGGA,032830.80,3135.5923961,N,12046.5205019,E,4,15,1.4,2.5158,M,8.305,M,00,0004*67
$GPHPD,0,0.000,61.71,-0.76,-14.63,31.5932066,120.7753417,2.516,13629679.379,24923047.722,2.516,0.000,0.000,0.000,0.000,0.000,0.000,0.000,15,14,4*44
$GPGGA,032831.00,3135.5924627,N,12046.5206489,E,4,15,1.4,2.5256,M,8.305,M,01,0004*66
$GPHPD,0,0.000,62.26,-0.38,-14.64,31.5932077,120.7753441,2.526,13629678.728,24923049.106,2.526,0.000,0.000,0.000,0.000,0.000,0.000,0.000,15,14,4*44
$GPGGA,032831.20,3135.5925197,N,12046.5208001,E,4,15,1.4,2.5207,M,8.305,M,01,0004*67
$GPHPD,0,0.000,63.19,-1.76,-14.65,31.5932087,120.7753467,2.521,13629678.222,24923050.598,2.521,0.000,0.000,0.000,0.000,0.000,0.000,0.000,15,14,4*4C
$GPGGA,032831.40,3135.5925834,N,12046.5209479,E,4,15,1.4,2.5165,M,8.305,M,01,0004*6C
$GPHPD,0,0.000,62.63,-1.02,-14.73,31.5932097,120.7753491,2.517,13629677.614,24923052.009,2.517,0.000,0.000,0.000,0.000,0.000,0.000,0.000,15,14,4*4D
$GPGGA,032831.60,3135.5926484,N,12046.5210953,E,4,15,1.4,2.5216,M,8.305,M,01,0004*60
$GPHPD,0,0.000,63.05,-0.79,-14.83,31.5932108,120.7753516,2.522,13629676.987,24923053.408,2.522,0.000,0.000,0.000,0.000,0.000,0.000,0.000,15,14,4*47
$GPGGA,032831.80,3135.5927139,N,12046.5212487,E,4,15,1.4,2.4953,M,8.305,M,01,0004*61
$GPHPD,0,0.000,63.41,-0.96,-14.84,31.5932119,120.7753541,2.495,13629676.364,24923054.876,2.495,0.000,0.000,0.000,0.000,0.000,0.000,0.000,15,14,4*46
$GPGGA,032832.00,3135.5927760,N,12046.5214026,E,4,16,1.4,2.4910,M,8.305,M,02,0004*6E
$GPHPD,0,0.000,63.38,-1.03,-14.87,31.5932129,120.7753567,2.491,13629675.791,24923056.370,2.491,0.000,0.000,0.000,0.000,0.000,0.000,0.000,16,15,4*41
$GPGGA,032832.20,3135.5928455,N,12046.5215480,E,4,16,1.4,2.4728,M,8.305,M,02,0004*6A
$GPHPD,0,0.000,63.28,-0.85,-14.85,31.5932141,120.7753591,2.473,13629675.096,24923057.718,2.473,0.000,0.000,0.000,0.000,0.000,0.000,0.000,16,15,4*41
$GPGGA,032832.40,3135.5929079,N,12046.5216967,E,4,16,1.4,2.4872,M,8.305,M,02,0004*60
$GPHPD,0,0.000,63.13,-0.74,-14.80,31.5932151,120.7753616,2.487,13629674.509,24923059.148,2.487,0.000,0.000,0.000,0.000,0.000,0.000,0.000,16,15,4*40
$GPGGA,032832.60,3135.5929674,N,12046.5218461,E,4,16,1.4,2.4800,M,8.305,M,02,0004*69
$GPHPD,0,0.000,63.04,-0.53,-14.74,31.5932161,120.7753641,2.480,13629673.963,24923060.603,2.480,0.000,0.000,0.000,0.000,0.000,0.000,0.000,16,15,4*4C
$GPGGA,032832.80,3135.5930326,N,12046.5219901,E,4,16,1.4,2.4849,M,8.305,M,00,0004*68
$GPHPD,0,0.000,62.78,-0.53,-14.72,31.5932172,120.7753665,2.485,13629673.327,24923061.960,2.485,0.000,0.000,0.000,0.000,0.000,0.000,0.000,16,15,4*45
$GPGGA,032833.00,3135.5930952,N,12046.5221362,E,4,16,1.4,2.4747,M,8.305,M,01,0004*6C
$GPHPD,0,0.000,62.83,-0.23,-14.73,31.5932183,120.7753689,2.475,13629672.731,24923063.357,2.475,0.000,0.000,0.000,0.000,0.000,0.000,0.000,16,15,4*45
$GPGGA,032833.20,3135.5931548,N,12046.5222857,E,4,16,1.3,2.4774,M,8.305,M,01,0004*61
$GPHPD,0,0.000,62.77,0.04,-14.76,31.5932192,120.7753714,2.477,13629672.185,24923064.812,2.477,0.000,0.000,0.000,0.000,0.000,0.000,0.000,16,15,4*62
$GPGGA,032833.40,3135.5932206,N,12046.5224307,E,4,16,1.3,2.4669,M,8.305,M,01,0004*6C
$GPHPD,0,0.000,62.70,0.36,-14.76,31.5932203,120.7753738,2.467,13629671.541,24923066.178,2.467,0.000,0.000,0.000,0.000,0.000,0.000,0.000,16,15,4*69
$GPGGA,032833.60,3135.5932822,N,12046.5225800,E,4,16,1.3,2.4843,M,8.305,M,00,0004*68
$GPHPD,0,0.000,62.48,0.59,-14.77,31.5932214,120.7753763,2.484,13629670.966,24923067.619,2.484,0.000,0.000,0.000,0.000,0.000,0.000,0.000,16,15,4*6B
$GPGGA,032833.80,3135.5933455,N,12046.5227300,E,4,16,1.3,2.4834,M,8.305,M,00,0004*62
$GPHPD,0,0.000,62.33,0.24,-14.79,31.5932224,120.7753788,2.483,13629670.368,24923069.059,2.483,0.000,0.000,0.000,0.000,0.000,0.000,0.000,16,15,4*6D
$GPGGA,032834.00,3135.5934092,N,12046.5228735,E,4,16,1.3,2.4938,M,8.305,M,01,0004*64
$GPHPD,0,0.000,62.42,0.65,-14.79,31.5932235,120.7753812,2.494,13629669.751,24923070.418,2.494,0.000,0.000,0.000,0.000,0.000,0.000,0.000,16,15,4*6D
$GPGGA,032834.20,3135.5934738,N,12046.5230203,E,4,16,1.3,2.4826,M,8.305,M,01,0004*66
$GPHPD,0,0.000,62.11,-0.75,-14.80,31.5932246,120.7753837,2.483,13629669.129,24923071.812,2.483,0.000,0.000,0.000,0.000,0.000,0.000,0.000,16,15,4*4C
$GPGGA,032834.40,3135.5935366,N,12046.5231633,E,4,16,1.3,2.4864,M,8.305,M,01,0004*6E
$GPHPD,0,0.000,61.93,0.40,-14.80,31.5932256,120.7753861,2.486,13629668.524,24923073.171,2.486,0.000,0.000,0.000,0.000,0.000,0.000,0.000,16,15,4*6A
$GPGGA,032834.60,3135.5936037,N,12046.5233079,E,4,16,1.3,2.4873,M,8.305,M,00,0004*65
$GPHPD,0,0.000,61.60,0.08,-14.80,31.5932267,120.7753885,2.487,13629667.861,24923074.524,2.487,0.000,0.000,0.000,0.000,0.000,0.000,0.000,16,15,4*62
$GPGGA,032834.80,3135.5936680,N,12046.5234480,E,4,16,1.3,2.4884,M,8.305,M,00,0004*6C
$GPHPD,0,0.000,61.98,-0.46,-14.82,31.5932278,120.7753908,2.488,13629667.229,24923075.839,2.488,0.000,0.000,0.000,0.000,0.000,0.000,0.000,16,15,4*4C
$GPGGA,032835.00,3135.5937304,N,12046.5235969,E,4,16,1.3,2.4938,M,8.305,M,01,0004*61
$GPHPD,0,0.000,62.24,0.06,-14.81,31.5932288,120.7753933,2.494,13629666.642,24923077.271,2.494,0.000,0.000,0.000,0.000,0.000,0.000,0.000,16,15,4*69
$GPGGA,032835.20,3135.5937953,N,12046.5237461,E,4,16,1.3,2.4858,M,8.305,M,01,0004*6B
$GPHPD,0,0.000,61.81,0.22,-14.81,31.5932299,120.7753958,2.486,13629666.020,24923078.692,2.486,0.000,0.000,0.000,0.000,0.000,0.000,0.000,16,15,4*6A
$GPGGA,032835.40,3135.5938601,N,12046.5238909,E,4,16,1.3,2.4954,M,8.305,M,01,0004*6B
$GPHPD,0,0.000,61.76,1.01,-14.82,31.5932310,120.7753982,2.495,13629665.390,24923080.060,2.495,0.000,0.000,0.000,0.000,0.000,0.000,0.000,16,15,4*61
$GPGGA,032835.60,3135.5939245,N,12046.5240392,E,4,16,1.3,2.5050,M,8.305,M,00,0004*66
$GPHPD,0,0.000,62.35,0.31,-14.82,31.5932321,120.7754007,2.505,13629664.773,24923081.474,2.505,0.000,0.000,0.000,0.000,0.000,0.000,0.000,16,15,4*6E
$GPGGA,032835.80,3135.5939911,N,12046.5241926,E,4,16,1.3,2.4849,M,8.305,M,00,0004*67
$GPHPD,0,0.000,62.43,0.50,-14.82,31.5932332,120.7754032,2.485,13629664.135,24923082.935,2.485,0.000,0.000,0.000,0.000,0.000,0.000,0.000,16,15,4*63
$GPGGA,032836.00,3135.5940557,N,12046.5243446,E,4,16,1.3,2.4786,M,8.305,M,01,0004*68
$GPHPD,0,0.000,62.91,0.40,-14.79,31.5932343,120.7754057,2.479,13629663.523,24923084.392,2.479,0.000,0.000,0.000,0.000,0.000,0.000,0.000,16,15,4*69
$GPGGA,032836.20,3135.5941193,N,12046.5244934,E,4,16,1.3,2.4801,M,8.305,M,01,0004*68
$GPHPD,0,0.000,63.22,0.09,-14.76,31.5932353,120.7754082,2.480,13629662.918,24923085.816,2.480,0.000,0.000,0.000,0.000,0.000,0.000,0.000,16,15,4*68
$GPGGA,032836.40,3135.5941838,N,12046.5246481,E,4,16,1.3,2.4763,M,8.305,M,01,0004*6C
$GPHPD,0,0.000,63.57,-0.55,-14.73,31.5932364,120.7754108,2.476,13629662.313,24923087.306,2.476,0.000,0.000,0.000,0.000,0.000,0.000,0.000,16,15,4*45
$GPGGA,032836.60,3135.5942471,N,12046.5247955,E,4,16,1.3,2.4747,M,8.305,M,00,0004*6E
$GPHPD,0,0.000,63.78,-0.81,-14.71,31.5932375,120.7754133,2.475,13629661.710,24923088.714,2.475,0.000,0.000,0.000,0.000,0.000,0.000,0.000,16,15,4*47
$GPGGA,032836.80,3135.5943123,N,12046.5249458,E,4,16,1.3,2.4803,M,8.305,M,00,0004*62
$GPHPD,0,0.000,63.09,-0.45,-14.69,31.5932385,120.7754158,2.480,13629661.085,24923090.147,2.480,0.000,0.000,0.000,0.000,0.000,0.000,0.000,16,14,4*41
$GPGGA,032837.00,3135.5943752,N,12046.5250945,E,4,16,1.3,2.4939,M,8.305,M,01,0004*6B
$GPHPD,0,0.000,63.25,-0.50,-14.68,31.5932396,120.7754182,2.494,13629660.491,24923091.574,2.494,0.000,0.000,0.000,0.000,0.000,0.000,0.000,16,13,4*4D
$GPGGA,032837.20,3135.5944373,N,12046.5252409,E,4,16,1.3,2.4929,M,8.305,M,01,0004*6F
$GPHPD,0,0.000,62.88,-1.50,-14.69,31.5932406,120.7754207,2.493,13629659.903,24923092.977,2.493,0.000,0.000,0.000,0.000,0.000,0.000,0.000,16,13,4*4B
$GPGGA,032837.40,3135.5945001,N,12046.5253902,E,4,16,1.3,2.4879,M,8.305,M,01,0004*6D
$GPHPD,0,0.000,62.64,-0.90,-14.72,31.5932417,120.7754232,2.488,13629659.310,24923094.412,2.488,0.000,0.000,0.000,0.000,0.000,0.000,0.000,16,13,4*48
$GPGGA,032837.60,3135.5945621,N,12046.5255387,E,4,16,1.3,2.4918,M,8.305,M,00,0004*6D
$GPHPD,0,0.000,62.65,-0.87,-14.73,31.5932427,120.7754256,2.492,13629658.728,24923095.841,2.492,0.000,0.000,0.000,0.000,0.000,0.000,0.000,16,13,4*4A
$GPGGA,032837.80,3135.5946269,N,12046.5256830,E,4,16,1.3,2.4771,M,8.305,M,00,0004*6D
$GPHPD,0,0.000,62.46,0.17,-14.76,31.5932438,120.7754281,2.477,13629658.097,24923097.204,2.477,0.000,0.000,0.000,0.000,0.000,0.000,0.000,16,13,4*64
$GPGGA,032838.00,3135.5946933,N,12046.5258324,E,4,15,1.4,2.4812,M,8.305,M,01,0004*61
$GPHPD,0,0.000,62.34,0.22,-14.76,31.5932449,120.7754305,2.481,13629657.454,24923098.619,2.481,0.000,0.000,0.000,0.000,0.000,0.000,0.000,15,13,4*6C
$GPGGA,032838.20,3135.5947553,N,12046.5259807,E,4,15,1.4,2.4641,M,8.305,M,01,0004*6B
$GPHPD,0,0.000,62.52,0.52,-14.76,31.5932459,120.7754330,2.464,13629656.871,24923100.046,2.464,0.000,0.000,0.000,0.000,0.000,0.000,0.000,15,13,4*6A
$GPGGA,032838.40,3135.5948219,N,12046.5261296,E,4,15,1.4,2.4749,M,8.305,M,01,0004*6B
$GPHPD,0,0.000,62.33,0.83,-14.74,31.5932470,120.7754355,2.475,13629656.224,24923101.453,2.475,0.000,0.000,0.000,0.000,0.000,0.000,0.000,15,13,4*60
$GPGGA,032838.60,3135.5948860,N,12046.5262815,E,4,14,1.5,2.4851,M,8.305,M,00,0004*68
$GPHPD,0,0.000,62.54,0.22,-14.74,31.5932481,120.7754380,2.485,13629655.619,24923102.912,2.485,0.000,0.000,0.000,0.000,0.000,0.000,0.000,14,13,4*6F
$GPGGA,032838.80,3135.5949516,N,12046.5264298,E,4,14,1.5,2.4833,M,8.305,M,00,0004*66
$GPHPD,0,0.000,62.68,0.33,-14.73,31.5932492,120.7754405,2.483,13629654.985,24923104.318,2.483,0.000,0.000,0.000,0.000,0.000,0.000,0.000,14,13,4*62
$GPGGA,032839.00,3135.5950172,N,12046.5265829,E,4,14,1.5,2.4848,M,8.305,M,01,0004*6D
$GPHPD,0,0.000,62.62,0.52,-14.73,31.5932503,120.7754430,2.485,13629654.361,24923105.782,2.485,0.000,0.000,0.000,0.000,0.000,0.000,0.000,14,13,4*66
$GPGGA,032839.20,3135.5950843,N,12046.5267331,E,4,14,1.5,2.4839,M,8.305,M,01,0004*62
$GPHPD,0,0.000,62.63,-0.13,-14.71,31.5932514,120.7754456,2.484,13629653.709,24923107.202,2.484,0.000,0.000,0.000,0.000,0.000,0.000,0.000,14,13,4*49
$GPGGA,032839.40,3135.5951500,N,12046.5268804,E,4,14,1.5,2.4919,M,8.305,M,01,0004*6E
$GPHPD,0,0.000,62.45,-0.55,-14.64,31.5932525,120.7754480,2.492,13629653.072,24923108.596,2.492,0.000,0.000,0.000,0.000,0.000,0.000,0.000,14,13,4*4C
$GPGGA,032839.60,3135.5952147,N,12046.5270294,E,4,14,1.5,2.5022,M,8.305,M,00,0004*63
$GPHPD,0,0.000,62.69,-1.07,-14.65,31.5932536,120.7754505,2.502,13629652.452,24923110.016,2.502,0.000,0.000,0.000,0.000,0.000,0.000,0.000,14,13,4*48
$GPGGA,032839.80,3135.5952789,N,12046.5271796,E,4,14,1.6,2.4944,M,8.305,M,00,0004*64
$GPHPD,0,0.000,62.32,-0.41,-14.63,31.5932546,120.7754530,2.494,13629651.842,24923111.453,2.494,0.000,0.000,0.000,0.000,0.000,0.000,0.000,14,13,4*48
$GPGGA,032840.00,3135.5953443,N,12046.5273241,E,4,14,1.6,2.4910,M,8.305,M,01,0004*6B
$GPHPD,0,0.000,62.52,-0.21,-14.62,31.5932557,120.7754554,2.491,13629651.203,24923112.814,2.491,0.000,0.000,0.000,0.000,0.000,0.000,0.000,14,13,4*48
$GPGGA,032840.20,3135.5954108,N,12046.5274693,E,4,14,1.6,2.4891,M,8.305,M,01,0004*60
$GPHPD,0,0.000,62.16,-0.21,-14.63,31.5932568,120.7754578,2.489,13629650.550,24923114.178,2.489,0.000,0.000,0.000,0.000,0.000,0.000,0.000,14,13,4*4E
$GPGGA,032840.40,3135.5954723,N,12046.5276152,E,4,14,1.6,2.4866,M,8.305,M,01,0004*69
$GPHPD,0,0.000,61.89,0.34,-14.67,31.5932579,120.7754603,2.487,13629649.969,24923115.579,2.487,0.000,0.000,0.000,0.000,0.000,0.000,0.000,14,13,4*63
$GPGGA,032840.60,3135.5955345,N,12046.5277652,E,4,14,1.6,2.4792,M,8.305,M,00,0004*6D
$GPHPD,0,0.000,61.63,1.49,-14.68,31.5932589,120.7754628,2.479,13629649.387,24923117.026,2.479,0.000,0.000,0.000,0.000,0.000,0.000,0.000,14,13,4*62
$GPGGA,032840.80,3135.5956011,N,12046.5279119,E,4,14,1.6,2.4892,M,8.305,M,00,0004*6B
$GPHPD,0,0.000,61.66,1.58,-14.68,31.5932600,120.7754652,2.489,13629648.736,24923118.407,2.489,0.000,0.000,0.000,0.000,0.000,0.000,0.000,14,13,4*6F
$GPGGA,032841.00,3135.5956661,N,12046.5280629,E,4,14,1.6,2.4870,M,8.305,M,01,0004*6C
$GPHPD,0,0.000,62.05,0.21,-14.68,31.5932611,120.7754677,2.487,13629648.116,24923119.849,2.487,0.000,0.000,0.000,0.000,0.000,0.000,0.000,14,13,4*62
$GPGGA,032841.20,3135.5957371,N,12046.5282111,E,4,14,1.6,2.4813,M,8.305,M,01,0004*60
$GPHPD,0,0.000,62.19,0.44,-14.66,31.5932623,120.7754702,2.481,13629647.405,24923121.222,2.481,0.000,0.000,0.000,0.000,0.000,0.000,0.000,14,13,4*64
$GPGGA,032841.40,3135.5957998,N,12046.5283661,E,4,14,1.6,2.4754,M,8.305,M,01,0004*66
$GPHPD,0,0.000,62.88,0.12,-14.62,31.5932633,120.7754728,2.475,13629646.826,24923122.726,2.475,0.000,0.000,0.000,0.000,0.000,0.000,0.000,14,13,4*6C
$GPGGA,032841.60,3135.5958675,N,12046.5285153,E,4,14,1.6,2.4944,M,8.305,M,00,0004*69
$GPHPD,0,0.000,62.93,-0.22,-14.61,31.5932645,120.7754753,2.494,13629646.164,24923124.131,2.494,0.000,0.000,0.000,0.000,0.000,0.000,0.000,14,13,4*4F
$GPGGA,032841.80,3135.5959309,N,12046.5286721,E,4,14,1.6,2.4867,M,8.305,M,00,0004*68
$GPHPD,0,0.000,63.49,-0.80,-14.57,31.5932655,120.7754779,2.487,13629645.578,24923125.652,2.487,0.000,0.000,0.000,0.000,0.000,0.000,0.000,14,13,4*44
$GPGGA,032842.00,3135.5959980,N,12046.5288212,E,4,14,1.6,2.4953,M,8.305,M,01,0004*64
$GPHPD,0,0.000,63.30,-0.88,-14.55,31.5932666,120.7754804,2.495,13629644.924,24923127.059,2.495,0.000,0.000,0.000,0.000,0.000,0.000,0.000,14,13,4*4E
$GPGGA,032842.20,3135.5960634,N,12046.5289760,E,4,14,1.6,2.4943,M,8.305,M,01,0004*6C
$GPHPD,0,0.000,63.23,-1.26,-14.52,31.5932677,120.7754829,2.494,13629644.306,24923128.545,2.494,0.000,0.000,0.000,0.000,0.000,0.000,0.000,14,13,4*4C
$GPGGA,032842.40,3135.5961261,N,12046.5291269,E,4,14,1.6,2.4977,M,8.305,M,01,0004*6D
$GPHPD,0,0.000,62.72,-1.36,-14.51,31.5932688,120.7754854,2.498,13629643.719,24923130.000,2.498,0.000,0.000,0.000,0.000,0.000,0.000,0.000,14,13,4*41
$GPGGA,032842.60,3135.5961924,N,12046.5292722,E,4,14,1.5,2.4879,M,8.305,M,00,0004*61
$GPHPD,0,0.000,62.62,-1.19,-14.52,31.5932699,120.7754879,2.488,13629643.069,24923131.366,2.488,0.000,0.000,0.000,0.000,0.000,0.000,0.000,14,13,4*43
$GPGGA,032842.80,3135.5962564,N,12046.5294218,E,4,16,1.5,2.4957,M,8.306,M,00,0004*62
$GPHPD,0,0.000,62.35,-0.86,-14.52,31.5932709,120.7754904,2.496,13629642.460,24923132.797,2.496,0.000,0.000,0.000,0.000,0.000,0.000,0.000,16,15,4*44
$GPGGA,032843.00,3135.5963220,N,12046.5295677,E,4,16,1.3,2.4994,M,8.306,M,01,0004*69
$GPHPD,0,0.000,62.27,-0.14,-14.54,31.5932720,120.7754928,2.499,13629641.821,24923134.174,2.499,0.000,0.000,0.000,0.000,0.000,0.000,0.000,16,15,4*48
$GPGGA,032843.20,3135.5963850,N,12046.5297098,E,4,16,1.3,2.5012,M,8.306,M,01,0004*65
$GPHPD,0,0.000,62.31,-0.58,-14.58,31.5932731,120.7754952,2.501,13629641.212,24923135.520,2.501,0.000,0.000,0.000,0.000,0.000,0.000,0.000,16,15,4*48
$GPGGA,032843.40,3135.5964488,N,12046.5298624,E,4,16,1.4,2.4833,M,8.306,M,01,0004*6E
$GPHPD,0,0.000,62.15,0.00,-14.63,31.5932741,120.7754977,2.483,13629640.612,24923136.989,2.483,0.000,0.000,0.000,0.000,0.000,0.000,0.000,16,15,4*6F
$GPGGA,032843.60,3135.5965131,N,12046.5300097,E,4,16,1.4,2.4788,M,8.306,M,01,0004*6B
