$GPGGA,033221.00,3135.6208935,N,12046.5857489,E,4,16,1.4,2.4485,M,8.309,M,01,0004*6E
$GPHPD,0,0.000,70.36,-0.01,-15.18,31.5936816,120.7764291,2.449,13629405.620,24923668.506,2.449,0.000,0.000,0.000,0.000,0.000,0.000,0.000,16,16,4*43
$GPGGA,033221.20,3135.6209100,N,12046.5858056,E,4,16,1.4,2.4432,M,8.309,M,01,0004*66
$GPHPD,0,0.000,70.54,0.09,-15.21,31.5936818,120.7764301,2.443,13629405.499,24923669.093,2.443,0.000,0.000,0.000,0.000,0.000,0.000,0.000,16,16,4*66
$GPGGA,033221.40,3135.6209276,N,12046.5858653,E,4,16,1.4,2.4540,M,8.309,M,01,0004*65
$GPHPD,0,0.000,70.86,0.37,-15.27,31.5936821,120.7764311,2.454,13629405.369,24923669.711,2.454,0.000,0.000,0.000,0.000,0.000,0.000,0.000,16,16,4*6C
$GPGGA,033221.60,3135.6209453,N,12046.5859289,E,4,16,1.4,2.4522,M,8.309,M,00,0004*61
$GPHPD,0,0.000,71.02,0.14,-15.33,31.5936824,120.7764321,2.452,13629405.246,24923670.374,2.452,0.000,0.000,0.000,0.000,0.000,0.000,0.000,16,16,4*60
$GPGGA,033221.80,3135.6209641,N,12046.5860034,E,4,16,1.4,2.4497,M,8.309,M,00,0004*6F
$GPHPD,0,0.000,70.91,0.12,-15.41,31.5936827,120.7764334,2.450,13629405.128,24923671.163,2.450,0.000,0.000,0.000,0.000,0.000,0.000,0.000,16,16,4*61
$GPGGA,033222.00,3135.6209882,N,12046.5860773,E,4,16,1.4,2.4504,M,8.309,M,01,0004*6B
$GPHPD,0,0.000,71.00,0.10,-15.50,31.5936831,120.7764346,2.450,13629404.934,24923671.914,2.450,0.000,0.000,0.000,0.000,0.000,0.000,0.000,16,16,4*64
$GPGGA,033222.20,3135.6210112,N,12046.5861645,E,4,16,1.4,2.4535,M,8.309,M,01,0004*66
$GPHPD,0,0.000,71.35,0.11,-15.58,31.5936835,120.7764361,2.454,13629404.783,24923672.831,2.454,0.000,0.000,0.000,0.000,0.000,0.000,0.000,16,16,4*6D
$GPGGA,033222.40,3135.6210351,N,12046.5862595,E,4,16,1.4,2.4512,M,8.309,M,01,0004*6D
$GPHPD,0,0.000,71.47,0.41,-15.63,31.5936839,120.7764377,2.451,13629404.634,24923673.838,2.451,0.000,0.000,0.000,0.000,0.000,0.000,0.000,16,16,4*6B
$GPGGA,033222.60,3135.6210626,N,12046.5863592,E,4,16,1.4,2.4574,M,8.309,M,00,0004*6D
$GPHPD,0,0.000,71.91,-0.03,-15.71,31.5936844,120.7764393,2.457,13629404.444,24923674.880,2.457,0.000,0.000,0.000,0.000,0.000,0.000,0.000,16,16,4*49
$GPGGA,033222.80,3135.6210906,N,12046.5864657,E,4,16,1.4,2.4574,M,8.309,M,00,0004*63
$GPHPD,0,0.000,72.24,0.12,-15.73,31.5936848,120.7764411,2.457,13629404.260,24923676.001,2.457,0.000,0.000,0.000,0.000,0.000,0.000,0.000,16,16,4*69
$GPGGA,033223.00,3135.6211146,N,12046.5865838,E,4,16,1.4,2.4553,M,8.309,M,01,0004*65
$GPHPD,0,0.000,72.84,0.20,-15.72,31.5936852,120.7764431,2.455,13629404.157,24923677.285,2.455,0.000,0.000,0.000,0.000,0.000,0.000,0.000,16,16,4*62
$GPGGA,033223.20,3135.6211435,N,12046.5866916,E,4,16,1.4,2.4584,M,8.309,M,01,0004*62
$GPHPD,0,0.000,73.33,-0.45,-15.62,31.5936857,120.7764449,2.458,13629403.963,24923678.417,2.458,0.000,0.000,0.000,0.000,0.000,0.000,0.000,16,16,4*40
$GPGGA,033223.40,3135.6211648,N,12046.5867963,E,4,16,1.4,2.4656,M,8.309,M,01,0004*63
$GPHPD,0,0.000,73.73,-0.18,-15.52,31.5936861,120.7764466,2.466,13629403.871,24923679.555,2.466,0.000,0.000,0.000,0.000,0.000,0.000,0.000,16,16,4*43
$GPGGA,033223.60,3135.6211860,N,12046.5868953,E,4,15,1.4,2.4568,M,8.309,M,00,0004*65
$GPHPD,0,0.000,74.09,-0.32,-15.46,31.5936864,120.7764483,2.457,13629403.769,24923680.625,2.457,0.000,0.000,0.000,0.000,0.000,0.000,0.000,15,15,4*4E
$GPGGA,033223.80,3135.6212090,N,12046.5869895,E,4,15,1.4,2.4727,M,8.309,M,00,0004*6C
$GPHPD,0,0.000,74.41,-0.02,-15.36,31.5936868,120.7764498,2.473,13629403.631,24923681.627,2.473,0.000,0.000,0.000,0.000,0.000,0.000,0.000,15,15,4*4F
$GPGGA,033224.00,3135.6212278,N,12046.5870826,E,4,15,1.4,2.4653,M,8.309,M,01,0004*64
$GPHPD,0,0.000,74.85,-0.15,-15.31,31.5936871,120.7764514,2.465,13629403.551,24923682.640,2.465,0.000,0.000,0.000,0.000,0.000,0.000,0.000,15,15,4*4C
$GPGGA,033224.20,3135.6212467,N,12046.5871710,E,4,15,1.4,2.4642,M,8.309,M,01,0004*65
$GPHPD,0,0.000,75.35,-0.16,-15.31,31.5936874,120.7764529,2.464,13629403.461,24923683.596,2.464,0.000,0.000,0.000,0.000,0.000,0.000,0.000,15,15,4*45
$GPGGA,033224.40,3135.6212655,N,12046.5872577,E,4,15,1.4,2.4697,M,8.309,M,01,0004*68
$GPHPD,0,0.000,75.59,0.20,-15.26,31.5936878,120.7764543,2.470,13629403.368,24923684.532,2.470,0.000,0.000,0.000,0.000,0.000,0.000,0.000,15,15,4*66
$GPGGA,033224.60,3135.6212790,N,12046.5873473,E,4,16,1.4,2.4708,M,8.309,M,00,0004*63
$GPHPD,0,0.000,76.01,-0.02,-15.20,31.5936880,120.7764558,2.471,13629403.356,24923685.534,2.471,0.000,0.000,0.000,0.000,0.000,0.000,0.000,16,16,4*44
$GPGGA,033224.80,3135.6212960,N,12046.5874336,E,4,16,1.4,2.4648,M,8.309,M,00,0004*68
$GPHPD,0,0.000,76.22,-0.22,-15.16,31.5936883,120.7764572,2.465,13629403.288,24923686.475,2.465,0.000,0.000,0.000,0.000,0.000,0.000,0.000,16,16,4*4C
$GPGGA,033225.00,3135.6213106,N,12046.5875217,E,4,16,1.4,2.4630,M,8.309,M,01,0004*65
$GPHPD,0,0.000,76.70,0.50,-15.12,31.5936885,120.7764587,2.463,13629403.258,24923687.452,2.463,0.000,0.000,0.000,0.000,0.000,0.000,0.000,16,16,4*62
$GPGGA,033225.20,3135.6213254,N,12046.5876071,E,4,16,1.4,2.4612,M,8.309,M,01,0004*62
$GPHPD,0,0.000,76.82,0.67,-15.12,31.5936888,120.7764601,2.461,13629403.219,24923688.396,2.461,0.000,0.000,0.000,0.000,0.000,0.000,0.000,16,16,4*6E
$GPGGA,033225.40,3135.6213449,N,12046.5877011,E,4,16,1.4,2.4478,M,8.309,M,01,0004*67
$GPHPD,0,0.000,77.05,0.14,-15.11,31.5936891,120.7764617,2.448,13629403.131,24923689.416,2.448,0.000,0.000,0.000,0.000,0.000,0.000,0.000,16,16,4*6F
$GPGGA,033225.60,3135.6213628,N,12046.5877942,E,4,16,1.4,2.4389,M,8.309,M,00,0004*67
$GPHPD,0,0.000,77.36,0.71,-15.10,31.5936894,120.7764632,2.439,13629403.064,24923690.434,2.439,0.000,0.000,0.000,0.000,0.000,0.000,0.000,16,16,4*66
$GPGGA,033225.80,3135.6213792,N,12046.5878924,E,4,16,1.4,2.4422,M,8.309,M,00,0004*60
$GPHPD,0,0.000,77.63,0.42,-15.10,31.5936897,120.7764649,2.442,13629403.029,24923691.523,2.442,0.000,0.000,0.000,0.000,0.000,0.000,0.000,16,16,4*66
$GPGGA,033226.00,3135.6213953,N,12046.5879972,E,4,16,1.4,2.4481,M,8.309,M,01,0004*62
$GPHPD,0,0.000,78.09,0.75,-15.08,31.5936899,120.7764666,2.448,13629403.011,24923692.693,2.448,0.000,0.000,0.000,0.000,0.000,0.000,0.000,16,16,4*6B
$GPGGA,033226.20,3135.6214124,N,12046.5881091,E,4,16,1.4,2.4448,M,8.309,M,01,0004*69
$GPHPD,0,0.000,78.55,0.31,-15.09,31.5936902,120.7764685,2.445,13629402.993,24923693.942,2.445,0.000,0.000,0.000,0.000,0.000,0.000,0.000,16,16,4*6D
$GPGGA,033226.40,3135.6214288,N,12046.5882233,E,4,16,1.4,2.4407,M,8.309,M,01,0004*68
$GPHPD,0,0.000,79.01,0.41,-15.12,31.5936905,120.7764704,2.441,13629402.989,24923695.224,2.441,0.000,0.000,0.000,0.000,0.000,0.000,0.000,16,16,4*69
$GPGGA,033226.60,3135.6214473,N,12046.5883445,E,4,16,1.4,2.4547,M,8.309,M,00,0004*6A
$GPHPD,0,0.000,79.26,-0.24,-15.17,31.5936908,120.7764724,2.455,13629402.970,24923696.577,2.455,0.000,0.000,0.000,0.000,0.000,0.000,0.000,16,16,4*4C
$GPGGA,033226.80,3135.6214612,N,12046.5884749,E,4,16,1.4,2.4486,M,8.309,M,00,0004*65
$GPHPD,0,0.000,80.01,-0.35,-15.18,31.5936910,120.7764746,2.449,13629403.035,24923698.069,2.449,0.000,0.000,0.000,0.000,0.000,0.000,0.000,16,16,4*40
$GPGGA,033227.00,3135.6214779,N,12046.5886078,E,4,16,1.4,2.4584,M,8.309,M,01,0004*65
$GPHPD,0,0.000,80.27,-0.02,-15.22,31.5936913,120.7764768,2.458,13629403.065,24923699.574,2.458,0.000,0.000,0.000,0.000,0.000,0.000,0.000,16,16,4*4B
$GPGGA,033227.20,3135.6214942,N,12046.5887470,E,4,16,1.4,2.4513,M,8.309,M,01,0004*62
$GPHPD,0,0.000,80.95,-0.45,-15.27,31.5936916,120.7764791,2.451,13629403.113,24923701.157,2.451,0.000,0.000,0.000,0.000,0.000,0.000,0.000,16,16,4*42
$GPGGA,033227.40,3135.6215121,N,12046.5888948,E,4,16,1.4,2.4713,M,8.309,M,01,0004*63
$GPHPD,0,0.000,81.56,-0.23,-15.28,31.5936919,120.7764816,2.471,13629403.156,24923702.835,2.471,0.000,0.000,0.000,0.000,0.000,0.000,0.000,16,16,4*43
$GPGGA,033227.60,3135.6215256,N,12046.5890444,E,4,16,1.4,2.4640,M,8.309,M,00,0004*6C
$GPHPD,0,0.000,82.15,-0.49,-15.27,31.5936921,120.7764841,2.464,13629403.265,24923704.560,2.464,0.000,0.000,0.000,0.000,0.000,0.000,0.000,16,16,4*45
$GPGGA,033227.80,3135.6215417,N,12046.5891963,E,4,16,1.4,2.4683,M,8.309,M,00,0004*67
$GPHPD,0,0.000,82.37,-0.59,-15.31,31.5936924,120.7764866,2.468,13629403.342,24923706.298,2.468,0.000,0.000,0.000,0.000,0.000,0.000,0.000,16,16,4*45
$GPGGA,033228.00,3135.6215556,N,12046.5893528,E,4,16,1.4,2.4620,M,8.309,M,01,0004*6D
$GPHPD,0,0.000,82.92,-0.22,-15.37,31.5936926,120.7764892,2.462,13629403.459,24923708.104,2.462,0.000,0.000,0.000,0.000,0.000,0.000,0.000,16,16,4*4C
$GPGGA,033228.20,3135.6215644,N,12046.5895096,E,4,16,1.4,2.4543,M,8.309,M,01,0004*6F
$GPHPD,0,0.000,83.29,0.27,-15.43,31.5936927,120.7764918,2.454,13629403.650,24923709.944,2.454,0.000,0.000,0.000,0.000,0.000,0.000,0.000,16,16,4*62
$GPGGA,033228.40,3135.6215753,N,12046.5896675,E,4,16,1.4,2.4555,M,8.309,M,01,0004*61
$GPHPD,0,0.000,84.01,0.08,-15.50,31.5936929,120.7764945,2.456,13629403.812,24923711.784,2.456,0.000,0.000,0.000,0.000,0.000,0.000,0.000,16,16,4*65
$GPGGA,033228.60,3135.6215845,N,12046.5898250,E,4,16,1.4,2.4556,M,8.309,M,00,0004*64
$GPHPD,0,0.000,84.58,0.30,-15.53,31.5936931,120.7764971,2.456,13629403.998,24923713.630,2.456,0.000,0.000,0.000,0.000,0.000,0.000,0.000,16,16,4*60
$GPGGA,033228.80,3135.6215925,N,12046.5899802,E,4,16,1.4,2.4459,M,8.309,M,00,0004*6F
$GPHPD,0,0.000,84.94,0.01,-15.54,31.5936932,120.7764997,2.446,13629404.197,24923715.454,2.446,0.000,0.000,0.000,0.000,0.000,0.000,0.000,16,16,4*68
$GPGGA,033229.00,3135.6216032,N,12046.5901369,E,4,16,1.4,2.4511,M,8.309,M,01,0004*60
$GPHPD,0,0.000,85.64,0.33,-15.54,31.5936934,120.7765023,2.451,13629404.360,24923717.281,2.451,0.000,0.000,0.000,0.000,0.000,0.000,0.000,16,16,4*60
$GPGGA,033229.20,3135.6216067,N,12046.5902895,E,4,16,1.4,2.4647,M,8.309,M,01,0004*69
$GPHPD,0,0.000,86.36,-0.54,-15.59,31.5936934,120.7765048,2.465,13629404.617,24923719.101,2.465,0.000,0.000,0.000,0.000,0.000,0.000,0.000,16,16,4*48
$GPGGA,033229.40,3135.6216120,N,12046.5904459,E,4,16,1.4,2.4624,M,8.309,M,01,0004*62
$GPHPD,0,0.000,86.85,-0.85,-15.59,31.5936935,120.7765074,2.462,13629404.857,24923720.956,2.462,0.000,0.000,0.000,0.000,0.000,0.000,0.000,16,16,4*48
$GPGGA,033229.60,3135.6216165,N,12046.5905989,E,4,16,1.3,2.4617,M,8.309,M,00,0004*66
$GPHPD,0,0.000,87.31,-0.84,-15.61,31.5936936,120.7765100,2.462,13629405.100,24923722.775,2.462,0.000,0.000,0.000,0.000,0.000,0.000,0.000,16,16,4*4A
$GPGGA,033229.80,3135.6216176,N,12046.5907518,E,4,16,1.3,2.4690,M,8.309,M,00,0004*63
$GPHPD,0,0.000,87.89,-0.41,-15.64,31.5936936,120.7765125,2.469,13629405.392,24923724.612,2.469,0.000,0.000,0.000,0.000,0.000,0.000,0.000,16,16,4*4D
$GPGGA,033230.00,3135.6216164,N,12046.5909076,E,4,16,1.3,2.4637,M,8.309,M,01,0004*6F
$GPHPD,0,0.000,88.59,-0.31,-15.66,31.5936936,120.7765151,2.464,13629405.723,24923726.497,2.464,0.000,0.000,0.000,0.000,0.000,0.000,0.000,16,16,4*4A
$GPGGA,033230.20,3135.6216182,N,12046.5910645,E,4,16,1.3,2.4684,M,8.309,M,01,0004*63
$GPHPD,0,0.000,89.09,0.22,-15.66,31.5936936,120.7765177,2.468,13629406.013,24923728.379,2.468,0.000,0.000,0.000,0.000,0.000,0.000,0.000,16,16,4*6B
$GPGGA,033230.40,3135.6216128,N,12046.5912216,E,4,16,1.5,2.4591,M,8.309,M,01,0004*64
$GPHPD,0,0.000,89.91,-0.32,-15.58,31.5936935,120.7765204,2.459,13629406.406,24923730.304,2.459,0.000,0.000,0.000,0.000,0.000,0.000,0.000,16,16,4*4C
$GPGGA,033230.60,3135.6216103,N,12046.5913748,E,4,16,1.5,2.4485,M,8.309,M,00,0004*65
$GPHPD,0,0.000,90.66,-0.18,-15.51,31.5936935,120.7765229,2.449,13629406.749,24923732.166,2.449,0.000,0.000,0.000,0.000,0.000,0.000,0.000,16,15,4*4D
$GPGGA,033230.80,3135.6216059,N,12046.5915307,E,4,16,1.5,2.4625,M,8.309,M,00,0004*64
$GPHPD,0,0.000,91.68,-0.01,-15.49,31.5936934,120.7765255,2.463,13629407.125,24923734.071,2.463,0.000,0.000,0.000,0.000,0.000,0.000,0.000,16,15,4*45
$GPGGA,033231.00,3135.6215948,N,12046.5916864,E,4,16,1.5,2.4690,M,8.309,M,01,0004*65
$GPHPD,0,0.000,92.23,0.58,-15.45,31.5936932,120.7765281,2.469,13629407.596,24923736.013,2.469,0.000,0.000,0.000,0.000,0.000,0.000,0.000,16,15,4*61
$GPGGA,033231.20,3135.6215865,N,12046.5918473,E,4,16,1.5,2.4542,M,8.309,M,01,0004*61
$GPHPD,0,0.000,93.03,-0.41,-15.41,31.5936931,120.7765308,2.454,13629408.038,24923738.002,2.454,0.000,0.000,0.000,0.000,0.000,0.000,0.000,16,15,4*40
$GPGGA,033231.40,3135.6215717,N,12046.5920022,E,4,16,1.5,2.4390,M,8.309,M,01,0004*6F
$GPHPD,0,0.000,94.16,-0.52,-15.38,31.5936929,120.7765334,2.439,13629408.560,24923739.956,2.439,0.000,0.000,0.000,0.000,0.000,0.000,0.000,16,15,4*48
$GPGGA,033231.60,3135.6215562,N,12046.5921606,E,4,16,1.5,2.4566,M,8.309,M,00,0004*62
$GPHPD,0,0.000,95.14,0.84,-15.36,31.5936926,120.7765360,2.457,13629409.099,24923741.956,2.457,0.000,0.000,0.000,0.000,0.000,0.000,0.000,16,15,4*60
$GPGGA,033231.80,3135.6215373,N,12046.5923209,E,4,16,1.5,2.4804,M,8.309,M,00,0004*6A
$GPHPD,0,0.000,96.00,0.38,-15.33,31.5936923,120.7765387,2.480,13629409.690,24923743.999,2.480,0.000,0.000,0.000,0.000,0.000,0.000,0.000,16,15,4*66
$GPGGA,033232.00,3135.6215192,N,12046.5924780,E,4,16,1.5,2.4489,M,8.309,M,01,0004*67
$GPHPD,0,0.000,96.71,-0.33,-15.35,31.5936920,120.7765413,2.449,13629410.263,24923745.998,2.449,0.000,0.000,0.000,0.000,0.000,0.000,0.000,16,15,4*4E
$GPGGA,033232.20,3135.6214961,N,12046.5926335,E,4,16,1.5,2.4471,M,8.309,M,01,0004*6F
$GPHPD,0,0.000,98.25,-0.24,-15.36,31.5936916,120.7765439,2.447,13629410.904,24923748.008,2.447,0.000,0.000,0.000,0.000,0.000,0.000,0.000,16,15,4*4E
$GPGGA,033232.40,3135.6214671,N,12046.5927921,E,4,16,1.5,2.4561,M,8.309,M,01,0004*69
$GPHPD,0,0.000,99.08,-0.43,-15.36,31.5936911,120.7765465,2.456,13629411.636,24923750.089,2.456,0.000,0.000,0.000,0.000,0.000,0.000,0.000,16,15,4*40
$GPGGA,033232.60,3135.6214380,N,12046.5929504,E,4,16,1.5,2.4596,M,8.309,M,00,0004*6C
$GPHPD,0,0.000,100.14,-0.27,-15.35,31.5936906,120.7765492,2.460,13629412.368,24923752.167,2.460,0.000,0.000,0.000,0.000,0.000,0.000,0.000,16,15,4*7D
$GPGGA,033232.80,3135.6214051,N,12046.5931100,E,4,16,1.5,2.4735,M,8.309,M,00,0004*6F
$GPHPD,0,0.000,100.83,0.36,-15.31,31.5936901,120.7765518,2.474,13629413.156,24923754.283,2.474,0.000,0.000,0.000,0.000,0.000,0.000,0.000,16,15,4*5F
$GPGGA,033233.00,3135.6213731,N,12046.5932687,E,4,16,1.5,2.4709,M,8.309,M,01,0004*65
$GPHPD,0,0.000,101.78,0.14,-15.27,31.5936896,120.7765545,2.471,13629413.930,24923756.383,2.471,0.000,0.000,0.000,0.000,0.000,0.000,0.000,16,15,4*51
$GPGGA,033233.20,3135.6213370,N,12046.5934292,E,4,16,1.5,2.4763,M,8.309,M,01,0004*6C
$GPHPD,0,0.000,102.93,0.24,-15.22,31.5936890,120.7765572,2.476,13629414.766,24923758.528,2.476,0.000,0.000,0.000,0.000,0.000,0.000,0.000,16,15,4*50
$GPGGA,033233.40,3135.6212996,N,12046.5935851,E,4,16,1.5,2.4635,M,8.309,M,01,0004*6F
$GPHPD,0,0.000,103.84,-0.15,-15.20,31.5936883,120.7765598,2.464,13629415.611,24923760.626,2.464,0.000,0.000,0.000,0.000,0.000,0.000,0.000,16,15,4*7A
$GPGGA,033233.60,3135.6212589,N,12046.5937436,E,4,16,1.5,2.4733,M,8.309,M,00,0004*66
$GPHPD,0,0.000,105.05,-0.35,-15.13,31.5936876,120.7765624,2.473,13629416.509,24923762.774,2.473,0.000,0.000,0.000,0.000,0.000,0.000,0.000,16,15,4*74
$GPGGA,033233.80,3135.6212153,N,12046.5939019,E,4,16,1.5,2.4724,M,8.309,M,00,0004*6A
$GPHPD,0,0.000,105.85,-0.23,-15.06,31.5936869,120.7765650,2.472,13629417.447,24923764.937,2.472,0.000,0.000,0.000,0.000,0.000,0.000,0.000,16,15,4*77
$GPGGA,033234.00,3135.6211670,N,12046.5940586,E,4,16,1.5,2.4705,M,8.309,M,01,0004*6F
$GPHPD,0,0.000,106.91,-0.31,-15.00,31.5936861,120.7765676,2.471,13629418.448,24923767.107,2.471,0.000,0.000,0.000,0.000,0.000,0.000,0.000,16,15,4*70
$GPGGA,033234.20,3135.6211212,N,12046.5942129,E,4,16,1.5,2.4655,M,8.309,M,01,0004*6A
$GPHPD,0,0.000,108.01,0.11,-14.93,31.5936854,120.7765702,2.466,13629419.410,24923769.234,2.466,0.000,0.000,0.000,0.000,0.000,0.000,0.000,16,15,4*56
$GPGGA,033234.40,3135.6210654,N,12046.5943688,E,4,16,1.5,2.4667,M,8.309,M,01,0004*67
$GPHPD,0,0.000,109.15,-0.03,-14.87,31.5936844,120.7765728,2.467,13629420.516,24923771.439,2.467,0.000,0.000,0.000,0.000,0.000,0.000,0.000,16,15,4*7F
$GPGGA,033234.60,3135.6210139,N,12046.5945177,E,4,16,1.5,2.4644,M,8.309,M,00,0004*68
$GPHPD,0,0.000,110.29,0.20,-14.82,31.5936836,120.7765753,2.464,13629421.548,24923773.534,2.464,0.000,0.000,0.000,0.000,0.000,0.000,0.000,16,15,4*5C
$GPGGA,033234.80,3135.6209572,N,12046.5946720,E,4,16,1.5,2.4796,M,8.309,M,00,0004*6C
$GPHPD,0,0.000,111.38,0.34,-14.76,31.5936826,120.7765779,2.480,13629422.664,24923775.725,2.480,0.000,0.000,0.000,0.000,0.000,0.000,0.000,16,15,4*50
$GPGGA,033235.00,3135.6209006,N,12046.5948232,E,4,16,1.5,2.4743,M,8.309,M,01,0004*62
$GPHPD,0,0.000,112.54,0.07,-14.71,31.5936817,120.7765804,2.474,13629423.773,24923777.878,2.474,0.000,0.000,0.000,0.000,0.000,0.000,0.000,16,15,4*5A
$GPGGA,033235.20,3135.6208386,N,12046.5949708,E,4,16,1.5,2.4764,M,8.309,M,01,0004*62
$GPHPD,0,0.000,113.90,0.02,-14.69,31.5936806,120.7765828,2.476,13629424.951,24923780.018,2.476,0.000,0.000,0.000,0.000,0.000,0.000,0.000,16,15,4*5E
$GPGGA,033235.40,3135.6207719,N,12046.5951224,E,4,16,1.5,2.4773,M,8.309,M,01,0004*6D
$GPHPD,0,0.000,114.85,0.03,-14.63,31.5936795,120.7765854,2.477,13629426.204,24923782.235,2.477,0.000,0.000,0.000,0.000,0.000,0.000,0.000,16,15,4*5E
$GPGGA,033235.60,3135.6207088,N,12046.5952743,E,4,16,1.5,2.4800,M,8.309,M,00,0004*6D
$GPHPD,0,0.000,115.96,-0.11,-14.59,31.5936785,120.7765879,2.480,13629427.406,24923784.434,2.480,0.000,0.000,0.000,0.000,0.000,0.000,0.000,16,15,4*70
$GPGGA,033235.80,3135.6206362,N,12046.5954233,E,4,16,1.5,2.4641,M,8.309,M,00,0004*6A
$GPHPD,0,0.000,117.30,-0.19,-14.55,31.5936773,120.7765904,2.464,13629428.738,24923786.653,2.464,0.000,0.000,0.000,0.000,0.000,0.000,0.000,16,15,4*78
$GPGGA,033236.00,3135.6205639,N,12046.5955660,E,4,16,1.5,2.4783,M,8.309,M,01,0004*64
$GPHPD,0,0.000,118.18,-0.11,-14.52,31.5936761,120.7765928,2.478,13629430.052,24923788.795,2.478,0.000,0.000,0.000,0.000,0.000,0.000,0.000,16,15,4*78
$GPGGA,033236.20,3135.6204895,N,12046.5957113,E,4,16,1.5,2.4886,M,8.310,M,01,0004*6C
$GPHPD,0,0.000,119.45,-0.44,-14.51,31.5936748,120.7765952,2.489,13629431.402,24923790.980,2.489,0.000,0.000,0.000,0.000,0.000,0.000,0.000,16,15,4*77
$GPGGA,033236.40,3135.6204148,N,12046.5958511,E,4,16,1.5,2.4703,M,8.310,M,01,0004*68
$GPHPD,0,0.000,120.53,-0.12,-14.53,31.5936736,120.7765975,2.470,13629432.745,24923793.100,2.470,0.000,0.000,0.000,0.000,0.000,0.000,0.000,16,15,4*77
$GPGGA,033236.60,3135.6203331,N,12046.5959886,E,4,16,1.5,2.4728,M,8.310,M,00,0004*6B
$GPHPD,0,0.000,121.56,-0.10,-14.54,31.5936722,120.7765998,2.473,13629434.183,24923795.234,2.473,0.000,0.000,0.000,0.000,0.000,0.000,0.000,16,15,4*78
$GPGGA,033236.80,3135.6202526,N,12046.5961226,E,4,16,1.3,2.4732,M,8.310,M,00,0004*62
$GPHPD,0,0.000,122.48,0.03,-14.57,31.5936709,120.7766020,2.473,13629435.597,24923797.319,2.473,0.000,0.000,0.000,0.000,0.000,0.000,0.000,16,15,4*54
$GPGGA,033237.00,3135.6201706,N,12046.5962512,E,4,16,1.3,2.4739,M,8.310,M,01,0004*61
$GPHPD,0,0.000,123.41,0.36,-14.65,31.5936695,120.7766042,2.474,13629437.021,24923799.347,2.474,0.000,0.000,0.000,0.000,0.000,0.000,0.000,16,15,4*54
$GPGGA,033237.20,3135.6200898,N,12046.5963840,E,4,16,1.3,2.4658,M,8.310,M,01,0004*67
$GPHPD,0,0.000,124.37,0.31,-14.66,31.5936682,120.7766064,2.466,13629438.436,24923801.418,2.466,0.000,0.000,0.000,0.000,0.000,0.000,0.000,16,15,4*5A
$GPGGA,033237.40,3135.6200058,N,12046.5965132,E,4,16,1.3,2.4651,M,8.310,M,01,0004*66
$GPHPD,0,0.000,125.79,-0.06,-14.69,31.5936668,120.7766086,2.465,13629439.890,24923803.465,2.465,0.000,0.000,0.000,0.000,0.000,0.000,0.000,16,15,4*76
$GPGGA,033237.60,3135.6199213,N,12046.5966418,E,4,16,1.3,2.4721,M,8.310,M,00,0004*63
$GPHPD,0,0.000,126.75,0.01,-14.76,31.5936654,120.7766107,2.472,13629441.350,24923805.508,2.472,0.000,0.000,0.000,0.000,0.000,0.000,0.000,16,15,4*5E
$GPGGA,033237.80,3135.6198353,N,12046.5967672,E,4,16,1.3,2.4671,M,8.310,M,00,0004*62
$GPHPD,0,0.000,127.71,0.34,-14.78,31.5936639,120.7766128,2.467,13629442.824,24923807.521,2.467,0.000,0.000,0.000,0.000,0.000,0.000,0.000,16,15,4*57
$GPGGA,033238.00,3135.6197428,N,12046.5968928,E,4,16,1.3,2.4837,M,8.310,M,01,0004*63
$GPHPD,0,0.000,128.17,0.12,-14.75,31.5936624,120.7766149,2.484,13629444.391,24923809.574,2.484,0.000,0.000,0.000,0.000,0.000,0.000,0.000,16,15,4*57
$GPGGA,033238.20,3135.6196495,N,12046.5970171,E,4,16,1.3,2.4582,M,8.310,M,01,0004*68
$GPHPD,0,0.000,129.40,0.02,-14.71,31.5936608,120.7766170,2.458,13629445.968,24923811.616,2.458,0.000,0.000,0.000,0.000,0.000,0.000,0.000,16,15,4*56
$GPGGA,033238.40,3135.6195536,N,12046.5971385,E,4,16,1.3,2.4605,M,8.310,M,01,0004*61
$GPHPD,0,0.000,129.94,-0.27,-14.67,31.5936592,120.7766190,2.461,13629447.575,24923813.638,2.461,0.000,0.000,0.000,0.000,0.000,0.000,0.000,16,15,4*70
$GPGGA,033238.60,3135.6194564,N,12046.5972606,E,4,16,1.3,2.4554,M,8.310,M,00,0004*6E
$GPHPD,0,0.000,130.70,-0.82,-14.58,31.5936576,120.7766210,2.455,13629449.202,24923815.676,2.455,0.000,0.000,0.000,0.000,0.000,0.000,0.000,16,14,4*74
$GPGGA,033238.80,3135.6193566,N,12046.5973783,E,4,16,1.3,2.4476,M,8.310,M,00,0004*69
$GPHPD,0,0.000,131.82,-1.25,-14.53,31.5936559,120.7766230,2.448,13629450.857,24923817.677,2.448,0.000,0.000,0.000,0.000,0.000,0.000,0.000,16,14,4*71
$GPGGA,033239.00,3135.6192577,N,12046.5975013,E,4,15,1.4,2.4359,M,8.310,M,01,0004*66
$GPHPD,0,0.000,132.56,-0.91,-14.47,31.5936543,120.7766250,2.436,13629452.510,24923819.736,2.436,0.000,0.000,0.000,0.000,0.000,0.000,0.000,15,14,4*78
$GPGGA,033239.20,3135.6191577,N,12046.5976240,E,4,15,1.4,2.4321,M,8.310,M,01,0004*6F
$GPHPD,0,0.000,133.40,-0.75,-14.47,31.5936526,120.7766271,2.432,13629454.178,24923821.797,2.432,0.000,0.000,0.000,0.000,0.000,0.000,0.000,15,15,4*79
$GPGGA,033239.40,3135.6190522,N,12046.5977374,E,4,16,1.4,2.4435,M,8.310,M,01,0004*6E
$GPHPD,0,0.000,134.21,-0.80,-14.48,31.5936509,120.7766290,2.444,13629455.906,24923823.779,2.444,0.000,0.000,0.000,0.000,0.000,0.000,0.000,16,15,4*7F
$GPGGA,033239.60,3135.6189451,N,12046.5978531,E,4,16,1.4,2.4411,M,8.310,M,00,0004*6E
$GPHPD,0,0.000,135.35,0.10,-14.42,31.5936491,120.7766309,2.441,13629457.661,24923825.798,2.441,0.000,0.000,0.000,0.000,0.000,0.000,0.000,16,15,4*51
$GPGGA,033239.80,3135.6188367,N,12046.5979698,E,4,15,1.4,2.4552,M,8.310,M,00,0004*67
$GPHPD,0,0.000,135.73,-0.06,-14.30,31.5936473,120.7766328,2.455,13629459.436,24923827.836,2.455,0.000,0.000,0.000,0.000,0.000,0.000,0.000,15,15,4*77
$GPGGA,033240.00,3135.6187304,N,12046.5980867,E,4,15,1.4,2.4610,M,8.310,M,01,0004*67
$GPHPD,0,0.000,136.09,-0.06,-14.28,31.5936455,120.7766348,2.461,13629461.182,24923829.864,2.461,0.000,0.000,0.000,0.000,0.000,0.000,0.000,15,15,4*7A
$GPGGA,033240.20,3135.6186214,N,12046.5982008,E,4,15,1.4,2.4489,M,8.310,M,01,0004*65
$GPHPD,0,0.000,136.75,-0.27,-14.28,31.5936437,120.7766367,2.449,13629462.961,24923831.875,2.449,0.000,0.000,0.000,0.000,0.000,0.000,0.000,15,15,4*74
$GPGGA,033240.40,3135.6185095,N,12046.5983172,E,4,15,1.4,2.4570,M,8.310,M,01,0004*61
$GPHPD,0,0.000,137.32,-0.18,-14.30,31.5936418,120.7766386,2.457,13629464.785,24923833.930,2.457,0.000,0.000,0.000,0.000,0.000,0.000,0.000,15,15,4*71
$GPGGA,033240.60,3135.6184004,N,12046.5984319,E,4,15,1.4,2.4417,M,8.310,M,00,0004*63
$GPHPD,0,0.000,137.51,-0.31,-14.32,31.5936400,120.7766405,2.442,13629466.567,24923835.948,2.442,0.000,0.000,0.000,0.000,0.000,0.000,0.000,15,15,4*7D
$GPGGA,033240.80,3135.6182904,N,12046.5985475,E,4,15,1.4,2.4341,M,8.310,M,00,0004*6A
$GPHPD,0,0.000,137.39,-1.17,-14.34,31.5936382,120.7766425,2.434,13629468.363,24923837.983,2.434,0.000,0.000,0.000,0.000,0.000,0.000,0.000,15,15,4*76
$GPGGA,033241.00,3135.6181795,N,12046.5986633,E,4,16,1.4,2.4437,M,8.310,M,01,0004*61
$GPHPD,0,0.000,137.78,-0.78,-14.34,31.5936363,120.7766444,2.444,13629470.172,24923840.025,2.444,0.000,0.000,0.000,0.000,0.000,0.000,0.000,16,16,4*7D
$GPGGA,033241.20,3135.6180680,N,12046.5987765,E,4,16,1.4,2.4468,M,8.310,M,01,0004*6E
$GPHPD,0,0.000,137.55,-0.83,-14.34,31.5936345,120.7766463,2.447,13629471.984,24923842.039,2.447,0.000,0.000,0.000,0.000,0.000,0.000,0.000,16,16,4*78
$GPGGA,033241.40,3135.6179568,N,12046.5988887,E,4,16,1.4,2.4326,M,8.310,M,01,0004*6A
$GPHPD,0,0.000,137.59,-0.87,-14.36,31.5936326,120.7766481,2.433,13629473.790,24923844.039,2.433,0.000,0.000,0.000,0.000,0.000,0.000,0.000,16,16,4*74
$GPGGA,033241.60,3135.6178453,N,12046.5990017,E,4,16,1.4,2.4371,M,8.310,M,00,0004*6B
$GPHPD,0,0.000,137.78,-0.43,-14.45,31.5936308,120.7766500,2.437,13629475.602,24923846.051,2.437,0.000,0.000,0.000,0.000,0.000,0.000,0.000,16,16,4*7F
$GPGGA,033241.80,3135.6177356,N,12046.5991154,E,4,16,1.4,2.4263,M,8.310,M,00,0004*6D
$GPHPD,0,0.000,138.42,-0.32,-14.51,31.5936289,120.7766519,2.426,13629477.390,24923848.061,2.426,0.000,0.000,0.000,0.000,0.000,0.000,0.000,16,16,4*7B
$GPGGA,033242.00,3135.6176203,N,12046.5992251,E,4,16,1.4,2.4260,M,8.310,M,01,0004*61
$GPHPD,0,0.000,138.58,0.05,-14.51,31.5936270,120.7766538,2.426,13629479.250,24923850.055,2.426,0.000,0.000,0.000,0.000,0.000,0.000,0.000,16,16,4*51
$GPGGA,033242.20,3135.6175073,N,12046.5993373,E,4,15,1.4,2.4264,M,8.310,M,01,0004*62
$GPHPD,0,0.000,138.89,-0.12,-14.48,31.5936251,120.7766556,2.426,13629481.081,24923852.066,2.426,0.000,0.000,0.000,0.000,0.000,0.000,0.000,15,15,4*7E
$GPGGA,033242.40,3135.6173977,N,12046.5994496,E,4,15,1.4,2.4093,M,8.310,M,01,0004*6E
$GPHPD,0,0.000,139.77,-0.61,-14.48,31.5936233,120.7766575,2.409,13629482.865,24923854.058,2.409,0.000,0.000,0.000,0.000,0.000,0.000,0.000,15,15,4*75
$GPGGA,033242.60,3135.6172828,N,12046.5995508,E,4,15,1.4,2.4160,M,8.310,M,00,0004*6D
$GPHPD,0,0.000,140.58,-0.27,-14.56,31.5936214,120.7766592,2.416,13629484.702,24923855.947,2.416,0.000,0.000,0.000,0.000,0.000,0.000,0.000,15,15,4*79
$GPGGA,033242.80,3135.6171725,N,12046.5996446,E,4,15,1.4,2.4183,M,8.310,M,00,0004*67
$GPHPD,0,0.000,140.78,-0.38,-14.79,31.5936195,120.7766607,2.418,13629486.458,24923857.720,2.418,0.000,0.000,0.000,0.000,0.000,0.000,0.000,15,15,4*7E
$GPGGA,033243.00,3135.6170631,N,12046.5997462,E,4,15,1.4,2.4147,M,8.310,M,01,0004*65
$GPHPD,0,0.000,140.96,1.06,-14.89,31.5936177,120.7766624,2.415,13629488.217,24923859.583,2.415,0.000,0.000,0.000,0.000,0.000,0.000,0.000,15,15,4*5B
$GPGGA,033243.20,3135.6169549,N,12046.5998463,E,4,15,1.4,2.4211,M,8.310,M,01,0004*6D
$GPHPD,0,0.000,140.62,0.43,-14.84,31.5936159,120.7766641,2.421,13629489.956,24923861.420,2.421,0.000,0.000,0.000,0.000,0.000,0.000,0.000,15,15,4*5E
$GPGGA,033243.40,3135.6168428,N,12046.5999509,E,4,15,1.4,2.4106,M,8.310,M,01,0004*65
$GPHPD,0,0.000,141.36,0.54,-14.83,31.5936140,120.7766658,2.411,13629491.760,24923863.334,2.411,0.000,0.000,0.000,0.000,0.000,0.000,0.000,15,15,4*5D
$GPGGA,033243.60,3135.6167365,N,12046.6000516,E,4,15,1.4,2.4122,M,8.310,M,00,0004*65
$GPHPD,0,0.000,140.81,-0.46,-14.81,31.5936123,120.7766675,2.412,13629493.474,24923865.167,2.412,0.000,0.000,0.000,0.000,0.000,0.000,0.000,15,15,4*70
$GPGGA,033243.80,3135.6166251,N,12046.6001509,E,4,15,1.4,2.4182,M,8.310,M,00,0004*69
$GPHPD,0,0.000,140.70,-0.32,-14.80,31.5936104,120.7766692,2.418,13629495.257,24923867.013,2.418,0.000,0.000,0.000,0.000,0.000,0.000,0.000,15,15,4*71
$GPGGA,033244.00,3135.6165225,N,12046.6002501,E,4,16,1.6,2.4240,M,8.310,M,01,0004*60
$GPHPD,0,0.000,141.17,-0.21,-14.82,31.5936087,120.7766708,2.424,13629496.914,24923868.806,2.424,0.000,0.000,0.000,0.000,0.000,0.000,0.000,16,16,4*75
$GPGGA,033244.20,3135.6164170,N,12046.6003536,E,4,16,1.4,2.4203,M,8.310,M,01,0004*60
$GPHPD,0,0.000,141.27,-0.79,-14.84,31.5936070,120.7766726,2.420,13629498.622,24923870.668,2.420,0.000,0.000,0.000,0.000,0.000,0.000,0.000,16,16,4*72
$GPGGA,033244.40,3135.6163084,N,12046.6004521,E,4,16,1.4,2.4154,M,8.310,M,01,0004*6B
$GPHPD,0,0.000,141.09,0.36,-14.91,31.5936051,120.7766742,2.415,13629500.364,24923872.489,2.415,0.000,0.000,0.000,0.000,0.000,0.000,0.000,16,16,4*55
$GPGGA,033244.60,3135.6162039,N,12046.6005507,E,4,16,1.4,2.4132,M,8.310,M,00,0004*6A
$GPHPD,0,0.000,140.67,0.50,-14.95,31.5936034,120.7766758,2.413,13629502.047,24923874.286,2.413,0.000,0.000,0.000,0.000,0.000,0.000,0.000,16,16,4*5F
$GPGGA,033244.80,3135.6160984,N,12046.6006504,E,4,16,1.4,2.4416,M,8.310,M,00,0004*6A
$GPHPD,0,0.000,140.84,0.81,-14.84,31.5936016,120.7766775,2.442,13629503.747,24923876.102,2.442,0.000,0.000,0.000,0.000,0.000,0.000,0.000,16,16,4*5A
$GPGGA,033245.00,3135.6159891,N,12046.6007447,E,4,16,1.4,2.4273,M,8.310,M,01,0004*6F
$GPHPD,0,0.000,140.71,-0.12,-14.64,31.5935998,120.7766791,2.427,13629505.490,24923877.876,2.427,0.000,0.000,0.000,0.000,0.000,0.000,0.000,16,16,4*7B
$GPGGA,033245.20,3135.6158868,N,12046.6008373,E,4,16,1.4,2.4312,M,8.310,M,01,0004*63
$GPHPD,0,0.000,140.61,0.46,-14.58,31.5935981,120.7766806,2.431,13629507.131,24923879.588,2.431,0.000,0.000,0.000,0.000,0.000,0.000,0.000,16,16,4*5E
$GPGGA,033245.40,3135.6157872,N,12046.6009304,E,4,16,1.4,2.4306,M,8.310,M,01,0004*65
$GPHPD,0,0.000,140.57,-0.85,-14.68,31.5935965,120.7766822,2.431,13629508.733,24923881.291,2.431,0.000,0.000,0.000,0.000,0.000,0.000,0.000,16,15,4*76
$GPGGA,033245.60,3135.6156846,N,12046.6010297,E,4,16,1.4,2.4303,M,8.310,M,00,0004*66
$GPHPD,0,0.000,140.73,-1.14,-14.71,31.5935947,120.7766838,2.430,13629510.391,24923883.085,2.430,0.000,0.000,0.000,0.000,0.000,0.000,0.000,16,15,4*7A
$GPGGA,033245.80,3135.6155777,N,12046.6011201,E,4,16,1.4,2.4302,M,8.310,M,00,0004*69
$GPHPD,0,0.000,141.32,0.38,-14.72,31.5935930,120.7766853,2.430,13629512.093,24923884.798,2.430,0.000,0.000,0.000,0.000,0.000,0.000,0.000,16,15,4*5D
$GPGGA,033246.00,3135.6154682,N,12046.6012172,E,4,16,1.4,2.4218,M,8.310,M,01,0004*67
$GPHPD,0,0.000,141.25,-0.27,-14.74,31.5935911,120.7766870,2.422,13629513.844,24923886.606,2.422,0.000,0.000,0.000,0.000,0.000,0.000,0.000,16,15,4*7B
$GPGGA,033246.20,3135.6153604,N,12046.6013188,E,4,16,1.4,2.4236,M,8.310,M,01,0004*64
$GPHPD,0,0.000,141.58,-0.58,-14.74,31.5935893,120.7766886,2.424,13629515.581,24923888.459,2.424,0.000,0.000,0.000,0.000,0.000,0.000,0.000,16,15,4*7F
$GPGGA,033246.40,3135.6152451,N,12046.6014158,E,4,16,1.4,2.4195,M,8.310,M,01,0004*61
$GPHPD,0,0.000,142.16,-1.94,-14.75,31.5935874,120.7766903,2.420,13629517.415,24923890.300,2.420,0.000,0.000,0.000,0.000,0.000,0.000,0.000,16,14,4*7E
$GPGGA,033246.60,3135.6151351,N,12046.6015124,E,4,16,1.4,2.4172,M,8.310,M,00,0004*65
$GPHPD,0,0.000,141.13,-0.84,-14.77,31.5935856,120.7766919,2.417,13629519.172,24923892.105,2.417,0.000,0.000,0.000,0.000,0.000,0.000,0.000,16,15,4*7F
$GPGGA,033246.80,3135.6150247,N,12046.6016073,E,4,16,1.4,2.4182,M,8.310,M,00,0004*63
$GPHPD,0,0.000,142.28,-1.65,-14.76,31.5935837,120.7766935,2.418,13629520.932,24923893.892,2.418,0.000,0.000,0.000,0.000,0.000,0.000,0.000,16,15,4*72
$GPGGA,033247.00,3135.6149009,N,12046.6017029,E,4,16,1.4,2.4285,M,8.310,M,01,0004*61
$GPHPD,0,0.000,142.21,-2.78,-14.76,31.5935817,120.7766950,2.429,13629522.884,24923895.766,2.429,0.000,0.000,0.000,0.000,0.000,0.000,0.000,16,13,4*7F
$GPGGA,033247.20,3135.6148011,N,12046.6018104,E,4,16,1.4,2.4468,M,8.310,M,01,0004*6F
$GPHPD,0,0.000,143.52,-1.73,-14.76,31.5935800,120.7766968,2.447,13629524.519,24923897.643,2.447,0.000,0.000,0.000,0.000,0.000,0.000,0.000,16,13,4*74
$GPGGA,033247.40,3135.6146931,N,12046.6019133,E,4,16,1.4,2.4491,M,8.310,M,01,0004*6F
$GPHPD,0,0.000,143.37,0.78,-14.76,31.5935782,120.7766986,2.449,13629526.261,24923899.513,2.449,0.000,0.000,0.000,0.000,0.000,0.000,0.000,16,14,4*50
$GPGGA,033247.60,3135.6145758,N,12046.6020247,E,4,15,1.4,2.4146,M,8.310,M,00,0004*68
$GPHPD,0,0.000,143.69,2.00,-14.76,31.5935763,120.7767004,2.415,13629528.152,24923901.539,2.415,0.000,0.000,0.000,0.000,0.000,0.000,0.000,15,14,4*5D
$GPGGA,033247.80,3135.6144475,N,12046.6021119,E,4,14,1.7,2.4209,M,8.310,M,00,0004*68
$GPHPD,0,0.000,144.09,1.62,-14.77,31.5935741,120.7767019,2.421,13629530.151,24923903.338,2.421,0.000,0.000,0.000,0.000,0.000,0.000,0.000,14,14,4*58
$GPGGA,033248.00,3135.6143363,N,12046.6022057,E,4,15,1.7,2.4371,M,8.310,M,01,0004*6E
$GPHPD,0,0.000,144.12,2.99,-14.75,31.5935723,120.7767034,2.437,13629531.920,24923905.116,2.437,0.000,0.000,0.000,0.000,0.000,0.000,0.000,15,14,4*5A
$GPGGA,033248.20,3135.6142192,N,12046.6023010,E,4,14,1.7,2.4376,M,8.310,M,01,0004*65
$GPHPD,0,0.000,142.87,0.60,-14.74,31.5935703,120.7767050,2.438,13629533.776,24923906.947,2.438,0.000,0.000,0.000,0.000,0.000,0.000,0.000,14,13,4*53
$GPGGA,033248.40,3135.6141071,N,12046.6024013,E,4,14,1.7,2.4727,M,8.310,M,01,0004*68
$GPHPD,0,0.000,142.79,1.07,-14.74,31.5935685,120.7767067,2.473,13629535.571,24923908.809,2.473,0.000,0.000,0.000,0.000,0.000,0.000,0.000,14,14,4*58
$GPGGA,033248.60,3135.6139917,N,12046.6025034,E,4,14,1.7,2.4592,M,8.310,M,01,0004*64
$GPHPD,0,0.000,143.55,2.11,-14.75,31.5935665,120.7767084,2.459,13629537.417,24923910.712,2.459,0.000,0.000,0.000,0.000,0.000,0.000,0.000,14,14,4*5E
$GPGGA,033248.80,3135.6138753,N,12046.6026013,E,4,15,1.7,2.4385,M,8.310,M,00,0004*63
$GPHPD,0,0.000,142.73,0.86,-14.75,31.5935646,120.7767100,2.439,13629539.268,24923912.570,2.439,0.000,0.000,0.000,0.000,0.000,0.000,0.000,15,15,4*5F
$GPGGA,033249.00,3135.6137637,N,12046.6026964,E,4,15,1.7,2.4558,M,8.310,M,01,0004*68
$GPHPD,0,0.000,141.23,-0.02,-14.75,31.5935627,120.7767116,2.456,13629541.046,24923914.367,2.456,0.000,0.000,0.000,0.000,0.000,0.000,0.000,15,14,4*7E
$GPGGA,033249.20,3135.6136543,N,12046.6028015,E,4,15,1.7,2.4594,M,8.310,M,01,0004*6A
$GPHPD,0,0.000,140.52,-2.10,-14.77,31.5935609,120.7767134,2.459,13629542.812,24923916.271,2.459,0.000,0.000,0.000,0.000,0.000,0.000,0.000,15,14,4*78
$GPGGA,033249.40,3135.6135439,N,12046.6029030,E,4,15,1.7,2.4928,M,8.310,M,01,0004*6E
$GPHPD,0,0.000,141.80,0.16,-14.78,31.5935591,120.7767151,2.493,13629544.585,24923918.138,2.493,0.000,0.000,0.000,0.000,0.000,0.000,0.000,15,14,4*54
$GPGGA,033249.60,3135.6134160,N,12046.6029854,E,4,16,1.4,2.4887,M,8.310,M,00,0004*6B
$GPHPD,0,0.000,142.53,-0.51,-14.81,31.5935569,120.7767164,2.489,13629546.569,24923919.876,2.489,0.000,0.000,0.000,0.000,0.000,0.000,0.000,16,14,4*71
$GPGGA,033249.80,3135.6133151,N,12046.6030979,E,4,16,1.4,2.4845,M,8.310,M,00,0004*68
$GPHPD,0,0.000,141.96,-1.37,-14.83,31.5935553,120.7767183,2.485,13629548.229,24923921.820,2.485,0.000,0.000,0.000,0.000,0.000,0.000,0.000,16,14,4*7D
$GPGGA,033250.00,3135.6132055,N,12046.6031983,E,4,15,1.4,2.4590,M,8.310,M,01,0004*6F
$GPHPD,0,0.000,142.45,-2.04,-14.84,31.5935534,120.7767200,2.459,13629549.989,24923923.669,2.459,0.000,0.000,0.000,0.000,0.000,0.000,0.000,15,15,4*7E
$GPGGA,033250.20,3135.6130918,N,12046.6033074,E,4,15,1.4,2.4834,M,8.310,M,01,0004*6F
$GPHPD,0,0.000,142.31,-0.62,-14.85,31.5935515,120.7767218,2.483,13629551.824,24923925.647,2.483,0.000,0.000,0.000,0.000,0.000,0.000,0.000,15,14,4*70
$GPGGA,033250.40,3135.6129774,N,12046.6034036,E,4,15,1.4,2.4736,M,8.310,M,01,0004*69
$GPHPD,0,0.000,142.20,-0.44,-14.84,31.5935496,120.7767234,2.474,13629553.644,24923927.473,2.474,0.000,0.000,0.000,0.000,0.000,0.000,0.000,15,14,4*7C
$GPGGA,033250.60,3135.6128685,N,12046.6034996,E,4,15,1.4,2.4370,M,8.310,M,00,0004*61
$GPHPD,0,0.000,142.08,-1.64,-14.86,31.5935478,120.7767250,2.437,13629555.385,24923929.264,2.437,0.000,0.000,0.000,0.000,0.000,0.000,0.000,15,14,4*75
$GPGGA,033250.80,3135.6127545,N,12046.6035987,E,4,15,1.4,2.4319,M,8.310,M,00,0004*61
$GPHPD,0,0.000,142.23,-1.98,-14.84,31.5935459,120.7767266,2.432,13629557.204,24923931.123,2.432,0.000,0.000,0.000,0.000,0.000,0.000,0.000,15,14,4*78
$GPGGA,033251.00,3135.6126353,N,12046.6036850,E,4,15,1.4,2.4066,M,8.310,M,01,0004*6A
$GPHPD,0,0.000,141.13,-2.37,-14.87,31.5935439,120.7767281,2.407,13629559.072,24923932.858,2.407,0.000,0.000,0.000,0.000,0.000,0.000,0.000,15,14,4*79
$GPGGA,033251.20,3135.6125206,N,12046.6037859,E,4,16,1.4,2.3980,M,8.310,M,01,0004*67
$GPHPD,0,0.000,141.45,-1.73,-14.88,31.5935420,120.7767298,2.398,13629560.905,24923934.742,2.398,0.000,0.000,0.000,0.000,0.000,0.000,0.000,16,14,4*74
$GPGGA,033251.40,3135.6124089,N,12046.6038923,E,4,16,1.4,2.4208,M,8.310,M,01,0004*6A
$GPHPD,0,0.000,141.74,-0.98,-14.89,31.5935401,120.7767315,2.421,13629562.707,24923936.675,2.421,0.000,0.000,0.000,0.000,0.000,0.000,0.000,16,15,4*7C
$GPGGA,033251.60,3135.6123031,N,12046.6039882,E,4,15,1.4,2.3970,M,8.310,M,00,0004*66
$GPHPD,0,0.000,142.85,0.47,-14.91,31.5935384,120.7767331,2.397,13629564.403,24923938.448,2.397,0.000,0.000,0.000,0.000,0.000,0.000,0.000,15,15,4*5B
$GPGGA,033251.80,3135.6121801,N,12046.6040846,E,4,15,1.4,2.4043,M,8.310,M,00,0004*69
$GPHPD,0,0.000,142.58,0.86,-14.89,31.5935363,120.7767347,2.404,13629566.346,24923940.326,2.404,0.000,0.000,0.000,0.000,0.000,0.000,0.000,15,14,4*52
$GPGGA,033252.00,3135.6120740,N,12046.6041881,E,4,15,1.5,2.3960,M,8.310,M,01,0004*6C
$GPHPD,0,0.000,142.23,0.38,-14.91,31.5935346,120.7767365,2.396,13629568.062,24923942.192,2.396,0.000,0.000,0.000,0.000,0.000,0.000,0.000,15,14,4*51
$GPGGA,033252.20,3135.6119621,N,12046.6042866,E,4,15,1.5,2.4137,M,8.310,M,01,0004*65
$GPHPD,0,0.000,143.07,0.99,-14.93,31.5935327,120.7767381,2.414,13629569.850,24923944.031,2.414,0.000,0.000,0.000,0.000,0.000,0.000,0.000,15,14,4*54
$GPGGA,033252.40,3135.6118464,N,12046.6043872,E,4,14,1.5,2.4189,M,8.310,M,01,0004*61
$GPHPD,0,0.000,142.48,1.21,-14.93,31.5935308,120.7767398,2.419,13629571.697,24923945.918,2.419,0.000,0.000,0.000,0.000,0.000,0.000,0.000,14,14,4*57
$GPGGA,033252.60,3135.6117373,N,12046.6044946,E,4,14,1.5,2.4953,M,8.310,M,00,0004*62
$GPHPD,0,0.000,142.34,1.34,-14.95,31.5935290,120.7767416,2.495,13629573.464,24923947.848,2.495,0.000,0.000,0.000,0.000,0.000,0.000,0.000,14,14,4*55
$GPGGA,033252.80,3135.6116279,N,12046.6045887,E,4,15,1.5,2.4645,M,8.310,M,00,0004*62
$GPHPD,0,0.000,142.55,-0.31,-14.96,31.5935271,120.7767431,2.465,13629575.208,24923949.620,2.465,0.000,0.000,0.000,0.000,0.000,0.000,0.000,15,15,4*76
$GPGGA,033253.00,3135.6115198,N,12046.6046858,E,4,15,1.5,2.4797,M,8.310,M,01,0004*6A
$GPHPD,0,0.000,142.26,0.49,-14.98,31.5935253,120.7767448,2.480,13629576.940,24923951.420,2.480,0.000,0.000,0.000,0.000,0.000,0.000,0.000,15,15,4*5F
$GPGGA,033253.20,3135.6114094,N,12046.6047823,E,4,15,1.6,2.4777,M,8.310,M,01,0004*64
$GPHPD,0,0.000,142.03,0.85,-14.95,31.5935235,120.7767464,2.478,13629578.703,24923953.227,2.478,0.000,0.000,0.000,0.000,0.000,0.000,0.000,15,15,4*5F
$GPGGA,033253.40,3135.6112995,N,12046.6048795,E,4,15,1.6,2.4651,M,8.310,M,01,0004*64
$GPHPD,0,0.000,142.04,0.60,-14.93,31.5935217,120.7767480,2.465,13629580.460,24923955.039,2.465,0.000,0.000,0.000,0.000,0.000,0.000,0.000,15,15,4*55
$GPGGA,033253.60,3135.6111839,N,12046.6049797,E,4,15,1.5,2.4522,M,8.310,M,00,0004*64
$GPHPD,0,0.000,141.76,0.54,-14.93,31.5935197,120.7767497,2.452,13629582.305,24923956.920,2.452,0.000,0.000,0.000,0.000,0.000,0.000,0.000,15,15,4*5D
$GPGGA,033253.80,3135.6110822,N,12046.6050780,E,4,15,1.5,2.4765,M,8.310,M,00,0004*6E
$GPHPD,0,0.000,142.05,0.39,-14.96,31.5935180,120.7767513,2.477,13629583.948,24923958.697,2.477,0.000,0.000,0.000,0.000,0.000,0.000,0.000,15,15,4*50
$GPGGA,033254.00,3135.6109658,N,12046.6051771,E,4,15,1.5,2.4544,M,8.310,M,01,0004*65
$GPHPD,0,0.000,142.04,-1.02,-14.96,31.5935161,120.7767530,2.454,13629585.802,24923960.570,2.454,0.000,0.000,0.000,0.000,0.000,0.000,0.000,15,15,4*73
$GPGGA,033254.20,3135.6108571,N,12046.6052769,E,4,15,1.5,2.4679,M,8.310,M,01,0004*69
$GPHPD,0,0.000,140.87,-2.87,-14.98,31.5935143,120.7767546,2.468,13629587.548,24923962.406,2.468,0.000,0.000,0.000,0.000,0.000,0.000,0.000,15,15,4*78
$GPGGA,033254.40,3135.6107446,N,12046.6053716,E,4,14,1.5,2.4789,M,8.310,M,01,0004*63
$GPHPD,0,0.000,141.58,-2.51,-15.01,31.5935124,120.7767562,2.479,13629589.337,24923964.203,2.479,0.000,0.000,0.000,0.000,0.000,0.000,0.000,14,15,4*72
$GPGGA,033254.60,3135.6106362,N,12046.6054733,E,4,14,1.5,2.4771,M,8.310,M,00,0004*67
$GPHPD,0,0.000,140.79,-3.84,-15.03,31.5935106,120.7767579,2.477,13629591.082,24923966.061,2.477,0.000,0.000,0.000,0.000,0.000,0.000,0.000,14,14,4*70
$GPGGA,033254.80,3135.6105236,N,12046.6055703,E,4,14,1.5,2.4788,M,8.310,M,00,0004*6E
$GPHPD,0,0.000,141.54,-1.94,-15.00,31.5935087,120.7767595,2.479,13629592.878,24923967.886,2.479,0.000,0.000,0.000,0.000,0.000,0.000,0.000,14,14,4*7A
$GPGGA,033255.00,3135.6104134,N,12046.6056785,E,4,14,1.8,2.4211,M,8.310,M,01,0004*63
$GPHPD,0,0.000,141.41,-0.23,-14.98,31.5935069,120.7767613,2.421,13629594.662,24923969.832,2.421,0.000,0.000,0.000,0.000,0.000,0.000,0.000,14,14,4*7C
$GPGGA,033255.20,3135.6102948,N,12046.6057820,E,4,14,1.5,2.4462,M,8.310,M,01,0004*6A
$GPHPD,0,0.000,141.94,0.20,-14.96,31.5935049,120.7767630,2.446,13629596.556,24923971.771,2.446,0.000,0.000,0.000,0.000,0.000,0.000,0.000,14,14,4*50
$GPGGA,033255.40,3135.6101796,N,12046.6058767,E,4,13,1.8,2.4551,M,8.310,M,01,0004*6A
$GPHPD,0,0.000,142.13,0.98,-14.95,31.5935030,120.7767646,2.455,13629598.383,24923973.584,2.455,0.000,0.000,0.000,0.000,0.000,0.000,0.000,13,13,4*59
$GPGGA,033255.60,3135.6100606,N,12046.6059845,E,4,13,1.8,2.4292,M,8.310,M,00,0004*66
$GPHPD,0,0.000,141.86,0.99,-14.95,31.5935010,120.7767664,2.429,13629600.292,24923975.576,2.429,0.000,0.000,0.000,0.000,0.000,0.000,0.000,13,13,4*5D
$GPGGA,033255.80,3135.6099492,N,12046.6060802,E,4,13,1.8,2.4074,M,8.310,M,00,0004*65
$GPHPD,0,0.000,142.55,2.13,-14.94,31.5934992,120.7767680,2.407,13629602.067,24923977.379,2.407,0.000,0.000,0.000,0.000,0.000,0.000,0.000,13,13,4*58
$GPGGA,033256.00,3135.6098356,N,12046.6061788,E,4,13,2.2,2.3904,M,8.310,M,01,0004*6D
$GPHPD,0,0.000,141.71,1.10,-14.91,31.5934973,120.7767696,2.390,13629603.880,24923979.229,2.390,0.000,0.000,0.000,0.000,0.000,0.000,0.000,13,13,4*5A
$GPGGA,033256.20,3135.6097202,N,12046.6062918,E,4,13,2.2,2.4274,M,8.310,M,01,0004*6F
$GPHPD,0,0.000,141.70,0.68,-14.95,31.5934953,120.7767715,2.427,13629605.748,24923981.264,2.427,0.000,0.000,0.000,0.000,0.000,0.000,0.000,13,13,4*5A
$GPGGA,033256.40,3135.6096092,N,12046.6063888,E,4,13,2.2,2.4148,M,8.310,M,01,0004*66
$GPHPD,0,0.000,142.64,1.45,-14.93,31.5934935,120.7767731,2.415,13629607.521,24923983.080,2.415,0.000,0.000,0.000,0.000,0.000,0.000,0.000,13,13,4*57
$GPGGA,033256.60,3135.6094955,N,12046.6064925,E,4,13,2.2,2.4231,M,8.310,M,00,0004*69
$GPHPD,0,0.000,142.73,2.40,-14.96,31.5934916,120.7767749,2.423,13629609.345,24923984.992,2.423,0.000,0.000,0.000,0.000,0.000,0.000,0.000,13,13,4*5B
$GPGGA,033256.80,3135.6093758,N,12046.6065892,E,4,13,2.2,2.4387,M,8.310,M,00,0004*63
$GPHPD,0,0.000,142.94,3.04,-14.95,31.5934896,120.7767765,2.439,13629611.241,24923986.855,2.439,0.000,0.000,0.000,0.000,0.000,0.000,0.000,13,13,4*53
$GPGGA,033257.00,3135.6092636,N,12046.6066879,E,4,13,2.2,2.4524,M,8.310,M,01,0004*6A
$GPHPD,0,0.000,142.45,1.99,-14.96,31.5934877,120.7767781,2.452,13629613.034,24923988.699,2.452,0.000,0.000,0.000,0.000,0.000,0.000,0.000,13,13,4*5D
$GPGGA,033257.20,3135.6091496,N,12046.6067888,E,4,13,2.2,2.4435,M,8.310,M,01,0004*6D
$GPHPD,0,0.000,142.41,2.11,-14.97,31.5934858,120.7767798,2.444,13629614.857,24923990.579,2.444,0.000,0.000,0.000,0.000,0.000,0.000,0.000,13,13,4*50
$GPGGA,033257.40,3135.6090367,N,12046.6068876,E,4,13,1.8,2.4682,M,8.310,M,01,0004*6A
$GPHPD,0,0.000,142.19,1.61,-14.99,31.5934839,120.7767815,2.468,13629616.661,24923992.428,2.468,0.000,0.000,0.000,0.000,0.000,0.000,0.000,13,13,4*54
$GPGGA,033257.60,3135.6089234,N,12046.6069902,E,4,13,1.8,2.4656,M,8.310,M,00,0004*6C
$GPHPD,0,0.000,142.07,1.88,-14.99,31.5934821,120.7767832,2.466,13629618.478,24923994.324,2.466,0.000,0.000,0.000,0.000,0.000,0.000,0.000,13,13,4*59
$GPGGA,033257.80,3135.6088093,N,12046.6070941,E,4,13,1.8,2.4716,M,8.310,M,00,0004*66
$GPHPD,0,0.000,141.98,1.07,-15.00,31.5934802,120.7767849,2.472,13629620.308,24923996.242,2.472,0.000,0.000,0.000,0.000,0.000,0.000,0.000,13,13,4*5F
$GPGGA,033258.00,3135.6086934,N,12046.6071823,E,4,13,1.8,2.4739,M,8.310,M,01,0004*63
$GPHPD,0,0.000,141.89,-1.02,-14.97,31.5934782,120.7767864,2.474,13629622.133,24923997.980,2.474,0.000,0.000,0.000,0.000,0.000,0.000,0.000,13,13,4*7C
$GPGGA,033258.20,3135.6085782,N,12046.6072808,E,4,13,1.8,2.4651,M,8.310,M,01,0004*64
$GPHPD,0,0.000,142.28,-0.18,-14.96,31.5934763,120.7767880,2.465,13629623.968,24923999.838,2.465,0.000,0.000,0.000,0.000,0.000,0.000,0.000,13,13,4*71
$GPGGA,033258.40,3135.6084654,N,12046.6073849,E,4,13,1.8,2.4708,M,8.310,M,01,0004*60
$GPHPD,0,0.000,141.91,1.42,-14.98,31.5934744,120.7767897,2.471,13629625.781,24924001.751,2.471,0.000,0.000,0.000,0.000,0.000,0.000,0.000,13,13,4*5E
$GPGGA,033258.60,3135.6083533,N,12046.6074853,E,4,13,1.8,2.4960,M,8.310,M,00,0004*6A
$GPHPD,0,0.000,142.29,0.34,-15.00,31.5934726,120.7767914,2.496,13629627.576,24924003.614,2.496,0.000,0.000,0.000,0.000,0.000,0.000,0.000,13,13,4*5A
$GPGGA,033258.80,3135.6082424,N,12046.6075840,E,4,13,1.8,2.4893,M,8.310,M,00,0004*6C
$GPHPD,0,0.000,141.83,-0.69,-14.98,31.5934707,120.7767931,2.489,13629629.351,24924005.450,2.489,0.000,0.000,0.000,0.000,0.000,0.000,0.000,13,13,4*71
$GPGGA,033259.00,3135.6081328,N,12046.6076852,E,4,13,1.8,2.4715,M,8.310,M,01,0004*6D
$GPHPD,0,0.000,141.44,-1.41,-15.03,31.5934689,120.7767948,2.472,13629631.112,24924007.308,2.472,0.000,0.000,0.000,0.000,0.000,0.000,0.000,13,13,4*7F
$GPGGA,033259.20,3135.6080196,N,12046.6077811,E,4,13,1.8,2.4637,M,8.310,M,01,0004*6E
$GPHPD,0,0.000,141.87,0.48,-15.03,31.5934670,120.7767964,2.464,13629632.914,24924009.124,2.464,0.000,0.000,0.000,0.000,0.000,0.000,0.000,13,13,4*52
$GPGGA,033259.40,3135.6079100,N,12046.6078794,E,4,13,1.8,2.4695,M,8.310,M,01,0004*64
$GPHPD,0,0.000,141.64,0.65,-15.02,31.5934652,120.7767980,2.470,13629634.670,24924010.947,2.470,0.000,0.000,0.000,0.000,0.000,0.000,0.000,13,13,4*55
$GPGGA,033259.60,3135.6077991,N,12046.6079829,E,4,13,1.8,2.4563,M,8.310,M,00,0004*6B
$GPHPD,0,0.000,141.53,1.30,-15.02,31.5934633,120.7767997,2.456,13629636.454,24924012.841,2.456,0.000,0.000,0.000,0.000,0.000,0.000,0.000,13,13,4*52
$GPGGA,033259.80,3135.6076876,N,12046.6080784,E,4,13,1.8,2.4568,M,8.310,M,00,0004*69
$GPHPD,0,0.000,141.61,0.23,-15.02,31.5934615,120.7768013,2.457,13629638.231,24924014.642,2.457,0.000,0.000,0.000,0.000,0.000,0.000,0.000,13,13,4*5E
$GPGGA,033300.00,3135.6075785,N,12046.6081763,E,4,13,1.8,2.4341,M,8.310,M,01,0004*68
$GPHPD,0,0.000,141.74,-0.11,-15.03,31.5934596,120.7768029,2.434,13629639.978,24924016.457,2.434,0.000,0.000,0.000,0.000,0.000,0.000,0.000,13,13,4*75
$GPGGA,033300.20,3135.6074642,N,12046.6082750,E,4,13,1.8,2.4376,M,8.310,M,01,0004*66
$GPHPD,0,0.000,142.01,0.59,-15.05,31.5934577,120.7768046,2.438,13629641.802,24924018.313,2.438,0.000,0.000,0.000,0.000,0.000,0.000,0.000,13,13,4*5F
$GPGGA,033300.40,3135.6073552,N,12046.6083796,E,4,13,1.8,2.4468,M,8.310,M,01,0004*66
$GPHPD,0,0.000,142.01,-0.08,-15.08,31.5934559,120.7768063,2.447,13629643.561,24924020.209,2.447,0.000,0.000,0.000,0.000,0.000,0.000,0.000,13,13,4*7B
$GPGGA,033300.60,3135.6072369,N,12046.6084799,E,4,13,1.8,2.4489,M,8.310,M,00,0004*6D
$GPHPD,0,0.000,142.42,-0.34,-15.10,31.5934539,120.7768080,2.449,13629645.444,24924022.107,2.449,0.000,0.000,0.000,0.000,0.000,0.000,0.000,13,13,4*7E
$GPGGA,033300.80,3135.6071220,N,12046.6085776,E,4,13,1.8,2.4572,M,8.310,M,00,0004*69
$GPHPD,0,0.000,142.51,0.04,-15.07,31.5934520,120.7768096,2.457,13629647.274,24924023.954,2.457,0.000,0.000,0.000,0.000,0.000,0.000,0.000,13,13,4*53
$GPGGA,033301.00,3135.6070066,N,12046.6086763,E,4,13,1.8,2.4638,M,8.310,M,01,0004*6A
$GPHPD,0,0.000,142.60,0.66,-15.04,31.5934501,120.7768113,2.464,13629649.113,24924025.816,2.464,0.000,0.000,0.000,0.000,0.000,0.000,0.000,13,13,4*54
$GPGGA,033301.20,3135.6068953,N,12046.6087775,E,4,13,1.8,2.4764,M,8.310,M,01,0004*60
$GPHPD,0,0.000,142.61,1.42,-15.05,31.5934483,120.7768130,2.476,13629650.898,24924027.684,2.476,0.000,0.000,0.000,0.000,0.000,0.000,0.000,13,13,4*5C
$GPGGA,033301.40,3135.6067872,N,12046.6088750,E,4,15,1.5,2.4818,M,8.310,M,01,0004*6C
$GPHPD,0,0.000,142.49,0.89,-15.05,31.5934465,120.7768146,2.482,13629652.631,24924029.490,2.482,0.000,0.000,0.000,0.000,0.000,0.000,0.000,15,15,4*5F
$GPGGA,033301.60,3135.6066708,N,12046.6089690,E,4,15,1.5,2.4772,M,8.310,M,00,0004*63
$GPHPD,0,0.000,142.45,0.91,-15.07,31.5934445,120.7768162,2.477,13629654.474,24924031.301,2.477,0.000,0.000,0.000,0.000,0.000,0.000,0.000,15,15,4*5F
$GPGGA,033301.80,3135.6065616,N,12046.6090707,E,4,15,1.5,2.4723,M,8.310,M,00,0004*63
$GPHPD,0,0.000,141.88,0.87,-15.10,31.5934427,120.7768178,2.472,13629656.231,24924033.163,2.472,0.000,0.000,0.000,0.000,0.000,0.000,0.000,15,15,4*52
$GPGGA,033302.00,3135.6064516,N,12046.6091654,E,4,15,1.5,2.4882,M,8.310,M,01,0004*69
$GPHPD,0,0.000,141.95,1.47,-15.15,31.5934409,120.7768194,2.488,13629657.985,24924034.945,2.488,0.000,0.000,0.000,0.000,0.000,0.000,0.000,15,15,4*56
$GPGGA,033302.20,3135.6063409,N,12046.6092662,E,4,15,1.5,2.5027,M,8.310,M,01,0004*63
$GPHPD,0,0.000,141.59,0.29,-15.16,31.5934390,120.7768211,2.503,13629659.761,24924036.805,2.503,0.000,0.000,0.000,0.000,0.000,0.000,0.000,15,15,4*58
$GPGGA,033302.40,3135.6062280,N,12046.6093668,E,4,16,1.5,2.5042,M,8.310,M,01,0004*68
$GPHPD,0,0.000,141.42,-0.10,-15.18,31.5934371,120.7768228,2.504,13629661.568,24924038.676,2.504,0.000,0.000,0.000,0.000,0.000,0.000,0.000,16,16,4*7A
$GPGGA,033302.60,3135.6061157,N,12046.6094623,E,4,16,1.5,2.4992,M,8.311,M,00,0004*6D
$GPHPD,0,0.000,141.26,0.25,-15.18,31.5934353,120.7768244,2.499,13629663.356,24924040.481,2.499,0.000,0.000,0.000,0.000,0.000,0.000,0.000,16,16,4*55
$GPGGA,033302.80,3135.6060018,N,12046.6095640,E,4,16,1.4,2.5147,M,8.311,M,00,0004*6C
$GPHPD,0,0.000,141.03,-0.24,-15.18,31.5934334,120.7768261,2.515,13629665.180,24924042.371,2.515,0.000,0.000,0.000,0.000,0.000,0.000,0.000,16,16,4*7D
$GPGGA,033303.00,3135.6058947,N,12046.6096696,E,4,16,1.4,2.5018,M,8.311,M,01,0004*6F
$GPHPD,0,0.000,140.97,0.04,-15.19,31.5934316,120.7768278,2.502,13629666.914,24924044.267,2.502,0.000,0.000,0.000,0.000,0.000,0.000,0.000,16,16,4*51
$GPGGA,033303.20,3135.6057830,N,12046.6097704,E,4,16,1.4,2.4890,M,8.311,M,01,0004*61
$GPHPD,0,0.000,141.19,-0.18,-15.19,31.5934297,120.7768295,2.489,13629668.705,24924046.133,2.489,0.000,0.000,0.000,0.000,0.000,0.000,0.000,16,16,4*7D
$GPGGA,033303.40,3135.6056688,N,12046.6098770,E,4,16,1.4,2.4954,M,8.311,M,01,0004*6E
$GPHPD,0,0.000,141.13,0.12,-15.16,31.5934278,120.7768313,2.495,13629670.542,24924048.084,2.495,0.000,0.000,0.000,0.000,0.000,0.000,0.000,16,16,4*5A
$GPGGA,033303.60,3135.6055575,N,12046.6099746,E,4,16,1.4,2.5060,M,8.311,M,00,0004*64
$GPHPD,0,0.000,140.83,-0.35,-15.15,31.5934260,120.7768329,2.506,13629672.320,24924049.909,2.506,0.000,0.000,0.000,0.000,0.000,0.000,0.000,16,16,4*74
$GPGGA,033303.80,3135.6054457,N,12046.6100791,E,4,16,1.4,2.5057,M,8.311,M,00,0004*65
$GPHPD,0,0.000,141.08,-0.22,-15.12,31.5934241,120.7768347,2.506,13629674.120,24924051.820,2.506,0.000,0.000,0.000,0.000,0.000,0.000,0.000,16,15,4*78
$GPGGA,033304.00,3135.6053348,N,12046.6101833,E,4,16,1.4,2.5025,M,8.311,M,01,0004*66
$GPHPD,0,0.000,140.52,-0.75,-15.09,31.5934222,120.7768364,2.503,13629675.905,24924053.722,2.503,0.000,0.000,0.000,0.000,0.000,0.000,0.000,16,15,4*7B
$GPGGA,033304.20,3135.6052214,N,12046.6102873,E,4,16,1.4,2.4979,M,8.311,M,01,0004*6B
$GPHPD,0,0.000,140.80,-0.83,-15.06,31.5934204,120.7768381,2.498,13629677.726,24924055.636,2.498,0.000,0.000,0.000,0.000,0.000,0.000,0.000,16,15,4*72
$GPGGA,033304.40,3135.6051065,N,12046.6103888,E,4,16,1.4,2.5054,M,8.311,M,01,0004*68
$GPHPD,0,0.000,141.00,-0.68,-15.01,31.5934184,120.7768398,2.505,13629679.564,24924057.529,2.505,0.000,0.000,0.000,0.000,0.000,0.000,0.000,16,15,4*7F
$GPGGA,033304.60,3135.6049941,N,12046.6104907,E,4,16,1.4,2.5113,M,8.311,M,00,0004*6E
$GPHPD,0,0.000,140.91,-0.67,-14.99,31.5934166,120.7768415,2.511,13629681.366,24924059.412,2.511,0.000,0.000,0.000,0.000,0.000,0.000,0.000,16,15,4*73
$GPGGA,033304.80,3135.6048773,N,12046.6105917,E,4,16,1.4,2.5226,M,8.311,M,00,0004*6B
$GPHPD,0,0.000,141.31,-0.82,-14.99,31.5934146,120.7768432,2.523,13629683.229,24924061.310,2.523,0.000,0.000,0.000,0.000,0.000,0.000,0.000,16,15,4*72
$GPGGA,033305.00,3135.6047632,N,12046.6106976,E,4,16,1.3,2.5236,M,8.311,M,01,0004*6A
$GPHPD,0,0.000,141.45,-0.84,-14.97,31.5934127,120.7768450,2.524,13629685.064,24924063.251,2.524,0.000,0.000,0.000,0.000,0.000,0.000,0.000,16,15,4*71
$GPGGA,033305.20,3135.6046475,N,12046.6108031,E,4,16,1.3,2.5149,M,8.311,M,01,0004*67
$GPHPD,0,0.000,141.79,0.24,-14.96,31.5934108,120.7768467,2.515,13629686.921,24924065.197,2.515,0.000,0.000,0.000,0.000,0.000,0.000,0.000,16,14,4*54
$GPGGA,033305.40,3135.6045371,N,12046.6109027,E,4,16,1.4,2.4967,M,8.311,M,01,0004*65
$GPHPD,0,0.000,141.67,0.34,-14.96,31.5934090,120.7768484,2.497,13629688.690,24924067.041,2.497,0.000,0.000,0.000,0.000,0.000,0.000,0.000,16,14,4*54
$GPGGA,033305.60,3135.6044276,N,12046.6110070,E,4,16,1.4,2.5221,M,8.311,M,00,0004*63
$GPHPD,0,0.000,141.68,0.12,-14.96,31.5934071,120.7768501,2.522,13629690.456,24924068.936,2.522,0.000,0.000,0.000,0.000,0.000,0.000,0.000,16,14,4*5B
$GPGGA,033305.80,3135.6043115,N,12046.6111065,E,4,16,1.4,2.5109,M,8.311,M,00,0004*60
$GPHPD,0,0.000,142.11,0.75,-14.98,31.5934052,120.7768518,2.511,13629692.307,24924070.812,2.511,0.000,0.000,0.000,0.000,0.000,0.000,0.000,16,14,4*5F
$GPGGA,033306.00,3135.6041984,N,12046.6112070,E,4,16,1.5,2.5134,M,8.311,M,01,0004*60
$GPHPD,0,0.000,141.72,0.58,-15.00,31.5934033,120.7768535,2.513,13629694.116,24924072.682,2.513,0.000,0.000,0.000,0.000,0.000,0.000,0.000,16,14,4*5F
$GPGGA,033306.20,3135.6040863,N,12046.6113110,E,4,16,1.4,2.5064,M,8.311,M,01,0004*68
$GPHPD,0,0.000,141.37,0.34,-15.03,31.5934014,120.7768552,2.506,13629695.919,24924074.589,2.506,0.000,0.000,0.000,0.000,0.000,0.000,0.000,16,14,4*5B
$GPGGA,033306.40,3135.6039755,N,12046.6114128,E,4,16,1.5,2.5099,M,8.311,M,01,0004*65
$GPHPD,0,0.000,141.59,0.36,-15.07,31.5933996,120.7768569,2.510,13629697.698,24924076.462,2.510,0.000,0.000,0.000,0.000,0.000,0.000,0.000,16,14,4*5B
$GPGGA,033306.60,3135.6038566,N,12046.6115172,E,4,16,1.4,2.5184,M,8.311,M,00,0004*67
$GPHPD,0,0.000,141.27,0.08,-15.11,31.5933976,120.7768586,2.518,13629699.598,24924078.413,2.518,0.000,0.000,0.000,0.000,0.000,0.000,0.000,16,14,4*52
$GPGGA,033306.80,3135.6037471,N,12046.6116213,E,4,16,1.4,2.5125,M,8.311,M,00,0004*6D
$GPHPD,0,0.000,141.44,0.93,-15.11,31.5933958,120.7768604,2.513,13629701.364,24924080.306,2.513,0.000,0.000,0.000,0.000,0.000,0.000,0.000,16,14,4*51
$GPGGA,033307.00,3135.6036306,N,12046.6117249,E,4,16,1.4,2.5168,M,8.311,M,01,0004*64
$GPHPD,0,0.000,140.99,-0.34,-15.13,31.5933938,120.7768621,2.517,13629703.228,24924082.233,2.517,0.000,0.000,0.000,0.000,0.000,0.000,0.000,16,14,4*7D
$GPGGA,033307.20,3135.6035199,N,12046.6118235,E,4,16,1.4,2.5293,M,8.311,M,01,0004*62
$GPHPD,0,0.000,140.93,0.26,-15.13,31.5933920,120.7768637,2.529,13629705.000,24924084.067,2.529,0.000,0.000,0.000,0.000,0.000,0.000,0.000,16,14,4*5C
$GPGGA,033307.40,3135.6034110,N,12046.6119270,E,4,16,1.4,2.5300,M,8.311,M,01,0004*6F
$GPHPD,0,0.000,140.89,0.28,-15.14,31.5933902,120.7768655,2.530,13629706.756,24924085.949,2.530,0.000,0.000,0.000,0.000,0.000,0.000,0.000,16,14,4*59
$GPGGA,033307.60,3135.6032973,N,12046.6120289,E,4,16,1.3,2.5468,M,8.311,M,01,0004*64
$GPHPD,0,0.000,141.03,0.64,-15.14,31.5933883,120.7768671,2.547,13629708.577,24924087.839,2.547,0.000,0.000,0.000,0.000,0.000,0.000,0.000,16,16,4*55
$GPGGA,033307.80,3135.6031875,N,12046.6121338,E,4,16,1.3,2.5328,M,8.311,M,01,0004*67
$GPHPD,0,0.000,141.17,0.01,-15.15,31.5933865,120.7768689,2.533,13629710.349,24924089.744,2.533,0.000,0.000,0.000,0.000,0.000,0.000,0.000,16,16,4*54
$GPGGA,033308.00,3135.6030774,N,12046.6122373,E,4,16,1.3,2.5234,M,8.311,M,02,0004*6C
$GPHPD,0,0.000,141.10,-0.28,-15.15,31.5933846,120.7768706,2.523,13629712.122,24924091.633,2.523,0.000,0.000,0.000,0.000,0.000,0.000,0.000,16,16,4*77
$GPGGA,033308.20,3135.6029667,N,12046.6123371,E,4,16,1.3,2.5212,M,8.311,M,02,0004*62
$GPHPD,0,0.000,140.84,-0.38,-15.13,31.5933828,120.7768723,2.521,13629713.896,24924093.481,2.521,0.000,0.000,0.000,0.000,0.000,0.000,0.000,16,16,4*7D
$GPGGA,033308.40,3135.6028579,N,12046.6124379,E,4,16,1.3,2.5197,M,8.311,M,02,0004*68
$GPHPD,0,0.000,140.85,0.46,-15.11,31.5933810,120.7768740,2.520,13629715.645,24924095.330,2.520,0.000,0.000,0.000,0.000,0.000,0.000,0.000,16,16,4*59
$GPGGA,033308.60,3135.6027432,N,12046.6125415,E,4,16,1.3,2.5221,M,8.311,M,02,0004*69
$GPHPD,0,0.000,140.71,-0.14,-15.10,31.5933791,120.7768757,2.522,13629717.484,24924097.247,2.522,0.000,0.000,0.000,0.000,0.000,0.000,0.000,16,16,4*77
$GPGGA,033308.80,3135.6026363,N,12046.6126430,E,4,16,1.3,2.5071,M,8.311,M,02,0004*66
$GPHPD,0,0.000,140.35,-0.26,-15.09,31.5933773,120.7768774,2.507,13629719.207,24924099.093,2.507,0.000,0.000,0.000,0.000,0.000,0.000,0.000,16,16,4*75
$GPGGA,033309.00,3135.6025284,N,12046.6127435,E,4,16,1.3,2.5076,M,8.311,M,03,0004*66
$GPHPD,0,0.000,140.88,0.41,-15.06,31.5933755,120.7768791,2.508,13629720.943,24924100.933,2.508,0.000,0.000,0.000,0.000,0.000,0.000,0.000,16,16,4*5C
$GPGGA,033309.20,3135.6024176,N,12046.6128445,E,4,16,1.3,2.5000,M,8.311,M,03,0004*62
$GPHPD,0,0.000,140.77,-0.37,-15.05,31.5933736,120.7768807,2.500,13629722.721,24924102.796,2.500,0.000,0.000,0.000,0.000,0.000,0.000,0.000,16,15,4*7E
$GPGGA,033309.40,3135.6023094,N,12046.6129476,E,4,16,1.3,2.5080,M,8.311,M,03,0004*67
$GPHPD,0,0.000,140.85,0.09,-15.04,31.5933718,120.7768825,2.508,13629724.466,24924104.669,2.508,0.000,0.000,0.000,0.000,0.000,0.000,0.000,16,15,4*5F
$GPGGA,033309.60,3135.6021951,N,12046.6130514,E,4,16,1.3,2.5276,M,8.311,M,00,0004*62
$GPHPD,0,0.000,141.07,-0.11,-15.04,31.5933699,120.7768842,2.528,13629726.299,24924106.586,2.528,0.000,0.000,0.000,0.000,0.000,0.000,0.000,16,15,4*7D
$GPGGA,033309.80,3135.6020800,N,12046.6131543,E,4,16,1.3,2.5329,M,8.311,M,00,0004*60
$GPHPD,0,0.000,140.75,-0.14,-15.05,31.5933680,120.7768859,2.533,13629728.142,24924108.497,2.533,0.000,0.000,0.000,0.000,0.000,0.000,0.000,16,15,4*7B
$GPGGA,033310.00,3135.6019650,N,12046.6132507,E,4,16,1.3,2.5215,M,8.311,M,01,0004*6D
$GPHPD,0,0.000,141.16,-0.08,-15.06,31.5933661,120.7768875,2.522,13629729.971,24924110.329,2.522,0.000,0.000,0.000,0.000,0.000,0.000,0.000,16,15,4*72
$GPGGA,033310.20,3135.6018538,N,12046.6133570,E,4,16,1.4,2.5193,M,8.311,M,01,0004*68
$GPHPD,0,0.000,141.08,0.03,-15.06,31.5933642,120.7768893,2.519,13629731.765,24924112.259,2.519,0.000,0.000,0.000,0.000,0.000,0.000,0.000,16,15,4*54
$GPGGA,033310.40,3135.6017442,N,12046.6134571,E,4,15,1.4,2.5167,M,8.311,M,01,0004*63
$GPHPD,0,0.000,141.23,0.82,-15.06,31.5933624,120.7768910,2.517,13629733.524,24924114.104,2.517,0.000,0.000,0.000,0.000,0.000,0.000,0.000,15,15,4*55
$GPGGA,033310.60,3135.6016335,N,12046.6135582,E,4,15,1.4,2.5211,M,8.311,M,00,0004*69
$GPHPD,0,0.000,140.85,0.35,-15.07,31.5933606,120.7768926,2.521,13629735.301,24924115.967,2.521,0.000,0.000,0.000,0.000,0.000,0.000,0.000,15,15,4*5B
$GPGGA,033310.80,3135.6015238,N,12046.6136611,E,4,15,1.4,2.5394,M,8.311,M,00,0004*6E
$GPHPD,0,0.000,141.21,0.56,-15.09,31.5933587,120.7768944,2.539,13629737.067,24924117.847,2.539,0.000,0.000,0.000,0.000,0.000,0.000,0.000,15,15,4*51
$GPGGA,033311.00,3135.6014085,N,12046.6137642,E,4,15,1.4,2.5484,M,8.311,M,01,0004*62
$GPHPD,0,0.000,141.53,1.09,-15.09,31.5933568,120.7768961,2.548,13629738.913,24924119.761,2.548,0.000,0.000,0.000,0.000,0.000,0.000,0.000,15,15,4*59
$GPGGA,033311.20,3135.6013010,N,12046.6138624,E,4,15,1.4,2.5587,M,8.311,M,01,0004*66
$GPHPD,0,0.000,141.79,0.31,-15.11,31.5933550,120.7768977,2.559,13629740.639,24924121.571,2.559,0.000,0.000,0.000,0.000,0.000,0.000,0.000,15,15,4*5E
$GPGGA,033311.40,3135.6011879,N,12046.6139632,E,4,15,1.4,2.5400,M,8.311,M,01,0004*6D
$GPHPD,0,0.000,141.41,0.14,-15.12,31.5933531,120.7768994,2.540,13629742.449,24924123.445,2.540,0.000,0.000,0.000,0.000,0.000,0.000,0.000,15,15,4*58
$GPGGA,033311.60,3135.6010805,N,12046.6140650,E,4,15,1.4,2.5329,M,8.311,M,00,0004*62
$GPHPD,0,0.000,141.34,-0.61,-15.14,31.5933513,120.7769011,2.533,13629744.180,24924125.298,2.533,0.000,0.000,0.000,0.000,0.000,0.000,0.000,15,15,4*70
$GPGGA,033311.80,3135.6009652,N,12046.6141687,E,4,15,1.4,2.5554,M,8.311,M,00,0004*6F
$GPHPD,0,0.000,141.40,-0.99,-15.15,31.5933494,120.7769028,2.555,13629746.028,24924127.220,2.555,0.000,0.000,0.000,0.000,0.000,0.000,0.000,15,15,4*71
