0.000,0.000,17,17,4*77
$GPGGA,033556.80,3135.5591643,N,12046.6512393,E,4,17,1.1,2.8905,M,8.314,M,00,0004*68
$GPHPD,0,0.000,147.59,0.22,-15.91,31.5926527,120.7775207,2.891,13630414.734,24924817.610,2.891,0.000,0.000,0.000,0.000,0.000,0.000,0.000,17,17,4*5A
$GPGGA,033557.00,3135.5591650,N,12046.6512404,E,4,17,1.1,2.8902,M,8.314,M,01,0004*6C
$GPHPD,0,0.000,147.64,0.51,-15.89,31.5926528,120.7775207,2.890,13630414.726,24924817.619,2.890,0.000,0.000,0.000,0.000,0.000,0.000,0.000,17,17,4*5C
$GPGGA,033557.20,3135.5591647,N,12046.6512397,E,4,17,1.1,2.8885,M,8.314,M,01,0004*6B
$GPHPD,0,0.000,147.62,0.40,-15.87,31.5926527,120.7775207,2.889,13630414.729,24924817.612,2.889,0.000,0.000,0.000,0.000,0.000,0.000,0.000,17,17,4*5F
$GPGGA,033557.40,3135.5591662,N,12046.6512404,E,4,17,1.1,2.8932,M,8.314,M,01,0004*6A
$GPHPD,0,0.000,147.49,0.02,-15.85,31.5926528,120.7775207,2.893,13630414.709,24924817.612,2.893,0.000,0.000,0.000,0.000,0.000,0.000,0.000,17,17,4*5F
$GPGGA,033557.60,3135.5591679,N,12046.6512402,E,4,17,1.1,2.8918,M,8.314,M,00,0004*6D
$GPHPD,0,0.000,147.60,-0.22,-15.83,31.5926528,120.7775207,2.892,13630414.685,24924817.600,2.892,0.000,0.000,0.000,0.000,0.000,0.000,0.000,17,17,4*7B
$GPGGA,033557.80,3135.5591682,N,12046.6512386,E,4,17,1.1,2.8932,M,8.314,M,00,0004*64
$GPHPD,0,0.000,147.69,0.08,-15.81,31.5926528,120.7775206,2.893,13630414.677,24924817.579,2.893,0.000,0.000,0.000,0.000,0.000,0.000,0.000,17,17,4*54
$GPGGA,033558.00,3135.5591680,N,12046.6512407,E,4,17,1.1,2.8922,M,8.314,M,01,0004*6F
$GPHPD,0,0.000,147.61,0.04,-15.79,31.5926528,120.7775207,2.892,13630414.684,24924817.605,2.892,0.000,0.000,0.000,0.000,0.000,0.000,0.000,17,17,4*52
$GPGGA,033558.20,3135.5591683,N,12046.6512385,E,4,17,1.1,2.8957,M,8.314,M,01,0004*61
$GPHPD,0,0.000,147.71,-0.08,-15.77,31.5926528,120.7775206,2.896,13630414.675,24924817.577,2.896,0.000,0.000,0.000,0.000,0.000,0.000,0.000,17,17,4*75
$GPGGA,033558.40,3135.5591675,N,12046.6512399,E,4,17,1.1,2.9006,M,8.314,M,01,0004*6F
$GPHPD,0,0.000,147.59,-0.27,-15.75,31.5926528,120.7775207,2.901,13630414.690,24924817.598,2.901,0.000,0.000,0.000,0.000,0.000,0.000,0.000,17,17,4*7B
$GPGGA,033558.60,3135.5591640,N,12046.6512389,E,4,17,1.1,2.8893,M,8.314,M,00,0004*6E
$GPHPD,0,0.000,147.55,0.15,-15.72,31.5926527,120.7775206,2.889,13630414.737,24924817.607,2.889,0.000,0.000,0.000,0.000,0.000,0.000,0.000,17,17,4*5B
$GPGGA,033558.80,3135.5591642,N,12046.6512389,E,4,17,1.1,2.8859,M,8.314,M,00,0004*64
$GPHPD,0,0.000,147.55,0.22,-15.70,31.5926527,120.7775206,2.886,13630414.734,24924817.606,2.886,0.000,0.000,0.000,0.000,0.000,0.000,0.000,17,17,4*5F
$GPGGA,033559.00,3135.5591644,N,12046.6512403,E,4,17,1.1,2.8858,M,8.314,M,01,0004*6E
$GPHPD,0,0.000,147.58,0.32,-15.67,31.5926527,120.7775207,2.886,13630414.734,24924817.621,2.886,0.000,0.000,0.000,0.000,0.000,0.000,0.000,17,17,4*51
$GPGGA,033559.20,3135.5591641,N,12046.6512385,E,4,17,1.1,2.8823,M,8.314,M,01,0004*6C
$GPHPD,0,0.000,147.61,0.35,-15.65,31.5926527,120.7775206,2.882,13630414.735,24924817.601,2.882,0.000,0.000,0.000,0.000,0.000,0.000,0.000,17,17,4*5C
$GPGGA,033559.40,3135.5591632,N,12046.6512389,E,4,17,1.1,2.8849,M,8.314,M,01,0004*6E
$GPHPD,0,0.000,147.52,0.52,-15.64,31.5926527,120.7775206,2.885,13630414.749,24924817.611,2.885,0.000,0.000,0.000,0.000,0.000,0.000,0.000,17,17,4*56
$GPGGA,033559.60,3135.5591633,N,12046.6512398,E,4,17,1.1,2.8899,M,8.314,M,00,0004*61
$GPHPD,0,0.000,147.52,0.37,-15.62,31.5926527,120.7775207,2.890,13630414.749,24924817.622,2.890,0.000,0.000,0.000,0.000,0.000,0.000,0.000,17,17,4*52
$GPGGA,033559.80,3135.5591599,N,12046.6512410,E,4,17,1.1,2.8889,M,8.314,M,00,0004*6A
$GPHPD,0,0.000,147.49,0.07,-15.64,31.5926527,120.7775207,2.889,13630414.800,24924817.656,2.889,0.000,0.000,0.000,0.000,0.000,0.000,0.000,17,17,4*5C
$GPGGA,033600.00,3135.5591534,N,12046.6512452,E,4,17,1.1,2.8821,M,8.314,M,01,0004*6F
$GPHPD,0,0.000,147.48,0.18,-15.69,31.5926526,120.7775208,2.882,13630414.901,24924817.744,2.882,0.000,0.000,0.000,0.000,0.000,0.000,0.000,17,17,4*52
$GPGGA,033600.20,3135.5591411,N,12046.6512539,E,4,17,1.1,2.8846,M,8.314,M,01,0004*66
$GPHPD,0,0.000,147.41,0.45,-15.76,31.5926524,120.7775209,2.885,13630415.093,24924817.921,2.885,0.000,0.000,0.000,0.000,0.000,0.000,0.000,17,17,4*50
$GPGGA,033600.40,3135.5591219,N,12046.6512661,E,4,17,1.1,2.8800,M,8.314,M,01,0004*62
$GPHPD,0,0.000,147.50,0.15,-15.83,31.5926520,120.7775211,2.880,13630415.390,24924818.180,2.880,0.000,0.000,0.000,0.000,0.000,0.000,0.000,17,17,4*5E
$GPGGA,033600.60,3135.5590967,N,12046.6512874,E,4,17,1.1,2.8827,M,8.314,M,00,0004*6D
$GPHPD,0,0.000,147.55,0.27,-15.90,31.5926516,120.7775215,2.883,13630415.791,24924818.583,2.883,0.000,0.000,0.000,0.000,0.000,0.000,0.000,17,17,4*5B
$GPGGA,033600.80,3135.5590616,N,12046.6513107,E,4,17,1.1,2.8859,M,8.314,M,00,0004*6F
$GPHPD,0,0.000,147.67,0.67,-15.97,31.5926510,120.7775218,2.886,13630416.337,24924819.069,2.886,0.000,0.000,0.000,0.000,0.000,0.000,0.000,17,17,4*59
$GPGGA,033601.00,3135.5590165,N,12046.6513414,E,4,17,1.1,2.8878,M,8.314,M,01,0004*60
$GPHPD,0,0.000,147.82,0.24,-16.04,31.5926503,120.7775224,2.888,13630417.040,24924819.701,2.888,0.000,0.000,0.000,0.000,0.000,0.000,0.000,17,17,4*5A
$GPGGA,033601.20,3135.5589653,N,12046.6513780,E,4,17,1.1,2.8898,M,8.314,M,01,0004*68
$GPHPD,0,0.000,147.93,-0.07,-16.10,31.5926494,120.7775230,2.890,13630417.841,24924820.441,2.890,0.000,0.000,0.000,0.000,0.000,0.000,0.000,17,17,4*7D
$GPGGA,033601.40,3135.5589058,N,12046.6514199,E,4,17,1.2,2.8831,M,8.314,M,01,0004*6A
$GPHPD,0,0.000,148.10,0.46,-16.14,31.5926484,120.7775237,2.883,13630418.771,24924821.293,2.883,0.000,0.000,0.000,0.000,0.000,0.000,0.000,17,17,4*58
$GPGGA,033601.60,3135.5588333,N,12046.6514697,E,4,17,1.1,2.8934,M,8.314,M,00,0004*68
$GPHPD,0,0.000,148.49,0.18,-16.17,31.5926472,120.7775245,2.893,13630419.902,24924822.315,2.893,0.000,0.000,0.000,0.000,0.000,0.000,0.000,17,17,4*57
$GPGGA,033601.80,3135.5587526,N,12046.6515249,E,4,17,1.1,2.8957,M,8.314,M,00,0004*68
$GPHPD,0,0.000,148.83,0.39,-16.19,31.5926459,120.7775254,2.896,13630421.160,24924823.451,2.896,0.000,0.000,0.000,0.000,0.000,0.000,0.000,17,17,4*54
$GPGGA,033602.00,3135.5586645,N,12046.6515837,E,4,17,1.1,2.8862,M,8.314,M,01,0004*61
$GPHPD,0,0.000,149.19,-0.20,-16.18,31.5926444,120.7775264,2.886,13630422.531,24924824.673,2.886,0.000,0.000,0.000,0.000,0.000,0.000,0.000,17,17,4*7B
$GPGGA,033602.20,3135.5585684,N,12046.6516460,E,4,17,1.1,2.8941,M,8.314,M,01,0004*60
$GPHPD,0,0.000,149.82,0.12,-16.16,31.5926428,120.7775274,2.894,13630424.022,24924825.983,2.894,0.000,0.000,0.000,0.000,0.000,0.000,0.000,17,17,4*50
$GPGGA,033602.40,3135.5584677,N,12046.6517100,E,4,17,1.1,2.8964,M,8.314,M,01,0004*6E
$GPHPD,0,0.000,150.34,0.07,-16.11,31.5926411,120.7775285,2.896,13630425.582,24924827.342,2.896,0.000,0.000,0.000,0.000,0.000,0.000,0.000,17,17,4*59
$GPGGA,033602.60,3135.5583642,N,12046.6517700,E,4,17,1.1,2.8969,M,8.314,M,00,0004*67
$GPHPD,0,0.000,150.88,-0.12,-16.05,31.5926394,120.7775295,2.897,13630427.174,24924828.668,2.897,0.000,0.000,0.000,0.000,0.000,0.000,0.000,17,17,4*74
$GPGGA,033602.80,3135.5582583,N,12046.6518329,E,4,17,1.1,2.8900,M,8.314,M,00,0004*69
$GPHPD,0,0.000,151.39,-0.22,-15.97,31.5926376,120.7775305,2.890,13630428.806,24924830.043,2.890,0.000,0.000,0.000,0.000,0.000,0.000,0.000,17,17,4*75
$GPGGA,033603.00,3135.5581554,N,12046.6518936,E,4,17,1.1,2.8923,M,8.314,M,01,0004*6D
$GPHPD,0,0.000,151.98,-0.06,-15.88,31.5926359,120.7775316,2.892,13630430.390,24924831.374,2.892,0.000,0.000,0.000,0.000,0.000,0.000,0.000,17,17,4*72
$GPGGA,033603.20,3135.5580570,N,12046.6519511,E,4,17,1.1,2.8940,M,8.314,M,01,0004*65
$GPHPD,0,0.000,152.48,0.10,-15.79,31.5926343,120.7775325,2.894,13630431.905,24924832.640,2.894,0.000,0.000,0.000,0.000,0.000,0.000,0.000,17,17,4*55
$GPGGA,033603.40,3135.5579604,N,12046.6520056,E,4,17,1.1,2.8938,M,8.314,M,01,0004*66
$GPHPD,0,0.000,153.11,0.04,-15.72,31.5926327,120.7775334,2.894,13630433.387,24924833.860,2.894,0.000,0.000,0.000,0.000,0.000,0.000,0.000,17,17,4*5B
$GPGGA,033603.60,3135.5578677,N,12046.6520553,E,4,17,1.1,2.8924,M,8.314,M,00,0004*6D
$GPHPD,0,0.000,153.86,0.13,-15.66,31.5926311,120.7775343,2.892,13630434.805,24924834.999,2.892,0.000,0.000,0.000,0.000,0.000,0.000,0.000,17,17,4*55
$GPGGA,033603.80,3135.5577785,N,12046.6521049,E,4,17,1.1,2.8915,M,8.314,M,00,0004*6D
$GPHPD,0,0.000,154.12,0.03,-15.61,31.5926296,120.7775351,2.892,13630436.172,24924836.116,2.892,0.000,0.000,0.000,0.000,0.000,0.000,0.000,17,17,4*52
$GPGGA,033604.00,3135.5576902,N,12046.6521513,E,4,17,1.1,2.8951,M,8.314,M,01,0004*69
$GPHPD,0,0.000,154.77,0.27,-15.57,31.5926282,120.7775359,2.895,13630437.521,24924837.190,2.895,0.000,0.000,0.000,0.000,0.000,0.000,0.000,17,17,4*53
$GPGGA,033604.20,3135.5576017,N,12046.6521943,E,4,17,1.1,2.8886,M,8.314,M,01,0004*64
$GPHPD,0,0.000,155.36,-0.02,-15.54,31.5926267,120.7775366,2.889,13630438.865,24924838.224,2.889,0.000,0.000,0.000,0.000,0.000,0.000,0.000,17,17,4*78
$GPGGA,033604.40,3135.5575153,N,12046.6522394,E,4,17,1.1,2.8826,M,8.314,M,01,0004*69
$GPHPD,0,0.000,155.63,0.18,-15.51,31.5926253,120.7775373,2.883,13630440.184,24924839.270,2.883,0.000,0.000,0.000,0.000,0.000,0.000,0.000,17,17,4*51
$GPGGA,033604.60,3135.5574290,N,12046.6522816,E,4,17,1.1,2.8903,M,8.314,M,00,0004*60
$GPHPD,0,0.000,156.19,0.11,-15.49,31.5926238,120.7775380,2.890,13630441.496,24924840.282,2.890,0.000,0.000,0.000,0.000,0.000,0.000,0.000,17,17,4*5A
$GPGGA,033604.80,3135.5573448,N,12046.6523204,E,4,17,1.1,2.8805,M,8.314,M,00,0004*65
$GPHPD,0,0.000,156.66,0.17,-15.48,31.5926224,120.7775387,2.881,13630442.770,24924841.240,2.881,0.000,0.000,0.000,0.000,0.000,0.000,0.000,17,17,4*58
$GPGGA,033605.00,3135.5572596,N,12046.6523577,E,4,17,1.1,2.8710,M,8.314,M,01,0004*66
$GPHPD,0,0.000,157.08,0.26,-15.48,31.5926210,120.7775393,2.871,13630444.057,24924842.186,2.871,0.000,0.000,0.000,0.000,0.000,0.000,0.000,17,17,4*5F
$GPGGA,033605.20,3135.5571745,N,12046.6523950,E,4,17,1.1,2.8790,M,8.314,M,01,0004*6A
$GPHPD,0,0.000,157.54,0.36,-15.49,31.5926196,120.7775399,2.879,13630445.341,24924843.131,2.879,0.000,0.000,0.000,0.000,0.000,0.000,0.000,17,17,4*59
$GPGGA,033605.40,3135.5570899,N,12046.6524336,E,4,17,1.1,2.8816,M,8.314,M,01,0004*6F
$GPHPD,0,0.000,157.94,0.23,-15.49,31.5926182,120.7775406,2.882,13630446.621,24924844.089,2.882,0.000,0.000,0.000,0.000,0.000,0.000,0.000,17,17,4*50
$GPGGA,033605.60,3135.5570045,N,12046.6524683,E,4,17,1.1,2.8814,M,8.314,M,01,0004*6D
$GPHPD,0,0.000,158.34,0.27,-15.50,31.5926167,120.7775411,2.881,13630447.905,24924845.005,2.881,0.000,0.000,0.000,0.000,0.000,0.000,0.000,17,17,4*59
$GPGGA,033605.80,3135.5569169,N,12046.6525043,E,4,17,1.1,2.8781,M,8.314,M,00,0004*6D
$GPHPD,0,0.000,158.84,0.32,-15.51,31.5926153,120.7775417,2.878,13630449.222,24924845.949,2.878,0.000,0.000,0.000,0.000,0.000,0.000,0.000,17,17,4*57
$GPGGA,033606.00,3135.5568290,N,12046.6525436,E,4,17,1.1,2.8861,M,8.314,M,01,0004*64
$GPHPD,0,0.000,159.25,0.47,-15.51,31.5926138,120.7775424,2.886,13630450.551,24924846.935,2.886,0.000,0.000,0.000,0.000,0.000,0.000,0.000,17,17,4*51
$GPGGA,033606.20,3135.5567379,N,12046.6525791,E,4,17,1.1,2.8798,M,8.314,M,01,0004*68
$GPHPD,0,0.000,159.67,0.09,-15.50,31.5926123,120.7775430,2.880,13630451.917,24924847.893,2.880,0.000,0.000,0.000,0.000,0.000,0.000,0.000,17,17,4*50
$GPGGA,033606.40,3135.5566423,N,12046.6526154,E,4,17,1.1,2.8795,M,8.314,M,01,0004*66
$GPHPD,0,0.000,160.17,0.51,-15.51,31.5926107,120.7775436,2.880,13630453.349,24924848.887,2.880,0.000,0.000,0.000,0.000,0.000,0.000,0.000,17,17,4*58
$GPGGA,033606.60,3135.5565458,N,12046.6526544,E,4,17,1.1,2.8881,M,8.314,M,00,0004*65
$GPHPD,0,0.000,160.68,0.46,-15.50,31.5926091,120.7775442,2.888,13630454.799,24924849.920,2.888,0.000,0.000,0.000,0.000,0.000,0.000,0.000,17,17,4*59
$GPGGA,033606.80,3135.5564397,N,12046.6526899,E,4,17,1.1,2.8894,M,8.314,M,00,0004*67
$GPHPD,0,0.000,161.29,0.10,-15.51,31.5926073,120.7775448,2.889,13630456.379,24924850.965,2.889,0.000,0.000,0.000,0.000,0.000,0.000,0.000,17,17,4*58
$GPGGA,033607.00,3135.5563319,N,12046.6527270,E,4,17,1.1,2.8967,M,8.314,M,01,0004*6F
$GPHPD,0,0.000,161.98,0.48,-15.55,31.5926055,120.7775455,2.897,13630457.985,24924852.040,2.897,0.000,0.000,0.000,0.000,0.000,0.000,0.000,17,17,4*57
$GPGGA,033607.20,3135.5562202,N,12046.6527658,E,4,17,1.1,2.8979,M,8.314,M,01,0004*66
$GPHPD,0,0.000,162.63,0.08,-15.57,31.5926037,120.7775461,2.898,13630459.651,24924853.159,2.898,0.000,0.000,0.000,0.000,0.000,0.000,0.000,17,17,4*55
$GPGGA,033607.40,3135.5561054,N,12046.6528040,E,4,17,1.1,2.8946,M,8.314,M,01,0004*6E
$GPHPD,0,0.000,163.46,0.19,-15.62,31.5926018,120.7775467,2.895,13630461.360,24924854.288,2.895,0.000,0.000,0.000,0.000,0.000,0.000,0.000,17,17,4*5A
$GPGGA,033607.60,3135.5559835,N,12046.6528388,E,4,17,1.1,2.8949,M,8.314,M,00,0004*61
$GPHPD,0,0.000,164.46,0.45,-15.68,31.5925997,120.7775473,2.895,13630463.162,24924855.417,2.895,0.000,0.000,0.000,0.000,0.000,0.000,0.000,17,17,4*55
$GPGGA,033607.80,3135.5558586,N,12046.6528701,E,4,17,1.1,2.8884,M,8.314,M,00,0004*6E
$GPHPD,0,0.000,165.52,0.31,-15.71,31.5925976,120.7775478,2.888,13630465.001,24924856.522,2.888,0.000,0.000,0.000,0.000,0.000,0.000,0.000,17,17,4*58
$GPGGA,033608.00,3135.5557330,N,12046.6528995,E,4,17,1.1,2.8907,M,8.314,M,01,0004*65
$GPHPD,0,0.000,166.43,0.25,-15.72,31.5925956,120.7775483,2.891,13630466.845,24924857.608,2.891,0.000,0.000,0.000,0.000,0.000,0.000,0.000,17,17,4*5A
$GPGGA,033608.20,3135.5556004,N,12046.6529279,E,4,17,1.1,2.8887,M,8.314,M,01,0004*63
$GPHPD,0,0.000,167.67,0.37,-15.71,31.5925933,120.7775488,2.889,13630468.787,24924858.722,2.889,0.000,0.000,0.000,0.000,0.000,0.000,0.000,17,17,4*5C
$GPGGA,033608.40,3135.5554701,N,12046.6529503,E,4,17,1.1,2.8916,M,8.314,M,01,0004*66
$GPHPD,0,0.000,168.75,0.31,-15.65,31.5925912,120.7775492,2.892,13630470.684,24924859.751,2.892,0.000,0.000,0.000,0.000,0.000,0.000,0.000,17,17,4*55
$GPGGA,033608.60,3135.5553358,N,12046.6529746,E,4,17,1.1,2.8976,M,8.314,M,00,0004*6F
$GPHPD,0,0.000,169.76,0.57,-15.64,31.5925889,120.7775496,2.898,13630472.642,24924860.826,2.898,0.000,0.000,0.000,0.000,0.000,0.000,0.000,17,17,4*5C
$GPGGA,033608.80,3135.5552033,N,12046.6529979,E,4,17,1.1,2.8951,M,8.314,M,00,0004*69
$GPHPD,0,0.000,170.88,0.31,-15.63,31.5925867,120.7775500,2.895,13630474.572,24924861.878,2.895,0.000,0.000,0.000,0.000,0.000,0.000,0.000,17,17,4*50
$GPGGA,033609.00,3135.5550696,N,12046.6530146,E,4,17,1.1,2.8910,M,8.314,M,01,0004*63
$GPHPD,0,0.000,171.89,0.30,-15.62,31.5925845,120.7775502,2.891,13630476.506,24924862.858,2.891,0.000,0.000,0.000,0.000,0.000,0.000,0.000,17,17,4*52
$GPGGA,033609.20,3135.5549332,N,12046.6530294,E,4,17,1.1,2.8956,M,8.314,M,01,0004*6C
$GPHPD,0,0.000,172.78,0.56,-15.60,31.5925822,120.7775505,2.896,13630478.474,24924863.831,2.896,0.000,0.000,0.000,0.000,0.000,0.000,0.000,17,17,4*5F
$GPGGA,033609.40,3135.5548003,N,12046.6530424,E,4,17,1.1,2.9031,M,8.314,M,01,0004*6E
$GPHPD,0,0.000,173.77,0.45,-15.58,31.5925800,120.7775507,2.903,13630480.389,24924864.761,2.903,0.000,0.000,0.000,0.000,0.000,0.000,0.000,17,17,4*55
$GPGGA,033609.60,3135.5546668,N,12046.6530539,E,4,17,1.1,2.9003,M,8.314,M,00,0004*64
$GPHPD,0,0.000,174.66,0.33,-15.55,31.5925778,120.7775509,2.900,13630482.310,24924865.677,2.900,0.000,0.000,0.000,0.000,0.000,0.000,0.000,17,17,4*55
$GPGGA,033609.80,3135.5545361,N,12046.6530608,E,4,17,1.1,2.9005,M,8.314,M,00,0004*62
$GPHPD,0,0.000,175.60,0.36,-15.51,31.5925756,120.7775510,2.901,13630484.182,24924866.521,2.901,0.000,0.000,0.000,0.000,0.000,0.000,0.000,17,17,4*5B
$GPGGA,033610.00,3135.5544074,N,12046.6530628,E,4,17,1.1,2.9003,M,8.314,M,01,0004*61
$GPHPD,0,0.000,176.54,0.69,-15.46,31.5925735,120.7775510,2.900,13630486.015,24924867.295,2.900,0.000,0.000,0.000,0.000,0.000,0.000,0.000,17,17,4*52
$GPGGA,033610.20,3135.5542782,N,12046.6530624,E,4,17,1.1,2.8989,M,8.314,M,01,0004*6D
$GPHPD,0,0.000,177.82,0.59,-15.47,31.5925713,120.7775510,2.899,13630487.850,24924868.042,2.899,0.000,0.000,0.000,0.000,0.000,0.000,0.000,17,17,4*51
$GPGGA,033610.40,3135.5541468,N,12046.6530608,E,4,17,1.1,2.9067,M,8.314,M,01,0004*69
$GPHPD,0,0.000,178.96,0.79,-15.43,31.5925691,120.7775510,2.907,13630489.715,24924868.788,2.907,0.000,0.000,0.000,0.000,0.000,0.000,0.000,17,17,4*57
$GPGGA,033610.60,3135.5540156,N,12046.6530553,E,4,17,1.1,2.9046,M,8.314,M,00,0004*6D
$GPHPD,0,0.000,180.04,0.47,-15.40,31.5925669,120.7775509,2.905,13630491.569,24924869.486,2.905,0.000,0.000,0.000,0.000,0.000,0.000,0.000,17,17,4*56
$GPGGA,033610.80,3135.5538853,N,12046.6530480,E,4,17,1.1,2.9021,M,8.314,M,00,0004*6E
$GPHPD,0,0.000,181.10,0.50,-15.41,31.5925648,120.7775508,2.902,13630493.406,24924870.156,2.902,0.000,0.000,0.000,0.000,0.000,0.000,0.000,17,17,4*5D
$GPGGA,033611.00,3135.5537528,N,12046.6530365,E,4,17,1.1,2.9032,M,8.314,M,01,0004*66
$GPHPD,0,0.000,182.22,0.58,-15.39,31.5925625,120.7775506,2.903,13630495.266,24924870.789,2.903,0.000,0.000,0.000,0.000,0.000,0.000,0.000,17,17,4*5F
$GPGGA,033611.20,3135.5536211,N,12046.6530210,E,4,17,1.1,2.9030,M,8.314,M,01,0004*69
$GPHPD,0,0.000,183.32,0.44,-15.34,31.5925604,120.7775504,2.903,13630497.107,24924871.369,2.903,0.000,0.000,0.000,0.000,0.000,0.000,0.000,17,17,4*53
$GPGGA,033611.40,3135.5534897,N,12046.6530038,E,4,17,1.1,2.9045,M,8.314,M,01,0004*63
$GPHPD,0,0.000,184.30,0.58,-15.29,31.5925582,120.7775501,2.905,13630498.940,24924871.927,2.905,0.000,0.000,0.000,0.000,0.000,0.000,0.000,17,17,4*5B
$GPGGA,033611.60,3135.5533529,N,12046.6529871,E,4,17,1.1,2.9097,M,8.314,M,00,0004*6D
$GPHPD,0,0.000,185.35,0.56,-15.25,31.5925559,120.7775498,2.910,13630500.851,24924872.522,2.910,0.000,0.000,0.000,0.000,0.000,0.000,0.000,17,17,4*51
$GPGGA,033611.80,3135.5532195,N,12046.6529632,E,4,17,1.1,2.9111,M,8.314,M,00,0004*67
$GPHPD,0,0.000,186.38,0.27,-15.21,31.5925537,120.7775494,2.911,13630502.699,24924873.010,2.911,0.000,0.000,0.000,0.000,0.000,0.000,0.000,17,17,4*54
$GPGGA,033612.00,3135.5530835,N,12046.6529388,E,4,17,1.1,2.9127,M,8.314,M,01,0004*6D
$GPHPD,0,0.000,187.20,0.39,-15.17,31.5925514,120.7775490,2.913,13630504.583,24924873.508,2.913,0.000,0.000,0.000,0.000,0.000,0.000,0.000,17,17,4*51
$GPGGA,033612.20,3135.5529479,N,12046.6529128,E,4,17,1.1,2.9159,M,8.314,M,01,0004*62
$GPHPD,0,0.000,188.13,0.25,-15.10,31.5925491,120.7775485,2.916,13630506.458,24924873.984,2.916,0.000,0.000,0.000,0.000,0.000,0.000,0.000,17,17,4*51
$GPGGA,033612.40,3135.5528137,N,12046.6528825,E,4,17,1.1,2.9153,M,8.314,M,01,0004*65
$GPHPD,0,0.000,189.24,0.13,-15.05,31.5925469,120.7775480,2.915,13630508.304,24924874.400,2.915,0.000,0.000,0.000,0.000,0.000,0.000,0.000,17,17,4*51
$GPGGA,033612.60,3135.5526788,N,12046.6528529,E,4,17,1.1,2.9183,M,8.314,M,00,0004*66
$GPHPD,0,0.000,190.10,0.25,-15.06,31.5925446,120.7775475,2.918,13630510.162,24924874.828,2.918,0.000,0.000,0.000,0.000,0.000,0.000,0.000,17,17,4*52
$GPGGA,033612.80,3135.5525447,N,12046.6528168,E,4,17,1.1,2.9187,M,8.314,M,00,0004*6E
$GPHPD,0,0.000,191.30,0.37,-15.08,31.5925424,120.7775469,2.919,13630511.995,24924875.174,2.919,0.000,0.000,0.000,0.000,0.000,0.000,0.000,17,17,4*55
$GPGGA,033613.00,3135.5524110,N,12046.6527768,E,4,17,1.1,2.9152,M,8.314,M,01,0004*61
$GPHPD,0,0.000,192.17,0.17,-15.04,31.5925402,120.7775463,2.915,13630513.815,24924875.470,2.915,0.000,0.000,0.000,0.000,0.000,0.000,0.000,17,17,4*59
$GPGGA,033613.20,3135.5522772,N,12046.6527349,E,4,17,1.1,2.9263,M,8.314,M,01,0004*61
$GPHPD,0,0.000,193.16,0.30,-15.04,31.5925380,120.7775456,2.926,13630515.633,24924875.744,2.926,0.000,0.000,0.000,0.000,0.000,0.000,0.000,17,17,4*5F
$GPGGA,033613.40,3135.5521426,N,12046.6526876,E,4,17,1.1,2.9225,M,8.314,M,01,0004*62
$GPHPD,0,0.000,194.21,0.13,-15.05,31.5925357,120.7775448,2.923,13630517.451,24924875.957,2.923,0.000,0.000,0.000,0.000,0.000,0.000,0.000,17,17,4*51
$GPGGA,033613.60,3135.5520137,N,12046.6526406,E,4,17,1.1,2.9149,M,8.314,M,00,0004*67
$GPHPD,0,0.000,195.26,0.27,-15.09,31.5925336,120.7775440,2.915,13630519.188,24924876.141,2.915,0.000,0.000,0.000,0.000,0.000,0.000,0.000,17,17,4*50
$GPGGA,033613.80,3135.5518806,N,12046.6525911,E,4,17,1.1,2.9179,M,8.314,M,00,0004*62
$GPHPD,0,0.000,196.27,0.74,-15.09,31.5925313,120.7775432,2.918,13630520.980,24924876.319,2.918,0.000,0.000,0.000,0.000,0.000,0.000,0.000,17,17,4*53
$GPGGA,033614.00,3135.5517538,N,12046.6525391,E,4,17,1.1,2.9147,M,8.314,M,01,0004*6C
$GPHPD,0,0.000,197.46,0.43,-14.95,31.5925292,120.7775423,2.915,13630522.678,24924876.430,2.915,0.000,0.000,0.000,0.000,0.000,0.000,0.000,17,17,4*5B
$GPGGA,033614.20,3135.5516389,N,12046.6524892,E,4,17,1.1,2.9190,M,8.314,M,01,0004*60
$GPHPD,0,0.000,198.25,0.36,-14.77,31.5925273,120.7775415,2.919,13630524.211,24924876.497,2.919,0.000,0.000,0.000,0.000,0.000,0.000,0.000,17,17,4*55
$GPGGA,033614.40,3135.5515423,N,12046.6524438,E,4,17,1.1,2.9212,M,8.314,M,01,0004*67
$GPHPD,0,0.000,198.99,0.53,-14.61,31.5925257,120.7775407,2.921,13630525.492,24924876.512,2.921,0.000,0.000,0.000,0.000,0.000,0.000,0.000,17,17,4*53
$GPGGA,033614.60,3135.5514676,N,12046.6524123,E,4,17,1.1,2.9190,M,8.314,M,00,0004*61
$GPHPD,0,0.000,199.47,0.30,-14.33,31.5925245,120.7775402,2.919,13630526.491,24924876.567,2.919,0.000,0.000,0.000,0.000,0.000,0.000,0.000,17,17,4*57
$GPGGA,033614.80,3135.5514188,N,12046.6523923,E,4,17,1.1,2.9307,M,8.314,M,00,0004*6A
$GPHPD,0,0.000,199.95,0.24,-14.01,31.5925236,120.7775399,2.931,13630527.144,24924876.610,2.931,0.000,0.000,0.000,0.000,0.000,0.000,0.000,17,17,4*52
$GPGGA,033615.00,3135.5513879,N,12046.6523796,E,4,17,1.1,2.9283,M,8.314,M,01,0004*6F
$GPHPD,0,0.000,200.15,0.00,-13.85,31.5925231,120.7775397,2.928,13630527.558,24924876.637,2.928,0.000,0.000,0.000,0.000,0.000,0.000,0.000,17,17,4*51
$GPGGA,033615.20,3135.5513693,N,12046.6523712,E,4,17,1.1,2.9245,M,8.314,M,01,0004*61
$GPHPD,0,0.000,200.25,-0.07,-13.78,31.5925228,120.7775395,2.925,13630527.805,24924876.644,2.925,0.000,0.000,0.000,0.000,0.000,0.000,0.000,17,17,4*71
$GPGGA,033615.40,3135.5513590,N,12046.6523662,E,4,17,1.1,2.9270,M,8.314,M,01,0004*67
$GPHPD,0,0.000,200.18,0.22,-13.79,31.5925227,120.7775394,2.927,13630527.942,24924876.644,2.927,0.000,0.000,0.000,0.000,0.000,0.000,0.000,17,17,4*58
$GPGGA,033615.60,3135.5513493,N,12046.6523617,E,4,17,1.1,2.9287,M,8.314,M,00,0004*6C
$GPHPD,0,0.000,200.34,0.15,-13.83,31.5925225,120.7775394,2.929,13630528.070,24924876.646,2.929,0.000,0.000,0.000,0.000,0.000,0.000,0.000,17,17,4*50
$GPGGA,033615.80,3135.5513420,N,12046.6523586,E,4,17,1.1,2.9231,M,8.314,M,00,0004*6C
$GPHPD,0,0.000,200.43,-0.11,-13.87,31.5925224,120.7775393,2.923,13630528.168,24924876.651,2.923,0.000,0.000,0.000,0.000,0.000,0.000,0.000,17,17,4*75
$GPGGA,033616.00,3135.5513324,N,12046.6523546,E,4,17,1.1,2.9271,M,8.314,M,01,0004*6D
$GPHPD,0,0.000,200.52,0.21,-13.93,31.5925222,120.7775392,2.927,13630528.296,24924876.659,2.927,0.000,0.000,0.000,0.000,0.000,0.000,0.000,17,17,4*53
$GPGGA,033616.20,3135.5513187,N,12046.6523458,E,4,17,1.1,2.9243,M,8.314,M,01,0004*6B
$GPHPD,0,0.000,200.60,0.31,-14.01,31.5925220,120.7775391,2.924,13630528.473,24924876.633,2.924,0.000,0.000,0.000,0.000,0.000,0.000,0.000,17,17,4*5F
$GPGGA,033616.40,3135.5513025,N,12046.6523395,E,4,17,1.1,2.9282,M,8.314,M,01,0004*6F
$GPHPD,0,0.000,200.59,0.22,-14.11,31.5925217,120.7775390,2.928,13630528.691,24924876.651,2.928,0.000,0.000,0.000,0.000,0.000,0.000,0.000,17,17,4*59
$GPGGA,033616.60,3135.5512772,N,12046.6523289,E,4,17,1.1,2.9238,M,8.314,M,00,0004*65
$GPHPD,0,0.000,200.74,0.32,-14.22,31.5925213,120.7775388,2.924,13630529.029,24924876.670,2.924,0.000,0.000,0.000,0.000,0.000,0.000,0.000,17,17,4*5D
$GPGGA,033616.80,3135.5512448,N,12046.6523159,E,4,17,1.1,2.9214,M,8.314,M,00,0004*61
$GPHPD,0,0.000,200.80,0.50,-14.33,31.5925207,120.7775386,2.921,13630529.464,24924876.702,2.921,0.000,0.000,0.000,0.000,0.000,0.000,0.000,17,17,4*50
$GPGGA,033617.00,3135.5512066,N,12046.6522980,E,4,17,1.1,2.9237,M,8.314,M,01,0004*6D
$GPHPD,0,0.000,200.95,0.27,-14.45,31.5925201,120.7775383,2.924,13630529.971,24924876.709,2.924,0.000,0.000,0.000,0.000,0.000,0.000,0.000,17,17,4*54
$GPGGA,033617.20,3135.5511580,N,12046.6522743,E,4,17,1.1,2.9164,M,8.314,M,01,0004*65
$GPHPD,0,0.000,201.13,0.26,-14.57,31.5925193,120.7775379,2.916,13630530.614,24924876.706,2.916,0.000,0.000,0.000,0.000,0.000,0.000,0.000,17,17,4*5F
$GPGGA,033617.40,3135.5510967,N,12046.6522468,E,4,17,1.1,2.9249,M,8.314,M,01,0004*61
$GPHPD,0,0.000,201.20,0.66,-14.69,31.5925183,120.7775374,2.925,13630531.430,24924876.731,2.925,0.000,0.000,0.000,0.000,0.000,0.000,0.000,17,17,4*5B
$GPGGA,033617.60,3135.5510300,N,12046.6522142,E,4,17,1.1,2.9238,M,8.314,M,00,0004*62
$GPHPD,0,0.000,201.47,0.29,-14.77,31.5925172,120.7775369,2.924,13630532.312,24924876.727,2.924,0.000,0.000,0.000,0.000,0.000,0.000,0.000,17,17,4*5F
$GPGGA,033617.80,3135.5509529,N,12046.6521741,E,4,17,1.1,2.9240,M,8.314,M,00,0004*60
$GPHPD,0,0.000,201.84,0.32,-14.84,31.5925159,120.7775362,2.924,13630533.327,24924876.692,2.924,0.000,0.000,0.000,0.000,0.000,0.000,0.000,17,17,4*5C
$GPGGA,033618.00,3135.5508647,N,12046.6521318,E,4,17,1.1,2.9271,M,8.314,M,01,0004*66
$GPHPD,0,0.000,202.04,0.25,-14.90,31.5925144,120.7775355,2.927,13630534.496,24924876.695,2.927,0.000,0.000,0.000,0.000,0.000,0.000,0.000,17,17,4*51
$GPGGA,033618.20,3135.5507713,N,12046.6520833,E,4,17,1.1,2.9251,M,8.314,M,01,0004*6A
$GPHPD,0,0.000,202.45,-0.05,-14.92,31.5925129,120.7775347,2.925,13630535.726,24924876.654,2.925,0.000,0.000,0.000,0.000,0.000,0.000,0.000,17,17,4*75
$GPGGA,033618.40,3135.5506729,N,12046.6520299,E,4,17,1.1,2.9294,M,8.314,M,01,0004*67
$GPHPD,0,0.000,202.90,0.28,-14.91,31.5925112,120.7775338,2.929,13630537.017,24924876.583,2.929,0.000,0.000,0.000,0.000,0.000,0.000,0.000,17,17,4*52
$GPGGA,033618.60,3135.5505726,N,12046.6519776,E,4,17,1.1,2.9225,M,8.314,M,00,0004*6C
$GPHPD,0,0.000,203.18,0.09,-14.82,31.5925095,120.7775330,2.923,13630538.337,24924876.537,2.923,0.000,0.000,0.000,0.000,0.000,0.000,0.000,17,17,4*55
$GPGGA,033618.80,3135.5504818,N,12046.6519288,E,4,17,1.1,2.9357,M,8.314,M,00,0004*61
$GPHPD,0,0.000,203.52,0.18,-14.66,31.5925080,120.7775321,2.936,13630539.530,24924876.477,2.936,0.000,0.000,0.000,0.000,0.000,0.000,0.000,17,17,4*50
$GPGGA,033619.00,3135.5503970,N,12046.6518816,E,4,17,1.1,2.9326,M,8.314,M,01,0004*6B
$GPHPD,0,0.000,203.94,-0.11,-14.55,31.5925066,120.7775314,2.933,13630540.640,24924876.401,2.933,0.000,0.000,0.000,0.000,0.000,0.000,0.000,17,17,4*7B
$GPGGA,033619.20,3135.5503141,N,12046.6518344,E,4,17,1.1,2.9345,M,8.314,M,01,0004*6A
$GPHPD,0,0.000,204.22,-0.11,-14.48,31.5925052,120.7775306,2.935,13630541.723,24924876.315,2.935,0.000,0.000,0.000,0.000,0.000,0.000,0.000,17,17,4*7E
$GPGGA,033619.40,3135.5502329,N,12046.6517874,E,4,17,1.1,2.9320,M,8.314,M,01,0004*65
$GPHPD,0,0.000,204.62,0.03,-14.43,31.5925039,120.7775298,2.932,13630542.783,24924876.221,2.932,0.000,0.000,0.000,0.000,0.000,0.000,0.000,17,17,4*5B
$GPGGA,033619.60,3135.5501548,N,12046.6517423,E,4,17,1.1,2.9322,M,8.314,M,00,0004*68
$GPHPD,0,0.000,205.13,-0.27,-14.39,31.5925026,120.7775290,2.932,13630543.802,24924876.132,2.932,0.000,0.000,0.000,0.000,0.000,0.000,0.000,17,17,4*7A
$GPGGA,033619.80,3135.5500778,N,12046.6516931,E,4,17,1.1,2.9296,M,8.314,M,00,0004*67
$GPHPD,0,0.000,205.53,0.01,-14.34,31.5925013,120.7775282,2.930,13630544.798,24924875.987,2.930,0.000,0.000,0.000,0.000,0.000,0.000,0.000,17,17,4*51
$GPGGA,033620.00,3135.5500024,N,12046.6516482,E,4,17,1.1,2.9262,M,8.314,M,01,0004*64
$GPHPD,0,0.000,205.89,-0.03,-14.31,31.5925000,120.7775275,2.926,13630545.779,24924875.885,2.926,0.000,0.000,0.000,0.000,0.000,0.000,0.000,17,17,4*7B
$GPGGA,033620.20,3135.5499297,N,12046.6515999,E,4,17,1.1,2.9305,M,8.314,M,01,0004*69
$GPHPD,0,0.000,206.61,-0.08,-14.30,31.5924988,120.7775267,2.931,13630546.715,24924875.725,2.931,0.000,0.000,0.000,0.000,0.000,0.000,0.000,17,17,4*73
$GPGGA,033620.40,3135.5498590,N,12046.6515534,E,4,17,1.1,2.9299,M,8.314,M,01,0004*61
$GPHPD,0,0.000,207.18,-0.03,-14.29,31.5924977,120.7775259,2.930,13630547.626,24924875.576,2.930,0.000,0.000,0.000,0.000,0.000,0.000,0.000,17,17,4*76
$GPGGA,033620.60,3135.5497860,N,12046.6515056,E,4,17,1.1,2.9309,M,8.314,M,00,0004*66
$GPHPD,0,0.000,207.90,-0.27,-14.27,31.5924964,120.7775251,2.931,13630548.568,24924875.425,2.931,0.000,0.000,0.000,0.000,0.000,0.000,0.000,17,17,4*75
$GPGGA,033620.80,3135.5497177,N,12046.6514574,E,4,17,1.1,2.9273,M,8.314,M,00,0004*6F
$GPHPD,0,0.000,208.46,-0.15,-14.27,31.5924953,120.7775243,2.927,13630549.442,24924875.241,2.927,0.000,0.000,0.000,0.000,0.000,0.000,0.000,17,17,4*7B
$GPGGA,033621.00,3135.5496507,N,12046.6514113,E,4,17,1.1,2.9340,M,8.314,M,01,0004*61
$GPHPD,0,0.000,209.18,-0.36,-14.27,31.5924942,120.7775235,2.934,13630550.301,24924875.076,2.934,0.000,0.000,0.000,0.000,0.000,0.000,0.000,17,17,4*7F
$GPGGA,033621.20,3135.5495860,N,12046.6513629,E,4,17,1.1,2.9278,M,8.314,M,01,0004*6F
$GPHPD,0,0.000,209.86,-0.27,-14.28,31.5924931,120.7775227,2.928,13630551.123,24924874.869,2.928,0.000,0.000,0.000,0.000,0.000,0.000,0.000,17,17,4*74
$GPGGA,033621.40,3135.5495200,N,12046.6513124,E,4,17,1.1,2.9283,M,8.314,M,01,0004*6B
$GPHPD,0,0.000,210.47,-0.03,-14.28,31.5924920,120.7775219,2.928,13630551.960,24924874.644,2.928,0.000,0.000,0.000,0.000,0.000,0.000,0.000,17,17,4*74
$GPGGA,033621.60,3135.5494556,N,12046.6512622,E,4,17,1.1,2.9307,M,8.314,M,00,0004*60
$GPHPD,0,0.000,211.32,-0.04,-14.30,31.5924909,120.7775210,2.931,13630552.774,24924874.414,2.931,0.000,0.000,0.000,0.000,0.000,0.000,0.000,17,17,4*74
$GPGGA,033621.80,3135.5493934,N,12046.6512119,E,4,17,1.1,2.9237,M,8.314,M,00,0004*6C
$GPHPD,0,0.000,211.92,-0.16,-14.32,31.5924899,120.7775202,2.924,13630553.557,24924874.169,2.924,0.000,0.000,0.000,0.000,0.000,0.000,0.000,17,17,4*79
$GPGGA,033622.00,3135.5493293,N,12046.6511629,E,4,17,1.1,2.9254,M,8.314,M,01,0004*62
$GPHPD,0,0.000,212.81,-0.57,-14.38,31.5924888,120.7775194,2.925,13630554.370,24924873.952,2.925,0.000,0.000,0.000,0.000,0.000,0.000,0.000,17,17,4*78
$GPGGA,033622.20,3135.5492625,N,12046.6511059,E,4,17,1.1,2.9247,M,8.314,M,01,0004*6B
$GPHPD,0,0.000,213.62,-0.04,-14.44,31.5924877,120.7775184,2.925,13630555.204,24924873.653,2.925,0.000,0.000,0.000,0.000,0.000,0.000,0.000,17,17,4*75
$GPGGA,033622.40,3135.5491948,N,12046.6510451,E,4,17,1.1,2.9288,M,8.314,M,01,0004*64
$GPHPD,0,0.000,214.23,0.08,-14.52,31.5924866,120.7775174,2.929,13630556.044,24924873.314,2.929,0.000,0.000,0.000,0.000,0.000,0.000,0.000,17,17,4*5D
$GPGGA,033622.60,3135.5491242,N,12046.6509831,E,4,17,1.1,2.9186,M,8.314,M,00,0004*69
$GPHPD,0,0.000,215.03,-0.10,-14.60,31.5924854,120.7775164,2.919,13630556.923,24924872.978,2.919,0.000,0.000,0.000,0.000,0.000,0.000,0.000,17,17,4*72
$GPGGA,033622.80,3135.5490515,N,12046.6509170,E,4,17,1.1,2.9185,M,8.314,M,00,0004*6C
$GPHPD,0,0.000,216.23,-0.49,-14.67,31.5924842,120.7775153,2.919,13630557.823,24924872.604,2.919,0.000,0.000,0.000,0.000,0.000,0.000,0.000,17,17,4*7F
$GPGGA,033623.00,3135.5489784,N,12046.6508447,E,4,17,1.1,2.9135,M,8.314,M,01,0004*6D
$GPHPD,0,0.000,217.00,-0.14,-14.73,31.5924830,120.7775141,2.914,13630558.717,24924872.158,2.914,0.000,0.000,0.000,0.000,0.000,0.000,0.000,17,17,4*7D
$GPGGA,033623.20,3135.5489030,N,12046.6507697,E,4,17,1.3,2.9175,M,8.314,M,01,0004*61
$GPHPD,0,0.000,217.99,-0.04,-14.78,31.5924817,120.7775128,2.918,13630559.638,24924871.692,2.918,0.000,0.000,0.000,0.000,0.000,0.000,0.000,17,17,4*72
$GPGGA,033623.40,3135.5488350,N,12046.6507014,E,4,17,1.3,2.9169,M,8.314,M,01,0004*63
$GPHPD,0,0.000,218.81,0.16,-14.75,31.5924806,120.7775117,2.917,13630560.467,24924871.265,2.917,0.000,0.000,0.000,0.000,0.000,0.000,0.000,17,17,4*55
$GPGGA,033623.60,3135.5487710,N,12046.6506267,E,4,17,1.3,2.9085,M,8.314,M,00,0004*6B
$GPHPD,0,0.000,219.94,0.30,-14.72,31.5924795,120.7775104,2.909,13630561.226,24924870.736,2.909,0.000,0.000,0.000,0.000,0.000,0.000,0.000,17,16,4*55
$GPGGA,033623.80,3135.5487058,N,12046.6505603,E,4,17,1.3,2.9069,M,8.314,M,00,0004*69
$GPHPD,0,0.000,220.68,0.83,-14.74,31.5924784,120.7775093,2.907,13630562.019,24924870.315,2.907,0.000,0.000,0.000,0.000,0.000,0.000,0.000,17,16,4*55
$GPGGA,033624.00,3135.5486474,N,12046.6504977,E,4,17,1.3,2.9139,M,8.314,M,01,0004*65
$GPHPD,0,0.000,221.51,0.71,-14.74,31.5924775,120.7775083,2.914,13630562.723,24924869.901,2.914,0.000,0.000,0.000,0.000,0.000,0.000,0.000,17,16,4*55
$GPGGA,033624.20,3135.5485965,N,12046.6504354,E,4,17,1.3,2.9121,M,8.314,M,01,0004*6B
$GPHPD,0,0.000,222.64,-0.29,-14.75,31.5924766,120.7775073,2.912,13630563.321,24924869.446,2.912,0.000,0.000,0.000,0.000,0.000,0.000,0.000,17,16,4*75
$GPGGA,033624.40,3135.5485426,N,12046.6503685,E,4,17,1.3,2.9001,M,8.314,M,01,0004*6A
$GPHPD,0,0.000,223.53,-0.55,-14.74,31.5924757,120.7775061,2.900,13630563.953,24924868.953,2.900,0.000,0.000,0.000,0.000,0.000,0.000,0.000,17,16,4*7C
$GPGGA,033624.60,3135.5484862,N,12046.6503024,E,4,17,1.3,2.8934,M,8.314,M,00,0004*67
$GPHPD,0,0.000,224.16,-0.22,-14.73,31.5924748,120.7775050,2.893,13630564.622,24924868.484,2.893,0.000,0.000,0.000,0.000,0.000,0.000,0.000,17,16,4*78
$GPGGA,033624.80,3135.5484341,N,12046.6502373,E,4,17,1.3,2.8915,M,8.314,M,00,0004*60
$GPHPD,0,0.000,224.69,0.18,-14.75,31.5924739,120.7775040,2.892,13630565.231,24924868.002,2.892,0.000,0.000,0.000,0.000,0.000,0.000,0.000,17,16,4*58
$GPGGA,033625.00,3135.5483828,N,12046.6501727,E,4,17,1.3,2.8998,M,8.314,M,01,0004*68
$GPHPD,0,0.000,225.57,0.26,-14.80,31.5924730,120.7775029,2.900,13630565.830,24924867.522,2.900,0.000,0.000,0.000,0.000,0.000,0.000,0.000,17,16,4*56
$GPGGA,033625.20,3135.5483338,N,12046.6501088,E,4,17,1.3,2.9007,M,8.314,M,01,0004*6C
$GPHPD,0,0.000,226.38,0.05,-14.85,31.5924722,120.7775018,2.901,13630566.398,24924867.037,2.901,0.000,0.000,0.000,0.000,0.000,0.000,0.000,17,16,4*52
$GPGGA,033625.40,3135.5482816,N,12046.6500429,E,4,16,1.4,2.9126,M,8.314,M,01,0004*66
$GPHPD,0,0.000,227.07,0.23,-14.85,31.5924714,120.7775007,2.913,13630567.008,24924866.546,2.913,0.000,0.000,0.000,0.000,0.000,0.000,0.000,16,16,4*58
$GPGGA,033625.60,3135.5482294,N,12046.6499777,E,4,15,1.4,2.9167,M,8.314,M,00,0004*6A
$GPHPD,0,0.000,227.67,-0.88,-14.85,31.5924705,120.7774996,2.917,13630567.618,24924866.064,2.917,0.000,0.000,0.000,0.000,0.000,0.000,0.000,15,15,4*70
$GPGGA,033625.80,3135.5481763,N,12046.6499004,E,4,15,1.4,2.8995,M,8.314,M,00,0004*6D
$GPHPD,0,0.000,228.06,-0.54,-14.89,31.5924696,120.7774983,2.900,13630568.217,24924865.441,2.900,0.000,0.000,0.000,0.000,0.000,0.000,0.000,15,15,4*7E
$GPGGA,033626.00,3135.5481196,N,12046.6498208,E,4,15,1.4,2.8822,M,8.314,M,01,0004*69
$GPHPD,0,0.000,228.15,0.42,-14.96,31.5924687,120.7774970,2.882,13630568.863,24924864.811,2.882,0.000,0.000,0.000,0.000,0.000,0.000,0.000,15,15,4*55
$GPGGA,033626.20,3135.5480624,N,12046.6497341,E,4,15,1.7,2.8592,M,8.314,M,01,0004*62
$GPHPD,0,0.000,228.85,1.12,-15.01,31.5924677,120.7774956,2.859,13630569.502,24924864.099,2.859,0.000,0.000,0.000,0.000,0.000,0.000,0.000,15,15,4*5F
$GPGGA,033626.40,3135.5480036,N,12046.6496535,E,4,15,1.7,2.8765,M,8.314,M,01,0004*6F
$GPHPD,0,0.000,229.15,1.54,-15.05,31.5924667,120.7774942,2.877,13630570.175,24924863.469,2.877,0.000,0.000,0.000,0.000,0.000,0.000,0.000,15,15,4*55
$GPGGA,033626.60,3135.5479439,N,12046.6495631,E,4,15,1.7,2.8812,M,8.314,M,00,0004*6A
$GPHPD,0,0.000,229.84,0.90,-15.11,31.5924657,120.7774927,2.881,13630570.842,24924862.727,2.881,0.000,0.000,0.000,0.000,0.000,0.000,0.000,15,15,4*54
$GPGGA,033626.80,3135.5478810,N,12046.6494650,E,4,15,1.7,2.8896,M,8.314,M,00,0004*68
$GPHPD,0,0.000,230.86,0.10,-15.18,31.5924647,120.7774911,2.890,13630571.539,24924861.910,2.890,0.000,0.000,0.000,0.000,0.000,0.000,0.000,15,15,4*52
$GPGGA,033627.00,3135.5478142,N,12046.6493595,E,4,15,1.7,2.8816,M,8.314,M,01,0004*6B
$GPHPD,0,0.000,231.16,0.61,-15.24,31.5924636,120.7774893,2.882,13630572.276,24924861.027,2.882,0.000,0.000,0.000,0.000,0.000,0.000,0.000,15,15,4*5C
$GPGGA,033627.20,3135.5477404,N,12046.6492533,E,4,15,1.7,2.8757,M,8.314,M,01,0004*66
$GPHPD,0,0.000,230.82,1.15,-15.29,31.5924623,120.7774876,2.876,13630573.111,24924860.176,2.876,0.000,0.000,0.000,0.000,0.000,0.000,0.000,15,15,4*57
$GPGGA,033627.40,3135.5476687,N,12046.6491496,E,4,15,1.7,2.8981,M,8.314,M,01,0004*60
$GPHPD,0,0.000,231.36,1.84,-15.31,31.5924611,120.7774858,2.898,13630573.922,24924859.343,2.898,0.000,0.000,0.000,0.000,0.000,0.000,0.000,15,15,4*53
$GPGGA,033627.60,3135.5475923,N,12046.6490265,E,4,15,1.4,2.8927,M,8.314,M,00,0004*65
$GPHPD,0,0.000,232.02,1.32,-15.31,31.5924599,120.7774838,2.893,13630574.760,24924858.303,2.893,0.000,0.000,0.000,0.000,0.000,0.000,0.000,15,15,4*55
$GPGGA,033627.80,3135.5475167,N,12046.6489095,E,4,15,1.4,2.9232,M,8.314,M,00,0004*68
$GPHPD,0,0.000,232.43,1.44,-15.33,31.5924586,120.7774818,2.923,13630575.599,24924857.333,2.923,0.000,0.000,0.000,0.000,0.000,0.000,0.000,15,15,4*56
$GPGGA,033628.00,3135.5474398,N,12046.6487777,E,4,15,1.4,2.9049,M,8.314,M,01,0004*66
$GPHPD,0,0.000,232.99,0.07,-15.31,31.5924573,120.7774796,2.905,13630576.427,24924856.191,2.905,0.000,0.000,0.000,0.000,0.000,0.000,0.000,15,15,4*5A
$GPGGA,033628.20,3135.5473612,N,12046.6486509,E,4,15,1.4,2.8937,M,8.314,M,01,0004*6F
$GPHPD,0,0.000,233.14,1.42,-15.30,31.5924560,120.7774775,2.894,13630577.289,24924855.120,2.894,0.000,0.000,0.000,0.000,0.000,0.000,0.000,15,15,4*5A
$GPGGA,033628.40,3135.5472793,N,12046.6485322,E,4,15,1.7,2.9280,M,8.313,M,01,0004*6E
$GPHPD,0,0.000,234.28,1.00,-15.30,31.5924547,120.7774755,2.928,13630578.214,24924854.165,2.928,0.000,0.000,0.000,0.000,0.000,0.000,0.000,15,15,4*58
$GPGGA,033628.60,3135.5471979,N,12046.6483977,E,4,15,1.4,2.9453,M,8.313,M,00,0004*63
$GPHPD,0,0.000,234.90,-0.17,-15.26,31.5924533,120.7774733,2.945,13630579.100,24924853.017,2.945,0.000,0.000,0.000,0.000,0.000,0.000,0.000,15,15,4*71
$GPGGA,033628.80,3135.5471162,N,12046.6482624,E,4,15,1.4,2.9316,M,8.313,M,00,0004*61
$GPHPD,0,0.000,235.08,-1.22,-15.20,31.5924519,120.7774710,2.932,13630579.989,24924851.862,2.932,0.000,0.000,0.000,0.000,0.000,0.000,0.000,15,15,4*78
$GPGGA,033629.00,3135.5470296,N,12046.6481133,E,4,15,1.4,2.8822,M,8.313,M,01,0004*6F
$GPHPD,0,0.000,235.92,-0.83,-15.13,31.5924505,120.7774686,2.882,13630580.920,24924850.568,2.882,0.000,0.000,0.000,0.000,0.000,0.000,0.000,15,15,4*71
$GPGGA,033629.20,3135.5469498,N,12046.6479867,E,4,15,1.4,2.9196,M,8.313,M,01,0004*65
$GPHPD,0,0.000,235.73,0.99,-15.07,31.5924492,120.7774664,2.920,13630581.800,24924849.506,2.920,0.000,0.000,0.000,0.000,0.000,0.000,0.000,15,15,4*5C
$GPGGA,033629.40,3135.5468767,N,12046.6478450,E,4,15,1.4,2.8935,M,8.313,M,01,0004*68
$GPHPD,0,0.000,236.01,0.15,-15.02,31.5924479,120.7774641,2.894,13630582.554,24924848.223,2.894,0.000,0.000,0.000,0.000,0.000,0.000,0.000,15,15,4*57
$GPGGA,033629.60,3135.5468051,N,12046.6477130,E,4,15,1.4,2.9286,M,8.313,M,00,0004*67
$GPHPD,0,0.000,235.95,0.84,-14.98,31.5924468,120.7774619,2.929,13630583.306,24924847.048,2.929,0.000,0.000,0.000,0.000,0.000,0.000,0.000,15,15,4*5E
$GPGGA,033629.80,3135.5467318,N,12046.6475747,E,4,16,1.4,2.9049,M,8.313,M,00,0004*6E
$GPHPD,0,0.000,236.20,-0.54,-14.94,31.5924455,120.7774596,2.905,13630584.069,24924845.807,2.905,0.000,0.000,0.000,0.000,0.000,0.000,0.000,16,16,4*79
$GPGGA,033630.00,3135.5466571,N,12046.6474416,E,4,16,1.4,2.9125,M,8.313,M,01,0004*6A
$GPHPD,0,0.000,236.49,-0.52,-14.90,31.5924443,120.7774574,2.913,13630584.863,24924844.637,2.913,0.000,0.000,0.000,0.000,0.000,0.000,0.000,16,16,4*71
$GPGGA,033630.20,3135.5465813,N,12046.6472984,E,4,16,1.4,2.9395,M,8.313,M,01,0004*6B
$GPHPD,0,0.000,236.23,-0.35,-14.87,31.5924430,120.7774550,2.940,13630585.652,24924843.352,2.940,0.000,0.000,0.000,0.000,0.000,0.000,0.000,16,15,4*77
$GPGGA,033630.40,3135.5465062,N,12046.6471576,E,4,16,1.7,2.9518,M,8.313,M,01,0004*61
$GPHPD,0,0.000,236.43,-0.48,-14.82,31.5924418,120.7774526,2.952,13630586.437,24924842.091,2.952,0.000,0.000,0.000,0.000,0.000,0.000,0.000,16,15,4*7A
$GPGGA,033630.60,3135.5464310,N,12046.6470193,E,4,16,1.7,2.9520,M,8.313,M,01,0004*61
$GPHPD,0,0.000,236.89,-1.15,-14.80,31.5924405,120.7774503,2.952,13630587.227,24924840.861,2.952,0.000,0.000,0.000,0.000,0.000,0.000,0.000,16,15,4*7F
$GPGGA,033630.80,3135.5463591,N,12046.6468721,E,4,16,1.7,2.9032,M,8.313,M,00,0004*66
$GPHPD,0,0.000,237.33,-1.47,-14.78,31.5924393,120.7774479,2.903,13630587.953,24924839.505,2.903,0.000,0.000,0.000,0.000,0.000,0.000,0.000,16,15,4*72
$GPGGA,033631.00,3135.5462801,N,12046.6467229,E,4,16,1.7,2.8967,M,8.313,M,01,0004*61
$GPHPD,0,0.000,238.21,0.18,-14.76,31.5924380,120.7774454,2.897,13630588.776,24924838.166,2.897,0.000,0.000,0.000,0.000,0.000,0.000,0.000,16,15,4*5D
$GPGGA,033631.20,3135.5461988,N,12046.6465753,E,4,16,1.7,2.9081,M,8.313,M,01,0004*6A
$GPHPD,0,0.000,238.11,0.69,-14.75,31.5924366,120.7774429,2.908,13630589.634,24924836.859,2.908,0.000,0.000,0.000,0.000,0.000,0.000,0.000,16,16,4*57
$GPGGA,033631.40,3135.5461258,N,12046.6464352,E,4,16,1.7,2.9363,M,8.313,M,01,0004*61
$GPHPD,0,0.000,238.00,-0.30,-14.75,31.5924354,120.7774406,2.936,13630590.390,24924835.595,2.936,0.000,0.000,0.000,0.000,0.000,0.000,0.000,16,16,4*77
$GPGGA,033631.60,3135.5460522,N,12046.6462840,E,4,16,1.7,2.9112,M,8.313,M,00,0004*63
$GPHPD,0,0.000,239.07,-1.06,-14.74,31.5924342,120.7774381,2.911,13630591.132,24924834.200,2.911,0.000,0.000,0.000,0.000,0.000,0.000,0.000,16,16,4*7A
$GPGGA,033631.80,3135.5459877,N,12046.6461397,E,4,16,1.7,2.8930,M,8.313,M,00,0004*61
$GPHPD,0,0.000,239.19,-0.67,-14.73,31.5924331,120.7774357,2.893,13630591.758,24924832.836,2.893,0.000,0.000,0.000,0.000,0.000,0.000,0.000,16,16,4*78
$GPGGA,033632.00,3135.5459213,N,12046.6460051,E,4,16,1.7,2.9088,M,8.313,M,01,0004*60
$GPHPD,0,0.000,238.30,0.19,-14.72,31.5924320,120.7774334,2.909,13630592.431,24924831.599,2.909,0.000,0.000,0.000,0.000,0.000,0.000,0.000,16,16,4*56
$GPGGA,033632.20,3135.5458399,N,12046.6458567,E,4,16,1.7,2.8938,M,8.313,M,01,0004*68
$GPHPD,0,0.000,238.11,0.05,-14.72,31.5924307,120.7774309,2.894,13630593.289,24924830.284,2.894,0.000,0.000,0.000,0.000,0.000,0.000,0.000,16,16,4*5D
$GPGGA,033632.40,3135.5457593,N,12046.6457128,E,4,16,1.7,2.8931,M,8.313,M,01,0004*64
$GPHPD,0,0.000,238.40,0.18,-14.70,31.5924293,120.7774285,2.893,13630594.145,24924829.018,2.893,0.000,0.000,0.000,0.000,0.000,0.000,0.000,16,16,4*55
$GPGGA,033632.60,3135.5456946,N,12046.6455777,E,4,16,1.3,2.9322,M,8.313,M,00,0004*61
$GPHPD,0,0.000,239.37,-0.73,-14.69,31.5924282,120.7774263,2.932,13630594.793,24924827.765,2.932,0.000,0.000,0.000,0.000,0.000,0.000,0.000,16,16,4*7A
$GPGGA,033632.80,3135.5456213,N,12046.6454220,E,4,16,1.3,2.8877,M,8.313,M,00,0004*68
$GPHPD,0,0.000,238.90,-0.79,-14.67,31.5924270,120.7774237,2.888,13630595.522,24924826.315,2.888,0.000,0.000,0.000,0.000,0.000,0.000,0.000,16,16,4*75
$GPGGA,033633.00,3135.5455421,N,12046.6452695,E,4,16,1.3,2.8700,M,8.313,M,01,0004*67
$GPHPD,0,0.000,238.18,0.33,-14.64,31.5924257,120.7774212,2.870,13630596.341,24924824.937,2.870,0.000,0.000,0.000,0.000,0.000,0.000,0.000,16,16,4*5F
$GPGGA,033633.20,3135.5454659,N,12046.6451262,E,4,16,1.3,2.8698,M,8.313,M,01,0004*66
$GPHPD,0,0.000,238.66,0.91,-14.63,31.5924244,120.7774188,2.870,13630597.135,24924823.653,2.870,0.000,0.000,0.000,0.000,0.000,0.000,0.000,16,16,4*51
$GPGGA,033633.40,3135.5453923,N,12046.6449786,E,4,16,1.3,2.8725,M,8.313,M,01,0004*64
$GPHPD,0,0.000,238.92,0.38,-14.61,31.5924232,120.7774163,2.873,13630597.884,24924822.301,2.873,0.000,0.000,0.000,0.000,0.000,0.000,0.000,16,16,4*5F
$GPGGA,033633.60,3135.5453205,N,12046.6448297,E,4,16,1.3,2.8965,M,8.313,M,00,0004*66
$GPHPD,0,0.000,238.70,-0.26,-14.58,31.5924220,120.7774138,2.897,13630598.605,24924820.924,2.897,0.000,0.000,0.000,0.000,0.000,0.000,0.000,16,16,4*71
$GPGGA,033633.80,3135.5452428,N,12046.6446794,E,4,16,1.3,2.8872,M,8.313,M,00,0004*6F
$GPHPD,0,0.000,239.00,-0.93,-14.57,31.5924207,120.7774113,2.887,13630599.407,24924819.564,2.887,0.000,0.000,0.000,0.000,0.000,0.000,0.000,16,16,4*79
$GPGGA,033634.00,3135.5451682,N,12046.6445262,E,4,16,1.3,2.8995,M,8.313,M,01,0004*67
$GPHPD,0,0.000,239.46,-1.27,-14.55,31.5924195,120.7774088,2.900,13630600.159,24924818.151,2.900,0.000,0.000,0.000,0.000,0.000,0.000,0.000,16,16,4*72
$GPGGA,033634.20,3135.5451003,N,12046.6443783,E,4,16,1.3,2.8728,M,8.313,M,01,0004*6E
$GPHPD,0,0.000,239.73,-1.24,-14.56,31.5924183,120.7774063,2.873,13630600.827,24924816.763,2.873,0.000,0.000,0.000,0.000,0.000,0.000,0.000,16,16,4*7F
$GPGGA,033634.40,3135.5450274,N,12046.6442301,E,4,16,1.3,2.8670,M,8.313,M,01,0004*68
$GPHPD,0,0.000,239.37,-0.88,-14.55,31.5924171,120.7774038,2.867,13630601.565,24924815.400,2.867,0.000,0.000,0.000,0.000,0.000,0.000,0.000,16,16,4*77
$GPGGA,033634.60,3135.5449525,N,12046.6440798,E,4,16,1.3,2.8648,M,8.313,M,00,0004*6D
$GPHPD,0,0.000,239.44,-1.14,-14.54,31.5924159,120.7774013,2.865,13630602.327,24924814.024,2.865,0.000,0.000,0.000,0.000,0.000,0.000,0.000,16,16,4*75
$GPGGA,033634.80,3135.5448826,N,12046.6439333,E,4,16,1.3,2.8580,M,8.313,M,00,0004*60
$GPHPD,0,0.000,239.58,-1.26,-14.53,31.5924147,120.7773989,2.858,13630603.026,24924812.664,2.858,0.000,0.000,0.000,0.000,0.000,0.000,0.000,16,16,4*7B
$GPGGA,033635.00,3135.5448101,N,12046.6437861,E,4,16,1.3,2.8541,M,8.313,M,01,0004*6B
$GPHPD,0,0.000,239.25,-0.75,-14.54,31.5924135,120.7773964,2.854,13630603.760,24924811.311,2.854,0.000,0.000,0.000,0.000,0.000,0.000,0.000,16,16,4*76
$GPGGA,033635.20,3135.5447348,N,12046.6436352,E,4,16,1.3,2.8642,M,8.313,M,01,0004*63
$GPHPD,0,0.000,239.31,-0.80,-14.56,31.5924122,120.7773939,2.864,13630604.527,24924809.930,2.864,0.000,0.000,0.000,0.000,0.000,0.000,0.000,16,16,4*73
$GPGGA,033635.40,3135.5446623,N,12046.6434913,E,4,16,1.4,2.8492,M,8.313,M,01,0004*69
$GPHPD,0,0.000,239.26,-0.41,-14.57,31.5924110,120.7773915,2.849,13630605.268,24924808.617,2.849,0.000,0.000,0.000,0.000,0.000,0.000,0.000,16,16,4*70
$GPGGA,033635.60,3135.5445866,N,12046.6433447,E,4,16,1.3,2.8520,M,8.313,M,00,0004*62
$GPHPD,0,0.000,239.42,-0.59,-14.58,31.5924098,120.7773891,2.852,13630606.049,24924807.290,2.852,0.000,0.000,0.000,0.000,0.000,0.000,0.000,16,16,4*7E
$GPGGA,033635.80,3135.5445146,N,12046.6431973,E,4,16,1.3,2.8471,M,8.313,M,00,0004*6A
$GPHPD,0,0.000,238.96,0.29,-14.57,31.5924086,120.7773866,2.847,13630606.775,24924805.932,2.847,0.000,0.000,0.000,0.000,0.000,0.000,0.000,16,16,4*5D
$GPGGA,033636.00,3135.5444437,N,12046.6430532,E,4,16,1.3,2.8367,M,8.313,M,01,0004*6A
$GPHPD,0,0.000,238.79,0.56,-14.57,31.5924074,120.7773842,2.837,13630607.493,24924804.607,2.837,0.000,0.000,0.000,0.000,0.000,0.000,0.000,16,16,4*5D
$GPGGA,033636.20,3135.5443715,N,12046.6429065,E,4,16,1.3,2.8434,M,8.313,M,01,0004*62
$GPHPD,0,0.000,238.72,0.15,-14.56,31.5924062,120.7773818,2.843,13630608.224,24924803.258,2.843,0.000,0.000,0.000,0.000,0.000,0.000,0.000,16,16,4*54
$GPGGA,033636.40,3135.5443030,N,12046.6427618,E,4,16,1.3,2.8305,M,8.313,M,01,0004*63
$GPHPD,0,0.000,238.68,0.13,-14.55,31.5924051,120.7773794,2.831,13630608.907,24924801.912,2.831,0.000,0.000,0.000,0.000,0.000,0.000,0.000,16,16,4*5C
$GPGGA,033636.60,3135.5442272,N,12046.6426143,E,4,16,1.3,2.8340,M,8.313,M,00,0004*6C
$GPHPD,0,0.000,238.61,0.57,-14.53,31.5924038,120.7773769,2.834,13630609.687,24924800.575,2.834,0.000,0.000,0.000,0.000,0.000,0.000,0.000,16,16,4*54
$GPGGA,033636.80,3135.5441524,N,12046.6424746,E,4,16,1.3,2.8513,M,8.313,M,00,0004*64
$GPHPD,0,0.000,238.50,0.58,-14.53,31.5924025,120.7773746,2.851,13630610.469,24924799.326,2.851,0.000,0.000,0.000,0.000,0.000,0.000,0.000,16,16,4*5D
$GPGGA,033637.00,3135.5440783,N,12046.6423281,E,4,16,1.3,2.8563,M,8.313,M,01,0004*6C
$GPHPD,0,0.000,239.19,-0.69,-14.50,31.5924013,120.7773721,2.856,13630611.228,24924797.991,2.856,0.000,0.000,0.000,0.000,0.000,0.000,0.000,16,16,4*73
$GPGGA,033637.20,3135.5440061,N,12046.6421826,E,4,16,1.3,2.8459,M,8.313,M,01,0004*68
$GPHPD,0,0.000,239.35,-0.72,-14.50,31.5924001,120.7773697,2.846,13630611.961,24924796.657,2.846,0.000,0.000,0.000,0.000,0.000,0.000,0.000,16,16,4*7A
$GPGGA,033637.40,3135.5439350,N,12046.6420389,E,4,16,1.3,2.8546,M,8.313,M,01,0004*61
$GPHPD,0,0.000,239.89,-0.95,-14.49,31.5923989,120.7773673,2.855,13630612.683,24924795.338,2.855,0.000,0.000,0.000,0.000,0.000,0.000,0.000,16,16,4*77
$GPGGA,033637.60,3135.5438652,N,12046.6418867,E,4,16,1.3,2.8521,M,8.313,M,00,0004*65
$GPHPD,0,0.000,239.59,-0.73,-14.46,31.5923978,120.7773648,2.852,13630613.368,24924793.909,2.852,0.000,0.000,0.000,0.000,0.000,0.000,0.000,16,16,4*74
$GPGGA,033637.80,3135.5437896,N,12046.6417416,E,4,16,1.3,2.8554,M,8.313,M,00,0004*65
$GPHPD,0,0.000,239.76,-0.81,-14.43,31.5923965,120.7773624,2.855,13630614.151,24924792.599,2.855,0.000,0.000,0.000,0.000,0.000,0.000,0.000,16,16,4*7C
$GPGGA,033638.00,3135.5437174,N,12046.6415956,E,4,16,1.3,2.8382,M,8.313,M,01,0004*60
$GPHPD,0,0.000,239.78,-0.92,-14.42,31.5923953,120.7773599,2.838,13630614.883,24924791.259,2.838,0.000,0.000,0.000,0.000,0.000,0.000,0.000,16,16,4*7F
$GPGGA,033638.20,3135.5436474,N,12046.6414529,E,4,16,1.3,2.8397,M,8.313,M,01,0004*67
$GPHPD,0,0.000,239.65,-0.67,-14.41,31.5923941,120.7773575,2.840,13630615.591,24924789.946,2.840,0.000,0.000,0.000,0.000,0.000,0.000,0.000,16,16,4*78
$GPGGA,033638.40,3135.5435764,N,12046.6413033,E,4,16,1.3,2.8186,M,8.313,M,01,0004*6B
$GPHPD,0,0.000,239.46,-0.92,-14.42,31.5923929,120.7773551,2.819,13630616.299,24924788.556,2.819,0.000,0.000,0.000,0.000,0.000,0.000,0.000,16,16,4*78
$GPGGA,033638.60,3135.5435073,N,12046.6411656,E,4,16,1.3,2.8313,M,8.313,M,00,0004*60
$GPHPD,0,0.000,239.08,-0.29,-14.43,31.5923918,120.7773528,2.831,13630617.004,24924787.297,2.831,0.000,0.000,0.000,0.000,0.000,0.000,0.000,16,16,4*7D
$GPGGA,033638.80,3135.5434379,N,12046.6410203,E,4,16,1.3,2.8200,M,8.313,M,00,0004*60
$GPHPD,0,0.000,239.06,-0.62,-14.44,31.5923906,120.7773503,2.820,13630617.699,24924785.949,2.820,0.000,0.000,0.000,0.000,0.000,0.000,0.000,16,16,4*75
$GPGGA,033639.00,3135.5433690,N,12046.6408804,E,4,16,1.3,2.8188,M,8.313,M,01,0004*6A
$GPHPD,0,0.000,238.83,-0.53,-14.47,31.5923895,120.7773480,2.819,13630618.396,24924784.664,2.819,0.000,0.000,0.000,0.000,0.000,0.000,0.000,16,16,4*7D
$GPGGA,033639.20,3135.5432961,N,12046.6407356,E,4,16,1.3,2.8105,M,8.313,M,01,0004*6E
$GPHPD,0,0.000,238.79,-0.44,-14.49,31.5923883,120.7773456,2.811,13630619.141,24924783.342,2.811,0.000,0.000,0.000,0.000,0.000,0.000,0.000,16,15,4*70
$GPGGA,033639.40,3135.5432220,N,12046.6405892,E,4,16,1.3,2.8083,M,8.313,M,01,0004*68
$GPHPD,0,0.000,238.96,-0.38,-14.48,31.5923870,120.7773432,2.808,13630619.900,24924782.008,2.808,0.000,0.000,0.000,0.000,0.000,0.000,0.000,16,15,4*74
$GPGGA,033639.60,3135.5431520,N,12046.6404449,E,4,16,1.3,2.8063,M,8.313,M,00,0004*6A
$GPHPD,0,0.000,239.15,-0.55,-14.46,31.5923859,120.7773407,2.806,13630620.604,24924780.676,2.806,0.000,0.000,0.000,0.000,0.000,0.000,0.000,16,15,4*7A
$GPGGA,033639.80,3135.5430791,N,12046.6403016,E,4,16,1.3,2.8183,M,8.313,M,00,0004*6B
$GPHPD,0,0.000,238.97,-0.50,-14.46,31.5923847,120.7773384,2.818,13630621.352,24924779.372,2.818,0.000,0.000,0.000,0.000,0.000,0.000,0.000,16,15,4*77
$GPGGA,033640.00,3135.5430086,N,12046.6401592,E,4,16,1.3,2.8030,M,8.313,M,01,0004*6F
$GPHPD,0,0.000,239.10,-1.05,-14.45,31.5923835,120.7773360,2.803,13630622.068,24924778.065,2.803,0.000,0.000,0.000,0.000,0.000,0.000,0.000,16,15,4*79
$GPGGA,033640.20,3135.5429347,N,12046.6400155,E,4,16,1.3,2.8165,M,8.313,M,01,0004*64
$GPHPD,0,0.000,238.79,-0.42,-14.44,31.5923822,120.7773336,2.817,13630622.829,24924776.763,2.817,0.000,0.000,0.000,0.000,0.000,0.000,0.000,16,15,4*73
$GPGGA,033640.40,3135.5428628,N,12046.6398718,E,4,16,1.3,2.7946,M,8.313,M,01,0004*60
$GPHPD,0,0.000,238.95,-0.91,-14.42,31.5923810,120.7773312,2.795,13630623.562,24924775.449,2.795,0.000,0.000,0.000,0.000,0.000,0.000,0.000,16,15,4*75
$GPGGA,033640.60,3135.5427936,N,12046.6397295,E,4,16,1.3,2.7996,M,8.313,M,00,0004*6E
$GPHPD,0,0.000,238.81,0.27,-14.41,31.5923799,120.7773288,2.800,13630624.259,24924774.136,2.800,0.000,0.000,0.000,0.000,0.000,0.000,0.000,16,15,4*5B
$GPGGA,033640.80,3135.5427226,N,12046.6395915,E,4,16,1.3,2.8130,M,8.313,M,00,0004*60
$GPHPD,0,0.000,238.70,0.14,-14.40,31.5923787,120.7773265,2.813,13630624.990,24924772.885,2.813,0.000,0.000,0.000,0.000,0.000,0.000,0.000,16,15,4*51
$GPGGA,033641.00,3135.5426553,N,12046.6394490,E,4,16,1.3,2.8084,M,8.313,M,01,0004*63
$GPHPD,0,0.000,238.85,0.50,-14.41,31.5923776,120.7773242,2.808,13630625.660,24924771.559,2.808,0.000,0.000,0.000,0.000,0.000,0.000,0.000,16,15,4*5F
$GPGGA,033641.20,3135.5425842,N,12046.6393107,E,4,16,1.3,2.8125,M,8.313,M,01,0004*69
$GPHPD,0,0.000,238.99,0.32,-14.40,31.5923764,120.7773218,2.813,13630626.393,24924770.305,2.813,0.000,0.000,0.000,0.000,0.000,0.000,0.000,16,15,4*5F
$GPGGA,033641.40,3135.5425164,N,12046.6391699,E,4,16,1.3,2.8026,M,8.313,M,01,0004*62
$GPHPD,0,0.000,239.68,-0.68,-14.41,31.5923753,120.7773195,2.803,13630627.073,24924769.002,2.803,0.000,0.000,0.000,0.000,0.000,0.000,0.000,16,15,4*71
$GPGGA,033641.60,3135.5424475,N,12046.6390238,E,4,16,1.3,2.8056,M,8.313,M,00,0004*6C
$GPHPD,0,0.000,239.94,-0.49,-14.44,31.5923741,120.7773171,2.806,13630627.758,24924767.641,2.806,0.000,0.000,0.000,0.000,0.000,0.000,0.000,16,15,4*7C
$GPGGA,033641.80,3135.5423778,N,12046.6388825,E,4,16,1.3,2.8095,M,8.313,M,00,0004*6B
$GPHPD,0,0.000,240.17,-0.58,-14.45,31.5923730,120.7773147,2.810,13630628.465,24924766.343,2.810,0.000,0.000,0.000,0.000,0.000,0.000,0.000,16,15,4*7F
$GPGGA,033642.00,3135.5423070,N,12046.6387419,E,4,16,1.3,2.8170,M,8.313,M,01,0004*68
$GPHPD,0,0.000,240.57,-0.73,-14.45,31.5923718,120.7773124,2.817,13630629.188,24924765.060,2.817,0.000,0.000,0.000,0.000,0.000,0.000,0.000,16,15,4*7B
$GPGGA,033642.20,3135.5422371,N,12046.6385998,E,4,16,1.3,2.8173,M,8.313,M,01,0004*6C
$GPHPD,0,0.000,240.70,-1.08,-14.45,31.5923706,120.7773100,2.817,13630629.896,24924763.753,2.817,0.000,0.000,0.000,0.000,0.000,0.000,0.000,16,15,4*7D
$GPGGA,033642.40,3135.5421693,N,12046.6384507,E,4,16,1.3,2.8014,M,8.313,M,01,0004*6B
$GPHPD,0,0.000,240.68,-1.20,-14.44,31.5923695,120.7773075,2.801,13630630.559,24924762.350,2.801,0.000,0.000,0.000,0.000,0.000,0.000,0.000,16,15,4*77
$GPGGA,033642.60,3135.5421030,N,12046.6383083,E,4,16,1.3,2.7918,M,8.313,M,00,0004*63
$GPHPD,0,0.000,240.26,-0.80,-14.47,31.5923684,120.7773051,2.792,13630631.215,24924761.019,2.792,0.000,0.000,0.000,0.000,0.000,0.000,0.000,16,15,4*70
$GPGGA,033642.80,3135.5420380,N,12046.6381609,E,4,16,1.5,2.7885,M,8.313,M,00,0004*61
$GPHPD,0,0.000,239.78,-0.63,-14.47,31.5923673,120.7773027,2.789,13630631.842,24924759.620,2.789,0.000,0.000,0.000,0.000,0.000,0.000,0.000,16,15,4*7E
$GPGGA,033643.00,3135.5419706,N,12046.6380172,E,4,16,1.3,2.7930,M,8.313,M,01,0004*6A
$GPHPD,0,0.000,239.54,-0.85,-14.47,31.5923662,120.7773003,2.793,13630632.511,24924758.280,2.793,0.000,0.000,0.000,0.000,0.000,0.000,0.000,16,15,4*79
$GPGGA,033643.20,3135.5418993,N,12046.6378772,E,4,16,1.3,2.7967,M,8.313,M,01,0004*68
$GPHPD,0,0.000,239.36,-0.49,-14.45,31.5923650,120.7772980,2.797,13630633.243,24924757.007,2.797,0.000,0.000,0.000,0.000,0.000,0.000,0.000,16,15,4*7E
$GPGGA,033643.40,3135.5418255,N,12046.6377320,E,4,16,1.5,2.7858,M,8.313,M,01,0004*68
$GPHPD,0,0.000,239.37,-0.73,-14.46,31.5923638,120.7772955,2.786,13630634.000,24924755.686,2.786,0.000,0.000,0.000,0.000,0.000,0.000,0.000,16,16,4*7F
$GPGGA,033643.60,3135.5417605,N,12046.6375911,E,4,16,1.3,2.7834,M,8.313,M,00,0004*63
$GPHPD,0,0.000,239.50,-0.32,-14.46,31.5923627,120.7772932,2.783,13630634.640,24924754.365,2.783,0.000,0.000,0.000,0.000,0.000,0.000,0.000,16,16,4*7F
$GPGGA,033643.80,3135.5416892,N,12046.6374485,E,4,16,1.3,2.7799,M,8.313,M,00,0004*65
$GPHPD,0,0.000,239.53,-0.51,-14.47,31.5923615,120.7772908,2.780,13630635.367,24924753.061,2.780,0.000,0.000,0.000,0.000,0.000,0.000,0.000,16,16,4*71
$GPGGA,033644.00,3135.5416222,N,12046.6373095,E,4,16,1.3,2.7794,M,8.313,M,01,0004*65
$GPHPD,0,0.000,239.65,-0.54,-14.50,31.5923604,120.7772885,2.779,13630636.039,24924751.775,2.779,0.000,0.000,0.000,0.000,0.000,0.000,0.000,16,16,4*78
$GPGGA,033644.20,3135.5415527,N,12046.6371660,E,4,16,1.3,2.7713,M,8.313,M,01,0004*67
$GPHPD,0,0.000,239.78,-0.75,-14.51,31.5923592,120.7772861,2.771,13630636.738,24924750.449,2.771,0.000,0.000,0.000,0.000,0.000,0.000,0.000,16,16,4*7B
$GPGGA,033644.40,3135.5414841,N,12046.6370272,E,4,16,1.3,2.7707,M,8.313,M,01,0004*6E
$GPHPD,0,0.000,239.53,0.09,-14.52,31.5923581,120.7772838,2.771,13630637.434,24924749.175,2.771,0.000,0.000,0.000,0.000,0.000,0.000,0.000,16,16,4*55
$GPGGA,033644.60,3135.5414129,N,12046.6368872,E,4,16,1.3,2.7675,M,8.313,M,00,0004*6D
$GPHPD,0,0.000,239.44,-0.28,-14.53,31.5923569,120.7772815,2.768,13630638.164,24924747.901,2.768,0.000,0.000,0.000,0.000,0.000,0.000,0.000,16,16,4*7F
$GPGGA,033644.80,3135.5413442,N,12046.6367442,E,4,16,1.3,2.7642,M,8.313,M,00,0004*68
$GPHPD,0,0.000,239.43,-0.11,-14.55,31.5923557,120.7772791,2.764,13630638.853,24924746.576,2.764,0.000,0.000,0.000,0.000,0.000,0.000,0.000,16,16,4*7A
$GPGGA,033645.00,3135.5412766,N,12046.6366023,E,4,16,1.3,2.7578,M,8.313,M,01,0004*6C
$GPHPD,0,0.000,239.21,0.34,-14.54,31.5923546,120.7772767,2.758,13630639.528,24924745.259,2.758,0.000,0.000,0.000,0.000,0.000,0.000,0.000,16,16,4*55
$GPGGA,033645.20,3135.5412048,N,12046.6364592,E,4,16,1.3,2.7543,M,8.313,M,01,0004*60
$GPHPD,0,0.000,239.40,0.44,-14.54,31.5923534,120.7772743,2.754,13630640.261,24924743.951,2.754,0.000,0.000,0.000,0.000,0.000,0.000,0.000,16,16,4*57
$GPGGA,033645.40,3135.5411382,N,12046.6363244,E,4,16,1.3,2.7761,M,8.313,M,01,0004*69
$GPHPD,0,0.000,239.03,0.52,-14.53,31.5923523,120.7772721,2.776,13630640.936,24924742.714,2.776,0.000,0.000,0.000,0.000,0.000,0.000,0.000,16,16,4*55
$GPGGA,033645.60,3135.5410697,N,12046.6361865,E,4,16,1.3,2.7759,M,8.313,M,00,0004*6A
$GPHPD,0,0.000,238.88,-0.05,-14.56,31.5923512,120.7772698,2.776,13630641.632,24924741.450,2.776,0.000,0.000,0.000,0.000,0.000,0.000,0.000,16,16,4*76
$GPGGA,033645.80,3135.5410000,N,12046.6360471,E,4,16,1.3,2.7754,M,8.313,M,00,0004*69
$GPHPD,0,0.000,239.13,-0.10,-14.54,31.5923500,120.7772675,2.775,13630642.343,24924740.175,2.775,0.000,0.000,0.000,0.000,0.000,0.000,0.000,16,16,4*70
$GPGGA,033646.00,3135.5409276,N,12046.6359050,E,4,16,1.3,2.7831,M,8.313,M,01,0004*69
$GPHPD,0,0.000,239.13,0.26,-14.54,31.5923488,120.7772651,2.783,13630643.086,24924738.883,2.783,0.000,0.000,0.000,0.000,0.000,0.000,0.000,16,16,4*5B
$GPGGA,033646.20,3135.5408566,N,12046.6357592,E,4,16,1.3,2.7686,M,8.313,M,01,0004*6B
$GPHPD,0,0.000,239.46,-0.55,-14.56,31.5923476,120.7772627,2.769,13630643.801,24924737.538,2.769,0.000,0.000,0.000,0.000,0.000,0.000,0.000,16,16,4*75
$GPGGA,033646.40,3135.5407812,N,12046.6356253,E,4,16,1.3,2.7693,M,8.313,M,01,0004*63
$GPHPD,0,0.000,239.40,-0.93,-14.57,31.5923464,120.7772604,2.769,13630644.604,24924736.362,2.769,0.000,0.000,0.000,0.000,0.000,0.000,0.000,16,16,4*7E
$GPGGA,033646.60,3135.5407071,N,12046.6354841,E,4,16,1.3,2.7630,M,8.313,M,00,0004*6F
$GPHPD,0,0.000,239.78,-0.86,-14.58,31.5923451,120.7772581,2.763,13630645.373,24924735.091,2.763,0.000,0.000,0.000,0.000,0.000,0.000,0.000,16,16,4*7E
$GPGGA,033646.80,3135.5406423,N,12046.6353466,E,4,16,1.3,2.7645,M,8.313,M,00,0004*6F
$GPHPD,0,0.000,239.53,-1.38,-14.59,31.5923440,120.7772558,2.765,13630646.017,24924733.810,2.765,0.000,0.000,0.000,0.000,0.000,0.000,0.000,16,15,4*70
$GPGGA,033647.00,3135.5405724,N,12046.6352042,E,4,16,1.3,2.7754,M,8.313,M,01,0004*62
$GPHPD,0,0.000,239.53,-0.45,-14.60,31.5923429,120.7772534,2.775,13630646.724,24924732.500,2.775,0.000,0.000,0.000,0.000,0.000,0.000,0.000,16,15,4*7E
$GPGGA,033647.20,3135.5405074,N,12046.6350569,E,4,16,1.3,2.7558,M,8.313,M,01,0004*62
$GPHPD,0,0.000,239.55,-0.75,-14.61,31.5923418,120.7772509,2.756,13630647.352,24924731.102,2.756,0.000,0.000,0.000,0.000,0.000,0.000,0.000,16,15,4*77
$GPGGA,033647.40,3135.5404411,N,12046.6349150,E,4,16,1.3,2.7565,M,8.313,M,01,0004*6A
$GPHPD,0,0.000,239.07,-0.23,-14.60,31.5923407,120.7772486,2.757,13630648.008,24924729.777,2.757,0.000,0.000,0.000,0.000,0.000,0.000,0.000,16,15,4*74
$GPGGA,033647.60,3135.5403663,N,12046.6347691,E,4,16,1.3,2.7524,M,8.313,M,00,0004*68
