$GPGGA,033913.60,3135.4989765,N,12046.5536760,E,4,17,1.2,2.7857,M,8.308,M,00,0004*60
$GPHPD,0,0.000,241.71,0.44,-15.85,31.5916496,120.7758946,2.786,13631073.874,24923991.564,2.786,0.000,0.000,0.000,0.000,0.000,0.000,0.000,17,17,4*5E
$GPGGA,033913.80,3135.4989477,N,12046.5536016,E,4,17,1.2,2.7785,M,8.308,M,00,0004*68
$GPHPD,0,0.000,242.22,-0.08,-15.83,31.5916491,120.7758934,2.779,13631074.134,24923990.834,2.779,0.000,0.000,0.000,0.000,0.000,0.000,0.000,17,17,4*79
$GPGGA,033914.00,3135.4989163,N,12046.5535277,E,4,17,1.2,2.7898,M,8.308,M,01,0004*63
$GPHPD,0,0.000,242.41,0.20,-15.82,31.5916486,120.7758921,2.790,13631074.432,24923990.126,2.790,0.000,0.000,0.000,0.000,0.000,0.000,0.000,17,17,4*51
$GPGGA,033914.20,3135.4988850,N,12046.5534468,E,4,17,1.2,2.7799,M,8.308,M,01,0004*6E
$GPHPD,0,0.000,242.81,-0.20,-15.78,31.5916481,120.7758908,2.780,13631074.714,24923989.333,2.780,0.000,0.000,0.000,0.000,0.000,0.000,0.000,17,17,4*70
$GPGGA,033914.40,3135.4988530,N,12046.5533669,E,4,17,1.2,2.7815,M,8.308,M,01,0004*6C
$GPHPD,0,0.000,243.28,0.20,-15.72,31.5916476,120.7758894,2.782,13631075.008,24923988.556,2.782,0.000,0.000,0.000,0.000,0.000,0.000,0.000,17,17,4*56
$GPGGA,033914.60,3135.4988200,N,12046.5532828,E,4,17,1.2,2.7894,M,8.308,M,00,0004*68
$GPHPD,0,0.000,243.64,0.08,-15.65,31.5916470,120.7758880,2.789,13631075.307,24923987.734,2.789,0.000,0.000,0.000,0.000,0.000,0.000,0.000,17,17,4*54
$GPGGA,033914.80,3135.4987877,N,12046.5532055,E,4,17,1.2,2.7818,M,8.308,M,00,0004*65
$GPHPD,0,0.000,244.03,-0.41,-15.57,31.5916465,120.7758868,2.782,13631075.611,24923986.990,2.782,0.000,0.000,0.000,0.000,0.000,0.000,0.000,17,17,4*72
$GPGGA,033915.00,3135.4987586,N,12046.5531269,E,4,17,1.2,2.7856,M,8.308,M,01,0004*6A
$GPHPD,0,0.000,244.56,0.24,-15.49,31.5916460,120.7758854,2.786,13631075.866,24923986.211,2.786,0.000,0.000,0.000,0.000,0.000,0.000,0.000,17,17,4*55
$GPGGA,033915.20,3135.4987292,N,12046.5530537,E,4,17,1.2,2.7920,M,8.308,M,01,0004*67
$GPHPD,0,0.000,245.05,-0.16,-15.39,31.5916455,120.7758842,2.792,13631076.137,24923985.500,2.792,0.000,0.000,0.000,0.000,0.000,0.000,0.000,17,17,4*72
$GPGGA,033915.40,3135.4987010,N,12046.5529819,E,4,17,1.2,2.7926,M,8.308,M,01,0004*66
$GPHPD,0,0.000,245.60,-0.10,-15.30,31.5916450,120.7758830,2.793,13631076.393,24923984.798,2.793,0.000,0.000,0.000,0.000,0.000,0.000,0.000,17,17,4*70
$GPGGA,033915.60,3135.4986772,N,12046.5529106,E,4,17,1.2,2.7962,M,8.308,M,00,0004*60
$GPHPD,0,0.000,246.21,-0.06,-15.23,31.5916446,120.7758818,2.796,13631076.588,24923984.077,2.796,0.000,0.000,0.000,0.000,0.000,0.000,0.000,17,17,4*74
$GPGGA,033915.80,3135.4986543,N,12046.5528424,E,4,17,1.2,2.7989,M,8.308,M,00,0004*6F
$GPHPD,0,0.000,246.53,-0.27,-15.16,31.5916442,120.7758807,2.799,13631076.776,24923983.388,2.799,0.000,0.000,0.000,0.000,0.000,0.000,0.000,17,17,4*79
$GPGGA,033916.00,3135.4986309,N,12046.5527740,E,4,17,1.2,2.7932,M,8.308,M,01,0004*63
$GPHPD,0,0.000,246.72,-0.04,-15.09,31.5916438,120.7758796,2.793,13631076.971,24923982.699,2.793,0.000,0.000,0.000,0.000,0.000,0.000,0.000,17,17,4*72
$GPGGA,033916.20,3135.4986077,N,12046.5527066,E,4,17,1.2,2.7937,M,8.308,M,01,0004*6D
$GPHPD,0,0.000,247.27,-0.32,-15.02,31.5916435,120.7758784,2.794,13631077.165,24923982.021,2.794,0.000,0.000,0.000,0.000,0.000,0.000,0.000,17,17,4*7A
$GPGGA,033916.40,3135.4985887,N,12046.5526427,E,4,17,1.2,2.7973,M,8.308,M,01,0004*6F
$GPHPD,0,0.000,247.71,-0.17,-14.96,31.5916431,120.7758774,2.797,13631077.307,24923981.362,2.797,0.000,0.000,0.000,0.000,0.000,0.000,0.000,17,17,4*78
$GPGGA,033916.60,3135.4985656,N,12046.5525749,E,4,17,1.2,2.7950,M,8.308,M,00,0004*67
$GPHPD,0,0.000,248.03,-0.01,-14.91,31.5916428,120.7758762,2.795,13631077.499,24923980.678,2.795,0.000,0.000,0.000,0.000,0.000,0.000,0.000,17,17,4*72
$GPGGA,033916.80,3135.4985449,N,12046.5525083,E,4,17,1.2,2.7902,M,8.308,M,00,0004*63
$GPHPD,0,0.000,248.42,-0.05,-14.87,31.5916424,120.7758751,2.790,13631077.659,24923979.996,2.790,0.000,0.000,0.000,0.000,0.000,0.000,0.000,17,17,4*7F
$GPGGA,033917.00,3135.4985250,N,12046.5524464,E,4,17,1.2,2.7998,M,8.308,M,01,0004*6A
$GPHPD,0,0.000,248.72,0.14,-14.83,31.5916421,120.7758741,2.800,13631077.817,24923979.365,2.800,0.000,0.000,0.000,0.000,0.000,0.000,0.000,17,17,4*53
$GPGGA,033917.20,3135.4985055,N,12046.5523819,E,4,17,1.2,2.7868,M,8.308,M,01,0004*60
$GPHPD,0,0.000,249.11,-0.72,-14.79,31.5916418,120.7758730,2.787,13631077.964,24923978.701,2.787,0.000,0.000,0.000,0.000,0.000,0.000,0.000,17,17,4*71
$GPGGA,033917.40,3135.4984840,N,12046.5523135,E,4,17,1.2,2.7845,M,8.308,M,01,0004*63
$GPHPD,0,0.000,249.34,-0.27,-14.74,31.5916414,120.7758719,2.785,13631078.132,24923978.001,2.785,0.000,0.000,0.000,0.000,0.000,0.000,0.000,17,17,4*7F
$GPGGA,033917.60,3135.4984676,N,12046.5522477,E,4,17,1.2,2.7917,M,8.308,M,00,0004*6F
$GPHPD,0,0.000,249.52,-0.35,-14.72,31.5916411,120.7758708,2.792,13631078.233,24923977.304,2.792,0.000,0.000,0.000,0.000,0.000,0.000,0.000,17,17,4*74
$GPGGA,033917.80,3135.4984491,N,12046.5521770,E,4,17,1.2,2.7867,M,8.308,M,00,0004*6B
$GPHPD,0,0.000,249.98,-0.41,-14.68,31.5916408,120.7758696,2.787,13631078.354,24923976.559,2.787,0.000,0.000,0.000,0.000,0.000,0.000,0.000,17,16,4*7A
$GPGGA,033918.00,3135.4984277,N,12046.5521126,E,4,17,1.2,2.7929,M,8.308,M,01,0004*6D
$GPHPD,0,0.000,249.99,-0.33,-14.64,31.5916405,120.7758685,2.793,13631078.528,24923975.907,2.793,0.000,0.000,0.000,0.000,0.000,0.000,0.000,17,16,4*74
$GPGGA,033918.20,3135.4984107,N,12046.5520445,E,4,17,1.2,2.7955,M,8.308,M,01,0004*61
$GPHPD,0,0.000,250.35,-0.36,-14.60,31.5916402,120.7758674,2.796,13631078.633,24923975.185,2.796,0.000,0.000,0.000,0.000,0.000,0.000,0.000,17,16,4*79
$GPGGA,033918.40,3135.4984027,N,12046.5519914,E,4,17,1.2,2.7545,M,8.308,M,01,0004*6A
$GPHPD,0,0.000,250.42,-0.43,-14.57,31.5916400,120.7758665,2.755,13631078.640,24923974.591,2.755,0.000,0.000,0.000,0.000,0.000,0.000,0.000,17,16,4*79
$GPGGA,033918.60,3135.4983832,N,12046.5519275,E,4,16,1.2,2.7582,M,8.308,M,00,0004*64
$GPHPD,0,0.000,250.90,-0.29,-14.56,31.5916397,120.7758655,2.758,13631078.788,24923973.934,2.758,0.000,0.000,0.000,0.000,0.000,0.000,0.000,16,16,4*71
$GPGGA,033918.80,3135.4983704,N,12046.5518618,E,4,16,1.2,2.7600,M,8.308,M,00,0004*67
$GPHPD,0,0.000,251.12,-0.54,-14.55,31.5916395,120.7758644,2.760,13631078.838,24923973.216,2.760,0.000,0.000,0.000,0.000,0.000,0.000,0.000,16,16,4*7E
$GPGGA,033919.00,3135.4983498,N,12046.5518042,E,4,16,1.2,2.7708,M,8.308,M,01,0004*69
$GPHPD,0,0.000,251.27,-0.33,-14.54,31.5916392,120.7758634,2.771,13631079.015,24923972.641,2.771,0.000,0.000,0.000,0.000,0.000,0.000,0.000,16,16,4*79
$GPGGA,033919.20,3135.4983375,N,12046.5517421,E,4,16,1.2,2.7612,M,8.308,M,01,0004*6B
$GPHPD,0,0.000,251.60,-0.68,-14.54,31.5916390,120.7758624,2.761,13631079.065,24923971.964,2.761,0.000,0.000,0.000,0.000,0.000,0.000,0.000,16,16,4*7B
$GPGGA,033919.40,3135.4983172,N,12046.5516798,E,4,16,1.2,2.7600,M,8.308,M,01,0004*6B
$GPHPD,0,0.000,251.62,-0.48,-14.55,31.5916386,120.7758613,2.760,13631079.228,24923971.331,2.760,0.000,0.000,0.000,0.000,0.000,0.000,0.000,16,16,4*78
$GPGGA,033919.60,3135.4983041,N,12046.5516208,E,4,16,1.2,2.7547,M,8.308,M,00,0004*65
$GPHPD,0,0.000,251.97,-0.54,-14.56,31.5916384,120.7758603,2.755,13631079.295,24923970.696,2.755,0.000,0.000,0.000,0.000,0.000,0.000,0.000,16,16,4*70
$GPGGA,033919.80,3135.4982928,N,12046.5515570,E,4,16,1.2,2.7578,M,8.308,M,00,0004*6B
$GPHPD,0,0.000,251.98,-0.26,-14.58,31.5916382,120.7758593,2.758,13631079.327,24923969.992,2.758,0.000,0.000,0.000,0.000,0.000,0.000,0.000,16,16,4*73
$GPGGA,033920.00,3135.4982744,N,12046.5514962,E,4,16,1.2,2.7576,M,8.308,M,01,0004*6C
$GPHPD,0,0.000,252.03,-0.36,-14.58,31.5916379,120.7758583,2.758,13631079.467,24923969.366,2.758,0.000,0.000,0.000,0.000,0.000,0.000,0.000,16,16,4*74
$GPGGA,033920.20,3135.4982575,N,12046.5514353,E,4,16,1.2,2.7594,M,8.308,M,01,0004*6A
$GPHPD,0,0.000,252.36,0.01,-14.59,31.5916376,120.7758573,2.759,13631079.584,24923968.730,2.759,0.000,0.000,0.000,0.000,0.000,0.000,0.000,16,16,4*50
$GPGGA,033920.40,3135.4982437,N,12046.5513733,E,4,16,1.2,2.7557,M,8.308,M,01,0004*61
$GPHPD,0,0.000,252.46,-0.41,-14.61,31.5916374,120.7758562,2.756,13631079.656,24923968.063,2.756,0.000,0.000,0.000,0.000,0.000,0.000,0.000,16,16,4*7A
$GPGGA,033920.60,3135.4982289,N,12046.5513155,E,4,16,1.2,2.7629,M,8.308,M,00,0004*6D
$GPHPD,0,0.000,252.52,-0.21,-14.64,31.5916371,120.7758553,2.763,13631079.750,24923967.452,2.763,0.000,0.000,0.000,0.000,0.000,0.000,0.000,16,16,4*75
$GPGGA,033920.80,3135.4982127,N,12046.5512555,E,4,16,1.2,2.7585,M,8.308,M,00,0004*64
$GPHPD,0,0.000,252.63,-0.33,-14.65,31.5916369,120.7758543,2.759,13631079.859,24923966.823,2.759,0.000,0.000,0.000,0.000,0.000,0.000,0.000,16,16,4*70
$GPGGA,033921.00,3135.4981974,N,12046.5511968,E,4,16,1.2,2.7565,M,8.308,M,01,0004*6E
$GPHPD,0,0.000,252.72,-0.06,-14.64,31.5916366,120.7758533,2.757,13631079.958,24923966.204,2.757,0.000,0.000,0.000,0.000,0.000,0.000,0.000,16,16,4*70
$GPGGA,033921.20,3135.4981858,N,12046.5511475,E,4,16,1.2,2.7604,M,8.308,M,01,0004*66
$GPHPD,0,0.000,252.86,-0.15,-14.61,31.5916364,120.7758525,2.760,13631080.024,24923965.678,2.760,0.000,0.000,0.000,0.000,0.000,0.000,0.000,16,16,4*71
$GPGGA,033921.40,3135.4981726,N,12046.5511029,E,4,16,1.2,2.7572,M,8.308,M,01,0004*69
$GPHPD,0,0.000,253.04,0.07,-14.56,31.5916362,120.7758517,2.757,13631080.122,24923965.217,2.757,0.000,0.000,0.000,0.000,0.000,0.000,0.000,16,16,4*5D
$GPGGA,033921.60,3135.4981602,N,12046.5510647,E,4,16,1.2,2.7507,M,8.308,M,00,0004*60
$GPHPD,0,0.000,253.07,0.05,-14.50,31.5916360,120.7758511,2.751,13631080.221,24923964.828,2.751,0.000,0.000,0.000,0.000,0.000,0.000,0.000,16,16,4*59
$GPGGA,033921.80,3135.4981535,N,12046.5510344,E,4,16,1.2,2.7631,M,8.308,M,00,0004*69
$GPHPD,0,0.000,253.27,0.20,-14.48,31.5916359,120.7758506,2.763,13631080.256,24923964.502,2.763,0.000,0.000,0.000,0.000,0.000,0.000,0.000,16,16,4*5C
$GPGGA,033922.00,3135.4981442,N,12046.5510032,E,4,16,1.2,2.7599,M,8.308,M,01,0004*61
$GPHPD,0,0.000,253.52,-0.14,-14.49,31.5916357,120.7758501,2.760,13631080.325,24923964.180,2.760,0.000,0.000,0.000,0.000,0.000,0.000,0.000,16,16,4*77
$GPGGA,033922.20,3135.4981405,N,12046.5509730,E,4,16,1.2,2.7571,M,8.308,M,01,0004*6B
$GPHPD,0,0.000,253.69,-0.04,-14.51,31.5916357,120.7758496,2.757,13631080.317,24923963.837,2.757,0.000,0.000,0.000,0.000,0.000,0.000,0.000,16,16,4*7B
$GPGGA,033922.40,3135.4981349,N,12046.5509450,E,4,16,1.2,2.7520,M,8.308,M,01,0004*63
$GPHPD,0,0.000,253.83,-0.34,-14.54,31.5916356,120.7758491,2.752,13631080.340,24923963.532,2.752,0.000,0.000,0.000,0.000,0.000,0.000,0.000,16,16,4*75
$GPGGA,033922.60,3135.4981298,N,12046.5509127,E,4,16,1.2,2.7529,M,8.308,M,00,0004*61
$GPHPD,0,0.000,254.04,0.09,-14.58,31.5916355,120.7758485,2.753,13631080.347,24923963.172,2.753,0.000,0.000,0.000,0.000,0.000,0.000,0.000,16,16,4*53
$GPGGA,033922.80,3135.4981226,N,12046.5508792,E,4,16,1.2,2.7581,M,8.308,M,00,0004*61
$GPHPD,0,0.000,254.35,-0.21,-14.64,31.5916354,120.7758480,2.758,13631080.382,24923962.810,2.758,0.000,0.000,0.000,0.000,0.000,0.000,0.000,16,16,4*78
$GPGGA,033923.00,3135.4981140,N,12046.5508404,E,4,16,1.2,2.7563,M,8.308,M,01,0004*6A
$GPHPD,0,0.000,254.59,0.12,-14.72,31.5916352,120.7758473,2.756,13631080.427,24923962.392,2.756,0.000,0.000,0.000,0.000,0.000,0.000,0.000,16,16,4*5B
$GPGGA,033923.20,3135.4981052,N,12046.5507923,E,4,16,1.2,2.7528,M,8.308,M,01,0004*62
$GPHPD,0,0.000,255.06,0.02,-14.80,31.5916351,120.7758465,2.753,13631080.455,24923961.864,2.753,0.000,0.000,0.000,0.000,0.000,0.000,0.000,16,16,4*5C
$GPGGA,033923.40,3135.4980953,N,12046.5507396,E,4,16,1.2,2.7511,M,8.308,M,01,0004*63
$GPHPD,0,0.000,255.34,-0.06,-14.88,31.5916349,120.7758457,2.751,13631080.489,24923961.286,2.751,0.000,0.000,0.000,0.000,0.000,0.000,0.000,16,16,4*73
$GPGGA,033923.60,3135.4980833,N,12046.5506853,E,4,16,1.2,2.7576,M,8.308,M,00,0004*65
$GPHPD,0,0.000,255.77,0.14,-14.96,31.5916347,120.7758448,2.758,13631080.551,24923960.701,2.758,0.000,0.000,0.000,0.000,0.000,0.000,0.000,16,16,4*5A
$GPGGA,033923.80,3135.4980704,N,12046.5506240,E,4,16,1.2,2.7501,M,8.308,M,00,0004*68
$GPHPD,0,0.000,256.27,-0.26,-15.01,31.5916345,120.7758437,2.750,13631080.611,24923960.037,2.750,0.000,0.000,0.000,0.000,0.000,0.000,0.000,16,16,4*70
$GPGGA,033924.00,3135.4980604,N,12046.5505589,E,4,16,1.2,2.7507,M,8.308,M,01,0004*60
$GPHPD,0,0.000,256.60,0.03,-15.06,31.5916343,120.7758426,2.751,13631080.622,24923959.310,2.751,0.000,0.000,0.000,0.000,0.000,0.000,0.000,16,16,4*54
$GPGGA,033924.20,3135.4980487,N,12046.5504909,E,4,16,1.2,2.7458,M,8.308,M,01,0004*65
$GPHPD,0,0.000,257.05,0.01,-15.12,31.5916341,120.7758415,2.746,13631080.651,24923958.558,2.746,0.000,0.000,0.000,0.000,0.000,0.000,0.000,16,16,4*5C
$GPGGA,033924.40,3135.4980389,N,12046.5504256,E,4,16,1.2,2.7518,M,8.308,M,01,0004*6E
$GPHPD,0,0.000,257.49,0.31,-15.17,31.5916340,120.7758404,2.752,13631080.659,24923957.828,2.752,0.000,0.000,0.000,0.000,0.000,0.000,0.000,16,16,4*5E
$GPGGA,033924.60,3135.4980283,N,12046.5503579,E,4,16,1.2,2.7462,M,8.308,M,00,0004*67
$GPHPD,0,0.000,258.06,-0.13,-15.18,31.5916338,120.7758393,2.746,13631080.674,24923957.073,2.746,0.000,0.000,0.000,0.000,0.000,0.000,0.000,16,16,4*77
$GPGGA,033924.80,3135.4980189,N,12046.5502931,E,4,16,1.2,2.7448,M,8.308,M,00,0004*69
$GPHPD,0,0.000,258.42,0.02,-15.19,31.5916336,120.7758382,2.745,13631080.677,24923956.347,2.745,0.000,0.000,0.000,0.000,0.000,0.000,0.000,16,16,4*53
$GPGGA,033925.00,3135.4980096,N,12046.5502294,E,4,16,1.2,2.7501,M,8.308,M,01,0004*66
$GPHPD,0,0.000,258.95,0.12,-15.20,31.5916335,120.7758372,2.750,13631080.681,24923955.633,2.750,0.000,0.000,0.000,0.000,0.000,0.000,0.000,16,16,4*52
$GPGGA,033925.20,3135.4979983,N,12046.5501648,E,4,16,1.2,2.7434,M,8.308,M,01,0004*6E
$GPHPD,0,0.000,259.48,0.16,-15.21,31.5916333,120.7758361,2.743,13631080.711,24923954.919,2.743,0.000,0.000,0.000,0.000,0.000,0.000,0.000,16,16,4*5C
$GPGGA,033925.40,3135.4979941,N,12046.5501096,E,4,16,1.2,2.7438,M,8.308,M,01,0004*6F
$GPHPD,0,0.000,259.80,0.18,-15.22,31.5916332,120.7758352,2.744,13631080.660,24923954.278,2.744,0.000,0.000,0.000,0.000,0.000,0.000,0.000,16,16,4*5F
$GPGGA,033925.60,3135.4979860,N,12046.5500514,E,4,16,1.2,2.7520,M,8.308,M,00,0004*68
$GPHPD,0,0.000,260.03,0.08,-15.22,31.5916331,120.7758342,2.752,13631080.658,24923953.624,2.752,0.000,0.000,0.000,0.000,0.000,0.000,0.000,16,16,4*5C
$GPGGA,033925.80,3135.4979797,N,12046.5499977,E,4,16,1.2,2.7521,M,8.308,M,00,0004*68
$GPHPD,0,0.000,260.71,-0.15,-15.24,31.5916330,120.7758333,2.752,13631080.639,24923953.013,2.752,0.000,0.000,0.000,0.000,0.000,0.000,0.000,16,16,4*7C
$GPGGA,033926.00,3135.4979765,N,12046.5499402,E,4,16,1.2,2.7447,M,8.308,M,01,0004*61
$GPHPD,0,0.000,261.17,0.08,-15.27,31.5916329,120.7758323,2.745,13631080.569,24923952.338,2.745,0.000,0.000,0.000,0.000,0.000,0.000,0.000,16,16,4*5B
$GPGGA,033926.20,3135.4979691,N,12046.5498862,E,4,16,1.2,2.7490,M,8.308,M,01,0004*68
$GPHPD,0,0.000,261.34,0.28,-15.31,31.5916328,120.7758314,2.749,13631080.566,24923951.730,2.749,0.000,0.000,0.000,0.000,0.000,0.000,0.000,16,16,4*5A
$GPGGA,033926.40,3135.4979649,N,12046.5498266,E,4,16,1.2,2.7415,M,8.308,M,01,0004*68
$GPHPD,0,0.000,262.15,0.14,-15.37,31.5916327,120.7758304,2.742,13631080.505,24923951.036,2.742,0.000,0.000,0.000,0.000,0.000,0.000,0.000,16,16,4*59
$GPGGA,033926.60,3135.4979605,N,12046.5497699,E,4,16,1.2,2.7512,M,8.308,M,00,0004*6E
$GPHPD,0,0.000,262.54,0.33,-15.42,31.5916327,120.7758295,2.751,13631080.454,24923950.378,2.751,0.000,0.000,0.000,0.000,0.000,0.000,0.000,16,16,4*5F
$GPGGA,033926.80,3135.4979543,N,12046.5497047,E,4,16,1.2,2.7444,M,8.308,M,00,0004*66
$GPHPD,0,0.000,263.25,0.25,-15.44,31.5916326,120.7758284,2.744,13631080.411,24923949.628,2.744,0.000,0.000,0.000,0.000,0.000,0.000,0.000,16,16,4*51
$GPGGA,033927.00,3135.4979505,N,12046.5496391,E,4,16,1.2,2.7477,M,8.308,M,01,0004*65
$GPHPD,0,0.000,263.89,0.69,-15.46,31.5916325,120.7758273,2.748,13631080.333,24923948.859,2.748,0.000,0.000,0.000,0.000,0.000,0.000,0.000,16,16,4*58
$GPGGA,033927.20,3135.4979488,N,12046.5495732,E,4,16,1.2,2.7472,M,8.308,M,01,0004*68
$GPHPD,0,0.000,264.56,0.49,-15.46,31.5916325,120.7758262,2.747,13631080.224,24923948.074,2.747,0.000,0.000,0.000,0.000,0.000,0.000,0.000,16,16,4*5F
$GPGGA,033927.40,3135.4979422,N,12046.5495014,E,4,16,1.2,2.7446,M,8.308,M,01,0004*6A
$GPHPD,0,0.000,265.10,0.40,-15.46,31.5916324,120.7758250,2.745,13631080.174,24923947.247,2.745,0.000,0.000,0.000,0.000,0.000,0.000,0.000,16,16,4*5E
$GPGGA,033927.60,3135.4979428,N,12046.5494343,E,4,16,1.2,2.7468,M,8.308,M,00,0004*6F
$GPHPD,0,0.000,265.80,0.31,-15.46,31.5916324,120.7758239,2.747,13631080.030,24923946.434,2.747,0.000,0.000,0.000,0.000,0.000,0.000,0.000,16,16,4*5C
$GPGGA,033927.80,3135.4979415,N,12046.5493662,E,4,16,1.2,2.7461,M,8.308,M,00,0004*67
$GPHPD,0,0.000,266.31,0.43,-15.43,31.5916324,120.7758228,2.746,13631079.911,24923945.620,2.746,0.000,0.000,0.000,0.000,0.000,0.000,0.000,16,16,4*5D
$GPGGA,033928.00,3135.4979390,N,12046.5492952,E,4,16,1.2,2.7377,M,8.308,M,01,0004*66
$GPHPD,0,0.000,267.00,0.28,-15.42,31.5916323,120.7758216,2.738,13631079.804,24923944.779,2.738,0.000,0.000,0.000,0.000,0.000,0.000,0.000,16,16,4*51
$GPGGA,033928.20,3135.4979377,N,12046.5492277,E,4,16,1.2,2.7483,M,8.308,M,01,0004*6D
$GPHPD,0,0.000,267.47,0.44,-15.43,31.5916323,120.7758205,2.748,13631079.687,24923943.972,2.748,0.000,0.000,0.000,0.000,0.000,0.000,0.000,16,16,4*5C
$GPGGA,033928.40,3135.4979370,N,12046.5491519,E,4,16,1.2,2.7353,M,8.308,M,01,0004*6A
$GPHPD,0,0.000,268.11,0.27,-15.43,31.5916323,120.7758192,2.735,13631079.544,24923943.063,2.735,0.000,0.000,0.000,0.000,0.000,0.000,0.000,16,16,4*5D
$GPGGA,033928.60,3135.4979387,N,12046.5490771,E,4,16,1.2,2.7422,M,8.308,M,00,0004*6D
$GPHPD,0,0.000,268.45,0.65,-15.41,31.5916323,120.7758180,2.742,13631079.369,24923942.151,2.742,0.000,0.000,0.000,0.000,0.000,0.000,0.000,16,16,4*53
$GPGGA,033928.80,3135.4979367,N,12046.5490015,E,4,16,1.2,2.7484,M,8.308,M,00,0004*64
$GPHPD,0,0.000,269.20,0.44,-15.38,31.5916323,120.7758167,2.748,13631079.246,24923941.251,2.748,0.000,0.000,0.000,0.000,0.000,0.000,0.000,16,16,4*59
$GPGGA,033929.00,3135.4979404,N,12046.5489238,E,4,16,1.2,2.7420,M,8.308,M,01,0004*65
$GPHPD,0,0.000,269.76,0.24,-15.35,31.5916323,120.7758154,2.742,13631079.037,24923940.292,2.742,0.000,0.000,0.000,0.000,0.000,0.000,0.000,16,16,4*5B
$GPGGA,033929.20,3135.4979442,N,12046.5488474,E,4,16,1.2,2.7510,M,8.308,M,01,0004*68
$GPHPD,0,0.000,270.24,0.39,-15.32,31.5916324,120.7758141,2.751,13631078.829,24923939.349,2.751,0.000,0.000,0.000,0.000,0.000,0.000,0.000,16,16,4*53
$GPGGA,033929.40,3135.4979438,N,12046.5487680,E,4,16,1.2,2.7503,M,8.308,M,01,0004*67
$GPHPD,0,0.000,270.65,0.16,-15.31,31.5916324,120.7758128,2.750,13631078.675,24923938.394,2.750,0.000,0.000,0.000,0.000,0.000,0.000,0.000,16,16,4*51
$GPGGA,033929.60,3135.4979460,N,12046.5486861,E,4,16,1.2,2.7470,M,8.308,M,01,0004*6D
$GPHPD,0,0.000,271.15,0.24,-15.27,31.5916324,120.7758114,2.747,13631078.479,24923937.393,2.747,0.000,0.000,0.000,0.000,0.000,0.000,0.000,16,16,4*58
$GPGGA,033929.80,3135.4979525,N,12046.5486066,E,4,16,1.2,2.7493,M,8.308,M,01,0004*61
$GPHPD,0,0.000,271.95,0.17,-15.24,31.5916325,120.7758101,2.749,13631078.226,24923936.397,2.749,0.000,0.000,0.000,0.000,0.000,0.000,0.000,16,16,4*5F
$GPGGA,033930.00,3135.4979572,N,12046.5485255,E,4,16,1.2,2.7545,M,8.308,M,02,0004*6B
$GPHPD,0,0.000,272.29,0.05,-15.21,31.5916326,120.7758088,2.755,13631077.996,24923935.392,2.755,0.000,0.000,0.000,0.000,0.000,0.000,0.000,16,16,4*57
$GPGGA,033930.20,3135.4979624,N,12046.5484418,E,4,16,1.2,2.7583,M,8.308,M,02,0004*6D
$GPHPD,0,0.000,273.03,-0.06,-15.16,31.5916327,120.7758074,2.758,13631077.754,24923934.352,2.758,0.000,0.000,0.000,0.000,0.000,0.000,0.000,16,16,4*7B
$GPGGA,033930.40,3135.4979662,N,12046.5483599,E,4,16,1.2,2.7477,M,8.308,M,02,0004*6C
$GPHPD,0,0.000,273.23,-0.08,-15.12,31.5916328,120.7758060,2.748,13631077.535,24923933.343,2.748,0.000,0.000,0.000,0.000,0.000,0.000,0.000,16,16,4*7B
$GPGGA,033930.60,3135.4979732,N,12046.5482791,E,4,16,1.2,2.7558,M,8.308,M,00,0004*6F
$GPHPD,0,0.000,274.03,0.11,-15.09,31.5916329,120.7758047,2.756,13631077.273,24923932.328,2.756,0.000,0.000,0.000,0.000,0.000,0.000,0.000,16,16,4*5C
$GPGGA,033930.80,3135.4979816,N,12046.5481921,E,4,16,1.2,2.7626,M,8.308,M,00,0004*64
$GPHPD,0,0.000,274.71,-0.14,-15.06,31.5916330,120.7758032,2.763,13631076.979,24923931.230,2.763,0.000,0.000,0.000,0.000,0.000,0.000,0.000,16,16,4*7F
$GPGGA,033931.00,3135.4979902,N,12046.5481018,E,4,16,1.2,2.7553,M,8.308,M,01,0004*6A
$GPHPD,0,0.000,275.27,-0.32,-15.04,31.5916332,120.7758017,2.755,13631076.675,24923930.091,2.755,0.000,0.000,0.000,0.000,0.000,0.000,0.000,16,16,4*75
$GPGGA,033931.20,3135.4980005,N,12046.5480146,E,4,16,1.2,2.7631,M,8.308,M,01,0004*6C
$GPHPD,0,0.000,276.13,-0.09,-15.01,31.5916333,120.7758002,2.763,13631076.353,24923928.979,2.763,0.000,0.000,0.000,0.000,0.000,0.000,0.000,16,16,4*7E
$GPGGA,033931.40,3135.4980116,N,12046.5479239,E,4,16,1.2,2.7615,M,8.308,M,01,0004*62
$GPHPD,0,0.000,276.87,-0.40,-14.96,31.5916335,120.7757987,2.762,13631076.012,24923927.821,2.762,0.000,0.000,0.000,0.000,0.000,0.000,0.000,16,16,4*79
$GPGGA,033931.60,3135.4980263,N,12046.5478308,E,4,16,1.2,2.7618,M,8.308,M,00,0004*6F
$GPHPD,0,0.000,277.67,-0.42,-14.92,31.5916338,120.7757972,2.762,13631075.616,24923926.613,2.762,0.000,0.000,0.000,0.000,0.000,0.000,0.000,16,16,4*78
$GPGGA,033931.80,3135.4980397,N,12046.5477384,E,4,16,1.2,2.7652,M,8.308,M,00,0004*6E
$GPHPD,0,0.000,278.25,-0.26,-14.88,31.5916340,120.7757956,2.765,13631075.240,24923925.421,2.765,0.000,0.000,0.000,0.000,0.000,0.000,0.000,16,16,4*76
$GPGGA,033932.00,3135.4980560,N,12046.5476503,E,4,16,1.2,2.7683,M,8.308,M,01,0004*6E
$GPHPD,0,0.000,279.13,-0.49,-14.85,31.5916343,120.7757942,2.768,13631074.831,24923924.263,2.768,0.000,0.000,0.000,0.000,0.000,0.000,0.000,16,16,4*7C
$GPGGA,033932.20,3135.4980731,N,12046.5475616,E,4,16,1.2,2.7603,M,8.308,M,01,0004*66
$GPHPD,0,0.000,279.71,-0.41,-14.81,31.5916346,120.7757927,2.760,13631074.409,24923923.094,2.760,0.000,0.000,0.000,0.000,0.000,0.000,0.000,16,16,4*78
$GPGGA,033932.40,3135.4980886,N,12046.5474730,E,4,16,1.2,2.7590,M,8.308,M,01,0004*6E
$GPHPD,0,0.000,280.30,-0.30,-14.79,31.5916348,120.7757912,2.759,13631074.011,24923921.936,2.759,0.000,0.000,0.000,0.000,0.000,0.000,0.000,16,16,4*7C
$GPGGA,033932.60,3135.4981057,N,12046.5473872,E,4,16,1.2,2.7692,M,8.308,M,00,0004*67
$GPHPD,0,0.000,281.07,-0.57,-14.79,31.5916351,120.7757898,2.769,13631073.595,24923920.802,2.769,0.000,0.000,0.000,0.000,0.000,0.000,0.000,16,16,4*7A
$GPGGA,033932.80,3135.4981222,N,12046.5473046,E,4,16,1.2,2.7667,M,8.307,M,00,0004*63
$GPHPD,0,0.000,281.56,-0.44,-14.79,31.5916354,120.7757884,2.767,13631073.194,24923919.710,2.767,0.000,0.000,0.000,0.000,0.000,0.000,0.000,16,16,4*77
$GPGGA,033933.00,3135.4981405,N,12046.5472221,E,4,16,1.2,2.7597,M,8.307,M,01,0004*66
$GPHPD,0,0.000,282.41,-0.66,-14.78,31.5916357,120.7757870,2.760,13631072.768,24923918.608,2.760,0.000,0.000,0.000,0.000,0.000,0.000,0.000,16,16,4*76
$GPGGA,033933.20,3135.4981583,N,12046.5471394,E,4,16,1.2,2.7620,M,8.307,M,01,0004*68
$GPHPD,0,0.000,282.90,-0.47,-14.77,31.5916360,120.7757857,2.762,13631072.349,24923917.507,2.762,0.000,0.000,0.000,0.000,0.000,0.000,0.000,16,16,4*73
$GPGGA,033933.40,3135.4981760,N,12046.5470591,E,4,16,1.2,2.7607,M,8.307,M,01,0004*66
$GPHPD,0,0.000,283.43,-0.49,-14.77,31.5916363,120.7757843,2.761,13631071.935,24923916.436,2.761,0.000,0.000,0.000,0.000,0.000,0.000,0.000,16,16,4*74
$GPGGA,033933.60,3135.4981952,N,12046.5469772,E,4,16,1.2,2.7557,M,8.307,M,00,0004*6B
$GPHPD,0,0.000,284.12,-0.41,-14.76,31.5916366,120.7757830,2.756,13631071.498,24923915.337,2.756,0.000,0.000,0.000,0.000,0.000,0.000,0.000,16,16,4*70
$GPGGA,033933.80,3135.4982152,N,12046.5468968,E,4,16,1.2,2.7633,M,8.307,M,00,0004*6B
$GPHPD,0,0.000,284.51,-0.29,-14.74,31.5916369,120.7757816,2.763,13631071.052,24923914.251,2.763,0.000,0.000,0.000,0.000,0.000,0.000,0.000,16,16,4*72
$GPGGA,033934.00,3135.4982380,N,12046.5468165,E,4,16,1.2,2.7668,M,8.307,M,01,0004*63
$GPHPD,0,0.000,285.22,-0.59,-14.72,31.5916373,120.7757803,2.767,13631070.566,24923913.150,2.767,0.000,0.000,0.000,0.000,0.000,0.000,0.000,16,16,4*7F
$GPGGA,033934.20,3135.4982587,N,12046.5467332,E,4,16,1.2,2.7585,M,8.307,M,01,0004*6F
$GPHPD,0,0.000,285.79,-0.65,-14.74,31.5916376,120.7757789,2.759,13631070.104,24923912.025,2.759,0.000,0.000,0.000,0.000,0.000,0.000,0.000,16,16,4*72
$GPGGA,033934.40,3135.4982830,N,12046.5466517,E,4,16,1.2,2.7691,M,8.307,M,01,0004*6E
$GPHPD,0,0.000,286.47,-0.49,-14.79,31.5916381,120.7757775,2.769,13631069.595,24923910.901,2.769,0.000,0.000,0.000,0.000,0.000,0.000,0.000,16,16,4*7D
$GPGGA,033934.60,3135.4983080,N,12046.5465666,E,4,16,1.2,2.7650,M,8.307,M,00,0004*64
$GPHPD,0,0.000,287.27,-0.59,-14.83,31.5916385,120.7757761,2.765,13631069.068,24923909.729,2.765,0.000,0.000,0.000,0.000,0.000,0.000,0.000,16,16,4*74
$GPGGA,033934.80,3135.4983367,N,12046.5464812,E,4,16,1.2,2.7551,M,8.307,M,00,0004*6E
$GPHPD,0,0.000,288.15,-0.63,-14.85,31.5916389,120.7757747,2.755,13631068.488,24923908.532,2.755,0.000,0.000,0.000,0.000,0.000,0.000,0.000,16,16,4*7F
$GPGGA,033935.00,3135.4983651,N,12046.5463951,E,4,16,1.2,2.7629,M,8.307,M,01,0004*6B
$GPHPD,0,0.000,289.01,-0.42,-14.88,31.5916394,120.7757733,2.763,13631067.911,24923907.329,2.763,0.000,0.000,0.000,0.000,0.000,0.000,0.000,16,16,4*7B
$GPGGA,033935.20,3135.4983947,N,12046.5463056,E,4,16,1.2,2.7586,M,8.307,M,01,0004*69
$GPHPD,0,0.000,289.73,-0.84,-14.92,31.5916399,120.7757718,2.759,13631067.311,24923906.077,2.759,0.000,0.000,0.000,0.000,0.000,0.000,0.000,16,16,4*78
$GPGGA,033935.40,3135.4984280,N,12046.5462122,E,4,16,1.2,2.7479,M,8.307,M,01,0004*6A
$GPHPD,0,0.000,290.49,-0.53,-14.94,31.5916405,120.7757702,2.748,13631066.649,24923904.757,2.748,0.000,0.000,0.000,0.000,0.000,0.000,0.000,16,16,4*72
$GPGGA,033935.60,3135.4984635,N,12046.5461204,E,4,16,1.2,2.7438,M,8.307,M,00,0004*62
$GPHPD,0,0.000,291.47,-0.42,-14.96,31.5916411,120.7757687,2.744,13631065.960,24923903.444,2.744,0.000,0.000,0.000,0.000,0.000,0.000,0.000,16,16,4*77
$GPGGA,033935.80,3135.4984983,N,12046.5460309,E,4,16,1.2,2.7425,M,8.307,M,00,0004*6F
$GPHPD,0,0.000,292.15,-0.30,-14.96,31.5916416,120.7757672,2.743,13631065.285,24923902.162,2.743,0.000,0.000,0.000,0.000,0.000,0.000,0.000,16,16,4*7B
$GPGGA,033936.00,3135.4985302,N,12046.5459430,E,4,16,1.2,2.7488,M,8.307,M,01,0004*67
$GPHPD,0,0.000,293.19,-0.33,-14.95,31.5916422,120.7757657,2.749,13631064.655,24923900.916,2.749,0.000,0.000,0.000,0.000,0.000,0.000,0.000,16,16,4*77
$GPGGA,033936.20,3135.4985695,N,12046.5458601,E,4,16,1.2,2.7463,M,8.307,M,01,0004*6A
$GPHPD,0,0.000,294.17,-0.68,-14.92,31.5916428,120.7757643,2.746,13631063.930,24923899.688,2.746,0.000,0.000,0.000,0.000,0.000,0.000,0.000,16,16,4*7A
$GPGGA,033936.40,3135.4986034,N,12046.5457775,E,4,16,1.2,2.7474,M,8.307,M,01,0004*69
$GPHPD,0,0.000,294.87,-0.38,-14.92,31.5916434,120.7757630,2.747,13631063.282,24923898.495,2.747,0.000,0.000,0.000,0.000,0.000,0.000,0.000,16,16,4*72
$GPGGA,033936.60,3135.4986396,N,12046.5456963,E,4,16,1.2,2.7453,M,8.307,M,00,0004*6C
$GPHPD,0,0.000,295.72,-0.52,-14.93,31.5916440,120.7757616,2.745,13631062.604,24923897.305,2.745,0.000,0.000,0.000,0.000,0.000,0.000,0.000,16,16,4*79
$GPGGA,033936.80,3135.4986772,N,12046.5456177,E,4,16,1.2,2.7426,M,8.307,M,00,0004*63
$GPHPD,0,0.000,296.46,-0.58,-14.93,31.5916446,120.7757603,2.743,13631061.911,24923896.138,2.743,0.000,0.000,0.000,0.000,0.000,0.000,0.000,16,16,4*70
$GPGGA,033937.00,3135.4987148,N,12046.5455402,E,4,16,1.2,2.7365,M,8.307,M,01,0004*61
$GPHPD,0,0.000,297.06,-0.50,-14.93,31.5916452,120.7757590,2.737,13631061.221,24923894.985,2.737,0.000,0.000,0.000,0.000,0.000,0.000,0.000,16,16,4*75
$GPGGA,033937.20,3135.4987487,N,12046.5454640,E,4,16,1.2,2.7444,M,8.307,M,01,0004*64
$GPHPD,0,0.000,297.78,-0.21,-14.95,31.5916458,120.7757577,2.744,13631060.585,24923893.869,2.744,0.000,0.000,0.000,0.000,0.000,0.000,0.000,16,16,4*73
$GPGGA,033937.40,3135.4987864,N,12046.5453881,E,4,16,1.2,2.7420,M,8.307,M,01,0004*65
$GPHPD,0,0.000,298.42,-0.32,-14.99,31.5916464,120.7757565,2.742,13631059.897,24923892.734,2.742,0.000,0.000,0.000,0.000,0.000,0.000,0.000,16,16,4*75
$GPGGA,033937.60,3135.4988263,N,12046.5453109,E,4,16,1.2,2.7432,M,8.307,M,00,0004*6E
$GPHPD,0,0.000,298.89,-0.47,-15.01,31.5916471,120.7757552,2.743,13631059.174,24923891.571,2.743,0.000,0.000,0.000,0.000,0.000,0.000,0.000,16,16,4*74
$GPGGA,033937.80,3135.4988641,N,12046.5452342,E,4,16,1.2,2.7373,M,8.307,M,00,0004*6A
$GPHPD,0,0.000,299.53,-0.49,-15.04,31.5916477,120.7757539,2.737,13631058.483,24923890.426,2.737,0.000,0.000,0.000,0.000,0.000,0.000,0.000,16,16,4*7C
$GPGGA,033938.00,3135.4989046,N,12046.5451571,E,4,16,1.2,2.7336,M,8.307,M,01,0004*68
$GPHPD,0,0.000,299.91,-0.24,-15.05,31.5916484,120.7757526,2.734,13631057.752,24923889.261,2.734,0.000,0.000,0.000,0.000,0.000,0.000,0.000,16,16,4*77
$GPGGA,033938.20,3135.4989472,N,12046.5450790,E,4,16,1.2,2.7334,M,8.307,M,01,0004*67
$GPHPD,0,0.000,300.69,-0.48,-15.08,31.5916491,120.7757513,2.733,13631056.989,24923888.071,2.733,0.000,0.000,0.000,0.000,0.000,0.000,0.000,16,16,4*7F
$GPGGA,033938.40,3135.4989917,N,12046.5449992,E,4,16,1.2,2.7307,M,8.307,M,01,0004*6B
$GPHPD,0,0.000,301.14,-0.11,-15.09,31.5916499,120.7757500,2.731,13631056.196,24923886.850,2.731,0.000,0.000,0.000,0.000,0.000,0.000,0.000,16,16,4*70
$GPGGA,033938.60,3135.4990391,N,12046.5449201,E,4,16,1.2,2.7455,M,8.307,M,00,0004*65
$GPHPD,0,0.000,301.91,-0.18,-15.08,31.5916507,120.7757487,2.746,13631055.363,24923885.620,2.746,0.000,0.000,0.000,0.000,0.000,0.000,0.000,16,16,4*7C
$GPGGA,033938.80,3135.4990827,N,12046.5448361,E,4,16,1.2,2.7399,M,8.307,M,00,0004*6C
$GPHPD,0,0.000,302.47,-0.31,-15.04,31.5916514,120.7757473,2.740,13631054.575,24923884.353,2.740,0.000,0.000,0.000,0.000,0.000,0.000,0.000,16,16,4*7A
$GPGGA,033939.00,3135.4991338,N,12046.5447537,E,4,16,1.2,2.7404,M,8.307,M,01,0004*69
$GPHPD,0,0.000,303.06,-0.28,-15.01,31.5916522,120.7757459,2.740,13631053.683,24923883.062,2.740,0.000,0.000,0.000,0.000,0.000,0.000,0.000,16,16,4*75
$GPGGA,033939.20,3135.4991846,N,12046.5446696,E,4,16,1.2,2.7378,M,8.307,M,01,0004*6C
$GPHPD,0,0.000,303.51,-0.36,-15.00,31.5916531,120.7757445,2.738,13631052.791,24923881.752,2.738,0.000,0.000,0.000,0.000,0.000,0.000,0.000,16,16,4*73
$GPGGA,033939.40,3135.4992362,N,12046.5445823,E,4,16,1.2,2.7399,M,8.307,M,01,0004*68
$GPHPD,0,0.000,304.24,-0.42,-15.00,31.5916539,120.7757430,2.740,13631051.882,24923880.399,2.740,0.000,0.000,0.000,0.000,0.000,0.000,0.000,16,16,4*73
$GPGGA,033939.60,3135.4992918,N,12046.5444974,E,4,16,1.2,2.7363,M,8.307,M,01,0004*6A
$GPHPD,0,0.000,305.17,-0.44,-15.00,31.5916549,120.7757416,2.736,13631050.921,24923879.052,2.736,0.000,0.000,0.000,0.000,0.000,0.000,0.000,16,16,4*7C
$GPGGA,033939.80,3135.4993488,N,12046.5444081,E,4,16,1.2,2.7328,M,8.307,M,00,0004*6C
$GPHPD,0,0.000,305.65,-0.30,-14.98,31.5916558,120.7757401,2.733,13631049.931,24923877.643,2.733,0.000,0.000,0.000,0.000,0.000,0.000,0.000,16,16,4*7D
$GPGGA,033940.00,3135.4994069,N,12046.5443212,E,4,16,1.2,2.7378,M,8.307,M,01,0004*6D
$GPHPD,0,0.000,306.36,-0.24,-14.95,31.5916568,120.7757387,2.738,13631048.931,24923876.257,2.738,0.000,0.000,0.000,0.000,0.000,0.000,0.000,16,16,4*7B
$GPGGA,033940.20,3135.4994685,N,12046.5442328,E,4,16,1.2,2.7299,M,8.307,M,01,0004*6C
$GPHPD,0,0.000,307.22,-0.36,-14.91,31.5916578,120.7757372,2.730,13631047.877,24923874.833,2.730,0.000,0.000,0.000,0.000,0.000,0.000,0.000,16,16,4*75
$GPGGA,033940.40,3135.4995286,N,12046.5441474,E,4,16,1.2,2.7318,M,8.307,M,01,0004*69
$GPHPD,0,0.000,307.98,-0.30,-14.85,31.5916588,120.7757358,2.732,13631046.851,24923873.453,2.732,0.000,0.000,0.000,0.000,0.000,0.000,0.000,16,16,4*78
$GPGGA,033940.60,3135.4995848,N,12046.5440666,E,4,16,1.2,2.7272,M,8.307,M,00,0004*6F
$GPHPD,0,0.000,308.71,-0.36,-14.78,31.5916597,120.7757344,2.727,13631045.890,24923872.152,2.727,0.000,0.000,0.000,0.000,0.000,0.000,0.000,16,16,4*7C
$GPGGA,033940.80,3135.4996471,N,12046.5439856,E,4,16,1.2,2.7212,M,8.307,M,00,0004*61
$GPHPD,0,0.000,309.71,-0.50,-14.71,31.5916608,120.7757331,2.721,13631044.841,24923870.813,2.721,0.000,0.000,0.000,0.000,0.000,0.000,0.000,16,16,4*70
$GPGGA,033941.00,3135.4997089,N,12046.5439114,E,4,16,1.2,2.7303,M,8.307,M,01,0004*65
$GPHPD,0,0.000,310.39,-0.56,-14.66,31.5916618,120.7757319,2.730,13631043.813,24923869.558,2.730,0.000,0.000,0.000,0.000,0.000,0.000,0.000,16,16,4*75
$GPGGA,033941.20,3135.4997667,N,12046.5438339,E,4,16,1.2,2.7203,M,8.307,M,01,0004*6C
$GPHPD,0,0.000,311.09,-0.68,-14.61,31.5916628,120.7757306,2.720,13631042.836,24923868.287,2.720,0.000,0.000,0.000,0.000,0.000,0.000,0.000,16,16,4*72
$GPGGA,033941.40,3135.4998232,N,12046.5437653,E,4,16,1.2,2.7289,M,8.307,M,01,0004*65
$GPHPD,0,0.000,312.01,-0.20,-14.55,31.5916637,120.7757294,2.729,13631041.895,24923867.131,2.729,0.000,0.000,0.000,0.000,0.000,0.000,0.000,16,16,4*7D
$GPGGA,033941.60,3135.4998823,N,12046.5436981,E,4,16,1.2,2.7239,M,8.307,M,00,0004*66
$GPHPD,0,0.000,312.70,-0.55,-14.50,31.5916647,120.7757283,2.724,13631040.920,24923865.977,2.724,0.000,0.000,0.000,0.000,0.000,0.000,0.000,16,16,4*7B
$GPGGA,033941.80,3135.4999360,N,12046.5436345,E,4,16,1.2,2.7343,M,8.307,M,00,0004*6B
$GPHPD,0,0.000,313.19,-0.48,-14.46,31.5916656,120.7757272,2.734,13631040.028,24923864.897,2.734,0.000,0.000,0.000,0.000,0.000,0.000,0.000,16,16,4*7F
$GPGGA,033942.00,3135.4999914,N,12046.5435745,E,4,16,1.2,2.7348,M,8.307,M,01,0004*64
$GPHPD,0,0.000,313.82,-0.73,-14.42,31.5916665,120.7757262,2.735,13631039.120,24923863.851,2.735,0.000,0.000,0.000,0.000,0.000,0.000,0.000,16,16,4*7A
$GPGGA,033942.20,3135.5000426,N,12046.5435125,E,4,16,1.2,2.7356,M,8.307,M,01,0004*6D
$GPHPD,0,0.000,314.03,-0.80,-14.40,31.5916674,120.7757252,2.736,13631038.268,24923862.806,2.736,0.000,0.000,0.000,0.000,0.000,0.000,0.000,16,16,4*74
$GPGGA,033942.40,3135.5000953,N,12046.5434529,E,4,16,1.2,2.7311,M,8.307,M,01,0004*6E
$GPHPD,0,0.000,314.51,-0.58,-14.40,31.5916683,120.7757242,2.731,13631037.399,24923861.780,2.731,0.000,0.000,0.000,0.000,0.000,0.000,0.000,16,16,4*7D
$GPGGA,033942.60,3135.5001467,N,12046.5433896,E,4,16,1.2,2.7286,M,8.307,M,00,0004*67
$GPHPD,0,0.000,314.89,-0.69,-14.36,31.5916691,120.7757232,2.729,13631036.541,24923860.718,2.729,0.000,0.000,0.000,0.000,0.000,0.000,0.000,16,16,4*7D
$GPGGA,033942.80,3135.5001975,N,12046.5433342,E,4,16,1.2,2.7232,M,8.307,M,00,0004*6A
$GPHPD,0,0.000,315.15,-0.85,-14.33,31.5916700,120.7757222,2.723,13631035.707,24923859.754,2.723,0.000,0.000,0.000,0.000,0.000,0.000,0.000,16,16,4*77
$GPGGA,033943.00,3135.5002477,N,12046.5432777,E,4,16,1.2,2.7235,M,8.307,M,01,0004*6A
$GPHPD,0,0.000,315.19,-0.77,-14.32,31.5916708,120.7757213,2.724,13631034.880,24923858.781,2.724,0.000,0.000,0.000,0.000,0.000,0.000,0.000,16,16,4*75
$GPGGA,033943.20,3135.5002996,N,12046.5432212,E,4,16,1.2,2.7232,M,8.307,M,01,0004*6B
$GPHPD,0,0.000,315.40,-0.61,-14.31,31.5916717,120.7757204,2.723,13631034.029,24923857.797,2.723,0.000,0.000,0.000,0.000,0.000,0.000,0.000,16,16,4*76
$GPGGA,033943.40,3135.5003497,N,12046.5431644,E,4,16,1.2,2.7238,M,8.307,M,01,0004*6E
$GPHPD,0,0.000,315.61,-0.60,-14.29,31.5916725,120.7757194,2.724,13631033.202,24923856.821,2.724,0.000,0.000,0.000,0.000,0.000,0.000,0.000,16,16,4*79
$GPGGA,033943.60,3135.5004045,N,12046.5431066,E,4,16,1.2,2.7187,M,8.307,M,00,0004*60
$GPHPD,0,0.000,316.01,-0.49,-14.28,31.5916734,120.7757184,2.719,13631032.307,24923855.805,2.719,0.000,0.000,0.000,0.000,0.000,0.000,0.000,16,16,4*77
$GPGGA,033943.80,3135.5004577,N,12046.5430499,E,4,16,1.2,2.7247,M,8.307,M,00,0004*60
$GPHPD,0,0.000,316.30,-0.39,-14.29,31.5916743,120.7757175,2.725,13631031.437,24923854.811,2.725,0.000,0.000,0.000,0.000,0.000,0.000,0.000,16,16,4*7E
$GPGGA,033944.00,3135.5005135,N,12046.5429888,E,4,16,1.2,2.7222,M,8.307,M,01,0004*6A
$GPHPD,0,0.000,316.37,-0.76,-14.31,31.5916752,120.7757165,2.722,13631030.521,24923853.750,2.722,0.000,0.000,0.000,0.000,0.000,0.000,0.000,16,16,4*70
$GPGGA,033944.20,3135.5005744,N,12046.5429288,E,4,16,1.2,2.7213,M,8.307,M,01,0004*60
$GPHPD,0,0.000,316.64,-0.71,-14.33,31.5916762,120.7757155,2.721,13631029.535,24923852.672,2.721,0.000,0.000,0.000,0.000,0.000,0.000,0.000,16,16,4*7E
$GPGGA,033944.40,3135.5006360,N,12046.5428634,E,4,16,1.2,2.7240,M,8.307,M,01,0004*63
$GPHPD,0,0.000,316.72,-0.80,-14.37,31.5916773,120.7757144,2.724,13631028.528,24923851.525,2.724,0.000,0.000,0.000,0.000,0.000,0.000,0.000,16,16,4*7C
$GPGGA,033944.60,3135.5007025,N,12046.5427906,E,4,16,1.2,2.7119,M,8.307,M,01,0004*6C
$GPHPD,0,0.000,317.10,-1.03,-14.39,31.5916784,120.7757132,2.712,13631027.436,24923850.260,2.712,0.000,0.000,0.000,0.000,0.000,0.000,0.000,16,16,4*72
$GPGGA,033944.80,3135.5007695,N,12046.5427231,E,4,16,1.2,2.7098,M,8.307,M,00,0004*69
$GPHPD,0,0.000,317.25,-0.88,-14.42,31.5916795,120.7757121,2.710,13631026.348,24923849.056,2.710,0.000,0.000,0.000,0.000,0.000,0.000,0.000,16,16,4*78
$GPGGA,033945.00,3135.5008382,N,12046.5426516,E,4,16,1.2,2.7158,M,8.307,M,01,0004*63
$GPHPD,0,0.000,317.32,-0.63,-14.45,31.5916806,120.7757109,2.716,13631025.227,24923847.794,2.716,0.000,0.000,0.000,0.000,0.000,0.000,0.000,16,16,4*7F
$GPGGA,033945.20,3135.5009074,N,12046.5425744,E,4,16,1.2,2.7129,M,8.307,M,01,0004*6A
$GPHPD,0,0.000,317.64,-0.77,-14.48,31.5916818,120.7757096,2.713,13631024.089,24923846.460,2.713,0.000,0.000,0.000,0.000,0.000,0.000,0.000,16,16,4*72
$GPGGA,033945.40,3135.5009793,N,12046.5425048,E,4,16,1.2,2.7149,M,8.307,M,01,0004*6F
$GPHPD,0,0.000,317.92,-0.98,-14.49,31.5916830,120.7757084,2.715,13631022.927,24923845.202,2.715,0.000,0.000,0.000,0.000,0.000,0.000,0.000,16,16,4*78
$GPGGA,033945.60,3135.5010477,N,12046.5424315,E,4,16,1.2,2.7069,M,8.307,M,00,0004*64
$GPHPD,0,0.000,318.34,-0.76,-14.52,31.5916841,120.7757072,2.707,13631021.807,24923843.920,2.707,0.000,0.000,0.000,0.000,0.000,0.000,0.000,16,16,4*73
$GPGGA,033945.80,3135.5011161,N,12046.5423609,E,4,16,1.2,2.7042,M,8.307,M,00,0004*6F
$GPHPD,0,0.000,318.31,-0.69,-14.53,31.5916853,120.7757060,2.704,13631020.693,24923842.671,2.704,0.000,0.000,0.000,0.000,0.000,0.000,0.000,16,16,4*71
$GPGGA,033946.00,3135.5011828,N,12046.5422964,E,4,16,1.2,2.7079,M,8.307,M,01,0004*6C
$GPHPD,0,0.000,318.42,-0.72,-14.53,31.5916864,120.7757049,2.708,13631019.615,24923841.505,2.708,0.000,0.000,0.000,0.000,0.000,0.000,0.000,16,16,4*77
$GPGGA,033946.20,3135.5012521,N,12046.5422313,E,4,16,1.2,2.7048,M,8.307,M,01,0004*61
$GPHPD,0,0.000,318.47,-0.78,-14.51,31.5916875,120.7757039,2.705,13631018.499,24923840.317,2.705,0.000,0.000,0.000,0.000,0.000,0.000,0.000,16,16,4*7E
$GPGGA,033946.40,3135.5013168,N,12046.5421667,E,4,16,1.2,2.7047,M,8.307,M,01,0004*65
$GPHPD,0,0.000,318.41,-0.77,-14.51,31.5916886,120.7757028,2.705,13631017.449,24923839.161,2.705,0.000,0.000,0.000,0.000,0.000,0.000,0.000,16,16,4*74
$GPGGA,033946.60,3135.5013781,N,12046.5421022,E,4,16,1.2,2.6973,M,8.307,M,00,0004*6F
$GPHPD,0,0.000,318.54,-0.48,-14.53,31.5916896,120.7757017,2.697,13631016.448,24923838.026,2.697,0.000,0.000,0.000,0.000,0.000,0.000,0.000,16,16,4*70
$GPGGA,033946.80,3135.5014422,N,12046.5420362,E,4,16,1.2,2.7007,M,8.307,M,00,0004*61
$GPHPD,0,0.000,318.87,-0.02,-14.54,31.5916907,120.7757006,2.701,13631015.404,24923836.858,2.701,0.000,0.000,0.000,0.000,0.000,0.000,0.000,16,16,4*7A
$GPGGA,033947.00,3135.5015108,N,12046.5419734,E,4,16,1.2,2.6995,M,8.307,M,01,0004*6B
$GPHPD,0,0.000,319.29,-0.50,-14.57,31.5916918,120.7756996,2.700,13631014.303,24923835.701,2.700,0.000,0.000,0.000,0.000,0.000,0.000,0.000,16,16,4*75
$GPGGA,033947.20,3135.5015758,N,12046.5419152,E,4,16,1.2,2.6918,M,8.307,M,01,0004*69
$GPHPD,0,0.000,319.35,-0.41,-14.60,31.5916929,120.7756986,2.692,13631013.262,24923834.621,2.692,0.000,0.000,0.000,0.000,0.000,0.000,0.000,16,16,4*7C
$GPGGA,033947.40,3135.5016443,N,12046.5418547,E,4,16,1.2,2.6874,M,8.307,M,01,0004*6F
$GPHPD,0,0.000,319.76,-0.33,-14.63,31.5916941,120.7756976,2.687,13631012.167,24923833.493,2.687,0.000,0.000,0.000,0.000,0.000,0.000,0.000,16,16,4*77
$GPGGA,033947.60,3135.5017098,N,12046.5417920,E,4,16,1.2,2.6830,M,8.307,M,01,0004*6C
$GPHPD,0,0.000,319.39,-0.31,-14.65,31.5916952,120.7756965,2.683,13631011.109,24923832.355,2.683,0.000,0.000,0.000,0.000,0.000,0.000,0.000,16,16,4*7F
$GPGGA,033947.80,3135.5017800,N,12046.5417275,E,4,16,1.2,2.6866,M,8.307,M,00,0004*62
$GPHPD,0,0.000,319.62,-0.17,-14.65,31.5916963,120.7756955,2.687,13631009.982,24923831.169,2.687,0.000,0.000,0.000,0.000,0.000,0.000,0.000,16,16,4*78
$GPGGA,033948.00,3135.5018443,N,12046.5416591,E,4,16,1.2,2.6839,M,8.307,M,01,0004*66
$GPHPD,0,0.000,320.22,-0.23,-14.63,31.5916974,120.7756943,2.684,13631008.930,24923829.970,2.684,0.000,0.000,0.000,0.000,0.000,0.000,0.000,16,16,4*77
$GPGGA,033948.20,3135.5019163,N,12046.5415910,E,4,16,1.2,2.6877,M,8.307,M,01,0004*6E
$GPHPD,0,0.000,320.57,0.07,-14.62,31.5916986,120.7756932,2.688,13631007.770,24923828.730,2.688,0.000,0.000,0.000,0.000,0.000,0.000,0.000,16,16,4*5A
$GPGGA,033948.40,3135.5019837,N,12046.5415277,E,4,16,1.2,2.6856,M,8.307,M,01,0004*69
$GPHPD,0,0.000,320.61,-0.22,-14.61,31.5916997,120.7756921,2.686,13631006.685,24923827.574,2.686,0.000,0.000,0.000,0.000,0.000,0.000,0.000,16,16,4*73
$GPGGA,033948.60,3135.5020549,N,12046.5414592,E,4,16,1.2,2.6864,M,8.307,M,00,0004*68
$GPHPD,0,0.000,320.74,-0.70,-14.60,31.5917009,120.7756910,2.686,13631005.535,24923826.334,2.686,0.000,0.000,0.000,0.000,0.000,0.000,0.000,16,16,4*74
$GPGGA,033948.80,3135.5021290,N,12046.5413958,E,4,16,1.2,2.6878,M,8.307,M,00,0004*64
$GPHPD,0,0.000,320.71,-0.66,-14.61,31.5917022,120.7756899,2.688,13631004.354,24923825.138,2.688,0.000,0.000,0.000,0.000,0.000,0.000,0.000,16,16,4*73
$GPGGA,033949.00,3135.5022029,N,12046.5413295,E,4,16,1.2,2.6919,M,8.307,M,01,0004*63
$GPHPD,0,0.000,320.74,-0.70,-14.60,31.5917034,120.7756888,2.692,13631003.170,24923823.908,2.692,0.000,0.000,0.000,0.000,0.000,0.000,0.000,16,16,4*79
$GPGGA,033949.20,3135.5022778,N,12046.5412569,E,4,16,1.2,2.6896,M,8.307,M,01,0004*61
$GPHPD,0,0.000,320.81,-0.76,-14.57,31.5917046,120.7756876,2.690,13631001.960,24923822.597,2.690,0.000,0.000,0.000,0.000,0.000,0.000,0.000,16,16,4*75
$GPGGA,033949.40,3135.5023546,N,12046.5411827,E,4,16,1.2,2.6859,M,8.307,M,01,0004*6E
$GPHPD,0,0.000,321.39,-1.18,-14.56,31.5917059,120.7756864,2.686,13631000.719,24923821.255,2.686,0.000,0.000,0.000,0.000,0.000,0.000,0.000,16,16,4*79
$GPGGA,033949.60,3135.5024376,N,12046.5411154,E,4,16,1.2,2.6866,M,8.307,M,00,0004*6E
$GPHPD,0,0.000,321.52,-0.97,-14.58,31.5917073,120.7756853,2.687,13630999.404,24923819.960,2.687,0.000,0.000,0.000,0.000,0.000,0.000,0.000,16,16,4*71
$GPGGA,033949.80,3135.5025276,N,12046.5410397,E,4,16,1.2,2.6913,M,8.307,M,00,0004*6F
$GPHPD,0,0.000,321.51,-0.60,-14.64,31.5917088,120.7756840,2.691,13630997.972,24923818.524,2.691,0.000,0.000,0.000,0.000,0.000,0.000,0.000,16,16,4*7C
$GPGGA,033950.00,3135.5026176,N,12046.5409559,E,4,16,1.2,2.6862,M,8.307,M,01,0004*65
$GPHPD,0,0.000,321.98,-0.87,-14.70,31.5917103,120.7756826,2.686,13630996.524,24923816.989,2.686,0.000,0.000,0.000,0.000,0.000,0.000,0.000,16,16,4*7C
$GPGGA,033950.20,3135.5027146,N,12046.5408752,E,4,16,1.2,2.6892,M,8.307,M,01,0004*62
$GPHPD,0,0.000,322.66,-1.20,-14.72,31.5917119,120.7756813,2.689,13630994.983,24923815.452,2.689,0.000,0.000,0.000,0.000,0.000,0.000,0.000,16,16,4*76
$GPGGA,033950.40,3135.5028172,N,12046.5407893,E,4,16,1.2,2.6843,M,8.307,M,01,0004*6D
$GPHPD,0,0.000,322.94,-0.71,-14.75,31.5917136,120.7756798,2.684,13630993.352,24923813.819,2.684,0.000,0.000,0.000,0.000,0.000,0.000,0.000,16,16,4*7C
$GPGGA,033950.60,3135.5029197,N,12046.5407063,E,4,16,1.2,2.6749,M,8.307,M,00,0004*66
$GPHPD,0,0.000,323.21,-0.26,-14.81,31.5917153,120.7756784,2.675,13630991.728,24923812.221,2.675,0.000,0.000,0.000,0.000,0.000,0.000,0.000,16,16,4*7F
$GPGGA,033950.80,3135.5030210,N,12046.5406112,E,4,16,1.2,2.6564,M,8.307,M,00,0004*67
$GPHPD,0,0.000,323.20,-0.10,-14.92,31.5917170,120.7756769,2.656,13630990.097,24923810.485,2.656,0.000,0.000,0.000,0.000,0.000,0.000,0.000,16,16,4*73
$GPGGA,033951.00,3135.5031301,N,12046.5405252,E,4,16,1.2,2.6765,M,8.307,M,01,0004*68
$GPHPD,0,0.000,323.73,-0.51,-14.88,31.5917188,120.7756754,2.677,13630988.373,24923808.813,2.677,0.000,0.000,0.000,0.000,0.000,0.000,0.000,16,16,4*78
$GPGGA,033951.20,3135.5032377,N,12046.5404369,E,4,16,1.2,2.6767,M,8.307,M,01,0004*62
$GPHPD,0,0.000,323.39,-0.49,-14.76,31.5917206,120.7756739,2.677,13630986.666,24923807.122,2.677,0.000,0.000,0.000,0.000,0.000,0.000,0.000,16,15,4*78
$GPGGA,033951.40,3135.5033407,N,12046.5403554,E,4,16,1.2,2.6714,M,8.307,M,01,0004*6E
$GPHPD,0,0.000,323.08,-0.22,-14.68,31.5917223,120.7756726,2.671,13630985.038,24923805.539,2.671,0.000,0.000,0.000,0.000,0.000,0.000,0.000,16,15,4*73
$GPGGA,033951.60,3135.5034386,N,12046.5402717,E,4,16,1.2,2.6733,M,8.307,M,00,0004*65
$GPHPD,0,0.000,323.14,-0.14,-14.65,31.5917240,120.7756712,2.673,13630983.478,24923803.960,2.673,0.000,0.000,0.000,0.000,0.000,0.000,0.000,16,15,4*74
$GPGGA,033951.80,3135.5035406,N,12046.5401944,E,4,16,1.2,2.6711,M,8.307,M,00,0004*6E
$GPHPD,0,0.000,323.57,-0.59,-14.62,31.5917257,120.7756699,2.671,13630981.873,24923802.434,2.671,0.000,0.000,0.000,0.000,0.000,0.000,0.000,16,15,4*71
$GPGGA,033952.00,3135.5036359,N,12046.5401100,E,4,16,1.2,2.6616,M,8.307,M,01,0004*64
$GPHPD,0,0.000,323.65,-0.32,-14.57,31.5917273,120.7756685,2.662,13630980.349,24923800.862,2.662,0.000,0.000,0.000,0.000,0.000,0.000,0.000,16,15,4*7E
$GPGGA,033952.20,3135.5037364,N,12046.5400397,E,4,16,1.4,2.6532,M,8.307,M,01,0004*67
$GPHPD,0,0.000,323.60,0.13,-14.55,31.5917289,120.7756673,2.653,13630978.779,24923799.429,2.653,0.000,0.000,0.000,0.000,0.000,0.000,0.000,16,15,4*57
$GPGGA,033952.40,3135.5038305,N,12046.5399630,E,4,16,1.4,2.6428,M,8.307,M,01,0004*6C
$GPHPD,0,0.000,323.91,-0.87,-14.52,31.5917305,120.7756661,2.643,13630977.287,24923797.957,2.643,0.000,0.000,0.000,0.000,0.000,0.000,0.000,16,15,4*79
$GPGGA,033952.60,3135.5039223,N,12046.5398796,E,4,16,1.4,2.6569,M,8.307,M,00,0004*63
$GPHPD,0,0.000,324.44,-0.81,-14.51,31.5917320,120.7756647,2.657,13630975.815,24923796.417,2.657,0.000,0.000,0.000,0.000,0.000,0.000,0.000,16,16,4*78
$GPGGA,033952.80,3135.5040208,N,12046.5398000,E,4,16,1.4,2.6528,M,8.307,M,00,0004*67
$GPHPD,0,0.000,325.46,-0.87,-14.50,31.5917337,120.7756633,2.653,13630974.254,24923794.884,2.653,0.000,0.000,0.000,0.000,0.000,0.000,0.000,16,16,4*73
$GPGGA,033953.00,3135.5041183,N,12046.5397277,E,4,16,1.4,2.6473,M,8.307,M,01,0004*6C
$GPHPD,0,0.000,325.66,-1.15,-14.50,31.5917353,120.7756621,2.647,13630972.723,24923793.444,2.647,0.000,0.000,0.000,0.000,0.000,0.000,0.000,16,16,4*7E
$GPGGA,033953.20,3135.5042121,N,12046.5396480,E,4,16,1.4,2.6508,M,8.307,M,01,0004*67
$GPHPD,0,0.000,325.61,-1.10,-14.51,31.5917369,120.7756608,2.651,13630971.230,24923791.937,2.651,0.000,0.000,0.000,0.000,0.000,0.000,0.000,16,16,4*70
$GPGGA,033953.40,3135.5043048,N,12046.5395703,E,4,16,1.4,2.6529,M,8.307,M,01,0004*66
$GPHPD,0,0.000,325.77,-1.37,-14.54,31.5917384,120.7756595,2.653,13630969.756,24923790.461,2.653,0.000,0.000,0.000,0.000,0.000,0.000,0.000,16,16,4*70
$GPGGA,033953.60,3135.5044028,N,12046.5395005,E,4,16,1.2,2.6366,M,8.307,M,00,0004*6E
$GPHPD,0,0.000,326.26,-1.75,-14.53,31.5917400,120.7756583,2.637,13630968.222,24923789.049,2.637,0.000,0.000,0.000,0.000,0.000,0.000,0.000,16,16,4*7B
$GPGGA,033953.80,3135.5044980,N,12046.5394245,E,4,16,1.2,2.6305,M,8.307,M,00,0004*69
$GPHPD,0,0.000,325.75,-0.80,-14.55,31.5917416,120.7756571,2.631,13630966.716,24923787.578,2.631,0.000,0.000,0.000,0.000,0.000,0.000,0.000,16,16,4*7C
$GPGGA,033954.00,3135.5045955,N,12046.5393511,E,4,16,1.2,2.6318,M,8.307,M,01,0004*63
$GPHPD,0,0.000,325.46,-0.46,-14.56,31.5917433,120.7756559,2.632,13630965.183,24923786.125,2.632,0.000,0.000,0.000,0.000,0.000,0.000,0.000,16,16,4*7C
$GPGGA,033954.20,3135.5046931,N,12046.5392733,E,4,16,1.2,2.6406,M,8.307,M,01,0004*6B
$GPHPD,0,0.000,325.34,-0.84,-14.57,31.5917449,120.7756546,2.641,13630963.639,24923784.619,2.641,0.000,0.000,0.000,0.000,0.000,0.000,0.000,16,16,4*7F
$GPGGA,033954.40,3135.5047924,N,12046.5391993,E,4,16,1.2,2.6184,M,8.307,M,01,0004*60
$GPHPD,0,0.000,325.36,-0.92,-14.59,31.5917465,120.7756533,2.618,13630962.079,24923783.149,2.618,0.000,0.000,0.000,0.000,0.000,0.000,0.000,16,16,4*7E
$GPGGA,033954.60,3135.5048900,N,12046.5391198,E,4,16,1.2,2.6225,M,8.307,M,01,0004*60
$GPHPD,0,0.000,325.08,-0.39,-14.58,31.5917482,120.7756520,2.623,13630960.532,24923781.622,2.623,0.000,0.000,0.000,0.000,0.000,0.000,0.000,16,16,4*78
$GPGGA,033954.80,3135.5049966,N,12046.5390439,E,4,16,1.2,2.6187,M,8.307,M,01,0004*6B
$GPHPD,0,0.000,325.01,-0.78,-14.60,31.5917499,120.7756507,2.619,13630958.864,24923780.086,2.619,0.000,0.000,0.000,0.000,0.000,0.000,0.000,16,16,4*7C
$GPGGA,033955.00,3135.5050951,N,12046.5389600,E,4,16,1.2,2.6242,M,8.307,M,02,0004*67
$GPHPD,0,0.000,324.72,-0.30,-14.64,31.5917516,120.7756493,2.624,13630957.295,24923778.501,2.624,0.000,0.000,0.000,0.000,0.000,0.000,0.000,16,16,4*7D
$GPGGA,033955.20,3135.5051995,N,12046.5388759,E,4,16,1.2,2.6239,M,8.307,M,02,0004*6C
$GPHPD,0,0.000,324.87,-0.50,-14.68,31.5917533,120.7756479,2.624,13630955.642,24923776.880,2.624,0.000,0.000,0.000,0.000,0.000,0.000,0.000,16,16,4*78
$GPGGA,033955.40,3135.5053057,N,12046.5387928,E,4,16,1.2,2.6202,M,8.307,M,02,0004*60
$GPHPD,0,0.000,325.00,-0.55,-14.67,31.5917551,120.7756465,2.620,13630953.965,24923775.259,2.620,0.000,0.000,0.000,0.000,0.000,0.000,0.000,16,16,4*74
$GPGGA,033955.60,3135.5054113,N,12046.5387107,E,4,16,1.2,2.6280,M,8.307,M,02,0004*6B
$GPHPD,0,0.000,325.10,-0.46,-14.66,31.5917569,120.7756452,2.628,13630952.299,24923773.655,2.628,0.000,0.000,0.000,0.000,0.000,0.000,0.000,16,16,4*7E
$GPGGA,033955.80,3135.5055178,N,12046.5386192,E,4,16,1.2,2.6137,M,8.307,M,00,0004*69
$GPHPD,0,0.000,325.02,-0.96,-14.67,31.5917586,120.7756437,2.614,13630950.601,24923771.932,2.614,0.000,0.000,0.000,0.000,0.000,0.000,0.000,16,16,4*78
$GPGGA,033956.00,3135.5056275,N,12046.5385387,E,4,16,1.2,2.6065,M,8.307,M,01,0004*6D
$GPHPD,0,0.000,324.91,-0.11,-14.68,31.5917605,120.7756423,2.607,13630948.880,24923770.322,2.607,0.000,0.000,0.000,0.000,0.000,0.000,0.000,16,16,4*7A
$GPGGA,033956.20,3135.5057371,N,12046.5384486,E,4,16,1.2,2.6134,M,8.307,M,01,0004*69
$GPHPD,0,0.000,324.58,0.42,-14.68,31.5917623,120.7756408,2.613,13630947.141,24923768.598,2.613,0.000,0.000,0.000,0.000,0.000,0.000,0.000,16,16,4*5C
$GPGGA,033956.40,3135.5058515,N,12046.5383660,E,4,16,1.2,2.5998,M,8.307,M,01,0004*64
$GPHPD,0,0.000,324.88,-0.32,-14.71,31.5917642,120.7756394,2.600,13630945.349,24923766.936,2.600,0.000,0.000,0.000,0.000,0.000,0.000,0.000,16,16,4*78
$GPGGA,033956.60,3135.5059633,N,12046.5382739,E,4,16,1.2,2.6139,M,8.307,M,00,0004*6D
$GPHPD,0,0.000,324.65,0.29,-14.73,31.5917661,120.7756379,2.614,13630943.575,24923765.175,2.614,0.000,0.000,0.000,0.000,0.000,0.000,0.000,16,16,4*5F
$GPGGA,033956.80,3135.5060728,N,12046.5381796,E,4,16,1.2,2.6126,M,8.307,M,00,0004*6A
$GPHPD,0,0.000,324.78,0.20,-14.71,31.5917679,120.7756363,2.613,13630941.828,24923763.400,2.613,0.000,0.000,0.000,0.000,0.000,0.000,0.000,16,16,4*5C
$GPGGA,033957.00,3135.5061853,N,12046.5380877,E,4,16,1.2,2.6091,M,8.307,M,01,0004*6C
$GPHPD,0,0.000,325.53,-0.28,-14.73,31.5917698,120.7756348,2.609,13630940.045,24923761.637,2.609,0.000,0.000,0.000,0.000,0.000,0.000,0.000,16,16,4*73
$GPGGA,033957.20,3135.5063023,N,12046.5379933,E,4,16,1.2,2.6112,M,8.307,M,01,0004*6E
$GPHPD,0,0.000,325.42,-0.35,-14.72,31.5917717,120.7756332,2.611,13630938.192,24923759.818,2.611,0.000,0.000,0.000,0.000,0.000,0.000,0.000,16,16,4*79
$GPGGA,033957.40,3135.5064210,N,12046.5379053,E,4,16,1.2,2.6245,M,8.307,M,01,0004*63
$GPHPD,0,0.000,325.68,-0.19,-14.74,31.5917737,120.7756318,2.625,13630936.327,24923758.066,2.625,0.000,0.000,0.000,0.000,0.000,0.000,0.000,16,16,4*71
$GPGGA,033957.60,3135.5065402,N,12046.5378119,E,4,16,1.2,2.6246,M,8.307,M,00,0004*69
$GPHPD,0,0.000,325.72,-1.18,-14.72,31.5917757,120.7756302,2.625,13630934.445,24923756.246,2.625,0.000,0.000,0.000,0.000,0.000,0.000,0.000,16,16,4*7E
$GPGGA,033957.80,3135.5066571,N,12046.5377143,E,4,16,1.2,2.6251,M,8.307,M,00,0004*67
$GPHPD,0,0.000,325.45,-0.98,-14.69,31.5917776,120.7756286,2.625,13630932.587,24923754.389,2.625,0.000,0.000,0.000,0.000,0.000,0.000,0.000,16,16,4*7E
$GPGGA,033958.00,3135.5067822,N,12046.5376328,E,4,16,1.2,2.6211,M,8.307,M,01,0004*61
$GPHPD,0,0.000,325.81,-0.58,-14.69,31.5917797,120.7756272,2.621,13630930.645,24923752.678,2.621,0.000,0.000,0.000,0.000,0.000,0.000,0.000,16,16,4*7C
$GPGGA,033958.20,3135.5068973,N,12046.5375331,E,4,16,1.2,2.6136,M,8.307,M,01,0004*64
$GPHPD,0,0.000,324.44,-0.92,-14.67,31.5917816,120.7756256,2.614,13630928.809,24923750.805,2.614,0.000,0.000,0.000,0.000,0.000,0.000,0.000,16,16,4*75
$GPGGA,033958.40,3135.5070183,N,12046.5374379,E,4,16,1.2,2.6078,M,8.307,M,01,0004*6A
$GPHPD,0,0.000,324.44,-1.09,-14.64,31.5917836,120.7756240,2.608,13630926.897,24923748.953,2.608,0.000,0.000,0.000,0.000,0.000,0.000,0.000,16,16,4*72
$GPGGA,033958.60,3135.5071374,N,12046.5373463,E,4,16,1.2,2.5977,M,8.307,M,00,0004*6C
$GPHPD,0,0.000,324.99,-0.16,-14.65,31.5917856,120.7756224,2.598,13630925.020,24923747.155,2.598,0.000,0.000,0.000,0.000,0.000,0.000,0.000,16,16,4*7E
$GPGGA,033958.80,3135.5072601,N,12046.5372533,E,4,16,1.2,2.5898,M,8.307,M,00,0004*63
$GPHPD,0,0.000,325.16,-1.23,-14.65,31.5917877,120.7756209,2.590,13630923.089,24923745.320,2.590,0.000,0.000,0.000,0.000,0.000,0.000,0.000,16,16,4*74
$GPGGA,033959.00,3135.5073799,N,12046.5371582,E,4,16,1.2,2.5940,M,8.307,M,01,0004*67
$GPHPD,0,0.000,324.83,-0.65,-14.64,31.5917897,120.7756193,2.594,13630921.195,24923743.476,2.594,0.000,0.000,0.000,0.000,0.000,0.000,0.000,16,16,4*79
$GPGGA,033959.20,3135.5075001,N,12046.5370540,E,4,16,1.2,2.5942,M,8.307,M,01,0004*68
$GPHPD,0,0.000,324.87,-1.03,-14.65,31.5917917,120.7756176,2.594,13630919.277,24923741.520,2.594,0.000,0.000,0.000,0.000,0.000,0.000,0.000,16,16,4*7B
$GPGGA,033959.40,3135.5076273,N,12046.5369597,E,4,16,1.2,2.6055,M,8.307,M,01,0004*64
$GPHPD,0,0.000,326.13,-1.34,-14.66,31.5917938,120.7756160,2.606,13630917.279,24923739.642,2.606,0.000,0.000,0.000,0.000,0.000,0.000,0.000,16,16,4*71
$GPGGA,033959.60,3135.5077494,N,12046.5368623,E,4,16,1.2,2.6040,M,8.307,M,00,0004*60
$GPHPD,0,0.000,325.72,-0.94,-14.67,31.5917958,120.7756144,2.604,13630915.348,24923737.757,2.604,0.000,0.000,0.000,0.000,0.000,0.000,0.000,16,16,4*75
$GPGGA,033959.80,3135.5078775,N,12046.5367623,E,4,16,1.2,2.6059,M,8.307,M,00,0004*6A
$GPHPD,0,0.000,325.95,-0.88,-14.68,31.5917980,120.7756127,2.606,13630913.326,24923735.806,2.606,0.000,0.000,0.000,0.000,0.000,0.000,0.000,16,16,4*79
$GPGGA,034000.00,3135.5080032,N,12046.5366749,E,4,16,1.3,2.5677,M,8.307,M,01,0004*66
$GPHPD,0,0.000,325.68,-1.13,-14.68,31.5918001,120.7756112,2.568,13630911.364,24923734.020,2.568,0.000,0.000,0.000,0.000,0.000,0.000,0.000,16,16,4*78
$GPGGA,034000.20,3135.5081259,N,12046.5365781,E,4,15,1.3,2.5568,M,8.307,M,01,0004*63
$GPHPD,0,0.000,325.79,-1.27,-14.67,31.5918021,120.7756096,2.557,13630909.425,24923732.139,2.557,0.000,0.000,0.000,0.000,0.000,0.000,0.000,15,15,4*7B
$GPGGA,034000.40,3135.5082484,N,12046.5364799,E,4,15,1.3,2.5485,M,8.307,M,01,0004*6A
$GPHPD,0,0.000,325.32,0.17,-14.67,31.5918041,120.7756080,2.549,13630907.486,24923730.241,2.549,0.000,0.000,0.000,0.000,0.000,0.000,0.000,15,15,4*53
$GPGGA,034000.60,3135.5083720,N,12046.5363800,E,4,15,1.3,2.5535,M,8.307,M,00,0004*67
$GPHPD,0,0.000,325.12,-0.05,-14.66,31.5918062,120.7756063,2.554,13630905.529,24923728.317,2.554,0.000,0.000,0.000,0.000,0.000,0.000,0.000,15,15,4*7F
$GPGGA,034000.80,3135.5084942,N,12046.5362814,E,4,15,1.3,2.5563,M,8.307,M,00,0004*63
$GPHPD,0,0.000,325.27,0.00,-14.64,31.5918082,120.7756047,2.556,13630903.593,24923726.417,2.556,0.000,0.000,0.000,0.000,0.000,0.000,0.000,15,15,4*55
$GPGGA,034001.00,3135.5086174,N,12046.5361828,E,4,15,1.5,2.5548,M,8.307,M,01,0004*67
$GPHPD,0,0.000,325.04,-0.68,-14.63,31.5918103,120.7756030,2.555,13630901.644,24923724.511,2.555,0.000,0.000,0.000,0.000,0.000,0.000,0.000,15,15,4*76
$GPGGA,034001.20,3135.5087442,N,12046.5360825,E,4,16,1.2,2.5616,M,8.307,M,01,0004*64
$GPHPD,0,0.000,325.10,-1.01,-14.62,31.5918124,120.7756014,2.562,13630899.640,24923722.563,2.562,0.000,0.000,0.000,0.000,0.000,0.000,0.000,16,15,4*7B
$GPGGA,034001.40,3135.5088640,N,12046.5359841,E,4,16,1.2,2.5584,M,8.307,M,01,0004*6D
$GPHPD,0,0.000,324.92,-0.55,-14.61,31.5918144,120.7755997,2.558,13630897.739,24923720.680,2.558,0.000,0.000,0.000,0.000,0.000,0.000,0.000,16,16,4*7A
$GPGGA,034001.60,3135.5089889,N,12046.5358878,E,4,16,1.2,2.5507,M,8.307,M,00,0004*64
$GPHPD,0,0.000,324.51,-0.83,-14.60,31.5918165,120.7755981,2.551,13630895.770,24923718.791,2.551,0.000,0.000,0.000,0.000,0.000,0.000,0.000,16,16,4*7E
$GPGGA,034001.80,3135.5091122,N,12046.5357918,E,4,16,1.2,2.5543,M,8.307,M,00,0004*63
$GPHPD,0,0.000,324.20,0.15,-14.60,31.5918185,120.7755965,2.554,13630893.824,24923716.916,2.554,0.000,0.000,0.000,0.000,0.000,0.000,0.000,16,16,4*59
$GPGGA,034002.00,3135.5092356,N,12046.5356945,E,4,16,1.2,2.5424,M,8.307,M,01,0004*62
$GPHPD,0,0.000,323.89,-0.15,-14.62,31.5918206,120.7755949,2.542,13630891.875,24923715.025,2.542,0.000,0.000,0.000,0.000,0.000,0.000,0.000,16,16,4*78
$GPGGA,034002.20,3135.5093563,N,12046.5355959,E,4,16,1.2,2.5430,M,8.307,M,01,0004*6A
$GPHPD,0,0.000,323.94,0.34,-14.62,31.5918226,120.7755933,2.543,13630889.961,24923713.133,2.543,0.000,0.000,0.000,0.000,0.000,0.000,0.000,16,16,4*58
$GPGGA,034002.40,3135.5094777,N,12046.5355012,E,4,15,1.4,2.5444,M,8.307,M,01,0004*6C
$GPHPD,0,0.000,324.52,-0.17,-14.60,31.5918246,120.7755917,2.544,13630888.045,24923711.285,2.544,0.000,0.000,0.000,0.000,0.000,0.000,0.000,15,16,4*7A
$GPGGA,034002.60,3135.5095951,N,12046.5353959,E,4,16,1.4,2.5452,M,8.307,M,00,0004*60
$GPHPD,0,0.000,324.05,-0.39,-14.60,31.5918266,120.7755899,2.545,13630886.164,24923709.331,2.545,0.000,0.000,0.000,0.000,0.000,0.000,0.000,16,16,4*79
$GPGGA,034002.80,3135.5097163,N,12046.5352956,E,4,16,1.4,2.5710,M,8.307,M,00,0004*6E
$GPHPD,0,0.000,324.12,0.24,-14.59,31.5918286,120.7755883,2.571,13630884.240,24923707.417,2.571,0.000,0.000,0.000,0.000,0.000,0.000,0.000,16,16,4*5B
$GPGGA,034003.00,3135.5098344,N,12046.5351916,E,4,16,1.4,2.5592,M,8.307,M,01,0004*61
$GPHPD,0,0.000,324.62,-1.55,-14.61,31.5918306,120.7755865,2.559,13630882.352,24923705.475,2.559,0.000,0.000,0.000,0.000,0.000,0.000,0.000,16,16,4*7E
$GPGGA,034003.20,3135.5099547,N,12046.5350985,E,4,16,1.4,2.5513,M,8.307,M,01,0004*65
$GPHPD,0,0.000,325.24,-1.42,-14.63,31.5918326,120.7755850,2.551,13630880.455,24923703.652,2.551,0.000,0.000,0.000,0.000,0.000,0.000,0.000,16,16,4*7E
$GPGGA,034003.40,3135.5100799,N,12046.5350075,E,4,16,1.4,2.5359,M,8.307,M,01,0004*6D
$GPHPD,0,0.000,325.01,-1.32,-14.64,31.5918347,120.7755835,2.536,13630878.492,24923701.826,2.536,0.000,0.000,0.000,0.000,0.000,0.000,0.000,16,16,4*7E
$GPGGA,034003.60,3135.5101958,N,12046.5349028,E,4,16,1.4,2.5620,M,8.307,M,00,0004*67
$GPHPD,0,0.000,324.77,-0.38,-14.65,31.5918366,120.7755817,2.562,13630876.634,24923699.889,2.562,0.000,0.000,0.000,0.000,0.000,0.000,0.000,16,16,4*72
$GPGGA,034003.80,3135.5103177,N,12046.5348100,E,4,16,1.4,2.5557,M,8.307,M,00,0004*67
$GPHPD,0,0.000,325.63,-1.51,-14.65,31.5918386,120.7755802,2.556,13630874.715,24923698.060,2.556,0.000,0.000,0.000,0.000,0.000,0.000,0.000,16,16,4*7C
$GPGGA,034004.00,3135.5104380,N,12046.5347206,E,4,16,1.4,2.5411,M,8.307,M,01,0004*6D
$GPHPD,0,0.000,325.41,-1.25,-14.64,31.5918406,120.7755787,2.541,13630872.825,24923696.282,2.541,0.000,0.000,0.000,0.000,0.000,0.000,0.000,16,16,4*79
$GPGGA,034004.20,3135.5105557,N,12046.5346208,E,4,16,1.4,2.5455,M,8.307,M,01,0004*6D
$GPHPD,0,0.000,324.97,-1.11,-14.63,31.5918426,120.7755770,2.546,13630870.952,24923694.394,2.546,0.000,0.000,0.000,0.000,0.000,0.000,0.000,16,16,4*7E
$GPGGA,034004.40,3135.5106741,N,12046.5345310,E,4,16,1.4,2.5233,M,8.307,M,01,0004*60
