$GPGGA,034412.00,3135.5692603,N,12046.4707334,E,4,16,1.4,2.4628,M,8.302,M,01,0004*65
$GPHPD,0,0.000,78.18,-0.54,-14.68,31.5928210,120.7745122,2.463,13629908.059,24922582.341,2.463,0.000,0.000,0.000,0.000,0.000,0.000,0.000,16,16,4*41
$GPGGA,034412.20,3135.5692720,N,12046.4707978,E,4,15,1.4,2.4642,M,8.302,M,01,0004*6A
$GPHPD,0,0.000,78.09,0.00,-14.71,31.5928212,120.7745133,2.464,13629908.022,24922583.050,2.464,0.000,0.000,0.000,0.000,0.000,0.000,0.000,15,15,4*69
$GPGGA,034412.40,3135.5692833,N,12046.4708706,E,4,15,1.4,2.4632,M,8.302,M,01,0004*6E
$GPHPD,0,0.000,78.13,0.11,-14.75,31.5928214,120.7745145,2.463,13629908.008,24922583.862,2.463,0.000,0.000,0.000,0.000,0.000,0.000,0.000,15,15,4*60
$GPGGA,034412.60,3135.5692969,N,12046.4709493,E,4,15,1.4,2.4621,M,8.302,M,00,0004*6F
$GPHPD,0,0.000,78.20,0.10,-14.80,31.5928216,120.7745158,2.462,13629907.973,24922584.731,2.462,0.000,0.000,0.000,0.000,0.000,0.000,0.000,15,15,4*61
$GPGGA,034412.80,3135.5693089,N,12046.4710302,E,4,15,1.4,2.4590,M,8.302,M,00,0004*69
$GPHPD,0,0.000,78.12,0.07,-14.88,31.5928218,120.7745172,2.459,13629907.965,24922585.637,2.459,0.000,0.000,0.000,0.000,0.000,0.000,0.000,15,15,4*69
$GPGGA,034413.00,3135.5693241,N,12046.4711189,E,4,15,1.4,2.4629,M,8.302,M,01,0004*66
$GPHPD,0,0.000,77.87,0.31,-14.96,31.5928221,120.7745186,2.463,13629907.927,24922586.618,2.463,0.000,0.000,0.000,0.000,0.000,0.000,0.000,15,15,4*69
$GPGGA,034413.20,3135.5693420,N,12046.4712163,E,4,16,1.4,2.4659,M,8.302,M,01,0004*66
$GPHPD,0,0.000,78.14,0.20,-15.03,31.5928224,120.7745203,2.466,13629907.869,24922587.688,2.466,0.000,0.000,0.000,0.000,0.000,0.000,0.000,16,15,4*6A
$GPGGA,034413.40,3135.5693571,N,12046.4713222,E,4,16,1.4,2.4595,M,8.302,M,01,0004*61
$GPHPD,0,0.000,77.96,0.15,-15.11,31.5928226,120.7745220,2.460,13629907.867,24922588.877,2.460,0.000,0.000,0.000,0.000,0.000,0.000,0.000,16,15,4*66
$GPGGA,034413.60,3135.5693739,N,12046.4714285,E,4,16,1.4,2.4584,M,8.302,M,00,0004*66
$GPHPD,0,0.000,77.96,0.12,-15.17,31.5928229,120.7745238,2.458,13629907.843,24922590.061,2.458,0.000,0.000,0.000,0.000,0.000,0.000,0.000,16,15,4*61
$GPGGA,034413.80,3135.5693938,N,12046.4715448,E,4,15,1.4,2.4572,M,8.302,M,00,0004*6B
$GPHPD,0,0.000,77.94,0.03,-15.18,31.5928232,120.7745257,2.457,13629907.794,24922591.347,2.457,0.000,0.000,0.000,0.000,0.000,0.000,0.000,15,15,4*6F
$GPGGA,034414.00,3135.5694131,N,12046.4716570,E,4,16,1.4,2.4611,M,8.302,M,01,0004*6F
$GPHPD,0,0.000,77.76,-0.01,-15.19,31.5928236,120.7745276,2.461,13629907.745,24922592.588,2.461,0.000,0.000,0.000,0.000,0.000,0.000,0.000,16,15,4*43
$GPGGA,034414.20,3135.5694324,N,12046.4717675,E,4,16,1.4,2.4573,M,8.302,M,01,0004*6B
$GPHPD,0,0.000,77.65,0.05,-15.19,31.5928239,120.7745295,2.457,13629907.693,24922593.808,2.457,0.000,0.000,0.000,0.000,0.000,0.000,0.000,16,15,4*64
$GPGGA,034414.40,3135.5694481,N,12046.4718737,E,4,15,1.4,2.4608,M,8.302,M,01,0004*61
$GPHPD,0,0.000,77.65,0.12,-15.18,31.5928241,120.7745312,2.461,13629907.684,24922594.997,2.461,0.000,0.000,0.000,0.000,0.000,0.000,0.000,15,15,4*67
$GPGGA,034414.60,3135.5694696,N,12046.4719807,E,4,15,1.4,2.4599,M,8.302,M,00,0004*60
$GPHPD,0,0.000,77.53,-0.12,-15.17,31.5928245,120.7745330,2.460,13629907.593,24922596.162,2.460,0.000,0.000,0.000,0.000,0.000,0.000,0.000,15,15,4*41
$GPGGA,034414.80,3135.5694837,N,12046.4720771,E,4,15,1.4,2.4590,M,8.302,M,00,0004*66
$GPHPD,0,0.000,77.41,0.39,-15.13,31.5928247,120.7745346,2.459,13629907.587,24922597.242,2.459,0.000,0.000,0.000,0.000,0.000,0.000,0.000,15,15,4*64
$GPGGA,034415.00,3135.5695008,N,12046.4721710,E,4,15,1.4,2.4563,M,8.302,M,01,0004*61
$GPHPD,0,0.000,77.53,0.03,-15.09,31.5928250,120.7745362,2.456,13629907.533,24922598.275,2.456,0.000,0.000,0.000,0.000,0.000,0.000,0.000,15,15,4*61
$GPGGA,034415.20,3135.5695151,N,12046.4722585,E,4,15,1.4,2.4530,M,8.302,M,01,0004*65
$GPHPD,0,0.000,77.59,0.13,-15.07,31.5928253,120.7745376,2.453,13629907.506,24922599.246,2.453,0.000,0.000,0.000,0.000,0.000,0.000,0.000,15,15,4*65
$GPGGA,034415.40,3135.5695289,N,12046.4723394,E,4,15,1.4,2.4605,M,8.302,M,01,0004*67
$GPHPD,0,0.000,77.52,0.29,-15.04,31.5928255,120.7745390,2.461,13629907.472,24922600.142,2.461,0.000,0.000,0.000,0.000,0.000,0.000,0.000,15,15,4*6C
$GPGGA,034415.60,3135.5695427,N,12046.4724168,E,4,16,1.4,2.4625,M,8.302,M,00,0004*61
$GPHPD,0,0.000,77.60,0.05,-15.01,31.5928257,120.7745403,2.463,13629907.432,24922600.994,2.463,0.000,0.000,0.000,0.000,0.000,0.000,0.000,16,15,4*6D
$GPGGA,034415.80,3135.5695558,N,12046.4724916,E,4,16,1.4,2.4506,M,8.302,M,00,0004*65
$GPHPD,0,0.000,77.82,0.08,-15.01,31.5928259,120.7745415,2.451,13629907.396,24922601.820,2.451,0.000,0.000,0.000,0.000,0.000,0.000,0.000,16,15,4*63
$GPGGA,034416.00,3135.5695673,N,12046.4725626,E,4,16,1.3,2.4490,M,8.302,M,01,0004*61
$GPHPD,0,0.000,77.76,0.08,-15.05,31.5928261,120.7745427,2.449,13629907.376,24922602.609,2.449,0.000,0.000,0.000,0.000,0.000,0.000,0.000,16,15,4*6E
$GPGGA,034416.20,3135.5695832,N,12046.4726325,E,4,16,1.3,2.4555,M,8.302,M,01,0004*65
$GPHPD,0,0.000,77.66,0.39,-15.08,31.5928264,120.7745439,2.456,13629907.290,24922603.359,2.456,0.000,0.000,0.000,0.000,0.000,0.000,0.000,16,15,4*62
$GPGGA,034416.40,3135.5695933,N,12046.4726967,E,4,16,1.3,2.4568,M,8.302,M,01,0004*61
$GPHPD,0,0.000,77.66,0.29,-15.09,31.5928266,120.7745449,2.457,13629907.276,24922604.075,2.457,0.000,0.000,0.000,0.000,0.000,0.000,0.000,16,15,4*65
$GPGGA,034416.60,3135.5696060,N,12046.4727634,E,4,16,1.3,2.4609,M,8.302,M,00,0004*62
$GPHPD,0,0.000,77.49,0.30,-15.11,31.5928268,120.7745461,2.461,13629907.230,24922604.805,2.461,0.000,0.000,0.000,0.000,0.000,0.000,0.000,16,15,4*60
$GPGGA,034416.80,3135.5696190,N,12046.4728280,E,4,16,1.3,2.4543,M,8.302,M,00,0004*6B
$GPHPD,0,0.000,77.45,0.17,-15.15,31.5928270,120.7745471,2.454,13629907.175,24922605.508,2.454,0.000,0.000,0.000,0.000,0.000,0.000,0.000,16,15,4*66
$GPGGA,034417.00,3135.5696333,N,12046.4728975,E,4,15,1.4,2.4579,M,8.302,M,01,0004*64
$GPHPD,0,0.000,77.71,0.28,-15.22,31.5928272,120.7745483,2.458,13629907.112,24922606.263,2.458,0.000,0.000,0.000,0.000,0.000,0.000,0.000,15,15,4*6D
$GPGGA,034417.20,3135.5696441,N,12046.4729730,E,4,15,1.4,2.4494,M,8.302,M,01,0004*68
$GPHPD,0,0.000,77.70,0.22,-15.31,31.5928274,120.7745496,2.449,13629907.110,24922607.110,2.449,0.000,0.000,0.000,0.000,0.000,0.000,0.000,15,15,4*62
$GPGGA,034417.40,3135.5696566,N,12046.4730512,E,4,15,1.4,2.4516,M,8.302,M,01,0004*6B
$GPHPD,0,0.000,77.85,0.42,-15.43,31.5928276,120.7745509,2.452,13629907.090,24922607.980,2.452,0.000,0.000,0.000,0.000,0.000,0.000,0.000,15,15,4*66
$GPGGA,034417.60,3135.5696723,N,12046.4731428,E,4,15,1.4,2.4447,M,8.302,M,00,0004*67
$GPHPD,0,0.000,77.84,0.60,-15.53,31.5928279,120.7745524,2.445,13629907.051,24922608.993,2.445,0.000,0.000,0.000,0.000,0.000,0.000,0.000,15,15,4*66
$GPGGA,034417.80,3135.5696876,N,12046.4732403,E,4,15,1.4,2.4489,M,8.302,M,00,0004*6E
$GPHPD,0,0.000,77.96,0.32,-15.61,31.5928281,120.7745540,2.449,13629907.030,24922610.080,2.449,0.000,0.000,0.000,0.000,0.000,0.000,0.000,15,15,4*63
$GPGGA,034418.00,3135.5697038,N,12046.4733436,E,4,15,1.4,2.4427,M,8.302,M,01,0004*68
$GPHPD,0,0.000,78.32,0.25,-15.66,31.5928284,120.7745557,2.443,13629907.007,24922611.231,2.443,0.000,0.000,0.000,0.000,0.000,0.000,0.000,15,15,4*6D
$GPGGA,034418.20,3135.5697218,N,12046.4734528,E,4,16,1.4,2.4425,M,8.302,M,01,0004*62
$GPHPD,0,0.000,78.16,0.43,-15.65,31.5928287,120.7745575,2.443,13629906.971,24922612.443,2.443,0.000,0.000,0.000,0.000,0.000,0.000,0.000,16,15,4*61
$GPGGA,034418.40,3135.5697437,N,12046.4735655,E,4,15,1.4,2.4530,M,8.302,M,01,0004*61
$GPHPD,0,0.000,78.29,0.51,-15.62,31.5928291,120.7745594,2.453,13629906.887,24922613.674,2.453,0.000,0.000,0.000,0.000,0.000,0.000,0.000,15,15,4*6D
$GPGGA,034418.60,3135.5697564,N,12046.4736750,E,4,16,1.4,2.4495,M,8.302,M,00,0004*6F
$GPHPD,0,0.000,78.93,-0.08,-15.57,31.5928293,120.7745613,2.450,13629906.926,24922614.921,2.450,0.000,0.000,0.000,0.000,0.000,0.000,0.000,16,15,4*44
$GPGGA,034418.80,3135.5697743,N,12046.4737829,E,4,16,1.4,2.4530,M,8.302,M,00,0004*68
$GPHPD,0,0.000,79.06,-0.02,-15.51,31.5928296,120.7745630,2.453,13629906.889,24922616.117,2.453,0.000,0.000,0.000,0.000,0.000,0.000,0.000,16,15,4*4A
$GPGGA,034419.00,3135.5697897,N,12046.4738857,E,4,16,1.4,2.4426,M,8.302,M,01,0004*66
$GPHPD,0,0.000,79.20,0.08,-15.43,31.5928298,120.7745648,2.443,13629906.877,24922617.267,2.443,0.000,0.000,0.000,0.000,0.000,0.000,0.000,16,15,4*6F
$GPGGA,034419.20,3135.5698048,N,12046.4739854,E,4,16,1.4,2.4596,M,8.302,M,01,0004*69
$GPHPD,0,0.000,79.44,0.64,-15.35,31.5928301,120.7745664,2.460,13629906.863,24922618.381,2.460,0.000,0.000,0.000,0.000,0.000,0.000,0.000,16,15,4*6A
$GPGGA,034419.40,3135.5698204,N,12046.4740811,E,4,16,1.4,2.4544,M,8.302,M,01,0004*65
$GPHPD,0,0.000,79.48,0.26,-15.27,31.5928303,120.7745680,2.454,13629906.834,24922619.445,2.454,0.000,0.000,0.000,0.000,0.000,0.000,0.000,16,16,4*64
$GPGGA,034419.60,3135.5698316,N,12046.4741680,E,4,16,1.4,2.4549,M,8.302,M,00,0004*6E
$GPHPD,0,0.000,79.57,0.37,-15.24,31.5928305,120.7745695,2.455,13629906.850,24922620.427,2.455,0.000,0.000,0.000,0.000,0.000,0.000,0.000,16,16,4*67
$GPGGA,034419.80,3135.5698422,N,12046.4742494,E,4,16,1.4,2.4597,M,8.302,M,00,0004*67
$GPHPD,0,0.000,79.82,0.55,-15.20,31.5928307,120.7745708,2.460,13629906.863,24922621.347,2.460,0.000,0.000,0.000,0.000,0.000,0.000,0.000,16,16,4*68
$GPGGA,034420.00,3135.5698557,N,12046.4743292,E,4,15,1.4,2.4546,M,8.302,M,01,0004*69
$GPHPD,0,0.000,79.86,-0.14,-15.18,31.5928309,120.7745722,2.455,13629906.831,24922622.230,2.455,0.000,0.000,0.000,0.000,0.000,0.000,0.000,15,16,4*4F
$GPGGA,034420.20,3135.5698640,N,12046.4744046,E,4,16,1.4,2.4591,M,8.302,M,01,0004*6B
$GPHPD,0,0.000,80.15,0.61,-15.19,31.5928311,120.7745734,2.459,13629906.865,24922623.091,2.459,0.000,0.000,0.000,0.000,0.000,0.000,0.000,16,16,4*69
$GPGGA,034420.40,3135.5698731,N,12046.4744803,E,4,16,1.4,2.4609,M,8.302,M,01,0004*61
$GPHPD,0,0.000,80.50,0.78,-15.20,31.5928312,120.7745747,2.461,13629906.888,24922623.951,2.461,0.000,0.000,0.000,0.000,0.000,0.000,0.000,16,16,4*6B
$GPGGA,034420.60,3135.5698794,N,12046.4745539,E,4,16,1.4,2.4573,M,8.302,M,00,0004*66
$GPHPD,0,0.000,80.58,0.63,-15.27,31.5928313,120.7745759,2.457,13629906.947,24922624.802,2.457,0.000,0.000,0.000,0.000,0.000,0.000,0.000,16,16,4*62
$GPGGA,034420.80,3135.5698867,N,12046.4746307,E,4,16,1.4,2.4511,M,8.302,M,00,0004*67
$GPHPD,0,0.000,81.17,0.73,-15.38,31.5928314,120.7745772,2.451,13629906.997,24922625.685,2.451,0.000,0.000,0.000,0.000,0.000,0.000,0.000,16,16,4*64
$GPGGA,034421.00,3135.5698955,N,12046.4747128,E,4,16,1.4,2.4516,M,8.302,M,01,0004*66
$GPHPD,0,0.000,81.37,0.85,-15.50,31.5928316,120.7745785,2.452,13629907.038,24922626.624,2.452,0.000,0.000,0.000,0.000,0.000,0.000,0.000,16,16,4*6E
$GPGGA,034421.20,3135.5699046,N,12046.4748017,E,4,16,1.4,2.4622,M,8.302,M,01,0004*68
$GPHPD,0,0.000,81.87,0.63,-15.59,31.5928317,120.7745800,2.462,13629907.087,24922627.643,2.462,0.000,0.000,0.000,0.000,0.000,0.000,0.000,16,16,4*63
$GPGGA,034421.40,3135.5699123,N,12046.4748910,E,4,16,1.4,2.4527,M,8.302,M,01,0004*64
$GPHPD,0,0.000,82.28,0.56,-15.67,31.5928319,120.7745815,2.453,13629907.157,24922628.675,2.453,0.000,0.000,0.000,0.000,0.000,0.000,0.000,16,16,4*62
$GPGGA,034421.60,3135.5699211,N,12046.4749842,E,4,16,1.4,2.4510,M,8.302,M,00,0004*66
$GPHPD,0,0.000,82.73,1.12,-15.67,31.5928320,120.7745831,2.451,13629907.220,24922629.747,2.451,0.000,0.000,0.000,0.000,0.000,0.000,0.000,16,16,4*63
$GPGGA,034421.80,3135.5699272,N,12046.4750751,E,4,16,1.4,2.4555,M,8.302,M,00,0004*69
$GPHPD,0,0.000,83.26,1.01,-15.65,31.5928321,120.7745846,2.456,13629907.316,24922630.808,2.456,0.000,0.000,0.000,0.000,0.000,0.000,0.000,16,16,4*6B
$GPGGA,034422.00,3135.5699349,N,12046.4751640,E,4,16,1.4,2.4552,M,8.302,M,01,0004*6D
$GPHPD,0,0.000,83.58,1.25,-15.63,31.5928322,120.7745861,2.455,13629907.385,24922631.835,2.455,0.000,0.000,0.000,0.000,0.000,0.000,0.000,16,16,4*61
$GPGGA,034422.20,3135.5699408,N,12046.4752487,E,4,16,1.4,2.4626,M,8.302,M,01,0004*67
$GPHPD,0,0.000,84.05,0.97,-15.59,31.5928323,120.7745875,2.463,13629907.472,24922632.822,2.463,0.000,0.000,0.000,0.000,0.000,0.000,0.000,16,16,4*61
$GPGGA,034422.40,3135.5699452,N,12046.4753284,E,4,16,1.4,2.4616,M,8.302,M,01,0004*69
$GPHPD,0,0.000,84.54,1.08,-15.58,31.5928324,120.7745888,2.462,13629907.570,24922633.757,2.462,0.000,0.000,0.000,0.000,0.000,0.000,0.000,16,16,4*69
$GPGGA,034422.60,3135.5699476,N,12046.4754066,E,4,16,1.4,2.4689,M,8.302,M,00,0004*63
$GPHPD,0,0.000,85.02,0.80,-15.59,31.5928325,120.7745901,2.469,13629907.693,24922634.686,2.469,0.000,0.000,0.000,0.000,0.000,0.000,0.000,16,16,4*6E
$GPGGA,034422.80,3135.5699511,N,12046.4754815,E,4,16,1.4,2.4587,M,8.302,M,00,0004*6C
$GPHPD,0,0.000,85.49,0.39,-15.60,31.5928325,120.7745914,2.459,13629907.794,24922635.569,2.459,0.000,0.000,0.000,0.000,0.000,0.000,0.000,16,16,4*68
$GPGGA,034423.00,3135.5699530,N,12046.4755557,E,4,16,1.4,2.4639,M,8.302,M,01,0004*6B
$GPHPD,0,0.000,86.04,0.68,-15.63,31.5928326,120.7745926,2.464,13629907.916,24922636.452,2.464,0.000,0.000,0.000,0.000,0.000,0.000,0.000,16,16,4*69
$GPGGA,034423.20,3135.5699554,N,12046.4756297,E,4,16,1.4,2.4597,M,8.302,M,01,0004*64
$GPHPD,0,0.000,86.42,0.79,-15.70,31.5928326,120.7745938,2.460,13629908.031,24922637.330,2.460,0.000,0.000,0.000,0.000,0.000,0.000,0.000,16,16,4*67
$GPGGA,034423.40,3135.5699584,N,12046.4757099,E,4,16,1.4,2.4616,M,8.302,M,01,0004*68
$GPHPD,0,0.000,86.92,1.37,-15.80,31.5928326,120.7745952,2.462,13629908.150,24922638.280,2.462,0.000,0.000,0.000,0.000,0.000,0.000,0.000,16,16,4*61
$GPGGA,034423.60,3135.5699581,N,12046.4757964,E,4,16,1.4,2.4581,M,8.302,M,00,0004*68
$GPHPD,0,0.000,87.45,1.18,-15.87,31.5928326,120.7745966,2.458,13629908.328,24922639.325,2.458,0.000,0.000,0.000,0.000,0.000,0.000,0.000,16,16,4*65
$GPGGA,034423.80,3135.5699563,N,12046.4758915,E,4,16,1.4,2.4541,M,8.302,M,00,0004*6F
$GPHPD,0,0.000,88.13,1.01,-15.91,31.5928326,120.7745982,2.454,13629908.545,24922640.482,2.454,0.000,0.000,0.000,0.000,0.000,0.000,0.000,16,16,4*65
$GPGGA,034424.00,3135.5699597,N,12046.4759955,E,4,16,1.4,2.4667,M,8.302,M,01,0004*68
$GPHPD,0,0.000,88.33,1.37,-15.90,31.5928327,120.7745999,2.467,13629908.706,24922641.716,2.467,0.000,0.000,0.000,0.000,0.000,0.000,0.000,16,16,4*62
$GPGGA,034424.20,3135.5699608,N,12046.4761047,E,4,16,1.4,2.4676,M,8.302,M,01,0004*6E
$GPHPD,0,0.000,89.27,1.05,-15.85,31.5928327,120.7746017,2.468,13629908.910,24922643.026,2.468,0.000,0.000,0.000,0.000,0.000,0.000,0.000,16,16,4*60
$GPGGA,034424.40,3135.5699572,N,12046.4762196,E,4,16,1.3,2.4671,M,8.302,M,01,0004*68
$GPHPD,0,0.000,89.92,0.97,-15.81,31.5928326,120.7746037,2.467,13629909.192,24922644.432,2.467,0.000,0.000,0.000,0.000,0.000,0.000,0.000,16,16,4*66
$GPGGA,034424.60,3135.5699497,N,12046.4763388,E,4,16,1.3,2.4706,M,8.302,M,00,0004*6C
$GPHPD,0,0.000,90.69,0.49,-15.75,31.5928325,120.7746056,2.471,13629909.539,24922645.913,2.471,0.000,0.000,0.000,0.000,0.000,0.000,0.000,16,16,4*6C
$GPGGA,034424.80,3135.5699432,N,12046.4764563,E,4,16,1.3,2.4777,M,8.302,M,00,0004*6F
$GPHPD,0,0.000,91.46,0.87,-15.68,31.5928324,120.7746076,2.478,13629909.868,24922647.368,2.478,0.000,0.000,0.000,0.000,0.000,0.000,0.000,16,16,4*60
$GPGGA,034425.00,3135.5699391,N,12046.4765729,E,4,16,1.3,2.4849,M,8.302,M,01,0004*66
$GPHPD,0,0.000,92.04,0.74,-15.61,31.5928323,120.7746095,2.485,13629910.160,24922648.798,2.485,0.000,0.000,0.000,0.000,0.000,0.000,0.000,16,16,4*67
$GPGGA,034425.20,3135.5699293,N,12046.4766857,E,4,16,1.3,2.4857,M,8.302,M,01,0004*6D
$GPHPD,0,0.000,93.17,0.41,-15.57,31.5928322,120.7746114,2.486,13629910.527,24922650.215,2.486,0.000,0.000,0.000,0.000,0.000,0.000,0.000,16,16,4*60
$GPGGA,034425.40,3135.5699214,N,12046.4767956,E,4,16,1.3,2.4944,M,8.302,M,01,0004*66
$GPHPD,0,0.000,93.92,0.87,-15.54,31.5928320,120.7746133,2.494,13629910.860,24922651.586,2.494,0.000,0.000,0.000,0.000,0.000,0.000,0.000,16,16,4*61
$GPGGA,034425.60,3135.5699117,N,12046.4768993,E,4,16,1.3,2.4969,M,8.302,M,00,0004*6C
$GPHPD,0,0.000,94.93,0.66,-15.49,31.5928319,120.7746150,2.497,13629911.207,24922652.893,2.497,0.000,0.000,0.000,0.000,0.000,0.000,0.000,16,16,4*6B
$GPGGA,034425.80,3135.5699004,N,12046.4770026,E,4,16,1.3,2.4933,M,8.302,M,00,0004*60
$GPHPD,0,0.000,95.96,0.26,-15.45,31.5928317,120.7746167,2.493,13629911.575,24922654.204,2.493,0.000,0.000,0.000,0.000,0.000,0.000,0.000,16,16,4*6D
$GPGGA,034426.00,3135.5698867,N,12046.4770998,E,4,16,1.3,2.4919,M,8.302,M,01,0004*62
$GPHPD,0,0.000,96.80,-0.25,-15.46,31.5928314,120.7746183,2.492,13629911.965,24922655.456,2.492,0.000,0.000,0.000,0.000,0.000,0.000,0.000,16,16,4*40
$GPGGA,034426.20,3135.5698721,N,12046.4771971,E,4,16,1.3,2.5048,M,8.302,M,01,0004*67
$GPHPD,0,0.000,97.73,0.03,-15.46,31.5928312,120.7746200,2.505,13629912.369,24922656.714,2.505,0.000,0.000,0.000,0.000,0.000,0.000,0.000,16,16,4*69
$GPGGA,034426.40,3135.5698596,N,12046.4772929,E,4,16,1.3,2.4977,M,8.302,M,01,0004*65
$GPHPD,0,0.000,99.01,-0.95,-15.44,31.5928310,120.7746215,2.498,13629912.739,24922657.942,2.498,0.000,0.000,0.000,0.000,0.000,0.000,0.000,16,16,4*49
$GPGGA,034426.60,3135.5698453,N,12046.4773863,E,4,16,1.3,2.4982,M,8.302,M,00,0004*6A
$GPHPD,0,0.000,99.82,-0.59,-15.45,31.5928308,120.7746231,2.498,13629913.130,24922659.151,2.498,0.000,0.000,0.000,0.000,0.000,0.000,0.000,16,16,4*46
$GPGGA,034426.80,3135.5698287,N,12046.4774779,E,4,16,1.3,2.5016,M,8.302,M,00,0004*6D
$GPHPD,0,0.000,100.90,-0.19,-15.48,31.5928305,120.7746246,2.502,13629913.550,24922660.352,2.502,0.000,0.000,0.000,0.000,0.000,0.000,0.000,16,16,4*79
$GPGGA,034427.00,3135.5698101,N,12046.4775648,E,4,16,1.3,2.5020,M,8.302,M,01,0004*6F
$GPHPD,0,0.000,101.62,-0.06,-15.51,31.5928302,120.7746261,2.502,13629913.990,24922661.508,2.502,0.000,0.000,0.000,0.000,0.000,0.000,0.000,16,16,4*79
$GPGGA,034427.20,3135.5697948,N,12046.4776546,E,4,16,1.3,2.4959,M,8.302,M,01,0004*6F
$GPHPD,0,0.000,102.16,-0.07,-15.58,31.5928299,120.7746276,2.496,13629914.388,24922662.680,2.496,0.000,0.000,0.000,0.000,0.000,0.000,0.000,16,16,4*70
$GPGGA,034427.40,3135.5697756,N,12046.4777440,E,4,16,1.3,2.4905,M,8.302,M,01,0004*67
$GPHPD,0,0.000,103.22,0.12,-15.68,31.5928296,120.7746291,2.491,13629914.840,24922663.870,2.491,0.000,0.000,0.000,0.000,0.000,0.000,0.000,16,16,4*55
$GPGGA,034427.60,3135.5697528,N,12046.4778433,E,4,16,1.3,2.4894,M,8.302,M,00,0004*6D
$GPHPD,0,0.000,103.74,0.38,-15.75,31.5928292,120.7746307,2.489,13629915.364,24922665.200,2.489,0.000,0.000,0.000,0.000,0.000,0.000,0.000,16,16,4*5F
$GPGGA,034427.80,3135.5697262,N,12046.4779427,E,4,16,1.4,2.5011,M,8.302,M,00,0004*6D
$GPHPD,0,0.000,104.40,0.40,-15.79,31.5928288,120.7746324,2.501,13629915.942,24922666.553,2.501,0.000,0.000,0.000,0.000,0.000,0.000,0.000,16,16,4*5A
$GPGGA,034428.00,3135.5697070,N,12046.4780414,E,4,16,1.4,2.4873,M,8.302,M,01,0004*61
$GPHPD,0,0.000,104.61,-0.13,-15.82,31.5928285,120.7746340,2.487,13629916.414,24922667.855,2.487,0.000,0.000,0.000,0.000,0.000,0.000,0.000,16,16,4*7E
$GPGGA,034428.20,3135.5696785,N,12046.4781417,E,4,16,1.4,2.4913,M,8.302,M,01,0004*6A
$GPHPD,0,0.000,105.31,0.45,-15.83,31.5928280,120.7746357,2.491,13629917.021,24922669.230,2.491,0.000,0.000,0.000,0.000,0.000,0.000,0.000,16,16,4*52
$GPGGA,034428.40,3135.5696487,N,12046.4782373,E,4,16,1.4,2.4873,M,8.302,M,01,0004*6C
$GPHPD,0,0.000,105.37,0.77,-15.86,31.5928275,120.7746373,2.487,13629917.636,24922670.556,2.487,0.000,0.000,0.000,0.000,0.000,0.000,0.000,16,16,4*53
$GPGGA,034428.60,3135.5696219,N,12046.4783441,E,4,16,1.4,2.4910,M,8.302,M,00,0004*6D
$GPHPD,0,0.000,105.90,0.80,-15.88,31.5928270,120.7746391,2.491,13629918.232,24922672.000,2.491,0.000,0.000,0.000,0.000,0.000,0.000,0.000,16,16,4*5A
$GPGGA,034428.80,3135.5695921,N,12046.4784462,E,4,16,1.4,2.4871,M,8.303,M,00,0004*61
$GPHPD,0,0.000,106.22,0.88,-15.90,31.5928265,120.7746408,2.487,13629918.861,24922673.404,2.487,0.000,0.000,0.000,0.000,0.000,0.000,0.000,16,16,4*5F
$GPGGA,034429.00,3135.5695636,N,12046.4785556,E,4,16,1.4,2.4775,M,8.303,M,01,0004*6C
$GPHPD,0,0.000,106.83,0.87,-15.91,31.5928261,120.7746426,2.478,13629919.486,24922674.889,2.478,0.000,0.000,0.000,0.000,0.000,0.000,0.000,16,16,4*58
$GPGGA,034429.20,3135.5695347,N,12046.4786657,E,4,16,1.4,2.4994,M,8.303,M,01,0004*6D
$GPHPD,0,0.000,107.36,1.38,-15.90,31.5928256,120.7746444,2.499,13629920.119,24922676.385,2.499,0.000,0.000,0.000,0.000,0.000,0.000,0.000,16,16,4*5F
$GPGGA,034429.40,3135.5695032,N,12046.4787711,E,4,16,1.4,2.4868,M,8.303,M,01,0004*6A
$GPHPD,0,0.000,107.97,0.52,-15.88,31.5928251,120.7746462,2.487,13629920.778,24922677.839,2.487,0.000,0.000,0.000,0.000,0.000,0.000,0.000,16,16,4*5F
$GPGGA,034429.60,3135.5694710,N,12046.4788788,E,4,16,1.4,2.4935,M,8.303,M,00,0004*69
$GPHPD,0,0.000,108.36,1.20,-15.87,31.5928245,120.7746480,2.494,13629921.453,24922679.325,2.494,0.000,0.000,0.000,0.000,0.000,0.000,0.000,16,16,4*5A
$GPGGA,034429.80,3135.5694379,N,12046.4789852,E,4,16,1.4,2.5024,M,8.303,M,00,0004*6D
$GPHPD,0,0.000,108.75,0.96,-15.87,31.5928240,120.7746498,2.502,13629922.137,24922680.801,2.502,0.000,0.000,0.000,0.000,0.000,0.000,0.000,16,16,4*52
$GPGGA,034430.00,3135.5694019,N,12046.4790932,E,4,16,1.4,2.4939,M,8.303,M,01,0004*62
$GPHPD,0,0.000,109.12,0.60,-15.82,31.5928234,120.7746516,2.494,13629922.866,24922682.313,2.494,0.000,0.000,0.000,0.000,0.000,0.000,0.000,16,16,4*5D
$GPGGA,034430.20,3135.5693675,N,12046.4792012,E,4,16,1.4,2.5093,M,8.303,M,01,0004*6A
$GPHPD,0,0.000,109.47,1.13,-15.82,31.5928228,120.7746534,2.509,13629923.572,24922683.815,2.509,0.000,0.000,0.000,0.000,0.000,0.000,0.000,16,16,4*50
$GPGGA,034430.40,3135.5693313,N,12046.4793105,E,4,16,1.4,2.5104,M,8.303,M,01,0004*60
$GPHPD,0,0.000,110.11,0.70,-15.81,31.5928222,120.7746552,2.510,13629924.307,24922685.344,2.510,0.000,0.000,0.000,0.000,0.000,0.000,0.000,16,16,4*5C
$GPGGA,034430.60,3135.5692947,N,12046.4794203,E,4,16,1.7,2.5186,M,8.303,M,00,0004*62
$GPHPD,0,0.000,110.36,0.87,-15.78,31.5928216,120.7746570,2.519,13629925.048,24922686.880,2.519,0.000,0.000,0.000,0.000,0.000,0.000,0.000,16,16,4*59
$GPGGA,034430.80,3135.5692566,N,12046.4795251,E,4,15,1.7,2.5080,M,8.303,M,00,0004*61
$GPHPD,0,0.000,111.01,0.53,-15.72,31.5928209,120.7746588,2.508,13629925.800,24922688.366,2.508,0.000,0.000,0.000,0.000,0.000,0.000,0.000,15,15,4*5F
$GPGGA,034431.00,3135.5692169,N,12046.4796332,E,4,15,1.7,2.5068,M,8.303,M,01,0004*63
$GPHPD,0,0.000,111.17,1.61,-15.67,31.5928203,120.7746606,2.507,13629926.582,24922689.900,2.507,0.000,0.000,0.000,0.000,0.000,0.000,0.000,15,15,4*5C
$GPGGA,034431.20,3135.5691769,N,12046.4797454,E,4,15,1.7,2.5242,M,8.303,M,01,0004*68
$GPHPD,0,0.000,111.54,1.52,-15.63,31.5928196,120.7746624,2.524,13629927.376,24922691.486,2.524,0.000,0.000,0.000,0.000,0.000,0.000,0.000,15,15,4*56
$GPGGA,034431.40,3135.5691342,N,12046.4798539,E,4,15,1.7,2.5266,M,8.303,M,01,0004*60
$GPHPD,0,0.000,112.14,1.03,-15.61,31.5928189,120.7746642,2.527,13629928.201,24922693.043,2.527,0.000,0.000,0.000,0.000,0.000,0.000,0.000,15,15,4*58
$GPGGA,034431.60,3135.5690954,N,12046.4799595,E,4,15,1.7,2.5326,M,8.303,M,00,0004*6D
$GPHPD,0,0.000,112.80,1.09,-15.56,31.5928183,120.7746660,2.533,13629928.965,24922694.542,2.533,0.000,0.000,0.000,0.000,0.000,0.000,0.000,15,15,4*5B
$GPGGA,034431.80,3135.5690526,N,12046.4800680,E,4,15,1.7,2.5285,M,8.303,M,00,0004*6A
$GPHPD,0,0.000,113.55,0.90,-15.50,31.5928175,120.7746678,2.529,13629929.792,24922696.099,2.529,0.000,0.000,0.000,0.000,0.000,0.000,0.000,15,14,4*52
$GPGGA,034432.00,3135.5690124,N,12046.4801726,E,4,15,1.7,2.5374,M,8.303,M,01,0004*65
$GPHPD,0,0.000,114.03,0.91,-15.42,31.5928169,120.7746695,2.537,13629930.573,24922697.594,2.537,0.000,0.000,0.000,0.000,0.000,0.000,0.000,15,14,4*56
$GPGGA,034432.20,3135.5689756,N,12046.4802727,E,4,15,1.7,2.5506,M,8.303,M,01,0004*6D
$GPHPD,0,0.000,114.51,0.72,-15.35,31.5928163,120.7746712,2.551,13629931.298,24922699.016,2.551,0.000,0.000,0.000,0.000,0.000,0.000,0.000,15,14,4*5A
$GPGGA,034432.40,3135.5689334,N,12046.4803737,E,4,15,1.7,2.5454,M,8.303,M,01,0004*6D
$GPHPD,0,0.000,115.47,0.29,-15.24,31.5928156,120.7746729,2.545,13629932.101,24922700.479,2.545,0.000,0.000,0.000,0.000,0.000,0.000,0.000,15,14,4*50
$GPGGA,034432.60,3135.5688931,N,12046.4804721,E,4,15,1.7,2.5594,M,8.303,M,00,0004*6D
$GPHPD,0,0.000,116.06,-0.36,-15.14,31.5928149,120.7746745,2.559,13629932.872,24922701.900,2.559,0.000,0.000,0.000,0.000,0.000,0.000,0.000,15,14,4*7D
$GPGGA,034432.80,3135.5688530,N,12046.4805602,E,4,15,1.7,2.5446,M,8.303,M,00,0004*61
$GPHPD,0,0.000,116.76,-0.69,-15.11,31.5928142,120.7746760,2.545,13629933.619,24922703.196,2.545,0.000,0.000,0.000,0.000,0.000,0.000,0.000,15,14,4*7E
$GPGGA,034433.00,3135.5688148,N,12046.4806497,E,4,15,1.5,2.5432,M,8.303,M,01,0004*6E
$GPHPD,0,0.000,116.96,-0.57,-15.09,31.5928136,120.7746775,2.543,13629934.342,24922704.497,2.543,0.000,0.000,0.000,0.000,0.000,0.000,0.000,15,14,4*7C
$GPGGA,034433.20,3135.5687701,N,12046.4807375,E,4,15,1.5,2.5388,M,8.303,M,01,0004*64
$GPHPD,0,0.000,117.49,-0.37,-15.07,31.5928128,120.7746790,2.539,13629935.154,24922705.816,2.539,0.000,0.000,0.000,0.000,0.000,0.000,0.000,15,15,4*72
$GPGGA,034433.40,3135.5687310,N,12046.4808262,E,4,15,1.5,2.5446,M,8.303,M,01,0004*6B
$GPHPD,0,0.000,117.99,0.08,-15.06,31.5928122,120.7746804,2.545,13629935.888,24922707.113,2.545,0.000,0.000,0.000,0.000,0.000,0.000,0.000,15,15,4*51
$GPGGA,034433.60,3135.5686903,N,12046.4809117,E,4,15,1.5,2.5618,M,8.303,M,00,0004*68
$GPHPD,0,0.000,118.51,-0.28,-15.11,31.5928115,120.7746819,2.562,13629936.638,24922708.381,2.562,0.000,0.000,0.000,0.000,0.000,0.000,0.000,15,15,4*7B
$GPGGA,034433.80,3135.5686491,N,12046.4809983,E,4,15,1.5,2.5506,M,8.303,M,00,0004*69
$GPHPD,0,0.000,119.12,-0.42,-15.17,31.5928108,120.7746833,2.551,13629937.398,24922709.665,2.551,0.000,0.000,0.000,0.000,0.000,0.000,0.000,15,15,4*73
$GPGGA,034434.00,3135.5686009,N,12046.4810898,E,4,15,1.5,2.5547,M,8.303,M,01,0004*64
$GPHPD,0,0.000,119.54,-0.45,-15.24,31.5928100,120.7746848,2.555,13629938.267,24922711.049,2.555,0.000,0.000,0.000,0.000,0.000,0.000,0.000,15,15,4*7D
$GPGGA,034434.20,3135.5685535,N,12046.4811799,E,4,15,1.5,2.5446,M,8.303,M,01,0004*60
$GPHPD,0,0.000,120.06,-0.45,-15.31,31.5928092,120.7746863,2.545,13629939.122,24922712.411,2.545,0.000,0.000,0.000,0.000,0.000,0.000,0.000,15,15,4*7E
$GPGGA,034434.40,3135.5685030,N,12046.4812742,E,4,15,1.5,2.5423,M,8.303,M,01,0004*60
$GPHPD,0,0.000,120.26,0.13,-15.40,31.5928084,120.7746879,2.542,13629940.030,24922713.842,2.542,0.000,0.000,0.000,0.000,0.000,0.000,0.000,15,15,4*5F
$GPGGA,034434.60,3135.5684484,N,12046.4813708,E,4,15,1.5,2.5407,M,8.303,M,00,0004*60
$GPHPD,0,0.000,120.67,0.58,-15.48,31.5928075,120.7746895,2.541,13629941.000,24922715.325,2.541,0.000,0.000,0.000,0.000,0.000,0.000,0.000,15,15,4*5F
$GPGGA,034434.80,3135.5683927,N,12046.4814720,E,4,15,1.5,2.5519,M,8.303,M,00,0004*6E
$GPHPD,0,0.000,121.56,0.27,-15.55,31.5928065,120.7746912,2.552,13629941.995,24922716.869,2.552,0.000,0.000,0.000,0.000,0.000,0.000,0.000,15,15,4*52
$GPGGA,034435.00,3135.5683315,N,12046.4815743,E,4,15,1.5,2.5502,M,8.303,M,01,0004*63
$GPHPD,0,0.000,122.60,0.02,-15.63,31.5928055,120.7746929,2.550,13629943.071,24922718.459,2.550,0.000,0.000,0.000,0.000,0.000,0.000,0.000,15,15,4*5D
$GPGGA,034435.20,3135.5682701,N,12046.4816869,E,4,15,1.5,2.5502,M,8.303,M,01,0004*65
$GPHPD,0,0.000,123.10,0.84,-15.75,31.5928045,120.7746948,2.550,13629944.170,24922720.174,2.550,0.000,0.000,0.000,0.000,0.000,0.000,0.000,15,15,4*52
$GPGGA,034435.40,3135.5682003,N,12046.4817961,E,4,15,1.5,2.5435,M,8.303,M,01,0004*6B
$GPHPD,0,0.000,124.47,0.34,-15.81,31.5928033,120.7746966,2.544,13629945.382,24922721.897,2.544,0.000,0.000,0.000,0.000,0.000,0.000,0.000,15,15,4*51
$GPGGA,034435.60,3135.5681301,N,12046.4819117,E,4,15,1.5,2.5526,M,8.303,M,00,0004*6E
$GPHPD,0,0.000,125.47,0.98,-15.76,31.5928022,120.7746985,2.553,13629946.612,24922723.699,2.553,0.000,0.000,0.000,0.000,0.000,0.000,0.000,15,15,4*5E
$GPGGA,034435.80,3135.5680598,N,12046.4820193,E,4,15,1.5,2.5435,M,8.303,M,00,0004*62
$GPHPD,0,0.000,126.56,0.53,-15.64,31.5928010,120.7747003,2.544,13629947.828,24922725.406,2.544,0.000,0.000,0.000,0.000,0.000,0.000,0.000,15,15,4*5A
$GPGGA,034436.00,3135.5679851,N,12046.4821190,E,4,15,1.5,2.5421,M,8.303,M,01,0004*61
$GPHPD,0,0.000,127.59,0.53,-15.45,31.5927998,120.7747020,2.542,13629949.090,24922727.043,2.542,0.000,0.000,0.000,0.000,0.000,0.000,0.000,15,15,4*52
$GPGGA,034436.20,3135.5679180,N,12046.4822112,E,4,15,1.5,2.5483,M,8.303,M,01,0004*67
$GPHPD,0,0.000,128.48,1.14,-15.38,31.5927986,120.7747035,2.548,13629950.229,24922728.545,2.548,0.000,0.000,0.000,0.000,0.000,0.000,0.000,15,15,4*5A
$GPGGA,034436.40,3135.5678530,N,12046.4822959,E,4,15,1.5,2.5520,M,8.303,M,01,0004*60
$GPHPD,0,0.000,129.49,0.86,-15.26,31.5927976,120.7747049,2.552,13629951.323,24922729.945,2.552,0.000,0.000,0.000,0.000,0.000,0.000,0.000,15,15,4*5C
$GPGGA,034436.60,3135.5677932,N,12046.4823728,E,4,15,1.5,2.5483,M,8.303,M,00,0004*63
$GPHPD,0,0.000,130.38,0.69,-15.14,31.5927966,120.7747062,2.548,13629952.328,24922731.220,2.548,0.000,0.000,0.000,0.000,0.000,0.000,0.000,15,15,4*53
$GPGGA,034436.80,3135.5677389,N,12046.4824428,E,4,15,1.5,2.5554,M,8.303,M,00,0004*68
$GPHPD,0,0.000,131.24,0.60,-15.09,31.5927956,120.7747074,2.555,13629953.240,24922732.380,2.555,0.000,0.000,0.000,0.000,0.000,0.000,0.000,15,15,4*58
$GPGGA,034437.00,3135.5676841,N,12046.4825106,E,4,15,1.5,2.5635,M,8.303,M,01,0004*62
$GPHPD,0,0.000,131.79,0.51,-15.01,31.5927947,120.7747085,2.564,13629954.156,24922733.517,2.564,0.000,0.000,0.000,0.000,0.000,0.000,0.000,15,15,4*5E
$GPGGA,034437.20,3135.5676358,N,12046.4825755,E,4,15,1.5,2.5620,M,8.303,M,01,0004*67
$GPHPD,0,0.000,132.06,0.48,-14.96,31.5927939,120.7747096,2.562,13629954.973,24922734.580,2.562,0.000,0.000,0.000,0.000,0.000,0.000,0.000,15,15,4*5F
$GPGGA,034437.40,3135.5675874,N,12046.4826333,E,4,16,1.5,2.5572,M,8.303,M,01,0004*67
$GPHPD,0,0.000,132.43,0.68,-14.95,31.5927931,120.7747106,2.557,13629955.777,24922735.559,2.557,0.000,0.000,0.000,0.000,0.000,0.000,0.000,16,16,4*51
$GPGGA,034437.60,3135.5675363,N,12046.4826949,E,4,16,1.3,2.5726,M,8.303,M,00,0004*6B
$GPHPD,0,0.000,132.41,0.98,-14.96,31.5927923,120.7747116,2.573,13629956.627,24922736.599,2.573,0.000,0.000,0.000,0.000,0.000,0.000,0.000,16,16,4*55
$GPGGA,034437.80,3135.5674886,N,12046.4827503,E,4,16,1.3,2.5649,M,8.303,M,00,0004*6F
$GPHPD,0,0.000,132.90,0.15,-14.95,31.5927915,120.7747125,2.565,13629957.416,24922737.545,2.565,0.000,0.000,0.000,0.000,0.000,0.000,0.000,16,16,4*5B
$GPGGA,034438.00,3135.5674376,N,12046.4828105,E,4,16,1.3,2.5628,M,8.303,M,01,0004*67
$GPHPD,0,0.000,132.90,0.34,-14.98,31.5927906,120.7747135,2.563,13629958.262,24922738.568,2.563,0.000,0.000,0.000,0.000,0.000,0.000,0.000,16,16,4*5C
$GPGGA,034438.20,3135.5673857,N,12046.4828720,E,4,16,1.3,2.5615,M,8.303,M,01,0004*65
$GPHPD,0,0.000,133.10,0.65,-15.05,31.5927898,120.7747145,2.562,13629959.124,24922739.611,2.562,0.000,0.000,0.000,0.000,0.000,0.000,0.000,16,16,4*59
$GPGGA,034438.40,3135.5673306,N,12046.4829392,E,4,16,1.3,2.5544,M,8.303,M,01,0004*67
$GPHPD,0,0.000,133.33,0.63,-15.10,31.5927888,120.7747157,2.554,13629960.042,24922740.742,2.554,0.000,0.000,0.000,0.000,0.000,0.000,0.000,16,16,4*5A
$GPGGA,034438.60,3135.5672698,N,12046.4830120,E,4,16,1.3,2.5762,M,8.303,M,00,0004*62
$GPHPD,0,0.000,133.82,0.82,-15.13,31.5927878,120.7747169,2.576,13629961.052,24922741.974,2.576,0.000,0.000,0.000,0.000,0.000,0.000,0.000,16,16,4*54
$GPGGA,034438.80,3135.5672043,N,12046.4830876,E,4,16,1.3,2.5709,M,8.303,M,00,0004*6B
$GPHPD,0,0.000,134.02,-0.02,-15.21,31.5927867,120.7747181,2.571,13629962.136,24922743.267,2.571,0.000,0.000,0.000,0.000,0.000,0.000,0.000,16,16,4*7C
$GPGGA,034439.00,3135.5671367,N,12046.4831676,E,4,16,1.3,2.5611,M,8.303,M,01,0004*62
$GPHPD,0,0.000,134.51,0.08,-15.27,31.5927856,120.7747195,2.561,13629963.257,24922744.625,2.561,0.000,0.000,0.000,0.000,0.000,0.000,0.000,16,16,4*5C
$GPGGA,034439.20,3135.5670613,N,12046.4832507,E,4,16,1.3,2.5655,M,8.303,M,01,0004*61
$GPHPD,0,0.000,134.96,0.89,-15.32,31.5927844,120.7747208,2.566,13629964.496,24922746.066,2.566,0.000,0.000,0.000,0.000,0.000,0.000,0.000,16,16,4*51
$GPGGA,034439.40,3135.5669840,N,12046.4833358,E,4,16,1.3,2.5689,M,8.303,M,01,0004*6B
$GPHPD,0,0.000,135.53,0.52,-15.36,31.5927831,120.7747223,2.569,13629965.766,24922747.542,2.569,0.000,0.000,0.000,0.000,0.000,0.000,0.000,16,16,4*5F
$GPGGA,034439.60,3135.5669043,N,12046.4834220,E,4,16,1.3,2.5727,M,8.303,M,00,0004*6F
$GPHPD,0,0.000,136.41,-0.24,-15.37,31.5927817,120.7747237,2.573,13629967.072,24922749.045,2.573,0.000,0.000,0.000,0.000,0.000,0.000,0.000,16,16,4*7F
$GPGGA,034439.80,3135.5668223,N,12046.4835082,E,4,16,1.3,2.5886,M,8.303,M,00,0004*6B
$GPHPD,0,0.000,137.05,-0.44,-15.33,31.5927804,120.7747251,2.589,13629968.411,24922750.562,2.589,0.000,0.000,0.000,0.000,0.000,0.000,0.000,16,16,4*78
$GPGGA,034440.00,3135.5667388,N,12046.4835925,E,4,16,1.3,2.5835,M,8.303,M,01,0004*6F
$GPHPD,0,0.000,137.54,-0.41,-15.24,31.5927790,120.7747265,2.584,13629969.767,24922752.064,2.584,0.000,0.000,0.000,0.000,0.000,0.000,0.000,16,16,4*78
$GPGGA,034440.20,3135.5666564,N,12046.4836750,E,4,16,1.3,2.5861,M,8.303,M,01,0004*66
$GPHPD,0,0.000,137.84,0.03,-15.17,31.5927776,120.7747279,2.586,13629971.104,24922753.539,2.586,0.000,0.000,0.000,0.000,0.000,0.000,0.000,16,16,4*5D
$GPGGA,034440.40,3135.5665740,N,12046.4837532,E,4,16,1.3,2.5794,M,8.303,M,01,0004*65
$GPHPD,0,0.000,137.86,0.64,-15.05,31.5927762,120.7747292,2.579,13629972.433,24922754.961,2.579,0.000,0.000,0.000,0.000,0.000,0.000,0.000,16,16,4*59
$GPGGA,034440.60,3135.5664934,N,12046.4838324,E,4,16,1.3,2.5840,M,8.303,M,00,0004*62
$GPHPD,0,0.000,138.00,0.92,-14.96,31.5927749,120.7747305,2.584,13629973.737,24922756.386,2.584,0.000,0.000,0.000,0.000,0.000,0.000,0.000,16,16,4*5B
$GPGGA,034440.80,3135.5664196,N,12046.4839097,E,4,16,1.3,2.5841,M,8.303,M,00,0004*67
$GPHPD,0,0.000,138.44,0.70,-14.87,31.5927737,120.7747318,2.584,13629974.942,24922757.747,2.584,0.000,0.000,0.000,0.000,0.000,0.000,0.000,16,16,4*51
$GPGGA,034441.00,3135.5663419,N,12046.4839768,E,4,16,1.3,2.5785,M,8.303,M,01,0004*6A
$GPHPD,0,0.000,138.97,0.03,-14.78,31.5927724,120.7747329,2.579,13629976.181,24922759.009,2.579,0.000,0.000,0.000,0.000,0.000,0.000,0.000,16,16,4*5D
$GPGGA,034441.20,3135.5662741,N,12046.4840486,E,4,16,1.3,2.5728,M,8.303,M,01,0004*6D
$GPHPD,0,0.000,138.96,0.24,-14.74,31.5927712,120.7747341,2.573,13629977.289,24922760.269,2.573,0.000,0.000,0.000,0.000,0.000,0.000,0.000,16,16,4*5A
$GPGGA,034441.40,3135.5662083,N,12046.4841121,E,4,16,1.3,2.5766,M,8.303,M,01,0004*61
$GPHPD,0,0.000,139.30,0.63,-14.69,31.5927701,120.7747352,2.577,13629978.352,24922761.418,2.577,0.000,0.000,0.000,0.000,0.000,0.000,0.000,16,16,4*51
$GPGGA,034441.60,3135.5661486,N,12046.4841710,E,4,16,1.3,2.5832,M,8.303,M,00,0004*6A
$GPHPD,0,0.000,139.35,0.90,-14.67,31.5927691,120.7747362,2.583,13629979.319,24922762.475,2.583,0.000,0.000,0.000,0.000,0.000,0.000,0.000,16,16,4*5B
$GPGGA,034441.80,3135.5660911,N,12046.4842278,E,4,16,1.3,2.5928,M,8.303,M,00,0004*64
$GPHPD,0,0.000,139.51,0.95,-14.64,31.5927682,120.7747371,2.593,13629980.251,24922763.495,2.593,0.000,0.000,0.000,0.000,0.000,0.000,0.000,16,16,4*5B
$GPGGA,034442.00,3135.5660392,N,12046.4842783,E,4,16,1.3,2.6052,M,8.303,M,01,0004*69
$GPHPD,0,0.000,139.97,0.44,-14.59,31.5927673,120.7747380,2.605,13629981.090,24922764.406,2.605,0.000,0.000,0.000,0.000,0.000,0.000,0.000,16,16,4*50
$GPGGA,034442.20,3135.5659917,N,12046.4843256,E,4,16,1.3,2.6095,M,8.303,M,01,0004*61
$GPHPD,0,0.000,139.91,0.33,-14.57,31.5927665,120.7747388,2.610,13629981.860,24922765.253,2.610,0.000,0.000,0.000,0.000,0.000,0.000,0.000,16,16,4*57
$GPGGA,034442.40,3135.5659405,N,12046.4843701,E,4,16,1.3,2.6081,M,8.303,M,01,0004*6B
$GPHPD,0,0.000,140.20,0.09,-14.59,31.5927657,120.7747395,2.608,13629982.677,24922766.087,2.608,0.000,0.000,0.000,0.000,0.000,0.000,0.000,16,16,4*5A
$GPGGA,034442.60,3135.5658916,N,12046.4844104,E,4,16,1.3,2.6144,M,8.303,M,00,0004*6A
$GPHPD,0,0.000,140.46,0.18,-14.62,31.5927649,120.7747402,2.614,13629983.453,24922766.858,2.614,0.000,0.000,0.000,0.000,0.000,0.000,0.000,16,16,4*5B
$GPGGA,034442.80,3135.5658427,N,12046.4844530,E,4,16,1.3,2.6002,M,8.303,M,00,0004*6B
$GPHPD,0,0.000,140.59,-0.05,-14.69,31.5927640,120.7747409,2.600,13629984.234,24922767.656,2.600,0.000,0.000,0.000,0.000,0.000,0.000,0.000,16,16,4*7C
$GPGGA,034443.00,3135.5657944,N,12046.4845004,E,4,16,1.3,2.5945,M,8.303,M,01,0004*6E
$GPHPD,0,0.000,141.42,-0.08,-14.81,31.5927632,120.7747417,2.595,13629985.016,24922768.509,2.595,0.000,0.000,0.000,0.000,0.000,0.000,0.000,16,16,4*73
$GPGGA,034443.20,3135.5657391,N,12046.4845444,E,4,16,1.3,2.5915,M,8.303,M,01,0004*6B
$GPHPD,0,0.000,141.57,-0.33,-14.90,31.5927623,120.7747424,2.592,13629985.890,24922769.361,2.592,0.000,0.000,0.000,0.000,0.000,0.000,0.000,16,16,4*70
$GPGGA,034443.40,3135.5656804,N,12046.4846015,E,4,16,1.3,2.6018,M,8.303,M,01,0004*6F
$GPHPD,0,0.000,141.15,0.42,-15.05,31.5927613,120.7747434,2.602,13629986.839,24922770.392,2.602,0.000,0.000,0.000,0.000,0.000,0.000,0.000,16,16,4*56
$GPGGA,034443.60,3135.5656213,N,12046.4846585,E,4,16,1.3,2.6081,M,8.303,M,00,0004*6C
$GPHPD,0,0.000,141.20,0.03,-15.20,31.5927604,120.7747443,2.608,13629987.794,24922771.423,2.608,0.000,0.000,0.000,0.000,0.000,0.000,0.000,16,16,4*51
$GPGGA,034443.80,3135.5655498,N,12046.4847194,E,4,16,1.3,2.6021,M,8.303,M,00,0004*6B
$GPHPD,0,0.000,141.53,-0.26,-15.36,31.5927592,120.7747453,2.602,13629988.933,24922772.573,2.602,0.000,0.000,0.000,0.000,0.000,0.000,0.000,16,16,4*7E
$GPGGA,034444.00,3135.5654722,N,12046.4847870,E,4,16,1.3,2.6140,M,8.303,M,01,0004*63
$GPHPD,0,0.000,141.63,0.35,-15.58,31.5927579,120.7747465,2.614,13629990.172,24922773.840,2.614,0.000,0.000,0.000,0.000,0.000,0.000,0.000,16,16,4*52
$GPGGA,034444.20,3135.5653893,N,12046.4848554,E,4,16,1.3,2.5922,M,8.303,M,01,0004*68
$GPHPD,0,0.000,142.12,-0.26,-15.81,31.5927565,120.7747476,2.592,13629991.487,24922775.147,2.592,0.000,0.000,0.000,0.000,0.000,0.000,0.000,16,16,4*75
$GPGGA,034444.40,3135.5653004,N,12046.4849392,E,4,16,1.3,2.5994,M,8.303,M,01,0004*68
$GPHPD,0,0.000,142.03,0.82,-15.96,31.5927550,120.7747490,2.599,13629992.920,24922776.675,2.599,0.000,0.000,0.000,0.000,0.000,0.000,0.000,16,16,4*58
$GPGGA,034444.60,3135.5652022,N,12046.4850228,E,4,16,1.3,2.5974,M,8.303,M,00,0004*68
$GPHPD,0,0.000,142.62,0.40,-16.00,31.5927534,120.7747504,2.597,13629994.483,24922778.255,2.597,0.000,0.000,0.000,0.000,0.000,0.000,0.000,16,16,4*59
$GPGGA,034444.80,3135.5651026,N,12046.4851145,E,4,16,1.3,2.5948,M,8.303,M,00,0004*67
$GPHPD,0,0.000,143.04,0.29,-15.96,31.5927517,120.7747519,2.595,13629996.083,24922779.941,2.595,0.000,0.000,0.000,0.000,0.000,0.000,0.000,16,16,4*5F
$GPGGA,034445.00,3135.5649912,N,12046.4852082,E,4,16,1.4,2.5875,M,8.303,M,01,0004*69
$GPHPD,0,0.000,142.79,1.04,-15.82,31.5927499,120.7747535,2.588,13629997.855,24922781.719,2.588,0.000,0.000,0.000,0.000,0.000,0.000,0.000,16,16,4*50
$GPGGA,034445.20,3135.5648751,N,12046.4853005,E,4,16,1.3,2.6056,M,8.303,M,01,0004*60
$GPHPD,0,0.000,142.64,1.60,-15.70,31.5927479,120.7747550,2.606,13629999.691,24922783.508,2.606,0.000,0.000,0.000,0.000,0.000,0.000,0.000,16,16,4*56
$GPGGA,034445.40,3135.5647587,N,12046.4853959,E,4,16,1.5,2.6072,M,8.303,M,01,0004*60
$GPHPD,0,0.000,143.44,0.34,-15.61,31.5927460,120.7747566,2.607,13630001.537,24922785.335,2.607,0.000,0.000,0.000,0.000,0.000,0.000,0.000,16,16,4*59
$GPGGA,034445.60,3135.5646461,N,12046.4854904,E,4,16,1.3,2.5941,M,8.303,M,00,0004*68
$GPHPD,0,0.000,143.92,-0.27,-15.52,31.5927441,120.7747582,2.594,13630003.328,24922787.130,2.594,0.000,0.000,0.000,0.000,0.000,0.000,0.000,16,16,4*7B
$GPGGA,034445.80,3135.5645353,N,12046.4855776,E,4,16,1.3,2.6047,M,8.303,M,00,0004*65
$GPHPD,0,0.000,143.89,0.60,-15.40,31.5927423,120.7747596,2.605,13630005.078,24922788.827,2.605,0.000,0.000,0.000,0.000,0.000,0.000,0.000,16,16,4*5D
$GPGGA,034446.00,3135.5644277,N,12046.4856738,E,4,16,1.3,2.6143,M,8.303,M,01,0004*65
$GPHPD,0,0.000,143.87,0.13,-15.20,31.5927405,120.7747612,2.614,13630006.801,24922790.613,2.614,0.000,0.000,0.000,0.000,0.000,0.000,0.000,16,16,4*5F
$GPGGA,034446.20,3135.5643211,N,12046.4857665,E,4,16,1.5,2.6310,M,8.303,M,01,0004*6A
$GPHPD,0,0.000,144.26,-0.30,-15.04,31.5927387,120.7747628,2.631,13630008.502,24922792.351,2.631,0.000,0.000,0.000,0.000,0.000,0.000,0.000,16,16,4*7C
$GPGGA,034446.40,3135.5642181,N,12046.4858446,E,4,16,1.3,2.6298,M,8.303,M,01,0004*6C
$GPHPD,0,0.000,144.20,-0.27,-14.93,31.5927370,120.7747641,2.630,13630010.123,24922793.893,2.630,0.000,0.000,0.000,0.000,0.000,0.000,0.000,16,16,4*7E
$GPGGA,034446.60,3135.5641193,N,12046.4859207,E,4,16,1.3,2.6377,M,8.303,M,00,0004*6D
$GPHPD,0,0.000,144.01,-0.53,-14.80,31.5927353,120.7747653,2.638,13630011.680,24922795.385,2.638,0.000,0.000,0.000,0.000,0.000,0.000,0.000,16,16,4*7B
$GPGGA,034446.80,3135.5640267,N,12046.4859986,E,4,16,1.3,2.6279,M,8.303,M,00,0004*67
$GPHPD,0,0.000,143.79,-0.78,-14.76,31.5927338,120.7747666,2.628,13630013.153,24922796.864,2.628,0.000,0.000,0.000,0.000,0.000,0.000,0.000,16,16,4*74
$GPGGA,034447.00,3135.5639312,N,12046.4860784,E,4,15,1.5,2.6270,M,8.303,M,01,0004*68
$GPHPD,0,0.000,143.75,-0.52,-14.83,31.5927322,120.7747680,2.627,13630014.671,24922798.382,2.627,0.000,0.000,0.000,0.000,0.000,0.000,0.000,15,15,4*74
$GPGGA,034447.20,3135.5638407,N,12046.4861551,E,4,15,1.5,2.6243,M,8.303,M,01,0004*63
$GPHPD,0,0.000,143.76,-0.53,-14.81,31.5927307,120.7747693,2.624,13630016.112,24922799.833,2.624,0.000,0.000,0.000,0.000,0.000,0.000,0.000,15,15,4*71
$GPGGA,034447.40,3135.5637485,N,12046.4862275,E,4,15,1.5,2.6266,M,8.303,M,01,0004*65
$GPHPD,0,0.000,143.71,-0.03,-14.73,31.5927291,120.7747705,2.627,13630017.568,24922801.243,2.627,0.000,0.000,0.000,0.000,0.000,0.000,0.000,15,15,4*75
$GPGGA,034447.60,3135.5636623,N,12046.4862958,E,4,15,1.5,2.6206,M,8.303,M,00,0004*6B
$GPHPD,0,0.000,143.69,-0.26,-14.71,31.5927277,120.7747716,2.621,13630018.930,24922802.568,2.621,0.000,0.000,0.000,0.000,0.000,0.000,0.000,15,15,4*70
$GPGGA,034447.80,3135.5635756,N,12046.4863667,E,4,15,1.5,2.6216,M,8.303,M,00,0004*66
$GPHPD,0,0.000,143.67,0.20,-14.63,31.5927263,120.7747728,2.622,13630020.305,24922803.928,2.622,0.000,0.000,0.000,0.000,0.000,0.000,0.000,15,15,4*50
$GPGGA,034448.00,3135.5634917,N,12046.4864346,E,4,16,1.3,2.6220,M,8.303,M,01,0004*6B
$GPHPD,0,0.000,143.43,0.80,-14.61,31.5927249,120.7747739,2.622,13630021.634,24922805.235,2.622,0.000,0.000,0.000,0.000,0.000,0.000,0.000,16,16,4*51
$GPGGA,034448.20,3135.5634124,N,12046.4865069,E,4,16,1.3,2.6319,M,8.303,M,01,0004*65
$GPHPD,0,0.000,143.73,0.14,-14.62,31.5927235,120.7747751,2.632,13630022.906,24922806.568,2.632,0.000,0.000,0.000,0.000,0.000,0.000,0.000,16,16,4*58
$GPGGA,034448.40,3135.5633343,N,12046.4865698,E,4,16,1.3,2.6217,M,8.303,M,01,0004*60
$GPHPD,0,0.000,143.61,0.80,-14.63,31.5927222,120.7747762,2.622,13630024.143,24922807.781,2.622,0.000,0.000,0.000,0.000,0.000,0.000,0.000,16,16,4*5A
$GPGGA,034448.60,3135.5632560,N,12046.4866338,E,4,16,1.3,2.6218,M,8.303,M,00,0004*66
$GPHPD,0,0.000,144.19,0.11,-14.60,31.5927209,120.7747772,2.622,13630025.385,24922809.009,2.622,0.000,0.000,0.000,0.000,0.000,0.000,0.000,16,16,4*51
$GPGGA,034448.80,3135.5631756,N,12046.4866946,E,4,16,1.3,2.6216,M,8.303,M,00,0004*61
$GPHPD,0,0.000,144.56,0.11,-14.61,31.5927196,120.7747782,2.622,13630026.650,24922810.210,2.622,0.000,0.000,0.000,0.000,0.000,0.000,0.000,16,16,4*5D
$GPGGA,034449.00,3135.5631018,N,12046.4867579,E,4,16,1.3,2.6249,M,8.303,M,01,0004*6F
$GPHPD,0,0.000,144.87,0.09,-14.61,31.5927184,120.7747793,2.625,13630027.826,24922811.403,2.625,0.000,0.000,0.000,0.000,0.000,0.000,0.000,16,16,4*50
$GPGGA,034449.20,3135.5630270,N,12046.4868194,E,4,16,1.3,2.6433,M,8.303,M,01,0004*63
$GPHPD,0,0.000,145.16,0.15,-14.61,31.5927171,120.7747803,2.643,13630029.013,24922812.580,2.643,0.000,0.000,0.000,0.000,0.000,0.000,0.000,16,16,4*51
$GPGGA,034449.40,3135.5629528,N,12046.4868788,E,4,16,1.3,2.6294,M,8.303,M,01,0004*67
$GPHPD,0,0.000,144.72,0.06,-14.63,31.5927159,120.7747813,2.629,13630030.187,24922813.728,2.629,0.000,0.000,0.000,0.000,0.000,0.000,0.000,16,16,4*5C
$GPGGA,034449.60,3135.5628755,N,12046.4869408,E,4,16,1.3,2.6419,M,8.303,M,00,0004*64
$GPHPD,0,0.000,144.89,0.11,-14.68,31.5927146,120.7747823,2.642,13630031.410,24922814.925,2.642,0.000,0.000,0.000,0.000,0.000,0.000,0.000,16,16,4*56
$GPGGA,034449.80,3135.5627972,N,12046.4870042,E,4,16,1.3,2.6395,M,8.303,M,00,0004*6F
$GPHPD,0,0.000,145.32,-0.62,-14.76,31.5927133,120.7747834,2.640,13630032.650,24922816.146,2.640,0.000,0.000,0.000,0.000,0.000,0.000,0.000,16,16,4*7F
$GPGGA,034450.00,3135.5627170,N,12046.4870667,E,4,16,1.3,2.6459,M,8.303,M,01,0004*62
$GPHPD,0,0.000,145.41,-0.89,-14.83,31.5927120,120.7747844,2.646,13630033.916,24922817.366,2.646,0.000,0.000,0.000,0.000,0.000,0.000,0.000,16,16,4*7C
$GPGGA,034450.20,3135.5626346,N,12046.4871303,E,4,16,1.3,2.6368,M,8.303,M,01,0004*65
$GPHPD,0,0.000,144.81,-0.37,-14.85,31.5927106,120.7747855,2.637,13630035.215,24922818.613,2.637,0.000,0.000,0.000,0.000,0.000,0.000,0.000,16,16,4*70
$GPGGA,034450.40,3135.5625459,N,12046.4871967,E,4,16,1.3,2.6374,M,8.303,M,01,0004*6C
$GPHPD,0,0.000,144.77,0.29,-14.86,31.5927091,120.7747866,2.637,13630036.609,24922819.930,2.637,0.000,0.000,0.000,0.000,0.000,0.000,0.000,16,16,4*52
$GPGGA,034450.60,3135.5624581,N,12046.4872678,E,4,16,1.3,2.6178,M,8.303,M,00,0004*66
$GPHPD,0,0.000,145.24,-0.21,-14.93,31.5927076,120.7747878,2.618,13630038.000,24922821.298,2.618,0.000,0.000,0.000,0.000,0.000,0.000,0.000,16,16,4*71
$GPGGA,034450.80,3135.5623695,N,12046.4873354,E,4,16,1.3,2.6262,M,8.303,M,00,0004*6B
$GPHPD,0,0.000,145.41,0.71,-15.07,31.5927062,120.7747889,2.626,13630039.395,24922822.629,2.626,0.000,0.000,0.000,0.000,0.000,0.000,0.000,16,16,4*5E
$GPGGA,034451.00,3135.5622737,N,12046.4874114,E,4,16,1.3,2.6155,M,8.303,M,01,0004*6D
$GPHPD,0,0.000,145.47,0.47,-15.22,31.5927046,120.7747902,2.616,13630040.910,24922824.103,2.616,0.000,0.000,0.000,0.000,0.000,0.000,0.000,16,16,4*5E
$GPGGA,034451.20,3135.5621702,N,12046.4874953,E,4,16,1.3,2.6134,M,8.303,M,01,0004*66
$GPHPD,0,0.000,145.91,0.39,-15.21,31.5927028,120.7747916,2.613,13630042.550,24922825.717,2.613,0.000,0.000,0.000,0.000,0.000,0.000,0.000,16,16,4*5A
$GPGGA,034451.40,3135.5620661,N,12046.4875872,E,4,16,1.3,2.6265,M,8.303,M,01,0004*61
$GPHPD,0,0.000,145.58,0.71,-15.21,31.5927011,120.7747931,2.627,13630044.214,24922827.431,2.627,0.000,0.000,0.000,0.000,0.000,0.000,0.000,16,16,4*58
$GPGGA,034451.60,3135.5619523,N,12046.4876790,E,4,16,1.3,2.6408,M,8.303,M,00,0004*60
$GPHPD,0,0.000,146.06,0.55,-15.25,31.5926992,120.7747947,2.641,13630046.016,24922829.200,2.641,0.000,0.000,0.000,0.000,0.000,0.000,0.000,16,16,4*58
$GPGGA,034451.80,3135.5618314,N,12046.4877596,E,4,16,1.3,2.6306,M,8.303,M,00,0004*61
$GPHPD,0,0.000,146.41,-0.27,-15.26,31.5926972,120.7747960,2.631,13630047.897,24922830.876,2.631,0.000,0.000,0.000,0.000,0.000,0.000,0.000,16,16,4*78
$GPGGA,034452.00,3135.5617106,N,12046.4878573,E,4,16,1.3,2.6555,M,8.303,M,01,0004*61
$GPHPD,0,0.000,145.77,0.15,-15.24,31.5926952,120.7747976,2.656,13630049.810,24922832.757,2.656,0.000,0.000,0.000,0.000,0.000,0.000,0.000,16,16,4*5A
$GPGGA,034452.20,3135.5615927,N,12046.4879481,E,4,16,1.3,2.6414,M,8.303,M,01,0004*63
$GPHPD,0,0.000,146.04,-1.31,-15.24,31.5926932,120.7747991,2.641,13630051.668,24922834.538,2.641,0.000,0.000,0.000,0.000,0.000,0.000,0.000,16,16,4*7D
$GPGGA,034452.40,3135.5614711,N,12046.4880446,E,4,16,1.3,2.6496,M,8.303,M,01,0004*68
$GPHPD,0,0.000,145.81,-0.69,-15.18,31.5926912,120.7748007,2.650,13630053.591,24922836.410,2.650,0.000,0.000,0.000,0.000,0.000,0.000,0.000,16,16,4*75
$GPGGA,034452.60,3135.5613517,N,12046.4881367,E,4,16,1.3,2.6537,M,8.303,M,00,0004*67
$GPHPD,0,0.000,145.89,-0.59,-15.15,31.5926892,120.7748023,2.654,13630055.473,24922838.215,2.654,0.000,0.000,0.000,0.000,0.000,0.000,0.000,16,16,4*7A
$GPGGA,034452.80,3135.5612326,N,12046.4882216,E,4,16,1.3,2.6353,M,8.303,M,00,0004*6C
$GPHPD,0,0.000,145.84,-0.68,-15.13,31.5926872,120.7748037,2.635,13630057.336,24922839.932,2.635,0.000,0.000,0.000,0.000,0.000,0.000,0.000,16,16,4*73
$GPGGA,034453.00,3135.5611131,N,12046.4883118,E,4,16,1.3,2.6342,M,8.303,M,01,0004*6F
$GPHPD,0,0.000,145.70,-0.31,-15.14,31.5926852,120.7748052,2.634,13630059.216,24922841.716,2.634,0.000,0.000,0.000,0.000,0.000,0.000,0.000,16,16,4*78
$GPGGA,034453.20,3135.5609958,N,12046.4884011,E,4,16,1.3,2.6224,M,8.303,M,01,0004*6D
$GPHPD,0,0.000,145.55,-0.11,-15.13,31.5926833,120.7748067,2.622,13630061.063,24922843.475,2.622,0.000,0.000,0.000,0.000,0.000,0.000,0.000,16,16,4*74
$GPGGA,034453.40,3135.5608772,N,12046.4884965,E,4,16,1.3,2.6282,M,8.303,M,01,0004*6A
$GPHPD,0,0.000,145.51,0.31,-15.12,31.5926813,120.7748083,2.628,13630062.941,24922845.316,2.628,0.000,0.000,0.000,0.000,0.000,0.000,0.000,16,16,4*58
$GPGGA,034453.60,3135.5607608,N,12046.4885897,E,4,16,1.3,2.6350,M,8.303,M,00,0004*69
$GPHPD,0,0.000,145.57,0.29,-15.11,31.5926793,120.7748098,2.635,13630064.782,24922847.117,2.635,0.000,0.000,0.000,0.000,0.000,0.000,0.000,16,16,4*5F
$GPGGA,034453.80,3135.5606437,N,12046.4886804,E,4,16,1.3,2.6375,M,8.303,M,00,0004*66
$GPHPD,0,0.000,145.22,0.42,-15.09,31.5926774,120.7748113,2.638,13630066.629,24922848.892,2.638,0.000,0.000,0.000,0.000,0.000,0.000,0.000,16,16,4*5B
$GPGGA,034454.00,3135.5605284,N,12046.4887691,E,4,16,1.3,2.6294,M,8.303,M,01,0004*68
$GPHPD,0,0.000,145.37,0.16,-15.10,31.5926755,120.7748128,2.629,13630068.446,24922850.633,2.629,0.000,0.000,0.000,0.000,0.000,0.000,0.000,16,16,4*54
$GPGGA,034454.20,3135.5604133,N,12046.4888608,E,4,16,1.3,2.6260,M,8.303,M,01,0004*60
$GPHPD,0,0.000,145.10,1.08,-15.07,31.5926736,120.7748143,2.626,13630070.267,24922852.409,2.626,0.000,0.000,0.000,0.000,0.000,0.000,0.000,16,16,4*54
$GPGGA,034454.40,3135.5602966,N,12046.4889548,E,4,16,1.3,2.6355,M,8.303,M,01,0004*69
$GPHPD,0,0.000,145.01,1.13,-15.07,31.5926716,120.7748159,2.636,13630072.114,24922854.221,2.636,0.000,0.000,0.000,0.000,0.000,0.000,0.000,16,16,4*58
$GPGGA,034454.60,3135.5601830,N,12046.4890427,E,4,16,1.3,2.6425,M,8.303,M,00,0004*6B
$GPHPD,0,0.000,145.24,0.52,-15.06,31.5926697,120.7748174,2.643,13630073.906,24922855.943,2.643,0.000,0.000,0.000,0.000,0.000,0.000,0.000,16,16,4*59
$GPGGA,034454.80,3135.5600718,N,12046.4891333,E,4,16,1.3,2.6478,M,8.303,M,00,0004*6A
$GPHPD,0,0.000,145.11,0.13,-15.04,31.5926679,120.7748189,2.648,13630075.668,24922857.682,2.648,0.000,0.000,0.000,0.000,0.000,0.000,0.000,16,16,4*5B
$GPGGA,034455.00,3135.5599554,N,12046.4892255,E,4,16,1.3,2.6480,M,8.303,M,01,0004*6E
$GPHPD,0,0.000,145.46,-0.46,-15.07,31.5926659,120.7748204,2.648,13630077.508,24922859.472,2.648,0.000,0.000,0.000,0.000,0.000,0.000,0.000,16,15,4*74
$GPGGA,034455.20,3135.5598399,N,12046.4893151,E,4,16,1.3,2.6564,M,8.303,M,01,0004*67
$GPHPD,0,0.000,145.57,-1.02,-15.08,31.5926640,120.7748219,2.656,13630079.330,24922861.224,2.656,0.000,0.000,0.000,0.000,0.000,0.000,0.000,16,16,4*70
$GPGGA,034455.40,3135.5597241,N,12046.4894053,E,4,16,1.3,2.6482,M,8.303,M,01,0004*67
$GPHPD,0,0.000,145.45,-0.36,-15.09,31.5926621,120.7748234,2.648,13630081.157,24922862.986,2.648,0.000,0.000,0.000,0.000,0.000,0.000,0.000,16,15,4*7B
$GPGGA,034455.60,3135.5596071,N,12046.4894958,E,4,17,1.3,2.6508,M,8.303,M,00,0004*64
$GPHPD,0,0.000,145.51,0.53,-15.10,31.5926601,120.7748249,2.651,13630083.002,24922864.758,2.651,0.000,0.000,0.000,0.000,0.000,0.000,0.000,17,16,4*5A
$GPGGA,034455.80,3135.5594903,N,12046.4895859,E,4,17,1.3,2.6437,M,8.303,M,00,0004*68
$GPHPD,0,0.000,145.24,0.08,-15.09,31.5926582,120.7748264,2.644,13630084.843,24922866.525,2.644,0.000,0.000,0.000,0.000,0.000,0.000,0.000,17,16,4*59
$GPGGA,034456.00,3135.5593763,N,12046.4896807,E,4,17,1.4,2.6356,M,8.303,M,01,0004*62
$GPHPD,0,0.000,145.51,0.38,-15.12,31.5926563,120.7748280,2.636,13630086.654,24922868.331,2.636,0.000,0.000,0.000,0.000,0.000,0.000,0.000,17,16,4*50
$GPGGA,034456.20,3135.5592565,N,12046.4897729,E,4,17,1.3,2.6240,M,8.303,M,01,0004*66
$GPHPD,0,0.000,145.53,0.38,-15.14,31.5926543,120.7748295,2.624,13630088.543,24922870.140,2.624,0.000,0.000,0.000,0.000,0.000,0.000,0.000,17,16,4*54
$GPGGA,034456.40,3135.5591402,N,12046.4898693,E,4,17,1.6,2.6499,M,8.303,M,01,0004*6B
$GPHPD,0,0.000,145.44,1.27,-15.15,31.5926523,120.7748312,2.650,13630090.389,24922871.980,2.650,0.000,0.000,0.000,0.000,0.000,0.000,0.000,17,17,4*59
$GPGGA,034456.60,3135.5590195,N,12046.4899595,E,4,16,1.6,2.6461,M,8.303,M,00,0004*60
$GPHPD,0,0.000,145.58,-0.32,-15.12,31.5926503,120.7748327,2.646,13630092.286,24922873.770,2.646,0.000,0.000,0.000,0.000,0.000,0.000,0.000,16,16,4*70
$GPGGA,034456.80,3135.5588999,N,12046.4900525,E,4,16,1.6,2.6518,M,8.303,M,00,0004*66
$GPHPD,0,0.000,144.98,0.24,-15.13,31.5926483,120.7748342,2.652,13630094.173,24922875.587,2.652,0.000,0.000,0.000,0.000,0.000,0.000,0.000,16,16,4*5F
$GPGGA,034457.00,3135.5587861,N,12046.4901454,E,4,16,1.6,2.6528,M,8.303,M,01,0004*62
$GPHPD,0,0.000,145.16,-0.23,-15.15,31.5926464,120.7748358,2.653,13630095.978,24922877.370,2.653,0.000,0.000,0.000,0.000,0.000,0.000,0.000,16,16,4*78
$GPGGA,034457.20,3135.5586677,N,12046.4902404,E,4,16,1.6,2.6450,M,8.303,M,01,0004*60
$GPHPD,0,0.000,144.78,0.09,-15.12,31.5926445,120.7748373,2.645,13630097.851,24922879.205,2.645,0.000,0.000,0.000,0.000,0.000,0.000,0.000,16,16,4*5C
$GPGGA,034457.40,3135.5585472,N,12046.4903293,E,4,16,1.6,2.6434,M,8.303,M,01,0004*69
$GPHPD,0,0.000,144.87,0.71,-15.13,31.5926425,120.7748388,2.643,13630099.743,24922880.978,2.643,0.000,0.000,0.000,0.000,0.000,0.000,0.000,16,16,4*55
$GPGGA,034457.60,3135.5584285,N,12046.4904263,E,4,17,1.6,2.6460,M,8.303,M,00,0004*6D
$GPHPD,0,0.000,144.58,1.41,-15.10,31.5926405,120.7748404,2.646,13630101.625,24922882.839,2.646,0.000,0.000,0.000,0.000,0.000,0.000,0.000,17,17,4*50
$GPGGA,034457.80,3135.5583070,N,12046.4905270,E,4,17,1.6,2.6504,M,8.303,M,00,0004*6C
$GPHPD,0,0.000,144.65,0.55,-15.09,31.5926385,120.7748421,2.650,13630103.554,24922884.760,2.650,0.000,0.000,0.000,0.000,0.000,0.000,0.000,17,17,4*58
$GPGGA,034458.00,3135.5581879,N,12046.4906225,E,4,17,1.6,2.6623,M,8.303,M,01,0004*6C
$GPHPD,0,0.000,144.67,0.84,-15.08,31.5926365,120.7748437,2.662,13630105.439,24922886.605,2.662,0.000,0.000,0.000,0.000,0.000,0.000,0.000,17,17,4*52
$GPGGA,034458.20,3135.5580687,N,12046.4907195,E,4,17,1.6,2.6674,M,8.303,M,01,0004*6B
$GPHPD,0,0.000,144.68,-0.63,-15.09,31.5926345,120.7748453,2.667,13630107.329,24922888.468,2.667,0.000,0.000,0.000,0.000,0.000,0.000,0.000,17,17,4*7B
$GPGGA,034458.40,3135.5579506,N,12046.4908163,E,4,17,1.6,2.6733,M,8.303,M,01,0004*65
$GPHPD,0,0.000,144.85,-0.67,-15.08,31.5926325,120.7748469,2.673,13630109.202,24922890.323,2.673,0.000,0.000,0.000,0.000,0.000,0.000,0.000,17,17,4*75
$GPGGA,034458.60,3135.5578352,N,12046.4909127,E,4,17,1.3,2.6777,M,8.303,M,00,0004*64
$GPHPD,0,0.000,144.81,-0.66,-15.06,31.5926306,120.7748485,2.678,13630111.036,24922892.157,2.678,0.000,0.000,0.000,0.000,0.000,0.000,0.000,17,17,4*72
$GPGGA,034458.80,3135.5577128,N,12046.4910074,E,4,17,1.3,2.6631,M,8.303,M,00,0004*66
$GPHPD,0,0.000,144.78,-0.88,-15.08,31.5926285,120.7748501,2.663,13630112.966,24922894.011,2.663,0.000,0.000,0.000,0.000,0.000,0.000,0.000,17,17,4*77
$GPGGA,034459.00,3135.5575988,N,12046.4911001,E,4,17,1.3,2.6575,M,8.303,M,01,0004*6E
$GPHPD,0,0.000,144.43,0.13,-15.07,31.5926266,120.7748517,2.658,13630114.773,24922895.793,2.658,0.000,0.000,0.000,0.000,0.000,0.000,0.000,17,17,4*55
$GPGGA,034459.20,3135.5574797,N,12046.4911956,E,4,17,1.3,2.6547,M,8.303,M,01,0004*67
$GPHPD,0,0.000,144.49,-0.40,-15.10,31.5926247,120.7748533,2.655,13630116.658,24922897.638,2.655,0.000,0.000,0.000,0.000,0.000,0.000,0.000,17,17,4*7F
$GPGGA,034459.40,3135.5573592,N,12046.4912887,E,4,17,1.3,2.6605,M,8.303,M,01,0004*6A
$GPHPD,0,0.000,144.34,0.83,-15.11,31.5926227,120.7748548,2.661,13630118.557,24922899.462,2.661,0.000,0.000,0.000,0.000,0.000,0.000,0.000,17,17,4*5D
$GPGGA,034459.60,3135.5572390,N,12046.4913870,E,4,17,1.5,2.6506,M,8.303,M,00,0004*63
$GPHPD,0,0.000,144.21,1.10,-15.13,31.5926207,120.7748565,2.651,13630120.464,24922901.347,2.651,0.000,0.000,0.000,0.000,0.000,0.000,0.000,17,17,4*57
$GPGGA,034459.80,3135.5571213,N,12046.4914843,E,4,17,1.3,2.6576,M,8.303,M,00,0004*62
$GPHPD,0,0.000,144.10,1.07,-15.13,31.5926187,120.7748581,2.658,13630122.332,24922903.205,2.658,0.000,0.000,0.000,0.000,0.000,0.000,0.000,17,17,4*51
$GPGGA,034500.00,3135.5570066,N,12046.4915805,E,4,17,1.3,2.6517,M,8.303,M,01,0004*63
$GPHPD,0,0.000,144.63,0.82,-15.13,31.5926168,120.7748597,2.652,13630124.156,24922905.033,2.652,0.000,0.000,0.000,0.000,0.000,0.000,0.000,17,17,4*58
$GPGGA,034500.20,3135.5568830,N,12046.4916796,E,4,16,1.4,2.6720,M,8.303,M,01,0004*65
$GPHPD,0,0.000,144.68,0.88,-15.13,31.5926147,120.7748613,2.672,13630126.112,24922906.947,2.672,0.000,0.000,0.000,0.000,0.000,0.000,0.000,16,17,4*51
$GPGGA,034500.40,3135.5567637,N,12046.4917823,E,4,16,1.4,2.6853,M,8.303,M,01,0004*6E
$GPHPD,0,0.000,144.35,0.27,-15.12,31.5926127,120.7748630,2.685,13630128.014,24922908.880,2.685,0.000,0.000,0.000,0.000,0.000,0.000,0.000,16,17,4*57
$GPGGA,034500.60,3135.5566435,N,12046.4918804,E,4,16,1.4,2.7032,M,8.303,M,00,0004*68
$GPHPD,0,0.000,144.58,-1.32,-15.11,31.5926107,120.7748647,2.703,13630129.920,24922910.762,2.703,0.000,0.000,0.000,0.000,0.000,0.000,0.000,16,17,4*70
$GPGGA,034500.80,3135.5565231,N,12046.4919739,E,4,16,1.4,2.6808,M,8.303,M,00,0004*67
$GPHPD,0,0.000,144.68,-2.74,-15.11,31.5926087,120.7748662,2.681,13630131.819,24922912.590,2.681,0.000,0.000,0.000,0.000,0.000,0.000,0.000,16,16,4*72
$GPGGA,034501.00,3135.5563994,N,12046.4920727,E,4,16,1.7,2.6690,M,8.303,M,01,0004*64
$GPHPD,0,0.000,144.78,-0.15,-15.12,31.5926067,120.7748679,2.669,13630133.776,24922914.502,2.669,0.000,0.000,0.000,0.000,0.000,0.000,0.000,16,16,4*78
$GPGGA,034501.20,3135.5562811,N,12046.4921696,E,4,16,1.7,2.6834,M,8.303,M,01,0004*61
$GPHPD,0,0.000,144.79,-0.95,-15.11,31.5926047,120.7748695,2.683,13630135.652,24922916.359,2.683,0.000,0.000,0.000,0.000,0.000,0.000,0.000,16,16,4*79
$GPGGA,034501.40,3135.5561624,N,12046.4922702,E,4,16,1.7,2.6854,M,8.303,M,01,0004*65
$GPHPD,0,0.000,144.71,-0.05,-15.11,31.5926027,120.7748712,2.685,13630137.542,24922918.263,2.685,0.000,0.000,0.000,0.000,0.000,0.000,0.000,16,16,4*76
$GPGGA,034501.60,3135.5560368,N,12046.4923639,E,4,16,1.7,2.6867,M,8.304,M,00,0004*65
$GPHPD,0,0.000,144.92,-0.13,-15.11,31.5926006,120.7748727,2.687,13630139.515,24922920.124,2.687,0.000,0.000,0.000,0.000,0.000,0.000,0.000,16,16,4*7E
$GPGGA,034501.80,3135.5559178,N,12046.4924596,E,4,16,1.7,2.6507,M,8.304,M,00,0004*68
$GPHPD,0,0.000,144.40,-0.61,-15.12,31.5925986,120.7748743,2.651,13630141.399,24922921.970,2.651,0.000,0.000,0.000,0.000,0.000,0.000,0.000,16,16,4*72
$GPGGA,034502.00,3135.5557983,N,12046.4925540,E,4,17,1.7,2.6839,M,8.304,M,01,0004*6B
$GPHPD,0,0.000,144.47,0.02,-15.11,31.5925966,120.7748759,2.684,13630143.287,24922923.804,2.684,0.000,0.000,0.000,0.000,0.000,0.000,0.000,17,17,4*57
$GPGGA,034502.20,3135.5556783,N,12046.4926514,E,4,17,1.7,2.6793,M,8.304,M,01,0004*6B
$GPHPD,0,0.000,144.37,-0.30,-15.11,31.5925946,120.7748775,2.679,13630145.189,24922925.677,2.679,0.000,0.000,0.000,0.000,0.000,0.000,0.000,17,17,4*77
$GPGGA,034502.40,3135.5555566,N,12046.4927502,E,4,17,1.7,2.6895,M,8.304,M,01,0004*68
$GPHPD,0,0.000,144.46,-0.14,-15.13,31.5925926,120.7748792,2.690,13630147.117,24922927.577,2.690,0.000,0.000,0.000,0.000,0.000,0.000,0.000,17,17,4*7E
$GPGGA,034502.60,3135.5554332,N,12046.4928519,E,4,17,1.7,2.6793,M,8.304,M,00,0004*61
$GPHPD,0,0.000,144.37,0.00,-15.14,31.5925906,120.7748809,2.679,13630149.076,24922929.521,2.679,0.000,0.000,0.000,0.000,0.000,0.000,0.000,17,17,4*5D
$GPGGA,034502.80,3135.5553142,N,12046.4929453,E,4,17,1.7,2.6814,M,8.304,M,00,0004*63
$GPHPD,0,0.000,144.52,0.32,-15.16,31.5925886,120.7748824,2.681,13630150.955,24922931.340,2.681,0.000,0.000,0.000,0.000,0.000,0.000,0.000,17,17,4*53
