$GPGGA,034933.20,3135.4943469,N,12046.5543237,E,4,17,1.2,2.8443,M,8.308,M,01,0004*6A
$GPHPD,0,0.000,58.01,-0.71,-14.41,31.5915724,120.7759054,2.844,13631140.979,24924026.322,2.844,0.000,0.000,0.000,0.000,0.000,0.000,0.000,17,17,4*48
$GPGGA,034933.40,3135.4943481,N,12046.5543230,E,4,17,1.2,2.8482,M,8.308,M,01,0004*60
$GPHPD,0,0.000,57.94,-0.76,-14.38,31.5915725,120.7759054,2.848,13631140.960,24924026.307,2.848,0.000,0.000,0.000,0.000,0.000,0.000,0.000,17,17,4*4C
$GPGGA,034933.60,3135.4943484,N,12046.5543252,E,4,17,1.2,2.8437,M,8.308,M,00,0004*6C
$GPHPD,0,0.000,58.12,-0.90,-14.38,31.5915725,120.7759054,2.844,13631140.961,24924026.332,2.844,0.000,0.000,0.000,0.000,0.000,0.000,0.000,17,17,4*42
$GPGGA,034933.80,3135.4943494,N,12046.5543239,E,4,17,1.2,2.8460,M,8.308,M,00,0004*6C
$GPHPD,0,0.000,58.01,-0.86,-14.37,31.5915725,120.7759054,2.846,13631140.944,24924026.310,2.846,0.000,0.000,0.000,0.000,0.000,0.000,0.000,17,17,4*4F
$GPGGA,034934.00,3135.4943497,N,12046.5543241,E,4,17,1.2,2.8443,M,8.308,M,01,0004*6F
$GPHPD,0,0.000,58.13,-0.83,-14.35,31.5915725,120.7759054,2.844,13631140.940,24924026.311,2.844,0.000,0.000,0.000,0.000,0.000,0.000,0.000,17,17,4*4E
$GPGGA,034934.20,3135.4943497,N,12046.5543228,E,4,17,1.2,2.8522,M,8.308,M,01,0004*64
$GPHPD,0,0.000,58.12,-0.63,-14.34,31.5915725,120.7759054,2.852,13631140.937,24924026.295,2.852,0.000,0.000,0.000,0.000,0.000,0.000,0.000,17,17,4*4D
$GPGGA,034934.40,3135.4943501,N,12046.5543230,E,4,17,1.2,2.8501,M,8.308,M,01,0004*64
$GPHPD,0,0.000,58.16,-1.01,-14.33,31.5915725,120.7759054,2.850,13631140.932,24924026.295,2.850,0.000,0.000,0.000,0.000,0.000,0.000,0.000,17,17,4*4E
$GPGGA,034934.60,3135.4943467,N,12046.5543240,E,4,17,1.2,2.8502,M,8.308,M,00,0004*62
$GPHPD,0,0.000,58.16,-0.83,-14.33,31.5915724,120.7759054,2.850,13631140.982,24924026.327,2.850,0.000,0.000,0.000,0.000,0.000,0.000,0.000,17,17,4*47
$GPGGA,034934.80,3135.4943500,N,12046.5543265,E,4,17,1.2,2.8447,M,8.308,M,00,0004*6B
$GPHPD,0,0.000,57.93,-1.06,-14.33,31.5915725,120.7759054,2.845,13631140.940,24924026.338,2.845,0.000,0.000,0.000,0.000,0.000,0.000,0.000,17,17,4*48
$GPGGA,034935.00,3135.4943502,N,12046.5543300,E,4,17,1.2,2.8419,M,8.308,M,01,0004*68
$GPHPD,0,0.000,58.13,-0.67,-14.33,31.5915725,120.7759055,2.842,13631140.945,24924026.379,2.842,0.000,0.000,0.000,0.000,0.000,0.000,0.000,17,17,4*48
$GPGGA,034935.20,3135.4943525,N,12046.5543342,E,4,17,1.2,2.8425,M,8.308,M,01,0004*66
$GPHPD,0,0.000,57.98,-0.76,-14.33,31.5915725,120.7759056,2.843,13631140.920,24924026.416,2.843,0.000,0.000,0.000,0.000,0.000,0.000,0.000,17,17,4*4A
$GPGGA,034935.40,3135.4943543,N,12046.5543392,E,4,17,1.2,2.8469,M,8.308,M,01,0004*65
$GPHPD,0,0.000,58.00,-0.77,-14.33,31.5915726,120.7759057,2.847,13631140.905,24924026.466,2.847,0.000,0.000,0.000,0.000,0.000,0.000,0.000,17,17,4*47
$GPGGA,034935.60,3135.4943550,N,12046.5543462,E,4,17,1.2,2.8512,M,8.308,M,00,0004*61
$GPHPD,0,0.000,58.09,-0.87,-14.34,31.5915726,120.7759058,2.851,13631140.909,24924026.547,2.851,0.000,0.000,0.000,0.000,0.000,0.000,0.000,17,17,4*47
$GPGGA,034935.80,3135.4943630,N,12046.5543558,E,4,17,1.2,2.8400,M,8.308,M,00,0004*60
$GPHPD,0,0.000,58.06,-0.83,-14.36,31.5915727,120.7759059,2.840,13631140.815,24924026.616,2.840,0.000,0.000,0.000,0.000,0.000,0.000,0.000,17,17,4*45
$GPGGA,034936.00,3135.4943683,N,12046.5543702,E,4,17,1.2,2.8419,M,8.308,M,01,0004*67
$GPHPD,0,0.000,58.14,-0.78,-14.43,31.5915728,120.7759062,2.842,13631140.768,24924026.759,2.842,0.000,0.000,0.000,0.000,0.000,0.000,0.000,17,17,4*48
$GPGGA,034936.20,3135.4943776,N,12046.5543889,E,4,17,1.2,2.8390,M,8.308,M,01,0004*64
$GPHPD,0,0.000,58.11,-0.80,-14.49,31.5915730,120.7759065,2.839,13631140.674,24924026.930,2.839,0.000,0.000,0.000,0.000,0.000,0.000,0.000,17,17,4*43
$GPGGA,034936.40,3135.4943919,N,12046.5544142,E,4,17,1.2,2.8406,M,8.308,M,01,0004*64
$GPHPD,0,0.000,58.09,-0.79,-14.57,31.5915732,120.7759069,2.841,13631140.521,24924027.152,2.841,0.000,0.000,0.000,0.000,0.000,0.000,0.000,17,17,4*43
$GPGGA,034936.60,3135.4944106,N,12046.5544499,E,4,17,1.2,2.8430,M,8.308,M,00,0004*60
$GPHPD,0,0.000,58.14,-0.37,-14.65,31.5915735,120.7759075,2.843,13631140.328,24924027.473,2.843,0.000,0.000,0.000,0.000,0.000,0.000,0.000,17,17,4*47
$GPGGA,034936.80,3135.4944340,N,12046.5544924,E,4,17,1.2,2.8420,M,8.308,M,00,0004*64
$GPHPD,0,0.000,58.07,-0.63,-14.74,31.5915739,120.7759082,2.842,13631140.080,24924027.850,2.842,0.000,0.000,0.000,0.000,0.000,0.000,0.000,17,17,4*4C
$GPGGA,034937.00,3135.4944615,N,12046.5545449,E,4,17,1.2,2.8393,M,8.308,M,01,0004*61
$GPHPD,0,0.000,58.14,-0.53,-14.84,31.5915744,120.7759091,2.839,13631139.795,24924028.323,2.839,0.000,0.000,0.000,0.000,0.000,0.000,0.000,17,17,4*47
$GPGGA,034937.20,3135.4944918,N,12046.5546056,E,4,17,1.2,2.8388,M,8.308,M,01,0004*62
$GPHPD,0,0.000,58.02,-0.51,-14.93,31.5915749,120.7759101,2.839,13631139.487,24924028.878,2.839,0.000,0.000,0.000,0.000,0.000,0.000,0.000,17,17,4*44
$GPGGA,034937.40,3135.4945282,N,12046.5546767,E,4,17,1.2,2.8368,M,8.308,M,01,0004*66
$GPHPD,0,0.000,57.98,-0.58,-15.04,31.5915755,120.7759113,2.837,13631139.113,24924029.524,2.837,0.000,0.000,0.000,0.000,0.000,0.000,0.000,17,17,4*4D
$GPGGA,034937.60,3135.4945729,N,12046.5547600,E,4,17,1.2,2.8340,M,8.308,M,00,0004*6A
$GPHPD,0,0.000,57.85,-0.43,-15.15,31.5915762,120.7759127,2.834,13631138.645,24924030.268,2.834,0.000,0.000,0.000,0.000,0.000,0.000,0.000,17,17,4*4A
$GPGGA,034937.80,3135.4946212,N,12046.5548542,E,4,17,1.2,2.8274,M,8.308,M,00,0004*66
$GPHPD,0,0.000,57.81,-0.36,-15.25,31.5915770,120.7759142,2.827,13631138.148,24924031.123,2.827,0.000,0.000,0.000,0.000,0.000,0.000,0.000,17,17,4*48
$GPGGA,034938.00,3135.4946747,N,12046.5549572,E,4,17,1.2,2.8301,M,8.308,M,01,0004*64
$GPHPD,0,0.000,57.75,-0.57,-15.33,31.5915779,120.7759160,2.830,13631137.595,24924032.053,2.830,0.000,0.000,0.000,0.000,0.000,0.000,0.000,17,17,4*44
$GPGGA,034938.20,3135.4947317,N,12046.5550667,E,4,17,1.2,2.8244,M,8.308,M,01,0004*69
$GPHPD,0,0.000,57.71,-0.31,-15.38,31.5915789,120.7759178,2.824,13631137.005,24924033.042,2.824,0.000,0.000,0.000,0.000,0.000,0.000,0.000,17,17,4*40
$GPGGA,034938.40,3135.4947939,N,12046.5551828,E,4,17,1.2,2.8231,M,8.308,M,01,0004*6F
$GPHPD,0,0.000,57.78,-0.37,-15.41,31.5915799,120.7759197,2.823,13631136.355,24924034.080,2.823,0.000,0.000,0.000,0.000,0.000,0.000,0.000,17,17,4*4F
$GPGGA,034938.60,3135.4948569,N,12046.5553022,E,4,17,1.2,2.8201,M,8.308,M,00,0004*69
$GPHPD,0,0.000,57.88,-0.45,-15.42,31.5915809,120.7759217,2.820,13631135.699,24924035.153,2.820,0.000,0.000,0.000,0.000,0.000,0.000,0.000,17,17,4*43
$GPGGA,034938.80,3135.4949189,N,12046.5554260,E,4,17,1.2,2.8147,M,8.308,M,00,0004*6E
$GPHPD,0,0.000,57.82,-0.29,-15.40,31.5915820,120.7759238,2.815,13631135.067,24924036.285,2.815,0.000,0.000,0.000,0.000,0.000,0.000,0.000,17,17,4*4B
$GPGGA,034939.00,3135.4949842,N,12046.5555417,E,4,17,1.2,2.8165,M,8.308,M,01,0004*6F
$GPHPD,0,0.000,57.73,-0.38,-15.35,31.5915831,120.7759257,2.817,13631134.372,24924037.300,2.817,0.000,0.000,0.000,0.000,0.000,0.000,0.000,17,17,4*45
$GPGGA,034939.20,3135.4950431,N,12046.5556600,E,4,17,1.2,2.8109,M,8.308,M,01,0004*60
$GPHPD,0,0.000,57.84,-0.07,-15.31,31.5915841,120.7759277,2.811,13631133.773,24924038.383,2.811,0.000,0.000,0.000,0.000,0.000,0.000,0.000,17,17,4*46
$GPGGA,034939.40,3135.4951060,N,12046.5557766,E,4,17,1.2,2.8119,M,8.308,M,01,0004*66
$GPHPD,0,0.000,57.74,-0.41,-15.28,31.5915851,120.7759296,2.812,13631133.114,24924039.423,2.812,0.000,0.000,0.000,0.000,0.000,0.000,0.000,17,17,4*46
$GPGGA,034939.60,3135.4951660,N,12046.5558927,E,4,17,1.2,2.8152,M,8.308,M,00,0004*68
$GPHPD,0,0.000,57.94,0.01,-15.26,31.5915861,120.7759315,2.815,13631132.495,24924040.474,2.815,0.000,0.000,0.000,0.000,0.000,0.000,0.000,17,17,4*67
$GPGGA,034939.80,3135.4952222,N,12046.5560034,E,4,17,1.2,2.8114,M,8.308,M,00,0004*65
$GPHPD,0,0.000,57.78,-0.65,-15.25,31.5915870,120.7759334,2.811,13631131.919,24924041.481,2.811,0.000,0.000,0.000,0.000,0.000,0.000,0.000,17,17,4*4B
$GPGGA,034940.00,3135.4952836,N,12046.5561191,E,4,17,1.2,2.8141,M,8.308,M,01,0004*62
$GPHPD,0,0.000,57.83,-0.47,-15.20,31.5915881,120.7759353,2.814,13631131.279,24924042.519,2.814,0.000,0.000,0.000,0.000,0.000,0.000,0.000,17,17,4*4B
$GPGGA,034940.20,3135.4953410,N,12046.5562298,E,4,17,1.2,2.8012,M,8.308,M,01,0004*67
$GPHPD,0,0.000,57.72,-0.47,-15.20,31.5915890,120.7759372,2.801,13631130.686,24924043.520,2.801,0.000,0.000,0.000,0.000,0.000,0.000,0.000,17,17,4*48
$GPGGA,034940.40,3135.4954032,N,12046.5563450,E,4,17,1.2,2.8086,M,8.308,M,01,0004*6C
$GPHPD,0,0.000,57.50,0.02,-15.21,31.5915901,120.7759391,2.809,13631130.034,24924044.547,2.809,0.000,0.000,0.000,0.000,0.000,0.000,0.000,17,17,4*68
$GPGGA,034940.60,3135.4954603,N,12046.5564553,E,4,17,1.2,2.8076,M,8.308,M,00,0004*61
$GPHPD,0,0.000,57.69,-0.06,-15.19,31.5915910,120.7759409,2.808,13631129.444,24924045.545,2.808,0.000,0.000,0.000,0.000,0.000,0.000,0.000,17,17,4*4E
$GPGGA,034940.80,3135.4955195,N,12046.5565648,E,4,17,1.2,2.7961,M,8.308,M,00,0004*6E
$GPHPD,0,0.000,57.82,-0.51,-15.16,31.5915920,120.7759427,2.796,13631128.823,24924046.520,2.796,0.000,0.000,0.000,0.000,0.000,0.000,0.000,17,17,4*45
$GPGGA,034941.00,3135.4955789,N,12046.5566774,E,4,17,1.2,2.7932,M,8.308,M,01,0004*66
$GPHPD,0,0.000,58.11,-0.44,-15.15,31.5915930,120.7759446,2.793,13631128.205,24924047.532,2.793,0.000,0.000,0.000,0.000,0.000,0.000,0.000,17,17,4*4D
$GPGGA,034941.20,3135.4956367,N,12046.5567894,E,4,17,1.2,2.8019,M,8.308,M,01,0004*6C
$GPHPD,0,0.000,57.90,0.45,-15.14,31.5915939,120.7759465,2.802,13631127.609,24924048.546,2.802,0.000,0.000,0.000,0.000,0.000,0.000,0.000,17,17,4*65
$GPGGA,034941.40,3135.4956930,N,12046.5569069,E,4,17,1.2,2.8094,M,8.308,M,01,0004*63
$GPHPD,0,0.000,57.57,0.47,-15.11,31.5915949,120.7759484,2.809,13631127.045,24924049.636,2.809,0.000,0.000,0.000,0.000,0.000,0.000,0.000,17,17,4*6A
$GPGGA,034941.60,3135.4957565,N,12046.5570206,E,4,17,1.2,2.8083,M,8.308,M,00,0004*68
$GPHPD,0,0.000,57.29,0.07,-15.09,31.5915959,120.7759503,2.808,13631126.372,24924050.637,2.808,0.000,0.000,0.000,0.000,0.000,0.000,0.000,17,17,4*6E
$GPGGA,034941.80,3135.4958196,N,12046.5571362,E,4,17,1.2,2.7930,M,8.308,M,00,0004*6D
$GPHPD,0,0.000,57.47,0.12,-15.07,31.5915970,120.7759523,2.793,13631125.708,24924051.664,2.793,0.000,0.000,0.000,0.000,0.000,0.000,0.000,17,17,4*68
$GPGGA,034942.00,3135.4958842,N,12046.5572608,E,4,17,1.2,2.7792,M,8.308,M,01,0004*6B
$GPHPD,0,0.000,57.65,-0.05,-15.08,31.5915981,120.7759543,2.779,13631125.040,24924052.790,2.779,0.000,0.000,0.000,0.000,0.000,0.000,0.000,17,17,4*46
$GPGGA,034942.20,3135.4959461,N,12046.5573882,E,4,17,1.2,2.7784,M,8.308,M,01,0004*6F
$GPHPD,0,0.000,57.56,0.44,-15.07,31.5915991,120.7759565,2.778,13631124.417,24924053.966,2.778,0.000,0.000,0.000,0.000,0.000,0.000,0.000,17,17,4*65
$GPGGA,034942.40,3135.4960129,N,12046.5575118,E,4,17,1.2,2.7841,M,8.308,M,01,0004*60
$GPHPD,0,0.000,57.42,0.58,-15.06,31.5916002,120.7759585,2.784,13631123.716,24924055.067,2.784,0.000,0.000,0.000,0.000,0.000,0.000,0.000,17,17,4*69
$GPGGA,034942.60,3135.4960843,N,12046.5576433,E,4,17,1.2,2.7932,M,8.308,M,00,0004*6C
$GPHPD,0,0.000,57.19,-0.39,-15.01,31.5916014,120.7759607,2.793,13631122.966,24924056.237,2.793,0.000,0.000,0.000,0.000,0.000,0.000,0.000,17,17,4*48
$GPGGA,034942.80,3135.4961510,N,12046.5577752,E,4,17,1.2,2.7703,M,8.308,M,00,0004*61
$GPHPD,0,0.000,57.66,-1.01,-14.96,31.5916025,120.7759629,2.770,13631122.283,24924057.440,2.770,0.000,0.000,0.000,0.000,0.000,0.000,0.000,17,17,4*4C
$GPGGA,034943.00,3135.4962228,N,12046.5579052,E,4,17,1.2,2.7934,M,8.308,M,01,0004*65
$GPHPD,0,0.000,57.28,-0.70,-14.93,31.5916037,120.7759651,2.793,13631121.524,24924058.589,2.793,0.000,0.000,0.000,0.000,0.000,0.000,0.000,17,17,4*4A
$GPGGA,034943.20,3135.4962945,N,12046.5580324,E,4,17,1.2,2.7957,M,8.308,M,01,0004*66
$GPHPD,0,0.000,57.42,-0.11,-14.92,31.5916049,120.7759672,2.796,13631120.761,24924059.706,2.796,0.000,0.000,0.000,0.000,0.000,0.000,0.000,17,17,4*4E
$GPGGA,034943.40,3135.4963581,N,12046.5581603,E,4,16,1.2,2.8159,M,8.308,M,01,0004*6C
$GPHPD,0,0.000,57.64,0.43,-14.95,31.5916060,120.7759693,2.816,13631120.115,24924060.878,2.816,0.000,0.000,0.000,0.000,0.000,0.000,0.000,16,16,4*6A
$GPGGA,034943.60,3135.4964315,N,12046.5582940,E,4,16,1.2,2.8016,M,8.308,M,00,0004*62
$GPHPD,0,0.000,57.50,-0.31,-14.97,31.5916072,120.7759716,2.802,13631119.341,24924062.063,2.802,0.000,0.000,0.000,0.000,0.000,0.000,0.000,16,16,4*41
$GPGGA,034943.80,3135.4965003,N,12046.5584294,E,4,16,1.2,2.7915,M,8.308,M,00,0004*68
$GPHPD,0,0.000,57.85,0.46,-14.99,31.5916083,120.7759738,2.792,13631118.635,24924063.295,2.792,0.000,0.000,0.000,0.000,0.000,0.000,0.000,16,16,4*65
$GPGGA,034944.00,3135.4965721,N,12046.5585587,E,4,17,1.2,2.7972,M,8.308,M,01,0004*65
$GPHPD,0,0.000,57.90,0.97,-15.01,31.5916095,120.7759760,2.797,13631117.875,24924064.436,2.797,0.000,0.000,0.000,0.000,0.000,0.000,0.000,17,16,4*6B
$GPGGA,034944.20,3135.4966435,N,12046.5586950,E,4,16,1.2,2.7965,M,8.308,M,01,0004*60
$GPHPD,0,0.000,58.42,0.16,-15.04,31.5916107,120.7759783,2.797,13631117.134,24924065.664,2.797,0.000,0.000,0.000,0.000,0.000,0.000,0.000,16,16,4*69
$GPGGA,034944.40,3135.4967181,N,12046.5588311,E,4,16,1.2,2.7995,M,8.308,M,01,0004*63
$GPHPD,0,0.000,58.52,0.47,-15.05,31.5916120,120.7759805,2.800,13631116.348,24924066.871,2.800,0.000,0.000,0.000,0.000,0.000,0.000,0.000,16,16,4*68
$GPGGA,034944.60,3135.4967856,N,12046.5589737,E,4,16,1.2,2.7913,M,8.308,M,00,0004*6C
$GPHPD,0,0.000,58.68,-0.15,-15.08,31.5916131,120.7759829,2.791,13631115.676,24924068.197,2.791,0.000,0.000,0.000,0.000,0.000,0.000,0.000,16,16,4*4C
$GPGGA,034944.80,3135.4968582,N,12046.5591117,E,4,16,1.2,2.8041,M,8.308,M,00,0004*65
$GPHPD,0,0.000,58.41,0.12,-15.09,31.5916143,120.7759852,2.804,13631114.921,24924069.439,2.804,0.000,0.000,0.000,0.000,0.000,0.000,0.000,16,16,4*69
$GPGGA,034945.00,3135.4969283,N,12046.5592541,E,4,16,1.3,2.7925,M,8.308,M,01,0004*6B
$GPHPD,0,0.000,58.55,-0.35,-15.09,31.5916155,120.7759876,2.793,13631114.212,24924070.748,2.793,0.000,0.000,0.000,0.000,0.000,0.000,0.000,16,16,4*43
$GPGGA,034945.20,3135.4969987,N,12046.5594005,E,4,17,1.3,2.7932,M,8.308,M,01,0004*62
$GPHPD,0,0.000,58.60,-0.47,-15.07,31.5916166,120.7759900,2.793,13631113.506,24924072.103,2.793,0.000,0.000,0.000,0.000,0.000,0.000,0.000,17,16,4*41
$GPGGA,034945.40,3135.4970729,N,12046.5595425,E,4,17,1.3,2.7911,M,8.308,M,01,0004*60
$GPHPD,0,0.000,58.16,0.09,-15.05,31.5916179,120.7759924,2.791,13631112.737,24924073.384,2.791,0.000,0.000,0.000,0.000,0.000,0.000,0.000,17,16,4*60
$GPGGA,034945.60,3135.4971473,N,12046.5596868,E,4,17,1.3,2.7854,M,8.308,M,00,0004*68
$GPHPD,0,0.000,58.29,-0.61,-15.02,31.5916191,120.7759948,2.785,13631111.970,24924074.691,2.785,0.000,0.000,0.000,0.000,0.000,0.000,0.000,17,17,4*4D
$GPGGA,034945.80,3135.4972165,N,12046.5598270,E,4,17,1.3,2.7880,M,8.308,M,00,0004*63
$GPHPD,0,0.000,58.45,-0.39,-14.98,31.5916203,120.7759971,2.788,13631111.268,24924075.978,2.788,0.000,0.000,0.000,0.000,0.000,0.000,0.000,17,17,4*41
$GPGGA,034946.00,3135.4972899,N,12046.5599714,E,4,17,1.2,2.7916,M,8.308,M,01,0004*6A
$GPHPD,0,0.000,58.68,-0.66,-14.94,31.5916215,120.7759995,2.792,13631110.516,24924077.292,2.792,0.000,0.000,0.000,0.000,0.000,0.000,0.000,17,17,4*47
$GPGGA,034946.20,3135.4973632,N,12046.5601150,E,4,17,1.3,2.7830,M,8.308,M,01,0004*66
$GPHPD,0,0.000,58.62,-0.60,-14.92,31.5916227,120.7760019,2.783,13631109.763,24924078.597,2.783,0.000,0.000,0.000,0.000,0.000,0.000,0.000,17,17,4*4E
$GPGGA,034946.40,3135.4974313,N,12046.5602607,E,4,17,1.3,2.7711,M,8.308,M,01,0004*6B
$GPHPD,0,0.000,58.74,-0.90,-14.90,31.5916239,120.7760043,2.771,13631109.088,24924079.958,2.771,0.000,0.000,0.000,0.000,0.000,0.000,0.000,17,17,4*48
$GPGGA,034946.60,3135.4975082,N,12046.5604086,E,4,17,1.3,2.7725,M,8.308,M,00,0004*6C
$GPHPD,0,0.000,58.60,-1.14,-14.88,31.5916251,120.7760068,2.773,13631108.293,24924081.294,2.773,0.000,0.000,0.000,0.000,0.000,0.000,0.000,17,17,4*4B
$GPGGA,034946.80,3135.4975811,N,12046.5605559,E,4,17,1.3,2.7762,M,8.308,M,00,0004*65
$GPHPD,0,0.000,58.59,-0.95,-14.86,31.5916264,120.7760093,2.776,13631107.553,24924082.645,2.776,0.000,0.000,0.000,0.000,0.000,0.000,0.000,17,17,4*4A
$GPGGA,034947.00,3135.4976553,N,12046.5606973,E,4,17,1.3,2.7787,M,8.308,M,01,0004*69
$GPHPD,0,0.000,58.45,-0.41,-14.85,31.5916276,120.7760116,2.779,13631106.783,24924083.919,2.779,0.000,0.000,0.000,0.000,0.000,0.000,0.000,17,17,4*4B
$GPGGA,034947.20,3135.4977293,N,12046.5608407,E,4,17,1.3,2.7705,M,8.308,M,01,0004*6B
$GPHPD,0,0.000,58.47,0.15,-14.87,31.5916288,120.7760140,2.771,13631106.020,24924085.217,2.771,0.000,0.000,0.000,0.000,0.000,0.000,0.000,17,17,4*68
$GPGGA,034947.40,3135.4978035,N,12046.5609913,E,4,17,1.3,2.7652,M,8.308,M,01,0004*66
$GPHPD,0,0.000,58.39,-0.14,-14.88,31.5916301,120.7760165,2.765,13631105.269,24924086.601,2.765,0.000,0.000,0.000,0.000,0.000,0.000,0.000,17,17,4*49
$GPGGA,034947.60,3135.4978808,N,12046.5611381,E,4,17,1.3,2.7806,M,8.308,M,00,0004*64
$GPHPD,0,0.000,58.63,0.60,-14.86,31.5916313,120.7760190,2.781,13631104.465,24924087.921,2.781,0.000,0.000,0.000,0.000,0.000,0.000,0.000,17,17,4*68
$GPGGA,034947.80,3135.4979537,N,12046.5612787,E,4,17,1.3,2.7848,M,8.308,M,00,0004*61
$GPHPD,0,0.000,59.04,0.35,-14.88,31.5916326,120.7760213,2.785,13631103.712,24924089.192,2.785,0.000,0.000,0.000,0.000,0.000,0.000,0.000,17,17,4*62
$GPGGA,034948.00,3135.4980299,N,12046.5614265,E,4,17,1.3,2.7925,M,8.308,M,01,0004*67
$GPHPD,0,0.000,59.15,0.49,-14.88,31.5916338,120.7760238,2.793,13631102.927,24924090.531,2.793,0.000,0.000,0.000,0.000,0.000,0.000,0.000,17,17,4*63
$GPGGA,034948.20,3135.4981037,N,12046.5615754,E,4,17,1.3,2.7902,M,8.308,M,01,0004*61
$GPHPD,0,0.000,59.61,0.31,-14.87,31.5916351,120.7760263,2.790,13631102.177,24924091.897,2.790,0.000,0.000,0.000,0.000,0.000,0.000,0.000,17,17,4*6C
$GPGGA,034948.40,3135.4981786,N,12046.5617264,E,4,17,1.3,2.7736,M,8.308,M,01,0004*67
$GPHPD,0,0.000,59.76,-0.37,-14.88,31.5916363,120.7760288,2.774,13631101.417,24924093.281,2.774,0.000,0.000,0.000,0.000,0.000,0.000,0.000,17,17,4*45
$GPGGA,034948.60,3135.4982507,N,12046.5618792,E,4,17,1.3,2.7701,M,8.308,M,00,0004*6B
$GPHPD,0,0.000,59.69,0.27,-14.84,31.5916375,120.7760313,2.770,13631100.699,24924094.704,2.770,0.000,0.000,0.000,0.000,0.000,0.000,0.000,17,17,4*65
$GPGGA,034948.80,3135.4983220,N,12046.5620244,E,4,17,1.3,2.7741,M,8.308,M,00,0004*67
$GPHPD,0,0.000,59.78,-0.03,-14.83,31.5916387,120.7760337,2.774,13631099.978,24924096.040,2.774,0.000,0.000,0.000,0.000,0.000,0.000,0.000,17,17,4*46
$GPGGA,034949.00,3135.4983945,N,12046.5621766,E,4,17,1.3,2.7767,M,8.308,M,01,0004*67
$GPHPD,0,0.000,59.85,-0.32,-14.79,31.5916399,120.7760363,2.777,13631099.254,24924097.453,2.777,0.000,0.000,0.000,0.000,0.000,0.000,0.000,17,17,4*4F
$GPGGA,034949.20,3135.4984684,N,12046.5623259,E,4,17,1.3,2.7760,M,8.308,M,01,0004*6C
$GPHPD,0,0.000,60.00,-0.10,-14.77,31.5916411,120.7760388,2.776,13631098.504,24924098.823,2.776,0.000,0.000,0.000,0.000,0.000,0.000,0.000,17,17,4*43
$GPGGA,034949.40,3135.4985379,N,12046.5624758,E,4,17,1.3,2.7729,M,8.308,M,01,0004*62
$GPHPD,0,0.000,60.16,0.07,-14.76,31.5916423,120.7760413,2.773,13631097.818,24924100.226,2.773,0.000,0.000,0.000,0.000,0.000,0.000,0.000,17,17,4*6A
$GPGGA,034949.60,3135.4986132,N,12046.5626206,E,4,17,1.3,2.7704,M,8.308,M,00,0004*6C
$GPHPD,0,0.000,59.89,-0.23,-14.77,31.5916436,120.7760437,2.770,13631097.039,24924101.534,2.770,0.000,0.000,0.000,0.000,0.000,0.000,0.000,17,17,4*40
$GPGGA,034949.80,3135.4986820,N,12046.5627731,E,4,17,1.3,2.7702,M,8.308,M,00,0004*6E
$GPHPD,0,0.000,59.86,-0.06,-14.76,31.5916447,120.7760462,2.770,13631096.368,24924102.973,2.770,0.000,0.000,0.000,0.000,0.000,0.000,0.000,17,17,4*45
$GPGGA,034950.00,3135.4987544,N,12046.5629183,E,4,17,1.3,2.7597,M,8.308,M,01,0004*6E
$GPHPD,0,0.000,59.63,-1.11,-14.76,31.5916459,120.7760486,2.760,13631095.631,24924104.302,2.760,0.000,0.000,0.000,0.000,0.000,0.000,0.000,17,17,4*4C
$GPGGA,034950.20,3135.4988249,N,12046.5630644,E,4,17,1.2,2.7637,M,8.308,M,01,0004*65
$GPHPD,0,0.000,59.32,-0.85,-14.75,31.5916471,120.7760511,2.764,13631094.923,24924105.653,2.764,0.000,0.000,0.000,0.000,0.000,0.000,0.000,17,17,4*4F
$GPGGA,034950.40,3135.4988963,N,12046.5632095,E,4,17,1.2,2.7622,M,8.309,M,01,0004*6D
$GPHPD,0,0.000,58.97,-0.53,-14.76,31.5916483,120.7760535,2.762,13631094.201,24924106.987,2.762,0.000,0.000,0.000,0.000,0.000,0.000,0.000,17,17,4*4C
$GPGGA,034950.60,3135.4989684,N,12046.5633585,E,4,17,1.2,2.7626,M,8.309,M,00,0004*68
$GPHPD,0,0.000,58.78,-0.99,-14.77,31.5916495,120.7760560,2.763,13631093.476,24924108.364,2.763,0.000,0.000,0.000,0.000,0.000,0.000,0.000,17,17,4*45
$GPGGA,034950.80,3135.4990432,N,12046.5635058,E,4,17,1.2,2.7609,M,8.309,M,00,0004*6F
$GPHPD,0,0.000,58.98,0.06,-14.77,31.5916507,120.7760584,2.761,13631092.709,24924109.705,2.761,0.000,0.000,0.000,0.000,0.000,0.000,0.000,17,17,4*68
$GPGGA,034951.00,3135.4991114,N,12046.5636545,E,4,17,1.2,2.7522,M,8.309,M,01,0004*67
$GPHPD,0,0.000,59.03,0.37,-14.78,31.5916519,120.7760609,2.752,13631092.039,24924111.101,2.752,0.000,0.000,0.000,0.000,0.000,0.000,0.000,17,17,4*60
$GPGGA,034951.20,3135.4991856,N,12046.5638053,E,4,17,1.2,2.7565,M,8.309,M,01,0004*65
$GPHPD,0,0.000,58.87,0.86,-14.78,31.5916531,120.7760634,2.757,13631091.288,24924112.488,2.757,0.000,0.000,0.000,0.000,0.000,0.000,0.000,17,17,4*6F
$GPGGA,034951.40,3135.4992616,N,12046.5639470,E,4,17,1.2,2.7753,M,8.309,M,01,0004*69
$GPHPD,0,0.000,59.41,0.95,-14.76,31.5916544,120.7760658,2.775,13631090.493,24924113.754,2.775,0.000,0.000,0.000,0.000,0.000,0.000,0.000,17,17,4*6E
$GPGGA,034951.60,3135.4993374,N,12046.5640985,E,4,17,1.2,2.7719,M,8.309,M,00,0004*6D
$GPHPD,0,0.000,59.90,0.54,-14.73,31.5916556,120.7760683,2.772,13631089.720,24924115.139,2.772,0.000,0.000,0.000,0.000,0.000,0.000,0.000,17,17,4*67
$GPGGA,034951.80,3135.4994093,N,12046.5642522,E,4,17,1.2,2.7689,M,8.309,M,00,0004*65
$GPHPD,0,0.000,60.13,0.62,-14.70,31.5916568,120.7760709,2.769,13631089.008,24924116.574,2.769,0.000,0.000,0.000,0.000,0.000,0.000,0.000,17,17,4*6D
$GPGGA,034952.00,3135.4994836,N,12046.5644009,E,4,17,1.2,2.7690,M,8.309,M,01,0004*6A
$GPHPD,0,0.000,60.18,0.40,-14.69,31.5916581,120.7760733,2.769,13631088.251,24924117.935,2.769,0.000,0.000,0.000,0.000,0.000,0.000,0.000,17,17,4*67
$GPGGA,034952.20,3135.4995557,N,12046.5645468,E,4,17,1.3,2.7675,M,8.309,M,01,0004*6B
$GPHPD,0,0.000,60.43,0.03,-14.68,31.5916593,120.7760758,2.768,13631087.520,24924119.274,2.768,0.000,0.000,0.000,0.000,0.000,0.000,0.000,17,17,4*6F
$GPGGA,034952.40,3135.4996275,N,12046.5646950,E,4,17,1.2,2.7621,M,8.309,M,01,0004*6C
$GPHPD,0,0.000,60.49,-0.20,-14.67,31.5916605,120.7760783,2.762,13631086.797,24924120.643,2.762,0.000,0.000,0.000,0.000,0.000,0.000,0.000,17,17,4*49
$GPGGA,034952.60,3135.4996941,N,12046.5648473,E,4,17,1.2,2.7625,M,8.309,M,00,0004*65
$GPHPD,0,0.000,60.23,-0.62,-14.68,31.5916616,120.7760808,2.763,13631086.157,24924122.092,2.763,0.000,0.000,0.000,0.000,0.000,0.000,0.000,17,17,4*40
$GPGGA,034952.80,3135.4997679,N,12046.5649900,E,4,17,1.2,2.7584,M,8.309,M,00,0004*6E
$GPHPD,0,0.000,59.98,-0.20,-14.68,31.5916628,120.7760832,2.758,13631085.396,24924123.383,2.758,0.000,0.000,0.000,0.000,0.000,0.000,0.000,17,17,4*46
$GPGGA,034953.00,3135.4998367,N,12046.5651458,E,4,17,1.2,2.7582,M,8.309,M,01,0004*6C
$GPHPD,0,0.000,59.90,-0.49,-14.68,31.5916639,120.7760858,2.758,13631084.731,24924124.861,2.758,0.000,0.000,0.000,0.000,0.000,0.000,0.000,17,17,4*45
$GPGGA,034953.20,3135.4999108,N,12046.5652908,E,4,17,1.2,2.7532,M,8.309,M,01,0004*64
$GPHPD,0,0.000,59.66,-0.66,-14.68,31.5916652,120.7760882,2.753,13631083.970,24924126.179,2.753,0.000,0.000,0.000,0.000,0.000,0.000,0.000,17,17,4*45
$GPGGA,034953.40,3135.4999806,N,12046.5654364,E,4,17,1.2,2.7466,M,8.309,M,01,0004*63
$GPHPD,0,0.000,59.58,-0.64,-14.68,31.5916663,120.7760906,2.747,13631083.271,24924127.528,2.747,0.000,0.000,0.000,0.000,0.000,0.000,0.000,17,17,4*4E
$GPGGA,034953.60,3135.5000483,N,12046.5655815,E,4,17,1.2,2.7449,M,8.309,M,00,0004*68
$GPHPD,0,0.000,59.38,0.09,-14.69,31.5916675,120.7760930,2.745,13631082.601,24924128.884,2.745,0.000,0.000,0.000,0.000,0.000,0.000,0.000,17,17,4*6B
$GPGGA,034953.80,3135.5001233,N,12046.5657279,E,4,17,1.2,2.7480,M,8.309,M,00,0004*6D
$GPHPD,0,0.000,59.18,-0.28,-14.71,31.5916687,120.7760955,2.748,13631081.829,24924130.212,2.748,0.000,0.000,0.000,0.000,0.000,0.000,0.000,17,17,4*4B
$GPGGA,034954.00,3135.5001951,N,12046.5658749,E,4,17,1.2,2.7518,M,8.309,M,01,0004*65
$GPHPD,0,0.000,59.31,-0.12,-14.73,31.5916699,120.7760979,2.752,13631081.105,24924131.567,2.752,0.000,0.000,0.000,0.000,0.000,0.000,0.000,17,17,4*49
$GPGGA,034954.20,3135.5002662,N,12046.5660198,E,4,17,1.2,2.7470,M,8.309,M,01,0004*65
$GPHPD,0,0.000,59.33,0.34,-14.73,31.5916711,120.7761003,2.747,13631080.386,24924132.900,2.747,0.000,0.000,0.000,0.000,0.000,0.000,0.000,17,17,4*60
$GPGGA,034954.40,3135.5003400,N,12046.5661677,E,4,17,1.2,2.7392,M,8.309,M,01,0004*68
$GPHPD,0,0.000,59.07,0.49,-14.73,31.5916723,120.7761028,2.739,13631079.634,24924134.254,2.739,0.000,0.000,0.000,0.000,0.000,0.000,0.000,17,17,4*63
$GPGGA,034954.60,3135.5004118,N,12046.5663126,E,4,17,1.2,2.7428,M,8.309,M,00,0004*67
$GPHPD,0,0.000,59.22,0.27,-14.71,31.5916735,120.7761052,2.743,13631078.905,24924135.583,2.743,0.000,0.000,0.000,0.000,0.000,0.000,0.000,17,17,4*64
$GPGGA,034954.80,3135.5004839,N,12046.5664587,E,4,17,1.2,2.7421,M,8.309,M,00,0004*62
$GPHPD,0,0.000,58.95,0.10,-14.69,31.5916747,120.7761076,2.742,13631078.175,24924136.925,2.742,0.000,0.000,0.000,0.000,0.000,0.000,0.000,17,17,4*6B
$GPGGA,034955.00,3135.5005585,N,12046.5666011,E,4,17,1.2,2.7455,M,8.309,M,01,0004*6A
$GPHPD,0,0.000,58.76,0.47,-14.70,31.5916760,120.7761100,2.746,13631077.401,24924138.208,2.746,0.000,0.000,0.000,0.000,0.000,0.000,0.000,17,17,4*6A
$GPGGA,034955.20,3135.5006317,N,12046.5667476,E,4,17,1.2,2.7442,M,8.309,M,01,0004*64
$GPHPD,0,0.000,58.94,-0.04,-14.69,31.5916772,120.7761125,2.744,13631076.655,24924139.549,2.744,0.000,0.000,0.000,0.000,0.000,0.000,0.000,17,17,4*41
$GPGGA,034955.40,3135.5007034,N,12046.5668953,E,4,17,1.2,2.7512,M,8.309,M,01,0004*60
$GPHPD,0,0.000,58.83,-0.19,-14.67,31.5916784,120.7761149,2.751,13631075.934,24924140.912,2.751,0.000,0.000,0.000,0.000,0.000,0.000,0.000,17,17,4*41
$GPGGA,034955.60,3135.5007751,N,12046.5670369,E,4,17,1.2,2.7417,M,8.309,M,00,0004*69
$GPHPD,0,0.000,58.57,-0.05,-14.66,31.5916796,120.7761173,2.742,13631075.199,24924142.202,2.742,0.000,0.000,0.000,0.000,0.000,0.000,0.000,17,17,4*49
$GPGGA,034955.80,3135.5008500,N,12046.5671838,E,4,17,1.2,2.7521,M,8.309,M,00,0004*64
$GPHPD,0,0.000,58.81,-0.17,-14.65,31.5916808,120.7761197,2.752,13631074.431,24924143.538,2.752,0.000,0.000,0.000,0.000,0.000,0.000,0.000,17,17,4*49
$GPGGA,034956.00,3135.5009260,N,12046.5673316,E,4,17,1.2,2.7436,M,8.309,M,01,0004*6C
$GPHPD,0,0.000,58.87,-0.16,-14.64,31.5916821,120.7761222,2.744,13631073.648,24924144.877,2.744,0.000,0.000,0.000,0.000,0.000,0.000,0.000,17,17,4*43
$GPGGA,034956.20,3135.5009993,N,12046.5674791,E,4,17,1.2,2.7382,M,8.309,M,01,0004*6D
$GPHPD,0,0.000,59.24,-0.12,-14.63,31.5916833,120.7761247,2.738,13631072.903,24924146.229,2.738,0.000,0.000,0.000,0.000,0.000,0.000,0.000,17,17,4*4A
$GPGGA,034956.40,3135.5010748,N,12046.5676264,E,4,17,1.2,2.7466,M,8.309,M,01,0004*6B
$GPHPD,0,0.000,59.11,-0.23,-14.61,31.5916846,120.7761271,2.747,13631072.126,24924147.566,2.747,0.000,0.000,0.000,0.000,0.000,0.000,0.000,17,17,4*49
$GPGGA,034956.60,3135.5011471,N,12046.5677736,E,4,17,1.2,2.7513,M,8.309,M,00,0004*60
$GPHPD,0,0.000,59.32,0.19,-14.59,31.5916858,120.7761296,2.751,13631071.395,24924148.920,2.751,0.000,0.000,0.000,0.000,0.000,0.000,0.000,17,17,4*69
$GPGGA,034956.80,3135.5012218,N,12046.5679218,E,4,17,1.2,2.7447,M,8.309,M,00,0004*63
$GPHPD,0,0.000,59.51,0.11,-14.56,31.5916870,120.7761320,2.745,13631070.631,24924150.272,2.745,0.000,0.000,0.000,0.000,0.000,0.000,0.000,17,17,4*62
$GPGGA,034957.00,3135.5012978,N,12046.5680715,E,4,17,1.2,2.7461,M,8.309,M,01,0004*6C
$GPHPD,0,0.000,59.43,-0.11,-14.56,31.5916883,120.7761345,2.746,13631069.852,24924151.635,2.746,0.000,0.000,0.000,0.000,0.000,0.000,0.000,17,17,4*46
$GPGGA,034957.20,3135.5013705,N,12046.5682242,E,4,17,1.2,2.7447,M,8.309,M,01,0004*6A
$GPHPD,0,0.000,59.25,-0.14,-14.55,31.5916895,120.7761371,2.745,13631069.126,24924153.053,2.745,0.000,0.000,0.000,0.000,0.000,0.000,0.000,17,17,4*4E
$GPGGA,034957.40,3135.5014428,N,12046.5683701,E,4,17,1.2,2.7355,M,8.309,M,01,0004*60
$GPHPD,0,0.000,59.16,-0.49,-14.54,31.5916907,120.7761395,2.736,13631068.392,24924154.392,2.736,0.000,0.000,0.000,0.000,0.000,0.000,0.000,17,17,4*42
$GPGGA,034957.60,3135.5015174,N,12046.5685191,E,4,17,1.2,2.7329,M,8.309,M,00,0004*6C
$GPHPD,0,0.000,59.30,-0.27,-14.54,31.5916920,120.7761420,2.733,13631067.632,24924155.754,2.733,0.000,0.000,0.000,0.000,0.000,0.000,0.000,17,17,4*4D
$GPGGA,034957.80,3135.5015889,N,12046.5686716,E,4,17,1.2,2.7325,M,8.309,M,00,0004*6F
$GPHPD,0,0.000,59.19,-0.81,-14.54,31.5916931,120.7761445,2.733,13631066.923,24924157.177,2.733,0.000,0.000,0.000,0.000,0.000,0.000,0.000,17,17,4*42
$GPGGA,034958.00,3135.5016620,N,12046.5688197,E,4,17,1.2,2.7286,M,8.309,M,01,0004*6E
$GPHPD,0,0.000,59.20,-0.49,-14.53,31.5916944,120.7761470,2.729,13631066.182,24924158.537,2.729,0.000,0.000,0.000,0.000,0.000,0.000,0.000,17,17,4*43
$GPGGA,034958.20,3135.5017361,N,12046.5689634,E,4,17,1.2,2.7228,M,8.309,M,01,0004*66
$GPHPD,0,0.000,59.12,-0.38,-14.53,31.5916956,120.7761494,2.723,13631065.418,24924159.838,2.723,0.000,0.000,0.000,0.000,0.000,0.000,0.000,17,17,4*4B
$GPGGA,034958.40,3135.5018098,N,12046.5691139,E,4,17,1.2,2.7285,M,8.309,M,01,0004*6E
$GPHPD,0,0.000,59.10,-0.27,-14.53,31.5916968,120.7761519,2.729,13631064.673,24924161.224,2.729,0.000,0.000,0.000,0.000,0.000,0.000,0.000,17,17,4*4C
$GPGGA,034958.60,3135.5018831,N,12046.5692592,E,4,17,1.2,2.7255,M,8.309,M,00,0004*6D
$GPHPD,0,0.000,58.90,-0.24,-14.56,31.5916981,120.7761543,2.726,13631063.924,24924162.550,2.726,0.000,0.000,0.000,0.000,0.000,0.000,0.000,17,17,4*46
$GPGGA,034958.80,3135.5019586,N,12046.5694119,E,4,17,1.2,2.7245,M,8.309,M,00,0004*63
$GPHPD,0,0.000,58.72,-0.32,-14.56,31.5916993,120.7761569,2.725,13631063.158,24924163.951,2.725,0.000,0.000,0.000,0.000,0.000,0.000,0.000,17,17,4*49
$GPGGA,034959.00,3135.5020311,N,12046.5695568,E,4,17,1.2,2.7194,M,8.309,M,01,0004*65
$GPHPD,0,0.000,58.72,0.02,-14.55,31.5917005,120.7761593,2.719,13631062.419,24924165.277,2.719,0.000,0.000,0.000,0.000,0.000,0.000,0.000,17,17,4*6E
$GPGGA,034959.20,3135.5021058,N,12046.5697068,E,4,17,1.2,2.7235,M,8.309,M,01,0004*67
$GPHPD,0,0.000,58.74,-0.21,-14.56,31.5917018,120.7761618,2.724,13631061.659,24924166.650,2.724,0.000,0.000,0.000,0.000,0.000,0.000,0.000,17,17,4*4C
$GPGGA,034959.40,3135.5021789,N,12046.5698542,E,4,17,1.2,2.7116,M,8.309,M,01,0004*6A
$GPHPD,0,0.000,58.53,-0.08,-14.55,31.5917030,120.7761642,2.712,13631060.917,24924168.002,2.712,0.000,0.000,0.000,0.000,0.000,0.000,0.000,17,17,4*4F
$GPGGA,034959.60,3135.5022568,N,12046.5700014,E,4,17,1.2,2.7165,M,8.309,M,00,0004*65
$GPHPD,0,0.000,58.58,-0.06,-14.57,31.5917043,120.7761667,2.717,13631060.106,24924169.324,2.717,0.000,0.000,0.000,0.000,0.000,0.000,0.000,17,17,4*45
$GPGGA,034959.80,3135.5023299,N,12046.5701475,E,4,17,1.2,2.7135,M,8.309,M,00,0004*64
$GPHPD,0,0.000,58.73,-0.19,-14.59,31.5917055,120.7761691,2.714,13631059.361,24924170.660,2.714,0.000,0.000,0.000,0.000,0.000,0.000,0.000,17,17,4*46
$GPGGA,035000.00,3135.5024057,N,12046.5702991,E,4,17,1.2,2.7249,M,8.309,M,01,0004*62
$GPHPD,0,0.000,58.74,-0.21,-14.61,31.5917068,120.7761717,2.725,13631058.589,24924172.047,2.725,0.000,0.000,0.000,0.000,0.000,0.000,0.000,17,17,4*40
$GPGGA,035000.20,3135.5024808,N,12046.5704454,E,4,17,1.2,2.7264,M,8.309,M,01,0004*6F
$GPHPD,0,0.000,58.83,0.19,-14.60,31.5917080,120.7761741,2.726,13631057.816,24924173.374,2.726,0.000,0.000,0.000,0.000,0.000,0.000,0.000,17,17,4*6C
$GPGGA,035000.40,3135.5025584,N,12046.5705952,E,4,17,1.2,2.7240,M,8.309,M,01,0004*6D
$GPHPD,0,0.000,59.30,-0.04,-14.60,31.5917093,120.7761766,2.724,13631057.014,24924174.728,2.724,0.000,0.000,0.000,0.000,0.000,0.000,0.000,17,17,4*43
$GPGGA,035000.60,3135.5026307,N,12046.5707440,E,4,17,1.2,2.7283,M,8.309,M,01,0004*62
$GPHPD,0,0.000,59.37,-0.08,-14.58,31.5917105,120.7761791,2.728,13631056.286,24924176.102,2.728,0.000,0.000,0.000,0.000,0.000,0.000,0.000,17,17,4*41
$GPGGA,035000.80,3135.5027041,N,12046.5708893,E,4,17,1.2,2.7235,M,8.309,M,00,0004*6D
$GPHPD,0,0.000,59.35,-0.33,-14.59,31.5917117,120.7761815,2.724,13631055.535,24924177.427,2.724,0.000,0.000,0.000,0.000,0.000,0.000,0.000,17,17,4*45
$GPGGA,035001.00,3135.5027781,N,12046.5710364,E,4,17,1.2,2.7288,M,8.309,M,01,0004*62
$GPHPD,0,0.000,59.48,0.18,-14.58,31.5917130,120.7761839,2.729,13631054.779,24924178.770,2.729,0.000,0.000,0.000,0.000,0.000,0.000,0.000,17,17,4*64
$GPGGA,035001.20,3135.5028504,N,12046.5711859,E,4,17,1.2,2.7217,M,8.309,M,01,0004*62
$GPHPD,0,0.000,59.56,-0.09,-14.58,31.5917142,120.7761864,2.722,13631054.053,24924180.151,2.722,0.000,0.000,0.000,0.000,0.000,0.000,0.000,17,17,4*46
$GPGGA,035001.40,3135.5029192,N,12046.5713280,E,4,17,1.2,2.7155,M,8.309,M,01,0004*67
$GPHPD,0,0.000,59.40,0.10,-14.60,31.5917153,120.7761888,2.716,13631053.361,24924181.464,2.716,0.000,0.000,0.000,0.000,0.000,0.000,0.000,17,17,4*6A
$GPGGA,035001.60,3135.5029922,N,12046.5714769,E,4,17,1.2,2.7216,M,8.309,M,00,0004*66
$GPHPD,0,0.000,59.18,-0.01,-14.64,31.5917165,120.7761913,2.722,13631052.623,24924182.835,2.722,0.000,0.000,0.000,0.000,0.000,0.000,0.000,17,17,4*41
$GPGGA,035001.80,3135.5030689,N,12046.5716229,E,4,17,1.2,2.7147,M,8.309,M,00,0004*6A
$GPHPD,0,0.000,58.80,-0.25,-14.65,31.5917178,120.7761937,2.715,13631051.827,24924184.149,2.715,0.000,0.000,0.000,0.000,0.000,0.000,0.000,17,17,4*41
$GPGGA,035002.00,3135.5031387,N,12046.5717653,E,4,17,1.2,2.7156,M,8.309,M,01,0004*62
$GPHPD,0,0.000,58.77,-0.41,-14.66,31.5917190,120.7761961,2.716,13631051.121,24924185.460,2.716,0.000,0.000,0.000,0.000,0.000,0.000,0.000,17,17,4*4D
$GPGGA,035002.20,3135.5032123,N,12046.5719043,E,4,17,1.2,2.7018,M,8.309,M,01,0004*6D
$GPHPD,0,0.000,58.73,-0.32,-14.65,31.5917202,120.7761984,2.702,13631050.355,24924186.707,2.702,0.000,0.000,0.000,0.000,0.000,0.000,0.000,17,17,4*4C
$GPGGA,035002.40,3135.5032847,N,12046.5720473,E,4,17,1.2,2.7103,M,8.309,M,01,0004*66
$GPHPD,0,0.000,58.71,0.15,-14.64,31.5917214,120.7762008,2.710,13631049.613,24924188.010,2.710,0.000,0.000,0.000,0.000,0.000,0.000,0.000,17,17,4*6E
$GPGGA,035002.60,3135.5033578,N,12046.5721906,E,4,17,1.2,2.7104,M,8.309,M,00,0004*6C
$GPHPD,0,0.000,58.59,-0.42,-14.65,31.5917226,120.7762032,2.710,13631048.863,24924189.313,2.710,0.000,0.000,0.000,0.000,0.000,0.000,0.000,17,17,4*4B
$GPGGA,035002.80,3135.5034322,N,12046.5723337,E,4,17,1.2,2.7101,M,8.309,M,00,0004*63
$GPHPD,0,0.000,58.47,-0.24,-14.64,31.5917239,120.7762056,2.710,13631048.093,24924190.605,2.710,0.000,0.000,0.000,0.000,0.000,0.000,0.000,17,17,4*44
$GPGGA,035003.00,3135.5035027,N,12046.5724759,E,4,17,1.2,2.7043,M,8.309,M,01,0004*60
$GPHPD,0,0.000,58.37,0.05,-14.62,31.5917250,120.7762079,2.704,13631047.377,24924191.909,2.704,0.000,0.000,0.000,0.000,0.000,0.000,0.000,17,17,4*6D
$GPGGA,035003.20,3135.5035748,N,12046.5726195,E,4,17,1.2,2.7038,M,8.309,M,01,0004*64
$GPHPD,0,0.000,58.31,0.04,-14.62,31.5917262,120.7762103,2.704,13631046.642,24924193.221,2.704,0.000,0.000,0.000,0.000,0.000,0.000,0.000,17,17,4*66
$GPGGA,035003.40,3135.5036476,N,12046.5727633,E,4,17,1.2,2.7109,M,8.309,M,01,0004*66
$GPHPD,0,0.000,58.31,0.38,-14.60,31.5917275,120.7762127,2.711,13631045.896,24924194.531,2.711,0.000,0.000,0.000,0.000,0.000,0.000,0.000,17,17,4*6E
$GPGGA,035003.60,3135.5037199,N,12046.5729090,E,4,17,1.2,2.7084,M,8.309,M,00,0004*65
$GPHPD,0,0.000,58.33,-0.49,-14.61,31.5917287,120.7762152,2.708,13631045.162,24924195.867,2.708,0.000,0.000,0.000,0.000,0.000,0.000,0.000,17,17,4*44
$GPGGA,035003.80,3135.5037968,N,12046.5730517,E,4,17,1.2,2.7085,M,8.309,M,00,0004*6E
$GPHPD,0,0.000,58.23,-0.42,-14.55,31.5917299,120.7762175,2.709,13631044.356,24924197.140,2.709,0.000,0.000,0.000,0.000,0.000,0.000,0.000,17,17,4*49
$GPGGA,035004.00,3135.5038719,N,12046.5731899,E,4,17,1.2,2.7074,M,8.309,M,01,0004*63
$GPHPD,0,0.000,58.38,-0.24,-14.52,31.5917312,120.7762198,2.707,13631043.567,24924198.370,2.707,0.000,0.000,0.000,0.000,0.000,0.000,0.000,17,17,4*48
$GPGGA,035004.20,3135.5039499,N,12046.5733336,E,4,17,1.2,2.7161,M,8.309,M,01,0004*62
$GPHPD,0,0.000,58.59,-0.04,-14.50,31.5917325,120.7762222,2.716,13631042.747,24924199.648,2.716,0.000,0.000,0.000,0.000,0.000,0.000,0.000,17,17,4*47
$GPGGA,035004.40,3135.5040218,N,12046.5734827,E,4,17,1.2,2.7069,M,8.309,M,01,0004*60
$GPHPD,0,0.000,58.52,0.44,-14.51,31.5917337,120.7762247,2.707,13631042.026,24924201.028,2.707,0.000,0.000,0.000,0.000,0.000,0.000,0.000,17,17,4*66
$GPGGA,035004.60,3135.5040920,N,12046.5736317,E,4,16,1.3,2.7045,M,8.309,M,00,0004*67
$GPHPD,0,0.000,58.64,0.60,-14.50,31.5917349,120.7762272,2.705,13631041.328,24924202.416,2.705,0.000,0.000,0.000,0.000,0.000,0.000,0.000,16,16,4*6F
$GPGGA,035004.80,3135.5041636,N,12046.5737844,E,4,16,1.3,2.7143,M,8.309,M,00,0004*6B
$GPHPD,0,0.000,58.61,-0.08,-14.54,31.5917361,120.7762297,2.714,13631040.617,24924203.840,2.714,0.000,0.000,0.000,0.000,0.000,0.000,0.000,16,16,4*4A
$GPGGA,035005.00,3135.5042416,N,12046.5739279,E,4,16,1.3,2.7116,M,8.309,M,01,0004*6A
$GPHPD,0,0.000,59.16,-0.44,-14.56,31.5917374,120.7762321,2.712,13631039.797,24924205.117,2.712,0.000,0.000,0.000,0.000,0.000,0.000,0.000,16,16,4*43
$GPGGA,035005.20,3135.5043149,N,12046.5740785,E,4,16,1.3,2.7082,M,8.309,M,01,0004*62
$GPHPD,0,0.000,59.34,-0.52,-14.56,31.5917386,120.7762346,2.708,13631039.059,24924206.506,2.708,0.000,0.000,0.000,0.000,0.000,0.000,0.000,16,15,4*49
$GPGGA,035005.40,3135.5043919,N,12046.5742247,E,4,16,1.3,2.7165,M,8.309,M,01,0004*68
$GPHPD,0,0.000,59.11,-0.72,-14.59,31.5917399,120.7762371,2.717,13631038.259,24924207.821,2.717,0.000,0.000,0.000,0.000,0.000,0.000,0.000,16,15,4*43
$GPGGA,035005.60,3135.5044618,N,12046.5743743,E,4,16,1.2,2.7007,M,8.309,M,00,0004*66
$GPHPD,0,0.000,59.36,-0.89,-14.61,31.5917410,120.7762396,2.701,13631037.566,24924209.218,2.701,0.000,0.000,0.000,0.000,0.000,0.000,0.000,16,15,4*4C
$GPGGA,035005.80,3135.5045359,N,12046.5745197,E,4,16,1.2,2.6961,M,8.309,M,00,0004*68
$GPHPD,0,0.000,58.95,0.00,-14.63,31.5917423,120.7762420,2.696,13631036.805,24924210.540,2.696,0.000,0.000,0.000,0.000,0.000,0.000,0.000,16,15,4*6B
$GPGGA,035006.00,3135.5046080,N,12046.5746717,E,4,16,1.2,2.7045,M,8.309,M,01,0004*65
$GPHPD,0,0.000,59.13,-0.34,-14.65,31.5917435,120.7762445,2.705,13631036.087,24924211.953,2.705,0.000,0.000,0.000,0.000,0.000,0.000,0.000,16,15,4*41
$GPGGA,035006.20,3135.5046824,N,12046.5748174,E,4,16,1.2,2.6836,M,8.309,M,01,0004*61
$GPHPD,0,0.000,58.90,-0.43,-14.67,31.5917447,120.7762470,2.684,13631035.322,24924213.276,2.684,0.000,0.000,0.000,0.000,0.000,0.000,0.000,16,16,4*48
$GPGGA,035006.40,3135.5047583,N,12046.5749661,E,4,16,1.2,2.6902,M,8.309,M,01,0004*62
$GPHPD,0,0.000,58.88,-0.28,-14.70,31.5917460,120.7762494,2.690,13631034.543,24924214.628,2.690,0.000,0.000,0.000,0.000,0.000,0.000,0.000,16,16,4*4D
$GPGGA,035006.60,3135.5048349,N,12046.5751151,E,4,16,1.2,2.6950,M,8.309,M,00,0004*64
$GPHPD,0,0.000,59.13,-0.18,-14.71,31.5917472,120.7762519,2.695,13631033.754,24924215.978,2.695,0.000,0.000,0.000,0.000,0.000,0.000,0.000,16,16,4*43
$GPGGA,035006.80,3135.5049069,N,12046.5752641,E,4,17,1.2,2.6998,M,8.309,M,00,0004*6A
$GPHPD,0,0.000,59.05,0.01,-14.70,31.5917484,120.7762544,2.700,13631033.030,24924217.356,2.700,0.000,0.000,0.000,0.000,0.000,0.000,0.000,17,17,4*60
$GPGGA,035007.00,3135.5049852,N,12046.5754131,E,4,17,1.2,2.6963,M,8.309,M,01,0004*60
$GPHPD,0,0.000,59.13,0.14,-14.68,31.5917498,120.7762569,2.696,13631032.217,24924218.697,2.696,0.000,0.000,0.000,0.000,0.000,0.000,0.000,17,17,4*69
$GPGGA,035007.20,3135.5050605,N,12046.5755620,E,4,17,1.2,2.6875,M,8.309,M,01,0004*66
$GPHPD,0,0.000,59.10,0.22,-14.70,31.5917510,120.7762594,2.688,13631031.447,24924220.054,2.688,0.000,0.000,0.000,0.000,0.000,0.000,0.000,17,17,4*67
$GPGGA,035007.40,3135.5051318,N,12046.5757122,E,4,17,1.2,2.6744,M,8.309,M,01,0004*62
$GPHPD,0,0.000,59.24,0.42,-14.71,31.5917522,120.7762619,2.674,13631030.736,24924221.450,2.674,0.000,0.000,0.000,0.000,0.000,0.000,0.000,17,17,4*65
$GPGGA,035007.60,3135.5052033,N,12046.5758621,E,4,17,1.2,2.6791,M,8.309,M,00,0004*6B
$GPHPD,0,0.000,58.70,0.53,-14.70,31.5917534,120.7762644,2.679,13631030.021,24924222.841,2.679,0.000,0.000,0.000,0.000,0.000,0.000,0.000,17,17,4*65
$GPGGA,035007.80,3135.5052803,N,12046.5760143,E,4,16,1.3,2.6770,M,8.309,M,00,0004*69
$GPHPD,0,0.000,58.41,0.06,-14.68,31.5917547,120.7762669,2.677,13631029.233,24924224.229,2.677,0.000,0.000,0.000,0.000,0.000,0.000,0.000,16,17,4*6F
$GPGGA,035008.00,3135.5053532,N,12046.5761621,E,4,17,1.3,2.6691,M,8.309,M,01,0004*6C
$GPHPD,0,0.000,58.55,-0.28,-14.69,31.5917559,120.7762694,2.669,13631028.494,24924225.586,2.669,0.000,0.000,0.000,0.000,0.000,0.000,0.000,17,17,4*4F
$GPGGA,035008.20,3135.5054274,N,12046.5763128,E,4,17,1.3,2.6871,M,8.309,M,01,0004*60
$GPHPD,0,0.000,58.58,-0.11,-14.70,31.5917571,120.7762719,2.687,13631027.743,24924226.972,2.687,0.000,0.000,0.000,0.000,0.000,0.000,0.000,17,17,4*4C
$GPGGA,035008.40,3135.5055036,N,12046.5764603,E,4,17,1.3,2.7019,M,8.309,M,01,0004*6D
$GPHPD,0,0.000,58.30,-0.45,-14.70,31.5917584,120.7762743,2.702,13631026.957,24924228.307,2.702,0.000,0.000,0.000,0.000,0.000,0.000,0.000,17,17,4*4A
$GPGGA,035008.60,3135.5055760,N,12046.5766059,E,4,17,1.3,2.6867,M,8.309,M,01,0004*60
$GPHPD,0,0.000,58.21,-0.77,-14.68,31.5917596,120.7762768,2.687,13631026.221,24924229.641,2.687,0.000,0.000,0.000,0.000,0.000,0.000,0.000,17,17,4*44
$GPGGA,035008.80,3135.5056538,N,12046.5767462,E,4,17,1.2,2.6960,M,8.309,M,00,0004*69
$GPHPD,0,0.000,58.25,-1.09,-14.68,31.5917609,120.7762791,2.696,13631025.397,24924230.880,2.696,0.000,0.000,0.000,0.000,0.000,0.000,0.000,17,17,4*4F
$GPGGA,035009.00,3135.5057309,N,12046.5768930,E,4,17,1.2,2.7005,M,8.309,M,01,0004*6A
$GPHPD,0,0.000,58.19,-0.48,-14.70,31.5917622,120.7762816,2.701,13631024.597,24924232.201,2.701,0.000,0.000,0.000,0.000,0.000,0.000,0.000,17,17,4*42
$GPGGA,035009.20,3135.5058021,N,12046.5770441,E,4,17,1.2,2.6908,M,8.309,M,01,0004*69
$GPHPD,0,0.000,58.64,0.15,-14.73,31.5917634,120.7762841,2.691,13631023.889,24924233.609,2.691,0.000,0.000,0.000,0.000,0.000,0.000,0.000,17,16,4*62
$GPGGA,035009.40,3135.5058808,N,12046.5771915,E,4,17,1.2,2.6932,M,8.309,M,01,0004*68
$GPHPD,0,0.000,59.17,0.64,-14.76,31.5917647,120.7762865,2.693,13631023.067,24924234.928,2.693,0.000,0.000,0.000,0.000,0.000,0.000,0.000,17,16,4*65
$GPGGA,035009.60,3135.5059582,N,12046.5773402,E,4,17,1.2,2.7098,M,8.309,M,00,0004*64
$GPHPD,0,0.000,59.17,0.88,-14.76,31.5917660,120.7762890,2.710,13631022.266,24924236.270,2.710,0.000,0.000,0.000,0.000,0.000,0.000,0.000,17,16,4*6E
$GPGGA,035009.80,3135.5060309,N,12046.5774937,E,4,17,1.2,2.7051,M,8.309,M,00,0004*6C
$GPHPD,0,0.000,59.34,1.19,-14.75,31.5917672,120.7762916,2.705,13631021.542,24924237.698,2.705,0.000,0.000,0.000,0.000,0.000,0.000,0.000,17,16,4*68
$GPGGA,035010.00,3135.5061071,N,12046.5776473,E,4,17,1.2,2.7072,M,8.309,M,01,0004*6E
$GPHPD,0,0.000,59.24,0.27,-14.73,31.5917685,120.7762941,2.707,13631020.768,24924239.107,2.707,0.000,0.000,0.000,0.000,0.000,0.000,0.000,17,16,4*6D
$GPGGA,035010.20,3135.5061763,N,12046.5778001,E,4,17,1.2,2.7000,M,8.309,M,01,0004*62
$GPHPD,0,0.000,59.66,0.52,-14.71,31.5917696,120.7762967,2.700,13631020.092,24924240.546,2.700,0.000,0.000,0.000,0.000,0.000,0.000,0.000,17,16,4*60
$GPGGA,035010.40,3135.5062612,N,12046.5779465,E,4,17,1.2,2.7016,M,8.309,M,01,0004*60
$GPHPD,0,0.000,59.42,0.12,-14.69,31.5917710,120.7762991,2.702,13631019.180,24924241.817,2.702,0.000,0.000,0.000,0.000,0.000,0.000,0.000,17,16,4*6D
$GPGGA,035010.60,3135.5063302,N,12046.5780952,E,4,17,1.2,2.7012,M,8.309,M,00,0004*6D
$GPHPD,0,0.000,59.01,0.01,-14.70,31.5917722,120.7763016,2.701,13631018.498,24924243.209,2.701,0.000,0.000,0.000,0.000,0.000,0.000,0.000,17,16,4*6C
$GPGGA,035010.80,3135.5064043,N,12046.5782427,E,4,17,1.2,2.6885,M,8.309,M,00,0004*68
$GPHPD,0,0.000,58.87,-0.61,-14.70,31.5917734,120.7763040,2.689,13631017.742,24924244.556,2.689,0.000,0.000,0.000,0.000,0.000,0.000,0.000,17,16,4*4D
$GPGGA,035011.00,3135.5064782,N,12046.5783929,E,4,17,1.2,2.6891,M,8.309,M,01,0004*6D
$GPHPD,0,0.000,58.87,-0.02,-14.70,31.5917746,120.7763065,2.689,13631016.994,24924245.937,2.689,0.000,0.000,0.000,0.000,0.000,0.000,0.000,17,16,4*44
$GPGGA,035011.20,3135.5065574,N,12046.5785408,E,4,17,1.2,2.6930,M,8.309,M,01,0004*67
$GPHPD,0,0.000,58.64,0.79,-14.69,31.5917760,120.7763090,2.693,13631016.166,24924247.259,2.693,0.000,0.000,0.000,0.000,0.000,0.000,0.000,17,16,4*6A
$GPGGA,035011.40,3135.5066273,N,12046.5786907,E,4,17,1.2,2.6949,M,8.309,M,01,0004*6D
$GPHPD,0,0.000,58.83,-0.11,-14.66,31.5917771,120.7763115,2.695,13631015.474,24924248.660,2.695,0.000,0.000,0.000,0.000,0.000,0.000,0.000,17,16,4*47
$GPGGA,035011.60,3135.5067065,N,12046.5788374,E,4,17,1.2,2.6797,M,8.309,M,00,0004*67
$GPHPD,0,0.000,58.66,-0.55,-14.67,31.5917784,120.7763140,2.680,13631014.643,24924249.968,2.680,0.000,0.000,0.000,0.000,0.000,0.000,0.000,17,16,4*46
$GPGGA,035011.80,3135.5067792,N,12046.5789876,E,4,17,1.2,2.6881,M,8.309,M,00,0004*66
$GPHPD,0,0.000,59.11,0.25,-14.67,31.5917797,120.7763165,2.688,13631013.912,24924251.356,2.688,0.000,0.000,0.000,0.000,0.000,0.000,0.000,17,16,4*6A
$GPGGA,035012.00,3135.5068525,N,12046.5791397,E,4,17,1.2,2.6852,M,8.309,M,01,0004*6E
$GPHPD,0,0.000,58.95,-0.15,-14.67,31.5917809,120.7763190,2.685,13631013.177,24924252.763,2.685,0.000,0.000,0.000,0.000,0.000,0.000,0.000,17,16,4*41
$GPGGA,035012.20,3135.5069232,N,12046.5792877,E,4,17,1.2,2.6846,M,8.309,M,01,0004*6F
$GPHPD,0,0.000,58.90,-0.14,-14.66,31.5917821,120.7763215,2.685,13631012.470,24924254.136,2.685,0.000,0.000,0.000,0.000,0.000,0.000,0.000,17,16,4*43
$GPGGA,035012.40,3135.5069991,N,12046.5794392,E,4,17,1.2,2.6818,M,8.309,M,01,0004*66
$GPHPD,0,0.000,58.70,-0.20,-14.65,31.5917833,120.7763240,2.682,13631011.696,24924255.521,2.682,0.000,0.000,0.000,0.000,0.000,0.000,0.000,17,16,4*40
$GPGGA,035012.60,3135.5070761,N,12046.5795907,E,4,17,1.2,2.6837,M,8.309,M,00,0004*66
$GPHPD,0,0.000,58.94,0.39,-14.64,31.5917846,120.7763265,2.684,13631010.906,24924256.900,2.684,0.000,0.000,0.000,0.000,0.000,0.000,0.000,17,16,4*60
$GPGGA,035012.80,3135.5071500,N,12046.5797426,E,4,17,1.2,2.6803,M,8.309,M,00,0004*67
$GPHPD,0,0.000,59.37,-0.12,-14.64,31.5917858,120.7763290,2.680,13631010.162,24924258.301,2.680,0.000,0.000,0.000,0.000,0.000,0.000,0.000,17,16,4*46
$GPGGA,035013.00,3135.5072228,N,12046.5798954,E,4,17,1.2,2.6837,M,8.309,M,01,0004*61
$GPHPD,0,0.000,59.06,0.30,-14.64,31.5917870,120.7763316,2.684,13631009.434,24924259.720,2.684,0.000,0.000,0.000,0.000,0.000,0.000,0.000,17,16,4*64
$GPGGA,035013.20,3135.5073027,N,12046.5800439,E,4,17,1.2,2.6788,M,8.309,M,01,0004*6C
$GPHPD,0,0.000,59.43,0.34,-14.63,31.5917884,120.7763341,2.679,13631008.598,24924261.046,2.679,0.000,0.000,0.000,0.000,0.000,0.000,0.000,17,16,4*65
$GPGGA,035013.40,3135.5073733,N,12046.5801914,E,4,17,1.2,2.6743,M,8.310,M,01,0004*64
$GPHPD,0,0.000,59.71,0.13,-14.65,31.5917896,120.7763365,2.674,13631007.891,24924262.413,2.674,0.000,0.000,0.000,0.000,0.000,0.000,0.000,17,17,4*6F
$GPGGA,035013.60,3135.5074473,N,12046.5803462,E,4,17,1.2,2.6821,M,8.310,M,00,0004*62
$GPHPD,0,0.000,59.35,0.13,-14.66,31.5917908,120.7763391,2.682,13631007.151,24924263.849,2.682,0.000,0.000,0.000,0.000,0.000,0.000,0.000,17,17,4*66
$GPGGA,035013.80,3135.5075244,N,12046.5804910,E,4,17,1.2,2.6766,M,8.310,M,00,0004*6C
$GPHPD,0,0.000,59.57,0.40,-14.66,31.5917921,120.7763415,2.677,13631006.346,24924265.146,2.677,0.000,0.000,0.000,0.000,0.000,0.000,0.000,17,17,4*61
$GPGGA,035014.00,3135.5075957,N,12046.5806435,E,4,17,1.2,2.6763,M,8.310,M,01,0004*66
$GPHPD,0,0.000,59.57,-0.13,-14.68,31.5917933,120.7763441,2.676,13631005.640,24924266.570,2.676,0.000,0.000,0.000,0.000,0.000,0.000,0.000,17,17,4*44
$GPGGA,035014.20,3135.5076704,N,12046.5807969,E,4,17,1.2,2.6800,M,8.310,M,01,0004*60
$GPHPD,0,0.000,59.74,0.27,-14.65,31.5917945,120.7763466,2.680,13631004.887,24924267.985,2.680,0.000,0.000,0.000,0.000,0.000,0.000,0.000,17,17,4*65
$GPGGA,035014.40,3135.5077427,N,12046.5809454,E,4,17,1.2,2.6771,M,8.310,M,01,0004*61
$GPHPD,0,0.000,59.52,-0.16,-14.67,31.5917957,120.7763491,2.677,13631004.158,24924269.355,2.677,0.000,0.000,0.000,0.000,0.000,0.000,0.000,17,17,4*45
$GPGGA,035014.60,3135.5078192,N,12046.5810946,E,4,17,1.2,2.6825,M,8.310,M,00,0004*6E
$GPHPD,0,0.000,59.54,0.33,-14.67,31.5917970,120.7763516,2.683,13631003.371,24924270.709,2.683,0.000,0.000,0.000,0.000,0.000,0.000,0.000,17,17,4*69
$GPGGA,035014.80,3135.5078913,N,12046.5812442,E,4,17,1.2,2.6771,M,8.310,M,00,0004*64
$GPHPD,0,0.000,59.51,-0.15,-14.70,31.5917982,120.7763541,2.677,13631002.647,24924272.093,2.677,0.000,0.000,0.000,0.000,0.000,0.000,0.000,17,17,4*4B
$GPGGA,035015.00,3135.5079642,N,12046.5813919,E,4,17,1.2,2.6737,M,8.310,M,01,0004*66
$GPHPD,0,0.000,59.43,0.21,-14.72,31.5917994,120.7763565,2.674,13631001.908,24924273.449,2.674,0.000,0.000,0.000,0.000,0.000,0.000,0.000,17,17,4*64
$GPGGA,035015.20,3135.5080335,N,12046.5815440,E,4,17,1.2,2.6604,M,8.310,M,01,0004*61
$GPHPD,0,0.000,59.70,0.37,-14.75,31.5918006,120.7763591,2.660,13631001.229,24924274.880,2.660,0.000,0.000,0.000,0.000,0.000,0.000,0.000,17,17,4*64
$GPGGA,035015.40,3135.5081116,N,12046.5816946,E,4,17,1.2,2.6635,M,8.310,M,01,0004*6F
$GPHPD,0,0.000,59.57,0.34,-14.77,31.5918019,120.7763616,2.664,13631000.422,24924276.241,2.664,0.000,0.000,0.000,0.000,0.000,0.000,0.000,17,17,4*6B
$GPGGA,035015.60,3135.5081844,N,12046.5818458,E,4,17,1.2,2.6753,M,8.310,M,00,0004*6F
$GPHPD,0,0.000,59.76,0.14,-14.74,31.5918031,120.7763641,2.675,13630999.692,24924277.641,2.675,0.000,0.000,0.000,0.000,0.000,0.000,0.000,17,17,4*65
$GPGGA,035015.80,3135.5082596,N,12046.5819965,E,4,17,1.2,2.6750,M,8.310,M,00,0004*61
$GPHPD,0,0.000,59.16,-0.45,-14.74,31.5918043,120.7763666,2.675,13630998.926,24924279.020,2.675,0.000,0.000,0.000,0.000,0.000,0.000,0.000,17,17,4*44
$GPGGA,035016.00,3135.5083350,N,12046.5821522,E,4,17,1.2,2.6753,M,8.310,M,01,0004*61
$GPHPD,0,0.000,59.37,-0.26,-14.70,31.5918056,120.7763692,2.675,13630998.168,24924280.459,2.675,0.000,0.000,0.000,0.000,0.000,0.000,0.000,17,17,4*47
$GPGGA,035016.20,3135.5084108,N,12046.5823040,E,4,17,1.2,2.6773,M,8.310,M,01,0004*6A
$GPHPD,0,0.000,59.21,-0.27,-14.72,31.5918068,120.7763717,2.677,13630997.396,24924281.848,2.677,0.000,0.000,0.000,0.000,0.000,0.000,0.000,17,17,4*43
$GPGGA,035016.40,3135.5084844,N,12046.5824548,E,4,17,1.2,2.6715,M,8.310,M,01,0004*67
$GPHPD,0,0.000,59.19,-0.23,-14.73,31.5918081,120.7763742,2.672,13630996.654,24924283.238,2.672,0.000,0.000,0.000,0.000,0.000,0.000,0.000,17,17,4*4F
$GPGGA,035016.60,3135.5085620,N,12046.5826021,E,4,17,1.2,2.6833,M,8.310,M,00,0004*6A
$GPHPD,0,0.000,59.02,0.12,-14.73,31.5918094,120.7763767,2.683,13630995.847,24924284.562,2.683,0.000,0.000,0.000,0.000,0.000,0.000,0.000,17,17,4*69
$GPGGA,035016.80,3135.5086427,N,12046.5827531,E,4,17,1.2,2.6718,M,8.310,M,00,0004*61
$GPHPD,0,0.000,59.00,0.11,-14.72,31.5918107,120.7763792,2.672,13630995.004,24924285.913,2.672,0.000,0.000,0.000,0.000,0.000,0.000,0.000,17,17,4*6C
$GPGGA,035017.00,3135.5087160,N,12046.5829051,E,4,17,1.2,2.6787,M,8.310,M,01,0004*65
$GPHPD,0,0.000,58.87,0.53,-14.72,31.5918119,120.7763818,2.679,13630994.268,24924287.319,2.679,0.000,0.000,0.000,0.000,0.000,0.000,0.000,17,17,4*6D
$GPGGA,035017.20,3135.5087899,N,12046.5830574,E,4,17,1.2,2.6762,M,8.310,M,01,0004*69
$GPHPD,0,0.000,59.13,0.55,-14.71,31.5918132,120.7763843,2.676,13630993.524,24924288.726,2.676,0.000,0.000,0.000,0.000,0.000,0.000,0.000,17,17,4*6C
$GPGGA,035017.40,3135.5088683,N,12046.5832073,E,4,17,1.2,2.6767,M,8.310,M,01,0004*60
$GPHPD,0,0.000,59.19,0.72,-14.69,31.5918145,120.7763868,2.677,13630992.711,24924290.077,2.677,0.000,0.000,0.000,0.000,0.000,0.000,0.000,17,17,4*6C
$GPGGA,035017.60,3135.5089443,N,12046.5833605,E,4,17,1.2,2.6817,M,8.310,M,00,0004*62
$GPHPD,0,0.000,59.29,0.30,-14.70,31.5918157,120.7763893,2.682,13630991.940,24924291.482,2.682,0.000,0.000,0.000,0.000,0.000,0.000,0.000,17,17,4*60
$GPGGA,035017.80,3135.5090191,N,12046.5835109,E,4,17,1.2,2.6709,M,8.310,M,00,0004*63
$GPHPD,0,0.000,59.31,-0.02,-14.69,31.5918170,120.7763918,2.671,13630991.179,24924292.860,2.671,0.000,0.000,0.000,0.000,0.000,0.000,0.000,17,17,4*4B
$GPGGA,035018.00,3135.5090937,N,12046.5836581,E,4,17,1.2,2.6818,M,8.310,M,01,0004*69
$GPHPD,0,0.000,59.19,0.01,-14.69,31.5918182,120.7763943,2.682,13630990.415,24924294.201,2.682,0.000,0.000,0.000,0.000,0.000,0.000,0.000,17,17,4*69
$GPGGA,035018.20,3135.5091665,N,12046.5838095,E,4,17,1.2,2.6779,M,8.310,M,01,0004*64
$GPHPD,0,0.000,59.19,-0.69,-14.67,31.5918194,120.7763968,2.678,13630989.685,24924295.602,2.678,0.000,0.000,0.000,0.000,0.000,0.000,0.000,17,17,4*4F
$GPGGA,035018.40,3135.5092397,N,12046.5839555,E,4,17,1.2,2.6752,M,8.310,M,01,0004*68
$GPHPD,0,0.000,58.80,-0.57,-14.61,31.5918207,120.7763993,2.675,13630988.938,24924296.937,2.675,0.000,0.000,0.000,0.000,0.000,0.000,0.000,17,17,4*4A
$GPGGA,035018.60,3135.5093171,N,12046.5841060,E,4,17,1.2,2.6758,M,8.310,M,00,0004*66
$GPHPD,0,0.000,59.09,-0.26,-14.58,31.5918220,120.7764018,2.676,13630988.141,24924298.301,2.676,0.000,0.000,0.000,0.000,0.000,0.000,0.000,17,17,4*49
$GPGGA,035018.80,3135.5093903,N,12046.5842545,E,4,17,1.2,2.6697,M,8.310,M,00,0004*66
$GPHPD,0,0.000,58.90,-0.15,-14.56,31.5918232,120.7764042,2.670,13630987.400,24924299.666,2.670,0.000,0.000,0.000,0.000,0.000,0.000,0.000,17,17,4*40
$GPGGA,035019.00,3135.5094645,N,12046.5844014,E,4,17,1.2,2.6607,M,8.310,M,01,0004*6A
$GPHPD,0,0.000,58.86,-0.23,-14.54,31.5918244,120.7764067,2.661,13630986.641,24924301.005,2.661,0.000,0.000,0.000,0.000,0.000,0.000,0.000,17,17,4*43
$GPGGA,035019.20,3135.5095376,N,12046.5845492,E,4,17,1.2,2.6706,M,8.310,M,01,0004*67
$GPHPD,0,0.000,58.89,0.09,-14.54,31.5918256,120.7764092,2.671,13630985.899,24924302.362,2.671,0.000,0.000,0.000,0.000,0.000,0.000,0.000,17,17,4*69
$GPGGA,035019.40,3135.5096097,N,12046.5846956,E,4,17,1.2,2.6646,M,8.310,M,01,0004*6D
$GPHPD,0,0.000,58.90,0.06,-14.53,31.5918268,120.7764116,2.665,13630985.169,24924303.707,2.665,0.000,0.000,0.000,0.000,0.000,0.000,0.000,17,17,4*69
$GPGGA,035019.60,3135.5096803,N,12046.5848388,E,4,17,1.2,2.6635,M,8.310,M,00,0004*68
$GPHPD,0,0.000,58.90,0.10,-14.55,31.5918280,120.7764140,2.664,13630984.454,24924305.023,2.664,0.000,0.000,0.000,0.000,0.000,0.000,0.000,17,17,4*60
$GPGGA,035019.80,3135.5097583,N,12046.5849807,E,4,17,1.2,2.6708,M,8.310,M,00,0004*60
$GPHPD,0,0.000,58.82,0.57,-14.53,31.5918293,120.7764163,2.671,13630983.630,24924306.280,2.671,0.000,0.000,0.000,0.000,0.000,0.000,0.000,17,17,4*6A
$GPGGA,035020.00,3135.5098292,N,12046.5851256,E,4,17,1.2,2.6702,M,8.310,M,01,0004*66
$GPHPD,0,0.000,58.84,0.21,-14.56,31.5918305,120.7764188,2.670,13630982.914,24924307.615,2.670,0.000,0.000,0.000,0.000,0.000,0.000,0.000,17,17,4*62
$GPGGA,035020.20,3135.5099042,N,12046.5852721,E,4,17,1.2,2.6660,M,8.310,M,01,0004*69
$GPHPD,0,0.000,58.51,0.21,-14.55,31.5918317,120.7764212,2.666,13630982.143,24924308.945,2.666,0.000,0.000,0.000,0.000,0.000,0.000,0.000,17,17,4*65
$GPGGA,035020.40,3135.5099753,N,12046.5854152,E,4,17,1.2,2.6594,M,8.310,M,01,0004*64
$GPHPD,0,0.000,58.82,0.22,-14.58,31.5918329,120.7764236,2.659,13630981.421,24924310.256,2.659,0.000,0.000,0.000,0.000,0.000,0.000,0.000,17,17,4*6C
$GPGGA,035020.60,3135.5100483,N,12046.5855557,E,4,17,1.2,2.6626,M,8.310,M,01,0004*63
$GPHPD,0,0.000,58.35,0.52,-14.62,31.5918341,120.7764259,2.663,13630980.666,24924311.525,2.663,0.000,0.000,0.000,0.000,0.000,0.000,0.000,17,17,4*6B
$GPGGA,035020.80,3135.5101213,N,12046.5856989,E,4,17,1.2,2.6727,M,8.310,M,00,0004*6E
$GPHPD,0,0.000,58.59,0.63,-14.64,31.5918354,120.7764283,2.673,13630979.916,24924312.827,2.673,0.000,0.000,0.000,0.000,0.000,0.000,0.000,17,17,4*64
$GPGGA,035021.00,3135.5101954,N,12046.5858365,E,4,17,1.2,2.6672,M,8.310,M,01,0004*69
$GPHPD,0,0.000,58.51,-0.11,-14.65,31.5918366,120.7764306,2.667,13630979.140,24924314.055,2.667,0.000,0.000,0.000,0.000,0.000,0.000,0.000,17,17,4*48
$GPGGA,035021.20,3135.5102673,N,12046.5859774,E,4,17,1.2,2.6743,M,8.310,M,01,0004*64
$GPHPD,0,0.000,59.01,-0.31,-14.64,31.5918378,120.7764330,2.674,13630978.402,24924315.335,2.674,0.000,0.000,0.000,0.000,0.000,0.000,0.000,17,17,4*43
$GPGGA,035021.40,3135.5103391,N,12046.5861240,E,4,17,1.2,2.6703,M,8.310,M,01,0004*67
$GPHPD,0,0.000,58.68,-0.53,-14.63,31.5918390,120.7764354,2.670,13630977.676,24924316.685,2.670,0.000,0.000,0.000,0.000,0.000,0.000,0.000,17,17,4*49
$GPGGA,035021.60,3135.5104127,N,12046.5862663,E,4,16,1.2,2.6709,M,8.310,M,01,0004*60
$GPHPD,0,0.000,58.41,-0.19,-14.62,31.5918402,120.7764378,2.671,13630976.917,24924317.973,2.671,0.000,0.000,0.000,0.000,0.000,0.000,0.000,16,16,4*41
$GPGGA,035021.80,3135.5104852,N,12046.5864116,E,4,16,1.2,2.6688,M,8.310,M,01,0004*6E
$GPHPD,0,0.000,58.53,-0.19,-14.60,31.5918414,120.7764402,2.669,13630976.178,24924319.303,2.669,0.000,0.000,0.000,0.000,0.000,0.000,0.000,16,16,4*4F
$GPGGA,035022.00,3135.5105591,N,12046.5865553,E,4,16,1.2,2.6603,M,8.310,M,02,0004*62
$GPHPD,0,0.000,58.38,-0.30,-14.61,31.5918427,120.7764426,2.660,13630975.417,24924320.605,2.660,0.000,0.000,0.000,0.000,0.000,0.000,0.000,16,16,4*48
$GPGGA,035022.20,3135.5106308,N,12046.5866964,E,4,16,1.2,2.6662,M,8.310,M,02,0004*69
$GPHPD,0,0.000,58.54,0.08,-14.62,31.5918438,120.7764449,2.666,13630974.682,24924321.889,2.666,0.000,0.000,0.000,0.000,0.000,0.000,0.000,16,16,4*64
$GPGGA,035022.40,3135.5107063,N,12046.5868376,E,4,16,1.2,2.6659,M,8.310,M,02,0004*6F
$GPHPD,0,0.000,58.72,-0.26,-14.60,31.5918451,120.7764473,2.666,13630973.893,24924323.152,2.666,0.000,0.000,0.000,0.000,0.000,0.000,0.000,16,16,4*41
$GPGGA,035022.60,3135.5107786,N,12046.5869847,E,4,16,1.2,2.6656,M,8.310,M,02,0004*66
$GPHPD,0,0.000,58.71,0.46,-14.60,31.5918463,120.7764497,2.666,13630973.162,24924324.505,2.666,0.000,0.000,0.000,0.000,0.000,0.000,0.000,16,16,4*64
$GPGGA,035022.80,3135.5108547,N,12046.5871300,E,4,16,1.2,2.6652,M,8.310,M,00,0004*6F
$GPHPD,0,0.000,58.80,0.39,-14.58,31.5918476,120.7764522,2.665,13630972.372,24924325.814,2.665,0.000,0.000,0.000,0.000,0.000,0.000,0.000,16,16,4*6C
$GPGGA,035023.00,3135.5109244,N,12046.5872867,E,4,16,1.2,2.6497,M,8.310,M,01,0004*60
$GPHPD,0,0.000,58.74,-0.24,-14.55,31.5918487,120.7764548,2.650,13630971.697,24924327.298,2.650,0.000,0.000,0.000,0.000,0.000,0.000,0.000,16,16,4*48
$GPGGA,035023.20,3135.5109986,N,12046.5874298,E,4,16,1.2,2.6430,M,8.310,M,01,0004*66
$GPHPD,0,0.000,58.55,0.04,-14.55,31.5918500,120.7764572,2.643,13630970.930,24924328.592,2.643,0.000,0.000,0.000,0.000,0.000,0.000,0.000,16,16,4*62
$GPGGA,035023.40,3135.5110727,N,12046.5875764,E,4,16,1.2,2.6467,M,8.310,M,01,0004*68
$GPHPD,0,0.000,58.57,0.07,-14.55,31.5918512,120.7764596,2.647,13630970.172,24924329.928,2.647,0.000,0.000,0.000,0.000,0.000,0.000,0.000,16,16,4*68
$GPGGA,035023.60,3135.5111479,N,12046.5877215,E,4,16,1.2,2.6543,M,8.310,M,01,0004*65
$GPHPD,0,0.000,58.47,0.05,-14.53,31.5918525,120.7764620,2.654,13630969.395,24924331.240,2.654,0.000,0.000,0.000,0.000,0.000,0.000,0.000,16,16,4*68
$GPGGA,035023.80,3135.5112236,N,12046.5878678,E,4,16,1.2,2.6512,M,8.310,M,01,0004*61
$GPHPD,0,0.000,58.40,-0.29,-14.52,31.5918537,120.7764645,2.651,13630968.614,24924332.563,2.651,0.000,0.000,0.000,0.000,0.000,0.000,0.000,16,16,4*45
$GPGGA,035024.00,3135.5112988,N,12046.5880182,E,4,16,1.2,2.6483,M,8.310,M,02,0004*6F
$GPHPD,0,0.000,58.32,-0.17,-14.52,31.5918550,120.7764670,2.648,13630967.848,24924333.939,2.648,0.000,0.000,0.000,0.000,0.000,0.000,0.000,16,16,4*40
$GPGGA,035024.20,3135.5113731,N,12046.5881667,E,4,16,1.2,2.6367,M,8.310,M,02,0004*60
