$GPGGA,035314.40,3135.5554688,N,12046.6785322,E,4,16,1.2,3.0811,M,8.315,M,02,0004*66
$GPHPD,0,0.000,57.21,-0.22,-12.65,31.5925911,120.7779755,3.081,13630522.175,24925168.236,3.081,0.000,0.000,0.000,0.000,0.000,0.000,0.000,16,16,4*47
$GPGGA,035314.60,3135.5554869,N,12046.6785685,E,4,16,1.2,3.0796,M,8.315,M,00,0004*6F
$GPHPD,0,0.000,57.20,-0.39,-12.67,31.5925914,120.7779761,3.080,13630521.991,24925168.568,3.080,0.000,0.000,0.000,0.000,0.000,0.000,0.000,16,16,4*41
$GPGGA,035314.80,3135.5555050,N,12046.6785974,E,4,16,1.2,3.0756,M,8.315,M,00,0004*6F
$GPHPD,0,0.000,57.23,-0.24,-12.71,31.5925918,120.7779766,3.076,13630521.792,24925168.811,3.076,0.000,0.000,0.000,0.000,0.000,0.000,0.000,16,16,4*4C
$GPGGA,035315.00,3135.5555201,N,12046.6786286,E,4,16,1.2,3.0777,M,8.315,M,01,0004*67
$GPHPD,0,0.000,57.20,-0.10,-12.75,31.5925920,120.7779771,3.078,13630521.640,24925169.100,3.078,0.000,0.000,0.000,0.000,0.000,0.000,0.000,16,16,4*47
$GPGGA,035315.20,3135.5555309,N,12046.6786510,E,4,16,1.2,3.0762,M,8.315,M,01,0004*60
$GPHPD,0,0.000,57.25,-0.05,-12.80,31.5925922,120.7779775,3.076,13630521.531,24925169.307,3.076,0.000,0.000,0.000,0.000,0.000,0.000,0.000,16,16,4*4A
$GPGGA,035315.40,3135.5555471,N,12046.6786752,E,4,16,1.2,3.0823,M,8.315,M,01,0004*60
$GPHPD,0,0.000,57.19,0.00,-12.86,31.5925925,120.7779779,3.082,13630521.350,24925169.504,3.082,0.000,0.000,0.000,0.000,0.000,0.000,0.000,16,16,4*64
$GPGGA,035315.60,3135.5555606,N,12046.6786991,E,4,16,1.2,3.0831,M,8.315,M,00,0004*63
$GPHPD,0,0.000,57.36,0.09,-12.95,31.5925927,120.7779783,3.083,13630521.206,24925169.714,3.083,0.000,0.000,0.000,0.000,0.000,0.000,0.000,16,16,4*64
$GPGGA,035315.80,3135.5555723,N,12046.6787266,E,4,16,1.2,3.0797,M,8.315,M,00,0004*6A
$GPHPD,0,0.000,57.20,-0.20,-13.04,31.5925929,120.7779788,3.080,13630521.095,24925169.977,3.080,0.000,0.000,0.000,0.000,0.000,0.000,0.000,16,16,4*4A
$GPGGA,035316.00,3135.5555862,N,12046.6787540,E,4,16,1.2,3.0782,M,8.315,M,01,0004*6D
$GPHPD,0,0.000,57.24,-0.20,-13.17,31.5925931,120.7779792,3.078,13630520.953,24925170.227,3.078,0.000,0.000,0.000,0.000,0.000,0.000,0.000,16,16,4*4A
$GPGGA,035316.20,3135.5556029,N,12046.6787863,E,4,16,1.2,3.0737,M,8.315,M,01,0004*69
$GPHPD,0,0.000,57.20,-0.20,-13.29,31.5925934,120.7779798,3.074,13630520.780,24925170.519,3.074,0.000,0.000,0.000,0.000,0.000,0.000,0.000,16,16,4*46
$GPGGA,035316.40,3135.5556236,N,12046.6788290,E,4,16,1.2,3.0684,M,8.315,M,01,0004*63
$GPHPD,0,0.000,57.15,-0.19,-13.42,31.5925937,120.7779805,3.068,13630520.572,24925170.914,3.068,0.000,0.000,0.000,0.000,0.000,0.000,0.000,16,16,4*41
$GPGGA,035316.60,3135.5556473,N,12046.6788725,E,4,16,1.2,3.0782,M,8.315,M,00,0004*6B
$GPHPD,0,0.000,57.23,0.02,-13.56,31.5925941,120.7779812,3.078,13630520.323,24925171.300,3.078,0.000,0.000,0.000,0.000,0.000,0.000,0.000,16,16,4*6D
$GPGGA,035316.80,3135.5556758,N,12046.6789258,E,4,16,1.2,3.0748,M,8.315,M,00,0004*67
$GPHPD,0,0.000,57.18,-0.25,-13.71,31.5925946,120.7779821,3.075,13630520.025,24925171.777,3.075,0.000,0.000,0.000,0.000,0.000,0.000,0.000,16,16,4*4E
$GPGGA,035317.00,3135.5557091,N,12046.6789864,E,4,16,1.2,3.0720,M,8.315,M,01,0004*67
$GPHPD,0,0.000,57.27,0.09,-13.89,31.5925952,120.7779831,3.072,13630519.673,24925172.314,3.072,0.000,0.000,0.000,0.000,0.000,0.000,0.000,16,16,4*6F
$GPGGA,035317.20,3135.5557476,N,12046.6790600,E,4,16,1.2,3.0731,M,8.315,M,01,0004*6C
$GPHPD,0,0.000,57.27,-0.14,-14.04,31.5925958,120.7779843,3.073,13630519.274,24925172.977,3.073,0.000,0.000,0.000,0.000,0.000,0.000,0.000,16,16,4*4F
$GPGGA,035317.40,3135.5557873,N,12046.6791364,E,4,16,1.2,3.0692,M,8.315,M,01,0004*6D
$GPHPD,0,0.000,57.24,0.22,-14.18,31.5925965,120.7779856,3.069,13630518.864,24925173.667,3.069,0.000,0.000,0.000,0.000,0.000,0.000,0.000,16,16,4*66
$GPGGA,035317.60,3135.5558350,N,12046.6792247,E,4,16,1.2,3.0746,M,8.315,M,00,0004*60
$GPHPD,0,0.000,57.43,0.10,-14.31,31.5925973,120.7779871,3.075,13630518.363,24925174.454,3.075,0.000,0.000,0.000,0.000,0.000,0.000,0.000,16,16,4*66
$GPGGA,035317.80,3135.5558858,N,12046.6793200,E,4,16,1.2,3.0751,M,8.315,M,00,0004*69
$GPHPD,0,0.000,57.30,0.48,-14.45,31.5925981,120.7779887,3.075,13630517.833,24925175.308,3.075,0.000,0.000,0.000,0.000,0.000,0.000,0.000,16,16,4*66
$GPGGA,035318.00,3135.5559434,N,12046.6794215,E,4,16,1.2,3.0734,M,8.315,M,01,0004*68
$GPHPD,0,0.000,57.43,0.13,-14.64,31.5925991,120.7779904,3.073,13630517.219,24925176.196,3.073,0.000,0.000,0.000,0.000,0.000,0.000,0.000,16,16,4*60
$GPGGA,035318.20,3135.5560002,N,12046.6795305,E,4,16,1.2,3.0666,M,8.315,M,01,0004*66
$GPHPD,0,0.000,57.75,0.33,-14.81,31.5926000,120.7779922,3.067,13630516.630,24925177.180,3.067,0.000,0.000,0.000,0.000,0.000,0.000,0.000,16,16,4*62
$GPGGA,035318.40,3135.5560611,N,12046.6796453,E,4,16,1.2,3.0696,M,8.315,M,01,0004*6C
$GPHPD,0,0.000,57.68,0.26,-14.98,31.5926010,120.7779941,3.070,13630515.996,24925178.210,3.070,0.000,0.000,0.000,0.000,0.000,0.000,0.000,16,16,4*63
$GPGGA,035318.60,3135.5561215,N,12046.6797631,E,4,16,1.2,3.0690,M,8.315,M,01,0004*6E
$GPHPD,0,0.000,57.75,0.36,-15.11,31.5926020,120.7779961,3.069,13630515.374,24925179.278,3.069,0.000,0.000,0.000,0.000,0.000,0.000,0.000,16,16,4*66
$GPGGA,035318.80,3135.5561845,N,12046.6798845,E,4,16,1.2,3.0598,M,8.315,M,00,0004*67
$GPHPD,0,0.000,57.66,0.43,-15.23,31.5926031,120.7779981,3.060,13630514.723,24925180.375,3.060,0.000,0.000,0.000,0.000,0.000,0.000,0.000,16,16,4*64
$GPGGA,035319.00,3135.5562506,N,12046.6800098,E,4,16,1.2,3.0633,M,8.315,M,01,0004*62
$GPHPD,0,0.000,57.88,0.50,-15.37,31.5926042,120.7780002,3.063,13630514.036,24925181.501,3.063,0.000,0.000,0.000,0.000,0.000,0.000,0.000,16,16,4*64
$GPGGA,035319.20,3135.5563147,N,12046.6801387,E,4,16,1.2,3.0676,M,8.315,M,01,0004*6D
$GPHPD,0,0.000,57.77,0.91,-15.41,31.5926052,120.7780023,3.068,13630513.384,24925182.683,3.068,0.000,0.000,0.000,0.000,0.000,0.000,0.000,16,16,4*6D
$GPGGA,035319.40,3135.5563835,N,12046.6802640,E,4,16,1.2,3.0599,M,8.315,M,01,0004*68
$GPHPD,0,0.000,57.69,0.99,-15.47,31.5926064,120.7780044,3.060,13630512.658,24925183.793,3.060,0.000,0.000,0.000,0.000,0.000,0.000,0.000,16,16,4*6C
$GPGGA,035319.60,3135.5564545,N,12046.6803952,E,4,16,1.2,3.0620,M,8.315,M,00,0004*6A
$GPHPD,0,0.000,57.59,1.29,-15.58,31.5926076,120.7780066,3.062,13630511.913,24925184.962,3.062,0.000,0.000,0.000,0.000,0.000,0.000,0.000,16,16,4*6C
$GPGGA,035319.80,3135.5565200,N,12046.6805253,E,4,16,1.2,3.0702,M,8.315,M,00,0004*6E
$GPHPD,0,0.000,57.83,1.03,-15.65,31.5926087,120.7780088,3.070,13630511.244,24925186.149,3.070,0.000,0.000,0.000,0.000,0.000,0.000,0.000,16,16,4*69
$GPGGA,035320.00,3135.5565924,N,12046.6806561,E,4,16,1.2,3.0575,M,8.315,M,01,0004*67
$GPHPD,0,0.000,57.59,0.76,-15.69,31.5926099,120.7780109,3.058,13630510.478,24925187.305,3.058,0.000,0.000,0.000,0.000,0.000,0.000,0.000,16,16,4*65
$GPGGA,035320.20,3135.5566595,N,12046.6807935,E,4,16,1.2,3.0523,M,8.315,M,01,0004*6F
$GPHPD,0,0.000,57.66,0.93,-15.72,31.5926110,120.7780132,3.052,13630509.801,24925188.571,3.052,0.000,0.000,0.000,0.000,0.000,0.000,0.000,16,16,4*60
$GPGGA,035320.40,3135.5567336,N,12046.6809246,E,4,16,1.2,3.0810,M,8.315,M,01,0004*6B
$GPHPD,0,0.000,57.74,1.10,-15.65,31.5926122,120.7780154,3.081,13630509.011,24925189.720,3.081,0.000,0.000,0.000,0.000,0.000,0.000,0.000,16,16,4*60
$GPGGA,035320.60,3135.5568043,N,12046.6810622,E,4,16,1.2,3.0823,M,8.315,M,00,0004*68
$GPHPD,0,0.000,58.09,0.34,-15.56,31.5926134,120.7780177,3.082,13630508.283,24925190.968,3.082,0.000,0.000,0.000,0.000,0.000,0.000,0.000,16,16,4*66
$GPGGA,035320.80,3135.5568726,N,12046.6811953,E,4,16,1.2,3.0725,M,8.315,M,00,0004*63
$GPHPD,0,0.000,58.58,0.78,-15.49,31.5926145,120.7780199,3.073,13630507.580,24925192.175,3.073,0.000,0.000,0.000,0.000,0.000,0.000,0.000,16,16,4*6F
$GPGGA,035321.00,3135.5569374,N,12046.6813223,E,4,16,1.2,3.0721,M,8.315,M,01,0004*63
$GPHPD,0,0.000,58.72,1.27,-15.41,31.5926156,120.7780220,3.072,13630506.915,24925193.329,3.072,0.000,0.000,0.000,0.000,0.000,0.000,0.000,16,16,4*6C
$GPGGA,035321.20,3135.5570050,N,12046.6814557,E,4,16,1.2,3.0786,M,8.316,M,01,0004*61
$GPHPD,0,0.000,58.55,1.41,-15.35,31.5926168,120.7780243,3.079,13630506.222,24925194.544,3.079,0.000,0.000,0.000,0.000,0.000,0.000,0.000,16,16,4*67
$GPGGA,035321.40,3135.5570718,N,12046.6815850,E,4,16,1.3,3.0729,M,8.316,M,01,0004*63
$GPHPD,0,0.000,58.78,0.74,-15.28,31.5926179,120.7780264,3.073,13630505.533,24925195.715,3.073,0.000,0.000,0.000,0.000,0.000,0.000,0.000,16,16,4*65
$GPGGA,035321.60,3135.5571377,N,12046.6817149,E,4,16,1.3,3.0850,M,8.316,M,00,0004*6E
$GPHPD,0,0.000,59.03,0.76,-15.24,31.5926190,120.7780286,3.085,13630504.858,24925196.897,3.085,0.000,0.000,0.000,0.000,0.000,0.000,0.000,16,16,4*6A
$GPGGA,035321.80,3135.5571987,N,12046.6818525,E,4,16,1.3,3.0682,M,8.316,M,00,0004*65
$GPHPD,0,0.000,58.98,1.02,-15.19,31.5926200,120.7780309,3.068,13630504.267,24925198.201,3.068,0.000,0.000,0.000,0.000,0.000,0.000,0.000,16,16,4*64
$GPGGA,035322.00,3135.5572673,N,12046.6819856,E,4,16,1.3,3.0943,M,8.316,M,01,0004*62
$GPHPD,0,0.000,58.63,1.78,-15.12,31.5926211,120.7780331,3.094,13630503.560,24925199.407,3.094,0.000,0.000,0.000,0.000,0.000,0.000,0.000,16,16,4*6B
$GPGGA,035322.20,3135.5573342,N,12046.6821148,E,4,16,1.3,3.1029,M,8.316,M,01,0004*6F
$GPHPD,0,0.000,58.78,1.26,-15.12,31.5926222,120.7780352,3.103,13630502.869,24925200.575,3.103,0.000,0.000,0.000,0.000,0.000,0.000,0.000,16,16,4*6D
$GPGGA,035322.40,3135.5574054,N,12046.6822525,E,4,16,1.3,3.1083,M,8.316,M,01,0004*66
$GPHPD,0,0.000,59.19,0.69,-15.16,31.5926234,120.7780375,3.108,13630502.134,24925201.821,3.108,0.000,0.000,0.000,0.000,0.000,0.000,0.000,16,16,4*6B
$GPGGA,035322.60,3135.5574743,N,12046.6823935,E,4,16,1.2,3.1091,M,8.316,M,00,0004*6A
$GPHPD,0,0.000,59.48,1.02,-15.11,31.5926246,120.7780399,3.109,13630501.439,24925203.120,3.109,0.000,0.000,0.000,0.000,0.000,0.000,0.000,16,16,4*62
$GPGGA,035322.80,3135.5575414,N,12046.6825237,E,4,16,1.2,3.1049,M,8.316,M,00,0004*6E
$GPHPD,0,0.000,59.49,1.15,-15.05,31.5926257,120.7780421,3.105,13630500.747,24925204.300,3.105,0.000,0.000,0.000,0.000,0.000,0.000,0.000,16,16,4*68
$GPGGA,035323.00,3135.5576143,N,12046.6826605,E,4,16,1.2,3.1037,M,8.316,M,01,0004*6D
$GPHPD,0,0.000,59.61,0.42,-15.07,31.5926269,120.7780443,3.104,13630499.986,24925205.525,3.104,0.000,0.000,0.000,0.000,0.000,0.000,0.000,16,16,4*68
$GPGGA,035323.20,3135.5576836,N,12046.6828064,E,4,16,1.2,3.1233,M,8.316,M,01,0004*6D
$GPHPD,0,0.000,59.63,0.35,-15.06,31.5926281,120.7780468,3.123,13630499.294,24925206.880,3.123,0.000,0.000,0.000,0.000,0.000,0.000,0.000,16,16,4*6D
$GPGGA,035323.40,3135.5577529,N,12046.6829513,E,4,16,1.4,3.1120,M,8.316,M,01,0004*6A
$GPHPD,0,0.000,59.87,-0.09,-15.04,31.5926292,120.7780492,3.112,13630498.601,24925208.224,3.112,0.000,0.000,0.000,0.000,0.000,0.000,0.000,16,16,4*43
$GPGGA,035323.60,3135.5578263,N,12046.6830947,E,4,16,1.2,3.1181,M,8.316,M,00,0004*67
$GPHPD,0,0.000,59.59,0.39,-15.04,31.5926304,120.7780516,3.118,13630497.846,24925209.526,3.118,0.000,0.000,0.000,0.000,0.000,0.000,0.000,16,16,4*6B
$GPGGA,035323.80,3135.5578948,N,12046.6832425,E,4,16,1.2,3.1220,M,8.316,M,00,0004*68
$GPHPD,0,0.000,59.86,0.27,-15.02,31.5926316,120.7780540,3.122,13630497.170,24925210.909,3.122,0.000,0.000,0.000,0.000,0.000,0.000,0.000,16,16,4*65
$GPGGA,035324.00,3135.5579660,N,12046.6833949,E,4,16,1.2,3.1223,M,8.316,M,01,0004*67
$GPHPD,0,0.000,59.57,-0.08,-14.99,31.5926328,120.7780566,3.122,13630496.465,24925212.333,3.122,0.000,0.000,0.000,0.000,0.000,0.000,0.000,16,16,4*42
$GPGGA,035324.20,3135.5580403,N,12046.6835422,E,4,16,1.2,3.1249,M,8.316,M,01,0004*6E
$GPHPD,0,0.000,59.19,0.37,-14.96,31.5926340,120.7780590,3.125,13630495.705,24925213.676,3.125,0.000,0.000,0.000,0.000,0.000,0.000,0.000,16,16,4*62
$GPGGA,035324.40,3135.5581122,N,12046.6836881,E,4,16,1.2,3.1218,M,8.316,M,01,0004*6D
$GPHPD,0,0.000,59.49,-0.06,-14.95,31.5926352,120.7780615,3.122,13630494.977,24925215.017,3.122,0.000,0.000,0.000,0.000,0.000,0.000,0.000,16,16,4*4B
$GPGGA,035324.60,3135.5581833,N,12046.6838371,E,4,16,1.2,3.1202,M,8.316,M,00,0004*66
$GPHPD,0,0.000,59.30,0.02,-14.93,31.5926364,120.7780640,3.120,13630494.266,24925216.400,3.120,0.000,0.000,0.000,0.000,0.000,0.000,0.000,16,16,4*65
$GPGGA,035324.80,3135.5582504,N,12046.6839763,E,4,16,1.2,3.1202,M,8.316,M,00,0004*64
$GPHPD,0,0.000,59.25,0.34,-14.83,31.5926375,120.7780663,3.120,13630493.592,24925217.687,3.120,0.000,0.000,0.000,0.000,0.000,0.000,0.000,16,16,4*63
$GPGGA,035325.00,3135.5583132,N,12046.6841035,E,4,16,1.2,3.1245,M,8.316,M,01,0004*64
$GPHPD,0,0.000,59.34,0.86,-14.64,31.5926386,120.7780684,3.125,13630492.955,24925218.856,3.125,0.000,0.000,0.000,0.000,0.000,0.000,0.000,16,16,4*6D
$GPGGA,035325.20,3135.5583699,N,12046.6842182,E,4,16,1.4,3.1174,M,8.316,M,01,0004*69
$GPHPD,0,0.000,59.12,0.54,-14.50,31.5926395,120.7780703,3.117,13630492.380,24925219.909,3.117,0.000,0.000,0.000,0.000,0.000,0.000,0.000,16,16,4*65
$GPGGA,035325.40,3135.5584187,N,12046.6843144,E,4,16,1.2,3.1193,M,8.316,M,01,0004*64
$GPHPD,0,0.000,59.11,0.51,-14.33,31.5926403,120.7780719,3.119,13630491.880,24925220.784,3.119,0.000,0.000,0.000,0.000,0.000,0.000,0.000,16,16,4*6C
$GPGGA,035325.60,3135.5584609,N,12046.6843987,E,4,16,1.2,3.1249,M,8.316,M,00,0004*65
$GPHPD,0,0.000,59.07,0.72,-14.19,31.5926410,120.7780733,3.125,13630491.450,24925221.555,3.125,0.000,0.000,0.000,0.000,0.000,0.000,0.000,16,16,4*66
$GPGGA,035325.80,3135.5584939,N,12046.6844654,E,4,16,1.2,3.1106,M,8.316,M,00,0004*69
$GPHPD,0,0.000,58.84,0.68,-14.05,31.5926416,120.7780744,3.111,13630491.115,24925222.167,3.111,0.000,0.000,0.000,0.000,0.000,0.000,0.000,16,16,4*6E
$GPGGA,035326.00,3135.5585208,N,12046.6845202,E,4,16,1.2,3.1186,M,8.316,M,01,0004*65
$GPHPD,0,0.000,58.76,0.71,-13.92,31.5926420,120.7780753,3.119,13630490.843,24925222.672,3.119,0.000,0.000,0.000,0.000,0.000,0.000,0.000,16,16,4*69
$GPGGA,035326.20,3135.5585404,N,12046.6845594,E,4,16,1.2,3.1161,M,8.316,M,01,0004*6C
$GPHPD,0,0.000,58.79,0.95,-13.82,31.5926423,120.7780760,3.116,13630490.643,24925223.030,3.116,0.000,0.000,0.000,0.000,0.000,0.000,0.000,16,16,4*61
$GPGGA,035326.40,3135.5585530,N,12046.6845840,E,4,16,1.2,3.1220,M,8.316,M,01,0004*6E
$GPHPD,0,0.000,58.80,0.56,-13.73,31.5926426,120.7780764,3.122,13630490.514,24925223.253,3.122,0.000,0.000,0.000,0.000,0.000,0.000,0.000,16,16,4*61
$GPGGA,035326.60,3135.5585638,N,12046.6845997,E,4,16,1.2,3.1261,M,8.316,M,00,0004*68
$GPHPD,0,0.000,58.77,0.36,-13.67,31.5926427,120.7780767,3.126,13630490.392,24925223.380,3.126,0.000,0.000,0.000,0.000,0.000,0.000,0.000,16,16,4*6F
$GPGGA,035326.80,3135.5585680,N,12046.6846078,E,4,16,1.2,3.1258,M,8.316,M,00,0004*64
$GPHPD,0,0.000,58.77,0.31,-13.63,31.5926428,120.7780768,3.126,13630490.348,24925223.453,3.126,0.000,0.000,0.000,0.000,0.000,0.000,0.000,16,16,4*62
$GPGGA,035327.00,3135.5585688,N,12046.6846082,E,4,16,1.2,3.1252,M,8.316,M,01,0004*6B
$GPHPD,0,0.000,58.76,0.53,-13.62,31.5926428,120.7780768,3.125,13630490.338,24925223.453,3.125,0.000,0.000,0.000,0.000,0.000,0.000,0.000,16,16,4*61
$GPGGA,035327.20,3135.5585688,N,12046.6846085,E,4,16,1.2,3.1259,M,8.316,M,01,0004*65
$GPHPD,0,0.000,58.81,0.40,-13.68,31.5926428,120.7780768,3.126,13630490.338,24925223.457,3.126,0.000,0.000,0.000,0.000,0.000,0.000,0.000,16,16,4*65
$GPGGA,035327.40,3135.5585684,N,12046.6846074,E,4,16,1.2,3.1229,M,8.316,M,01,0004*66
$GPHPD,0,0.000,58.88,0.59,-13.73,31.5926428,120.7780768,3.123,13630490.342,24925223.446,3.123,0.000,0.000,0.000,0.000,0.000,0.000,0.000,16,16,4*63
$GPGGA,035327.60,3135.5585670,N,12046.6846076,E,4,16,1.2,3.1239,M,8.316,M,00,0004*6D
$GPHPD,0,0.000,58.86,0.86,-13.78,31.5926428,120.7780768,3.124,13630490.362,24925223.457,3.124,0.000,0.000,0.000,0.000,0.000,0.000,0.000,16,16,4*66
$GPGGA,035327.80,3135.5585676,N,12046.6846077,E,4,16,1.2,3.1196,M,8.316,M,00,0004*62
$GPHPD,0,0.000,58.75,0.57,-13.85,31.5926428,120.7780768,3.120,13630490.354,24925223.454,3.120,0.000,0.000,0.000,0.000,0.000,0.000,0.000,16,16,4*62
$GPGGA,035328.00,3135.5585700,N,12046.6846123,E,4,16,1.2,3.1190,M,8.316,M,01,0004*62
$GPHPD,0,0.000,58.77,0.85,-13.96,31.5926428,120.7780769,3.119,13630490.329,24925223.496,3.119,0.000,0.000,0.000,0.000,0.000,0.000,0.000,16,16,4*68
$GPGGA,035328.20,3135.5585747,N,12046.6846212,E,4,16,1.2,3.1164,M,8.316,M,01,0004*69
$GPHPD,0,0.000,58.78,0.61,-14.10,31.5926429,120.7780770,3.116,13630490.280,24925223.576,3.116,0.000,0.000,0.000,0.000,0.000,0.000,0.000,16,16,4*60
$GPGGA,035328.40,3135.5585845,N,12046.6846401,E,4,16,1.2,3.1182,M,8.316,M,01,0004*6E
$GPHPD,0,0.000,58.84,0.93,-14.27,31.5926431,120.7780773,3.118,13630490.179,24925223.747,3.118,0.000,0.000,0.000,0.000,0.000,0.000,0.000,16,16,4*65
$GPGGA,035328.60,3135.5585996,N,12046.6846668,E,4,16,1.2,3.1208,M,8.316,M,00,0004*6E
$GPHPD,0,0.000,58.92,0.79,-14.41,31.5926433,120.7780778,3.121,13630490.018,24925223.981,3.121,0.000,0.000,0.000,0.000,0.000,0.000,0.000,16,16,4*6D
$GPGGA,035328.80,3135.5586189,N,12046.6847079,E,4,16,1.2,3.1193,M,8.316,M,00,0004*63
$GPHPD,0,0.000,58.98,0.53,-14.58,31.5926436,120.7780785,3.119,13630489.826,24925224.364,3.119,0.000,0.000,0.000,0.000,0.000,0.000,0.000,16,16,4*6B
$GPGGA,035329.00,3135.5586452,N,12046.6847616,E,4,16,1.2,3.1177,M,8.316,M,01,0004*6D
$GPHPD,0,0.000,58.91,0.64,-14.70,31.5926441,120.7780794,3.118,13630489.561,24925224.858,3.118,0.000,0.000,0.000,0.000,0.000,0.000,0.000,16,16,4*66
$GPGGA,035329.20,3135.5586769,N,12046.6848264,E,4,16,1.2,3.1248,M,8.316,M,01,0004*65
$GPHPD,0,0.000,58.91,0.40,-14.79,31.5926446,120.7780804,3.125,13630489.240,24925225.455,3.125,0.000,0.000,0.000,0.000,0.000,0.000,0.000,16,16,4*6C
$GPGGA,035329.40,3135.5587127,N,12046.6848992,E,4,16,1.2,3.1251,M,8.316,M,01,0004*64
$GPHPD,0,0.000,59.08,0.18,-14.89,31.5926452,120.7780817,3.125,13630488.878,24925226.124,3.125,0.000,0.000,0.000,0.000,0.000,0.000,0.000,16,16,4*68
$GPGGA,035329.60,3135.5587534,N,12046.6849790,E,4,16,1.2,3.1269,M,8.316,M,00,0004*67
$GPHPD,0,0.000,59.30,0.35,-14.98,31.5926459,120.7780830,3.127,13630488.460,24925226.850,3.127,0.000,0.000,0.000,0.000,0.000,0.000,0.000,16,16,4*6D
$GPGGA,035329.80,3135.5587993,N,12046.6850692,E,4,16,1.2,3.1171,M,8.316,M,00,0004*69
$GPHPD,0,0.000,59.25,-0.08,-15.06,31.5926467,120.7780845,3.117,13630487.989,24925227.670,3.117,0.000,0.000,0.000,0.000,0.000,0.000,0.000,16,16,4*4B
$GPGGA,035330.00,3135.5588474,N,12046.6851661,E,4,16,1.2,3.1174,M,8.316,M,01,0004*6B
$GPHPD,0,0.000,59.40,0.30,-15.11,31.5926475,120.7780861,3.117,13630487.500,24925228.559,3.117,0.000,0.000,0.000,0.000,0.000,0.000,0.000,16,16,4*67
$GPGGA,035330.20,3135.5589008,N,12046.6852667,E,4,16,1.2,3.1199,M,8.316,M,01,0004*61
$GPHPD,0,0.000,59.35,0.24,-15.14,31.5926483,120.7780878,3.120,13630486.944,24925229.461,3.120,0.000,0.000,0.000,0.000,0.000,0.000,0.000,16,16,4*62
$GPGGA,035330.40,3135.5589541,N,12046.6853802,E,4,16,1.2,3.1173,M,8.316,M,01,0004*67
$GPHPD,0,0.000,59.33,0.20,-15.17,31.5926492,120.7780897,3.117,13630486.415,24925230.519,3.117,0.000,0.000,0.000,0.000,0.000,0.000,0.000,16,16,4*6D
$GPGGA,035330.60,3135.5590126,N,12046.6854972,E,4,16,1.2,3.1223,M,8.316,M,00,0004*6E
$GPHPD,0,0.000,59.49,-0.32,-15.18,31.5926502,120.7780916,3.122,13630485.819,24925231.589,3.122,0.000,0.000,0.000,0.000,0.000,0.000,0.000,16,16,4*4A
$GPGGA,035330.80,3135.5590723,N,12046.6856157,E,4,16,1.2,3.1336,M,8.316,M,00,0004*6B
$GPHPD,0,0.000,59.58,-0.27,-15.19,31.5926512,120.7780936,3.134,13630485.208,24925232.671,3.134,0.000,0.000,0.000,0.000,0.000,0.000,0.000,16,16,4*41
$GPGGA,035331.00,3135.5591318,N,12046.6857371,E,4,16,1.2,3.1379,M,8.316,M,01,0004*62
$GPHPD,0,0.000,59.79,-0.70,-15.20,31.5926522,120.7780956,3.138,13630484.607,24925233.788,3.138,0.000,0.000,0.000,0.000,0.000,0.000,0.000,16,16,4*43
$GPGGA,035331.20,3135.5591957,N,12046.6858633,E,4,16,1.2,3.1278,M,8.316,M,01,0004*6D
$GPHPD,0,0.000,59.58,-0.63,-15.21,31.5926533,120.7780977,3.128,13630483.953,24925234.938,3.128,0.000,0.000,0.000,0.000,0.000,0.000,0.000,16,16,4*4B
$GPGGA,035331.40,3135.5592580,N,12046.6859969,E,4,15,1.3,3.1280,M,8.316,M,01,0004*6A
$GPHPD,0,0.000,59.68,-0.40,-15.21,31.5926543,120.7780999,3.128,13630483.336,24925236.186,3.128,0.000,0.000,0.000,0.000,0.000,0.000,0.000,15,16,4*4B
$GPGGA,035331.60,3135.5593252,N,12046.6861298,E,4,16,1.3,3.1183,M,8.316,M,00,0004*6D
$GPHPD,0,0.000,59.30,-0.40,-15.20,31.5926554,120.7781022,3.118,13630482.648,24925237.397,3.118,0.000,0.000,0.000,0.000,0.000,0.000,0.000,16,16,4*44
$GPGGA,035331.80,3135.5593903,N,12046.6862654,E,4,16,1.3,3.1202,M,8.316,M,00,0004*61
$GPHPD,0,0.000,59.52,-0.24,-15.18,31.5926565,120.7781044,3.120,13630481.996,24925238.653,3.120,0.000,0.000,0.000,0.000,0.000,0.000,0.000,16,16,4*46
$GPGGA,035332.00,3135.5594544,N,12046.6863999,E,4,16,1.3,3.1174,M,8.316,M,01,0004*6E
$GPHPD,0,0.000,59.64,0.15,-15.14,31.5926576,120.7781067,3.117,13630481.355,24925239.902,3.117,0.000,0.000,0.000,0.000,0.000,0.000,0.000,16,16,4*6C
$GPGGA,035332.20,3135.5595191,N,12046.6865342,E,4,16,1.3,3.1150,M,8.316,M,01,0004*6D
$GPHPD,0,0.000,59.37,0.07,-15.14,31.5926587,120.7781089,3.115,13630480.706,24925241.145,3.115,0.000,0.000,0.000,0.000,0.000,0.000,0.000,16,16,4*60
$GPGGA,035332.40,3135.5595859,N,12046.6866703,E,4,16,1.3,3.1196,M,8.316,M,01,0004*6E
$GPHPD,0,0.000,59.19,0.14,-15.13,31.5926598,120.7781112,3.120,13630480.030,24925242.397,3.120,0.000,0.000,0.000,0.000,0.000,0.000,0.000,16,16,4*68
$GPGGA,035332.60,3135.5596535,N,12046.6868010,E,4,16,1.3,3.1189,M,8.316,M,00,0004*6C
$GPHPD,0,0.000,59.17,0.30,-15.15,31.5926609,120.7781134,3.119,13630479.332,24925243.579,3.119,0.000,0.000,0.000,0.000,0.000,0.000,0.000,16,16,4*69
$GPGGA,035332.80,3135.5597178,N,12046.6869336,E,4,16,1.3,3.1168,M,8.316,M,00,0004*67
$GPHPD,0,0.000,59.22,0.67,-15.10,31.5926620,120.7781156,3.117,13630478.685,24925244.804,3.117,0.000,0.000,0.000,0.000,0.000,0.000,0.000,16,16,4*6F
$GPGGA,035333.00,3135.5597841,N,12046.6870671,E,4,16,1.3,3.1138,M,8.316,M,01,0004*67
$GPHPD,0,0.000,58.92,0.51,-15.12,31.5926631,120.7781178,3.114,13630478.011,24925246.028,3.114,0.000,0.000,0.000,0.000,0.000,0.000,0.000,16,16,4*61
$GPGGA,035333.20,3135.5598491,N,12046.6872008,E,4,16,1.3,3.1155,M,8.316,M,01,0004*6A
$GPHPD,0,0.000,59.09,0.74,-15.07,31.5926642,120.7781200,3.116,13630477.356,24925247.261,3.116,0.000,0.000,0.000,0.000,0.000,0.000,0.000,16,16,4*68
$GPGGA,035333.40,3135.5599181,N,12046.6873322,E,4,16,1.3,3.1194,M,8.316,M,01,0004*6E
$GPHPD,0,0.000,58.80,0.65,-15.01,31.5926653,120.7781222,3.119,13630476.640,24925248.444,3.119,0.000,0.000,0.000,0.000,0.000,0.000,0.000,16,16,4*63
$GPGGA,035333.60,3135.5599891,N,12046.6874695,E,4,16,1.3,3.1140,M,8.316,M,00,0004*62
$GPHPD,0,0.000,58.53,0.79,-14.94,31.5926665,120.7781245,3.114,13630475.907,24925249.686,3.114,0.000,0.000,0.000,0.000,0.000,0.000,0.000,16,16,4*6B
$GPGGA,035333.80,3135.5600578,N,12046.6876075,E,4,16,1.3,3.1228,M,8.316,M,00,0004*62
$GPHPD,0,0.000,58.88,0.25,-14.90,31.5926676,120.7781268,3.123,13630475.208,24925250.950,3.123,0.000,0.000,0.000,0.000,0.000,0.000,0.000,16,16,4*65
$GPGGA,035334.00,3135.5601293,N,12046.6877506,E,4,16,1.3,3.1170,M,8.316,M,01,0004*61
$GPHPD,0,0.000,58.72,0.09,-14.88,31.5926688,120.7781292,3.117,13630474.480,24925252.260,3.117,0.000,0.000,0.000,0.000,0.000,0.000,0.000,16,16,4*6E
$GPGGA,035334.20,3135.5601999,N,12046.6878907,E,4,16,1.3,3.1217,M,8.316,M,01,0004*62
$GPHPD,0,0.000,58.78,0.45,-14.84,31.5926700,120.7781315,3.122,13630473.758,24925253.538,3.122,0.000,0.000,0.000,0.000,0.000,0.000,0.000,16,16,4*65
$GPGGA,035334.40,3135.5602706,N,12046.6880296,E,4,16,1.3,3.1232,M,8.316,M,01,0004*6C
$GPHPD,0,0.000,58.41,0.13,-14.82,31.5926712,120.7781338,3.123,13630473.033,24925254.801,3.123,0.000,0.000,0.000,0.000,0.000,0.000,0.000,16,16,4*6C
$GPGGA,035334.60,3135.5603428,N,12046.6881700,E,4,16,1.3,3.1272,M,8.316,M,00,0004*6E
$GPHPD,0,0.000,59.04,-0.37,-14.76,31.5926724,120.7781362,3.127,13630472.289,24925256.074,3.127,0.000,0.000,0.000,0.000,0.000,0.000,0.000,16,16,4*4C
$GPGGA,035334.80,3135.5604106,N,12046.6883119,E,4,16,1.2,3.1446,M,8.316,M,00,0004*62
$GPHPD,0,0.000,59.15,0.28,-14.67,31.5926735,120.7781385,3.145,13630471.611,24925257.390,3.145,0.000,0.000,0.000,0.000,0.000,0.000,0.000,16,16,4*68
$GPGGA,035335.00,3135.5604829,N,12046.6884489,E,4,16,1.2,3.1458,M,8.316,M,01,0004*6A
$GPHPD,0,0.000,59.04,-0.77,-14.63,31.5926747,120.7781408,3.146,13630470.859,24925258.621,3.146,0.000,0.000,0.000,0.000,0.000,0.000,0.000,16,16,4*4F
$GPGGA,035335.20,3135.5605533,N,12046.6885891,E,4,16,1.2,3.1423,M,8.316,M,01,0004*67
$GPHPD,0,0.000,59.15,-0.24,-14.61,31.5926759,120.7781432,3.142,13630470.141,24925259.902,3.142,0.000,0.000,0.000,0.000,0.000,0.000,0.000,16,16,4*42
$GPGGA,035335.40,3135.5606262,N,12046.6887376,E,4,16,1.2,3.1372,M,8.316,M,01,0004*62
$GPHPD,0,0.000,59.08,-0.81,-14.62,31.5926771,120.7781456,3.137,13630469.403,24925261.268,3.137,0.000,0.000,0.000,0.000,0.000,0.000,0.000,16,16,4*4D
$GPGGA,035335.60,3135.5606996,N,12046.6888858,E,4,16,1.2,3.1301,M,8.316,M,00,0004*6D
$GPHPD,0,0.000,59.12,-0.27,-14.70,31.5926783,120.7781481,3.130,13630468.658,24925262.628,3.130,0.000,0.000,0.000,0.000,0.000,0.000,0.000,16,16,4*40
$GPGGA,035335.80,3135.5607789,N,12046.6890325,E,4,16,1.2,3.1309,M,8.316,M,00,0004*62
$GPHPD,0,0.000,58.92,-0.10,-14.73,31.5926796,120.7781505,3.131,13630467.826,24925263.935,3.131,0.000,0.000,0.000,0.000,0.000,0.000,0.000,16,16,4*4D
$GPGGA,035336.00,3135.5608499,N,12046.6891890,E,4,16,1.2,3.1010,M,8.316,M,01,0004*6A
$GPHPD,0,0.000,59.46,-0.59,-14.71,31.5926808,120.7781532,3.101,13630467.132,24925265.409,3.101,0.000,0.000,0.000,0.000,0.000,0.000,0.000,16,16,4*4E
$GPGGA,035336.20,3135.5609262,N,12046.6893402,E,4,16,1.2,3.1179,M,8.316,M,01,0004*60
$GPHPD,0,0.000,59.13,-0.57,-14.64,31.5926821,120.7781557,3.118,13630466.351,24925266.788,3.118,0.000,0.000,0.000,0.000,0.000,0.000,0.000,16,16,4*43
$GPGGA,035336.40,3135.5610041,N,12046.6894906,E,4,16,1.2,3.1031,M,8.316,M,01,0004*6E
$GPHPD,0,0.000,58.43,-1.11,-14.60,31.5926834,120.7781582,3.103,13630465.547,24925268.148,3.103,0.000,0.000,0.000,0.000,0.000,0.000,0.000,16,16,4*4A
$GPGGA,035336.60,3135.5610764,N,12046.6896367,E,4,16,1.2,3.1242,M,8.316,M,00,0004*64
$GPHPD,0,0.000,59.14,-1.07,-14.57,31.5926846,120.7781606,3.124,13630464.813,24925269.489,3.124,0.000,0.000,0.000,0.000,0.000,0.000,0.000,16,16,4*44
$GPGGA,035336.80,3135.5611475,N,12046.6897844,E,4,16,1.2,3.0803,M,8.316,M,00,0004*6D
$GPHPD,0,0.000,59.48,-1.95,-14.59,31.5926858,120.7781631,3.080,13630464.100,24925270.856,3.080,0.000,0.000,0.000,0.000,0.000,0.000,0.000,16,16,4*4E
$GPGGA,035337.00,3135.5612202,N,12046.6899399,E,4,16,1.3,3.0952,M,8.316,M,01,0004*61
$GPHPD,0,0.000,59.34,-0.26,-14.59,31.5926870,120.7781657,3.095,13630463.379,24925272.307,3.095,0.000,0.000,0.000,0.000,0.000,0.000,0.000,16,16,4*40
$GPGGA,035337.20,3135.5612993,N,12046.6900878,E,4,16,1.2,3.1159,M,8.316,M,01,0004*66
$GPHPD,0,0.000,58.55,0.21,-14.61,31.5926883,120.7781681,3.116,13630462.553,24925273.630,3.116,0.000,0.000,0.000,0.000,0.000,0.000,0.000,16,16,4*6F
$GPGGA,035337.40,3135.5613802,N,12046.6902297,E,4,16,1.2,3.1203,M,8.316,M,01,0004*6D
$GPHPD,0,0.000,58.85,0.19,-14.59,31.5926897,120.7781705,3.120,13630461.688,24925274.870,3.120,0.000,0.000,0.000,0.000,0.000,0.000,0.000,16,16,4*61
$GPGGA,035337.60,3135.5614473,N,12046.6903839,E,4,16,1.2,3.1079,M,8.316,M,00,0004*63
$GPHPD,0,0.000,59.61,-1.08,-14.57,31.5926908,120.7781731,3.108,13630461.045,24925276.339,3.108,0.000,0.000,0.000,0.000,0.000,0.000,0.000,16,16,4*4B
$GPGGA,035337.80,3135.5615154,N,12046.6905349,E,4,16,1.2,3.0862,M,8.316,M,00,0004*65
$GPHPD,0,0.000,58.87,-1.29,-14.57,31.5926919,120.7781756,3.086,13630460.380,24925277.763,3.086,0.000,0.000,0.000,0.000,0.000,0.000,0.000,16,16,4*41
$GPGGA,035338.00,3135.5615892,N,12046.6906870,E,4,16,1.2,3.0812,M,8.316,M,01,0004*65
$GPHPD,0,0.000,58.36,-1.06,-14.54,31.5926932,120.7781781,3.081,13630459.638,24925279.168,3.081,0.000,0.000,0.000,0.000,0.000,0.000,0.000,16,16,4*49
$GPGGA,035338.20,3135.5616682,N,12046.6908336,E,4,16,1.2,3.1030,M,8.316,M,01,0004*65
$GPHPD,0,0.000,58.00,-0.77,-14.56,31.5926945,120.7781806,3.103,13630458.810,24925280.476,3.103,0.000,0.000,0.000,0.000,0.000,0.000,0.000,16,16,4*40
$GPGGA,035338.40,3135.5617554,N,12046.6909813,E,4,16,1.2,3.1163,M,8.316,M,01,0004*60
$GPHPD,0,0.000,58.49,-0.91,-14.53,31.5926959,120.7781830,3.116,13630457.867,24925281.749,3.116,0.000,0.000,0.000,0.000,0.000,0.000,0.000,16,16,4*49
$GPGGA,035338.60,3135.5618370,N,12046.6911238,E,4,16,1.2,3.1024,M,8.316,M,00,0004*64
$GPHPD,0,0.000,58.64,-2.12,-14.51,31.5926973,120.7781854,3.102,13630456.994,24925282.992,3.102,0.000,0.000,0.000,0.000,0.000,0.000,0.000,16,16,4*40
$GPGGA,035338.80,3135.5619026,N,12046.6912831,E,4,15,1.3,3.0575,M,8.316,M,00,0004*69
$GPHPD,0,0.000,59.05,-0.91,-14.48,31.5926984,120.7781881,3.058,13630456.382,24925284.531,3.058,0.000,0.000,0.000,0.000,0.000,0.000,0.000,15,15,4*49
$GPGGA,035339.00,3135.5619772,N,12046.6914307,E,4,15,1.3,3.0820,M,8.316,M,01,0004*62
$GPHPD,0,0.000,58.53,-0.65,-14.43,31.5926996,120.7781905,3.082,13630455.619,24925285.876,3.082,0.000,0.000,0.000,0.000,0.000,0.000,0.000,15,15,4*4E
$GPGGA,035339.20,3135.5620618,N,12046.6915901,E,4,15,1.3,3.0665,M,8.316,M,01,0004*65
$GPHPD,0,0.000,59.27,-0.11,-14.37,31.5927010,120.7781932,3.067,13630454.737,24925287.306,3.067,0.000,0.000,0.000,0.000,0.000,0.000,0.000,15,15,4*4C
$GPGGA,035339.40,3135.5621391,N,12046.6917512,E,4,15,1.3,3.1200,M,8.316,M,01,0004*6C
$GPHPD,0,0.000,59.54,-0.26,-14.35,31.5927023,120.7781959,3.120,13630453.963,24925288.799,3.120,0.000,0.000,0.000,0.000,0.000,0.000,0.000,15,15,4*46
$GPGGA,035339.60,3135.5622218,N,12046.6918978,E,4,15,1.3,3.0825,M,8.316,M,00,0004*6F
$GPHPD,0,0.000,60.28,-0.85,-14.30,31.5927037,120.7781983,3.083,13630453.082,24925290.085,3.083,0.000,0.000,0.000,0.000,0.000,0.000,0.000,15,15,4*4C
$GPGGA,035339.80,3135.5622961,N,12046.6920614,E,4,16,1.3,3.0878,M,8.316,M,00,0004*61
$GPHPD,0,0.000,60.40,0.18,-14.30,31.5927049,120.7782010,3.088,13630452.355,24925291.625,3.088,0.000,0.000,0.000,0.000,0.000,0.000,0.000,16,16,4*67
$GPGGA,035340.00,3135.5623742,N,12046.6922180,E,4,16,1.3,3.0967,M,8.316,M,01,0004*6F
$GPHPD,0,0.000,60.11,-0.02,-14.29,31.5927062,120.7782036,3.097,13630451.560,24925293.059,3.097,0.000,0.000,0.000,0.000,0.000,0.000,0.000,16,16,4*4C
$GPGGA,035340.20,3135.5624549,N,12046.6923758,E,4,16,1.3,3.0967,M,8.316,M,01,0004*61
$GPHPD,0,0.000,60.37,-0.11,-14.25,31.5927076,120.7782063,3.097,13630450.731,24925294.491,3.097,0.000,0.000,0.000,0.000,0.000,0.000,0.000,16,16,4*43
$GPGGA,035340.40,3135.5625275,N,12046.6925357,E,4,16,1.3,3.0762,M,8.316,M,01,0004*68
$GPHPD,0,0.000,60.21,-0.73,-14.24,31.5927088,120.7782089,3.076,13630450.020,24925295.997,3.076,0.000,0.000,0.000,0.000,0.000,0.000,0.000,16,16,4*49
$GPGGA,035340.60,3135.5626060,N,12046.6926980,E,4,16,1.2,3.0712,M,8.316,M,00,0004*6B
$GPHPD,0,0.000,59.78,-0.66,-14.25,31.5927101,120.7782116,3.071,13630449.231,24925297.497,3.071,0.000,0.000,0.000,0.000,0.000,0.000,0.000,16,16,4*48
$GPGGA,035340.80,3135.5626795,N,12046.6928599,E,4,16,1.2,3.0715,M,8.316,M,00,0004*65
$GPHPD,0,0.000,59.60,-0.06,-14.24,31.5927113,120.7782143,3.072,13630448.512,24925299.021,3.072,0.000,0.000,0.000,0.000,0.000,0.000,0.000,16,16,4*45
$GPGGA,035341.00,3135.5627588,N,12046.6930230,E,4,16,1.2,3.0673,M,8.316,M,01,0004*6E
$GPHPD,0,0.000,59.25,-0.43,-14.24,31.5927126,120.7782171,3.067,13630447.713,24925300.526,3.067,0.000,0.000,0.000,0.000,0.000,0.000,0.000,16,16,4*4D
$GPGGA,035341.20,3135.5628334,N,12046.6931852,E,4,16,1.2,3.0508,M,8.316,M,01,0004*62
$GPHPD,0,0.000,59.23,-0.30,-14.24,31.5927139,120.7782198,3.051,13630446.979,24925302.048,3.051,0.000,0.000,0.000,0.000,0.000,0.000,0.000,16,16,4*4A
$GPGGA,035341.40,3135.5629122,N,12046.6933518,E,4,16,1.2,3.0424,M,8.316,M,01,0004*6E
$GPHPD,0,0.000,58.90,-0.23,-14.25,31.5927152,120.7782225,3.042,13630446.194,24925303.598,3.042,0.000,0.000,0.000,0.000,0.000,0.000,0.000,16,16,4*4A
$GPGGA,035341.60,3135.5629939,N,12046.6935152,E,4,16,1.2,3.0392,M,8.316,M,00,0004*69
$GPHPD,0,0.000,58.84,-0.35,-14.27,31.5927166,120.7782253,3.039,13630445.362,24925305.093,3.039,0.000,0.000,0.000,0.000,0.000,0.000,0.000,16,16,4*4C
$GPGGA,035341.80,3135.5630785,N,12046.6936831,E,4,16,1.2,3.0386,M,8.316,M,00,0004*6C
$GPHPD,0,0.000,58.77,-0.64,-14.25,31.5927180,120.7782281,3.039,13630444.497,24925306.625,3.039,0.000,0.000,0.000,0.000,0.000,0.000,0.000,16,16,4*45
$GPGGA,035342.00,3135.5631574,N,12046.6938478,E,4,16,1.2,3.0422,M,8.316,M,01,0004*6D
$GPHPD,0,0.000,58.79,-0.21,-14.26,31.5927193,120.7782308,3.042,13630443.707,24925308.151,3.042,0.000,0.000,0.000,0.000,0.000,0.000,0.000,16,15,4*4F
$GPGGA,035342.20,3135.5632411,N,12046.6940111,E,4,16,1.2,3.0352,M,8.316,M,01,0004*6B
$GPHPD,0,0.000,58.53,-0.99,-14.29,31.5927207,120.7782335,3.035,13630442.846,24925309.633,3.035,0.000,0.000,0.000,0.000,0.000,0.000,0.000,16,15,4*42
$GPGGA,035342.40,3135.5633297,N,12046.6941815,E,4,16,1.2,3.0310,M,8.316,M,01,0004*6E
$GPHPD,0,0.000,58.61,-1.14,-14.31,31.5927222,120.7782364,3.031,13630441.930,24925311.172,3.031,0.000,0.000,0.000,0.000,0.000,0.000,0.000,16,15,4*45
$GPGGA,035342.60,3135.5634149,N,12046.6943496,E,4,16,1.2,3.0299,M,8.316,M,00,0004*6F
$GPHPD,0,0.000,58.82,-0.23,-14.36,31.5927236,120.7782392,3.030,13630441.057,24925312.703,3.030,0.000,0.000,0.000,0.000,0.000,0.000,0.000,16,15,4*4D
$GPGGA,035342.80,3135.5635006,N,12046.6945204,E,4,16,1.2,3.0427,M,8.316,M,00,0004*62
$GPHPD,0,0.000,59.05,-0.55,-14.39,31.5927250,120.7782420,3.043,13630440.182,24925314.263,3.043,0.000,0.000,0.000,0.000,0.000,0.000,0.000,16,16,4*4D
$GPGGA,035343.00,3135.5635877,N,12046.6946881,E,4,16,1.2,3.0312,M,8.316,M,01,0004*61
$GPHPD,0,0.000,59.30,-0.59,-14.42,31.5927265,120.7782448,3.031,13630439.282,24925315.778,3.031,0.000,0.000,0.000,0.000,0.000,0.000,0.000,16,16,4*40
$GPGGA,035343.20,3135.5636763,N,12046.6948569,E,4,16,1.2,3.0213,M,8.316,M,01,0004*6F
$GPHPD,0,0.000,59.86,-0.74,-14.43,31.5927279,120.7782476,3.021,13630438.362,24925317.298,3.021,0.000,0.000,0.000,0.000,0.000,0.000,0.000,16,16,4*44
$GPGGA,035343.40,3135.5637591,N,12046.6950344,E,4,16,1.2,3.0257,M,8.316,M,01,0004*67
$GPHPD,0,0.000,59.52,-0.71,-14.45,31.5927293,120.7782506,3.026,13630437.542,24925318.956,3.026,0.000,0.000,0.000,0.000,0.000,0.000,0.000,16,16,4*41
$GPGGA,035343.60,3135.5638480,N,12046.6952066,E,4,16,1.2,3.0209,M,8.316,M,00,0004*60
$GPHPD,0,0.000,59.64,-0.66,-14.47,31.5927308,120.7782534,3.021,13630436.625,24925320.515,3.021,0.000,0.000,0.000,0.000,0.000,0.000,0.000,16,16,4*41
$GPGGA,035343.80,3135.5639291,N,12046.6953846,E,4,16,1.2,3.0063,M,8.316,M,00,0004*6C
$GPHPD,0,0.000,59.76,-0.58,-14.48,31.5927322,120.7782564,3.006,13630435.830,24925322.189,3.006,0.000,0.000,0.000,0.000,0.000,0.000,0.000,16,16,4*47
$GPGGA,035344.00,3135.5640099,N,12046.6955592,E,4,16,1.2,3.0028,M,8.316,M,01,0004*6B
$GPHPD,0,0.000,59.35,-0.61,-14.50,31.5927335,120.7782593,3.003,13630435.033,24925323.824,3.003,0.000,0.000,0.000,0.000,0.000,0.000,0.000,16,16,4*49
$GPGGA,035344.20,3135.5640995,N,12046.6957319,E,4,16,1.2,2.9995,M,8.316,M,01,0004*6C
$GPHPD,0,0.000,59.06,-0.20,-14.51,31.5927350,120.7782622,3.000,13630434.107,24925325.385,3.000,0.000,0.000,0.000,0.000,0.000,0.000,0.000,16,16,4*46
$GPGGA,035344.40,3135.5641853,N,12046.6959062,E,4,16,1.2,2.9931,M,8.316,M,01,0004*6F
$GPHPD,0,0.000,59.24,0.15,-14.50,31.5927364,120.7782651,2.993,13630433.238,24925326.987,2.993,0.000,0.000,0.000,0.000,0.000,0.000,0.000,16,16,4*6C
$GPGGA,035344.60,3135.5642733,N,12046.6960834,E,4,16,1.2,2.9825,M,8.316,M,00,0004*63
$GPHPD,0,0.000,59.13,-0.60,-14.50,31.5927379,120.7782681,2.983,13630432.344,24925328.612,2.983,0.000,0.000,0.000,0.000,0.000,0.000,0.000,16,15,4*43
$GPGGA,035344.80,3135.5643585,N,12046.6962575,E,4,16,1.2,2.9884,M,8.316,M,00,0004*62
$GPHPD,0,0.000,59.01,-0.26,-14.48,31.5927393,120.7782710,2.988,13630431.483,24925330.215,2.988,0.000,0.000,0.000,0.000,0.000,0.000,0.000,16,16,4*40
$GPGGA,035345.00,3135.5644478,N,12046.6964330,E,4,16,1.2,2.9932,M,8.316,M,01,0004*63
$GPHPD,0,0.000,59.04,-0.32,-14.49,31.5927408,120.7782739,2.993,13630430.567,24925331.811,2.993,0.000,0.000,0.000,0.000,0.000,0.000,0.000,16,16,4*4A
$GPGGA,035345.20,3135.5645336,N,12046.6966080,E,4,16,1.2,2.9833,M,8.316,M,01,0004*67
$GPHPD,0,0.000,58.77,0.24,-14.51,31.5927422,120.7782768,2.983,13630429.700,24925333.422,2.983,0.000,0.000,0.000,0.000,0.000,0.000,0.000,16,16,4*65
$GPGGA,035345.40,3135.5646221,N,12046.6967830,E,4,16,1.2,2.9844,M,8.316,M,01,0004*67
$GPHPD,0,0.000,58.76,0.33,-14.50,31.5927437,120.7782797,2.984,13630428.794,24925335.017,2.984,0.000,0.000,0.000,0.000,0.000,0.000,0.000,16,16,4*6F
$GPGGA,035345.60,3135.5647081,N,12046.6969631,E,4,15,1.3,2.9731,M,8.316,M,00,0004*63
$GPHPD,0,0.000,58.55,0.40,-14.51,31.5927451,120.7782827,2.973,13630427.934,24925336.688,2.973,0.000,0.000,0.000,0.000,0.000,0.000,0.000,15,15,4*67
$GPGGA,035345.80,3135.5647977,N,12046.6971381,E,4,15,1.3,2.9730,M,8.316,M,00,0004*6B
$GPHPD,0,0.000,58.78,0.47,-14.50,31.5927466,120.7782856,2.973,13630427.012,24925338.276,2.973,0.000,0.000,0.000,0.000,0.000,0.000,0.000,15,15,4*6A
$GPGGA,035346.00,3135.5648900,N,12046.6973124,E,4,15,1.3,2.9751,M,8.316,M,01,0004*66
$GPHPD,0,0.000,58.72,0.42,-14.48,31.5927482,120.7782885,2.975,13630426.051,24925339.841,2.975,0.000,0.000,0.000,0.000,0.000,0.000,0.000,15,15,4*61
$GPGGA,035346.20,3135.5649801,N,12046.6974902,E,4,15,1.3,2.9692,M,8.316,M,01,0004*60
$GPHPD,0,0.000,59.21,-0.75,-14.45,31.5927497,120.7782915,2.969,13630425.128,24925341.460,2.969,0.000,0.000,0.000,0.000,0.000,0.000,0.000,15,15,4*42
$GPGGA,035346.40,3135.5650701,N,12046.6976692,E,4,15,1.3,2.9728,M,8.316,M,01,0004*65
$GPHPD,0,0.000,59.25,-0.29,-14.45,31.5927512,120.7782945,2.973,13630424.209,24925343.094,2.973,0.000,0.000,0.000,0.000,0.000,0.000,0.000,15,15,4*4A
$GPGGA,035346.60,3135.5651566,N,12046.6978485,E,4,15,1.3,2.9686,M,8.316,M,00,0004*6B
$GPHPD,0,0.000,59.58,-0.81,-14.45,31.5927526,120.7782975,2.969,13630423.341,24925344.753,2.969,0.000,0.000,0.000,0.000,0.000,0.000,0.000,15,15,4*47
$GPGGA,035346.80,3135.5652476,N,12046.6980288,E,4,15,1.3,2.9645,M,8.316,M,00,0004*65
$GPHPD,0,0.000,59.33,-0.90,-14.44,31.5927541,120.7783005,2.965,13630422.410,24925346.397,2.965,0.000,0.000,0.000,0.000,0.000,0.000,0.000,15,15,4*49
$GPGGA,035347.00,3135.5653347,N,12046.6982099,E,4,15,1.3,2.9554,M,8.316,M,01,0004*6A
$GPHPD,0,0.000,59.34,-0.67,-14.43,31.5927556,120.7783035,2.955,13630421.536,24925348.074,2.955,0.000,0.000,0.000,0.000,0.000,0.000,0.000,15,15,4*42
$GPGGA,035347.20,3135.5654268,N,12046.6983900,E,4,15,1.3,2.9540,M,8.317,M,01,0004*6F
$GPHPD,0,0.000,58.85,-0.52,-14.44,31.5927571,120.7783065,2.954,13630420.589,24925349.709,2.954,0.000,0.000,0.000,0.000,0.000,0.000,0.000,15,15,4*41
$GPGGA,035347.40,3135.5655151,N,12046.6985669,E,4,15,1.3,2.9398,M,8.317,M,01,0004*64
$GPHPD,0,0.000,58.72,-0.64,-14.42,31.5927586,120.7783094,2.940,13630419.690,24925351.328,2.940,0.000,0.000,0.000,0.000,0.000,0.000,0.000,15,15,4*43
$GPGGA,035347.60,3135.5656066,N,12046.6987472,E,4,15,1.3,2.9522,M,8.317,M,00,0004*6C
$GPHPD,0,0.000,58.48,-0.88,-14.44,31.5927601,120.7783125,2.952,13630418.752,24925352.970,2.952,0.000,0.000,0.000,0.000,0.000,0.000,0.000,15,15,4*43
$GPGGA,035347.80,3135.5656960,N,12046.6989248,E,4,15,1.3,2.9572,M,8.317,M,00,0004*69
$GPHPD,0,0.000,58.41,-1.10,-14.47,31.5927616,120.7783154,2.957,13630417.839,24925354.591,2.957,0.000,0.000,0.000,0.000,0.000,0.000,0.000,15,15,4*41
$GPGGA,035348.00,3135.5657869,N,12046.6990967,E,4,15,1.3,2.9436,M,8.317,M,01,0004*69
$GPHPD,0,0.000,58.03,-0.69,-14.55,31.5927631,120.7783183,2.944,13630416.893,24925356.134,2.944,0.000,0.000,0.000,0.000,0.000,0.000,0.000,15,15,4*4C
$GPGGA,035348.20,3135.5658801,N,12046.6992739,E,4,16,1.3,2.9355,M,8.317,M,01,0004*6C
$GPHPD,0,0.000,58.14,0.31,-14.56,31.5927647,120.7783212,2.936,13630415.925,24925357.728,2.936,0.000,0.000,0.000,0.000,0.000,0.000,0.000,16,15,4*65
$GPGGA,035348.40,3135.5659724,N,12046.6994505,E,4,16,1.3,2.9235,M,8.317,M,01,0004*6F
$GPHPD,0,0.000,57.82,0.37,-14.60,31.5927662,120.7783242,2.924,13630414.968,24925359.320,2.924,0.000,0.000,0.000,0.000,0.000,0.000,0.000,16,15,4*6E
$GPGGA,035348.60,3135.5660671,N,12046.6996278,E,4,16,1.3,2.9208,M,8.317,M,00,0004*66
$GPHPD,0,0.000,57.60,1.15,-14.59,31.5927678,120.7783271,2.921,13630413.979,24925360.907,2.921,0.000,0.000,0.000,0.000,0.000,0.000,0.000,16,15,4*60
$GPGGA,035348.80,3135.5661614,N,12046.6998061,E,4,16,1.3,2.9436,M,8.317,M,00,0004*65
$GPHPD,0,0.000,57.54,1.27,-14.61,31.5927694,120.7783301,2.944,13630412.997,24925362.508,2.944,0.000,0.000,0.000,0.000,0.000,0.000,0.000,16,15,4*69
$GPGGA,035349.00,3135.5662527,N,12046.6999793,E,4,16,1.3,2.9488,M,8.317,M,01,0004*63
$GPHPD,0,0.000,57.68,0.23,-14.61,31.5927709,120.7783330,2.949,13630412.048,24925364.065,2.949,0.000,0.000,0.000,0.000,0.000,0.000,0.000,16,15,4*67
$GPGGA,035349.20,3135.5663490,N,12046.7001560,E,4,15,1.3,2.9449,M,8.317,M,01,0004*64
$GPHPD,0,0.000,57.81,0.12,-14.62,31.5927725,120.7783359,2.945,13630411.035,24925365.635,2.945,0.000,0.000,0.000,0.000,0.000,0.000,0.000,15,15,4*68
$GPGGA,035349.40,3135.5664423,N,12046.7003248,E,4,15,1.3,2.9308,M,8.317,M,01,0004*60
$GPHPD,0,0.000,58.13,-0.18,-14.57,31.5927740,120.7783387,2.931,13630410.048,24925367.127,2.931,0.000,0.000,0.000,0.000,0.000,0.000,0.000,15,15,4*40
$GPGGA,035349.60,3135.5665325,N,12046.7005069,E,4,15,1.3,2.9511,M,8.317,M,00,0004*6A
$GPHPD,0,0.000,57.91,-0.99,-14.53,31.5927755,120.7783418,2.951,13630409.132,24925368.798,2.951,0.000,0.000,0.000,0.000,0.000,0.000,0.000,15,15,4*44
$GPGGA,035349.80,3135.5666256,N,12046.7006774,E,4,15,1.3,2.9403,M,8.317,M,00,0004*68
$GPHPD,0,0.000,58.04,-1.48,-14.49,31.5927771,120.7783446,2.940,13630408.152,24925370.311,2.940,0.000,0.000,0.000,0.000,0.000,0.000,0.000,15,15,4*47
$GPGGA,035350.00,3135.5667171,N,12046.7008548,E,4,15,1.3,2.9386,M,8.317,M,01,0004*67
$GPHPD,0,0.000,57.67,-1.28,-14.47,31.5927786,120.7783476,2.939,13630407.209,24925371.918,2.939,0.000,0.000,0.000,0.000,0.000,0.000,0.000,15,15,4*4E
$GPGGA,035350.20,3135.5668070,N,12046.7010324,E,4,15,1.3,2.9256,M,8.317,M,01,0004*63
$GPHPD,0,0.000,57.54,-0.88,-14.47,31.5927801,120.7783505,2.926,13630406.288,24925373.536,2.926,0.000,0.000,0.000,0.000,0.000,0.000,0.000,15,15,4*4A
$GPGGA,035350.40,3135.5669012,N,12046.7012083,E,4,16,1.3,2.9250,M,8.317,M,01,0004*69
$GPHPD,0,0.000,57.24,-0.38,-14.47,31.5927817,120.7783535,2.925,13630405.303,24925375.109,2.925,0.000,0.000,0.000,0.000,0.000,0.000,0.000,16,15,4*4E
$GPGGA,035350.60,3135.5669933,N,12046.7013778,E,4,16,1.3,2.9131,M,8.317,M,00,0004*66
$GPHPD,0,0.000,57.16,-0.29,-14.47,31.5927832,120.7783563,2.913,13630404.335,24925376.616,2.913,0.000,0.000,0.000,0.000,0.000,0.000,0.000,16,15,4*45
$GPGGA,035350.80,3135.5670872,N,12046.7015488,E,4,16,1.3,2.9109,M,8.317,M,00,0004*65
$GPHPD,0,0.000,57.08,0.07,-14.48,31.5927848,120.7783591,2.911,13630403.344,24925378.131,2.911,0.000,0.000,0.000,0.000,0.000,0.000,0.000,16,15,4*69
$GPGGA,035351.00,3135.5671843,N,12046.7017217,E,4,16,1.3,2.9168,M,8.317,M,01,0004*6B
$GPHPD,0,0.000,56.82,0.22,-14.47,31.5927864,120.7783620,2.917,13630402.312,24925379.651,2.917,0.000,0.000,0.000,0.000,0.000,0.000,0.000,16,15,4*67
$GPGGA,035351.20,3135.5672753,N,12046.7018920,E,4,16,1.3,2.9178,M,8.317,M,01,0004*65
$GPHPD,0,0.000,56.85,-0.24,-14.49,31.5927879,120.7783649,2.918,13630401.361,24925381.175,2.918,0.000,0.000,0.000,0.000,0.000,0.000,0.000,16,15,4*47
$GPGGA,035351.40,3135.5673673,N,12046.7020619,E,4,16,1.3,2.9072,M,8.317,M,01,0004*64
$GPHPD,0,0.000,56.70,0.17,-14.51,31.5927895,120.7783677,2.907,13630400.395,24925382.688,2.907,0.000,0.000,0.000,0.000,0.000,0.000,0.000,16,15,4*6A
$GPGGA,035351.60,3135.5674614,N,12046.7022322,E,4,16,1.3,2.9082,M,8.317,M,00,0004*61
$GPHPD,0,0.000,56.41,0.49,-14.51,31.5927910,120.7783705,2.908,13630399.401,24925384.193,2.908,0.000,0.000,0.000,0.000,0.000,0.000,0.000,16,15,4*6D
$GPGGA,035351.80,3135.5675566,N,12046.7024008,E,4,16,1.3,2.9095,M,8.317,M,00,0004*63
$GPHPD,0,0.000,56.28,-0.10,-14.51,31.5927926,120.7783733,2.910,13630398.387,24925385.672,2.910,0.000,0.000,0.000,0.000,0.000,0.000,0.000,16,16,4*41
$GPGGA,035352.00,3135.5676514,N,12046.7025712,E,4,16,1.3,2.9113,M,8.317,M,01,0004*6D
$GPHPD,0,0.000,56.33,0.42,-14.50,31.5927942,120.7783762,2.911,13630397.382,24925387.175,2.911,0.000,0.000,0.000,0.000,0.000,0.000,0.000,16,16,4*6E
$GPGGA,035352.20,3135.5677473,N,12046.7027410,E,4,16,1.3,2.9063,M,8.317,M,01,0004*6B
$GPHPD,0,0.000,55.95,0.92,-14.50,31.5927958,120.7783790,2.906,13630396.361,24925388.664,2.906,0.000,0.000,0.000,0.000,0.000,0.000,0.000,16,16,4*6E
$GPGGA,035352.40,3135.5678405,N,12046.7029064,E,4,16,1.3,2.9086,M,8.317,M,01,0004*61
$GPHPD,0,0.000,56.08,0.60,-14.48,31.5927973,120.7783818,2.909,13630395.369,24925390.116,2.909,0.000,0.000,0.000,0.000,0.000,0.000,0.000,16,16,4*6B
$GPGGA,035352.60,3135.5679366,N,12046.7030749,E,4,16,1.3,2.9035,M,8.317,M,00,0004*69
$GPHPD,0,0.000,56.01,0.27,-14.48,31.5927989,120.7783846,2.904,13630394.342,24925391.588,2.904,0.000,0.000,0.000,0.000,0.000,0.000,0.000,16,16,4*65
$GPGGA,035352.80,3135.5680293,N,12046.7032403,E,4,15,1.3,2.9066,M,8.317,M,00,0004*60
$GPHPD,0,0.000,56.04,0.32,-14.46,31.5928005,120.7783873,2.907,13630393.357,24925393.043,2.907,0.000,0.000,0.000,0.000,0.000,0.000,0.000,15,16,4*6E
$GPGGA,035353.00,3135.5681267,N,12046.7034052,E,4,16,1.3,2.9123,M,8.317,M,01,0004*67
$GPHPD,0,0.000,56.13,-0.45,-14.45,31.5928021,120.7783901,2.912,13630392.304,24925394.464,2.912,0.000,0.000,0.000,0.000,0.000,0.000,0.000,16,16,4*46
$GPGGA,035353.20,3135.5682192,N,12046.7035768,E,4,16,1.3,2.9036,M,8.317,M,01,0004*65
$GPHPD,0,0.000,56.33,-0.89,-14.44,31.5928037,120.7783929,2.904,13630391.335,24925395.995,2.904,0.000,0.000,0.000,0.000,0.000,0.000,0.000,16,16,4*4B
$GPGGA,035353.40,3135.5683123,N,12046.7037431,E,4,16,1.3,2.8999,M,8.317,M,01,0004*68
$GPHPD,0,0.000,56.11,-0.70,-14.45,31.5928052,120.7783957,2.900,13630390.346,24925397.458,2.900,0.000,0.000,0.000,0.000,0.000,0.000,0.000,16,16,4*4D
$GPGGA,035353.60,3135.5684062,N,12046.7039109,E,4,16,1.3,2.8944,M,8.317,M,00,0004*68
$GPHPD,0,0.000,56.24,-0.80,-14.46,31.5928068,120.7783985,2.894,13630389.349,24925398.935,2.894,0.000,0.000,0.000,0.000,0.000,0.000,0.000,16,16,4*4F
$GPGGA,035353.80,3135.5685009,N,12046.7040810,E,4,16,1.2,2.8966,M,8.317,M,00,0004*64
$GPHPD,0,0.000,56.00,-0.15,-14.47,31.5928083,120.7784014,2.897,13630388.345,24925400.434,2.897,0.000,0.000,0.000,0.000,0.000,0.000,0.000,16,16,4*40
$GPGGA,035354.00,3135.5685928,N,12046.7042468,E,4,16,1.2,2.8970,M,8.317,M,01,0004*66
$GPHPD,0,0.000,55.86,-0.03,-14.47,31.5928099,120.7784041,2.897,13630387.372,24925401.898,2.897,0.000,0.000,0.000,0.000,0.000,0.000,0.000,16,16,4*41
$GPGGA,035354.20,3135.5686857,N,12046.7044119,E,4,16,1.2,2.8953,M,8.317,M,01,0004*6A
$GPHPD,0,0.000,55.80,-0.05,-14.46,31.5928114,120.7784069,2.895,13630386.384,24925403.348,2.895,0.000,0.000,0.000,0.000,0.000,0.000,0.000,16,16,4*42
$GPGGA,035354.40,3135.5687764,N,12046.7045749,E,4,16,1.2,2.8992,M,8.317,M,01,0004*6D
$GPHPD,0,0.000,55.94,0.12,-14.47,31.5928129,120.7784096,2.899,13630385.423,24925404.786,2.899,0.000,0.000,0.000,0.000,0.000,0.000,0.000,16,16,4*6B
$GPGGA,035354.60,3135.5688713,N,12046.7047411,E,4,16,1.2,2.8940,M,8.317,M,00,0004*62
$GPHPD,0,0.000,55.67,-0.29,-14.49,31.5928145,120.7784124,2.894,13630384.408,24925406.237,2.894,0.000,0.000,0.000,0.000,0.000,0.000,0.000,16,16,4*4B
$GPGGA,035354.80,3135.5689658,N,12046.7049008,E,4,16,1.2,2.8832,M,8.317,M,00,0004*65
$GPHPD,0,0.000,55.74,-0.27,-14.50,31.5928161,120.7784150,2.883,13630383.387,24925407.613,2.883,0.000,0.000,0.000,0.000,0.000,0.000,0.000,16,16,4*4E
$GPGGA,035355.00,3135.5690604,N,12046.7050643,E,4,16,1.2,2.8909,M,8.317,M,01,0004*64
$GPHPD,0,0.000,55.70,-0.09,-14.49,31.5928177,120.7784177,2.891,13630382.371,24925409.034,2.891,0.000,0.000,0.000,0.000,0.000,0.000,0.000,16,16,4*49
$GPGGA,035355.20,3135.5691502,N,12046.7052248,E,4,16,1.2,2.8861,M,8.317,M,01,0004*60
$GPHPD,0,0.000,55.56,-0.26,-14.48,31.5928192,120.7784204,2.886,13630381.417,24925410.446,2.886,0.000,0.000,0.000,0.000,0.000,0.000,0.000,16,16,4*40
$GPGGA,035355.40,3135.5692464,N,12046.7053849,E,4,16,1.2,2.8797,M,8.317,M,01,0004*68
$GPHPD,0,0.000,55.08,0.22,-14.49,31.5928208,120.7784231,2.880,13630380.372,24925411.816,2.880,0.000,0.000,0.000,0.000,0.000,0.000,0.000,16,16,4*68
$GPGGA,035355.60,3135.5693402,N,12046.7055463,E,4,16,1.2,2.8817,M,8.317,M,00,0004*6F
$GPHPD,0,0.000,54.98,0.56,-14.47,31.5928223,120.7784258,2.882,13630379.364,24925413.217,2.882,0.000,0.000,0.000,0.000,0.000,0.000,0.000,16,16,4*63
$GPGGA,035355.80,3135.5694342,N,12046.7057047,E,4,16,1.2,2.8847,M,8.317,M,00,0004*60
$GPHPD,0,0.000,54.76,0.18,-14.45,31.5928239,120.7784284,2.885,13630378.346,24925414.579,2.885,0.000,0.000,0.000,0.000,0.000,0.000,0.000,16,16,4*68
$GPGGA,035356.00,3135.5695292,N,12046.7058613,E,4,16,1.2,2.8925,M,8.317,M,01,0004*6A
$GPHPD,0,0.000,54.51,0.29,-14.45,31.5928255,120.7784310,2.893,13630377.311,24925415.914,2.893,0.000,0.000,0.000,0.000,0.000,0.000,0.000,16,16,4*62
$GPGGA,035356.20,3135.5696228,N,12046.7060177,E,4,16,1.2,2.8888,M,8.317,M,01,0004*62
$GPHPD,0,0.000,54.43,0.18,-14.43,31.5928270,120.7784336,2.889,13630376.295,24925417.255,2.889,0.000,0.000,0.000,0.000,0.000,0.000,0.000,16,16,4*66
$GPGGA,035356.40,3135.5697142,N,12046.7061761,E,4,16,1.2,2.8962,M,8.317,M,01,0004*6F
$GPHPD,0,0.000,54.50,-0.67,-14.43,31.5928286,120.7784363,2.896,13630375.315,24925418.633,2.896,0.000,0.000,0.000,0.000,0.000,0.000,0.000,16,16,4*49
$GPGGA,035356.60,3135.5698099,N,12046.7063326,E,4,16,1.2,2.8910,M,8.317,M,00,0004*64
$GPHPD,0,0.000,54.44,-0.65,-14.43,31.5928302,120.7784389,2.891,13630374.269,24925419.963,2.891,0.000,0.000,0.000,0.000,0.000,0.000,0.000,16,16,4*47
$GPGGA,035356.80,3135.5699034,N,12046.7064877,E,4,16,1.2,2.8945,M,8.317,M,00,0004*64
$GPHPD,0,0.000,54.75,-0.78,-14.46,31.5928317,120.7784415,2.895,13630373.252,24925421.289,2.895,0.000,0.000,0.000,0.000,0.000,0.000,0.000,16,16,4*41
$GPGGA,035357.00,3135.5699980,N,12046.7066447,E,4,16,1.4,2.8907,M,8.317,M,01,0004*67
$GPHPD,0,0.000,54.62,-0.50,-14.47,31.5928333,120.7784441,2.891,13630372.224,24925422.631,2.891,0.000,0.000,0.000,0.000,0.000,0.000,0.000,16,16,4*4F
$GPGGA,035357.20,3135.5700897,N,12046.7067972,E,4,16,1.2,2.8871,M,8.317,M,01,0004*6F
$GPHPD,0,0.000,54.33,0.13,-14.47,31.5928348,120.7784466,2.887,13630371.227,24925423.936,2.887,0.000,0.000,0.000,0.000,0.000,0.000,0.000,16,16,4*61
$GPGGA,035357.40,3135.5701833,N,12046.7069545,E,4,16,1.2,2.8834,M,8.317,M,01,0004*61
$GPHPD,0,0.000,54.65,0.12,-14.47,31.5928364,120.7784492,2.883,13630370.213,24925425.288,2.883,0.000,0.000,0.000,0.000,0.000,0.000,0.000,16,16,4*68
$GPGGA,035357.60,3135.5702714,N,12046.7071102,E,4,16,1.2,2.8805,M,8.317,M,00,0004*67
$GPHPD,0,0.000,54.80,0.25,-14.47,31.5928379,120.7784518,2.881,13630369.274,24925426.653,2.881,0.000,0.000,0.000,0.000,0.000,0.000,0.000,16,16,4*60
$GPGGA,035357.80,3135.5703634,N,12046.7072675,E,4,16,1.2,2.8730,M,8.317,M,00,0004*66
$GPHPD,0,0.000,54.42,0.06,-14.48,31.5928394,120.7784545,2.873,13630368.283,24925428.014,2.873,0.000,0.000,0.000,0.000,0.000,0.000,0.000,16,16,4*69
$GPGGA,035358.00,3135.5704553,N,12046.7074206,E,4,16,1.2,2.8717,M,8.317,M,01,0004*66
$GPHPD,0,0.000,54.26,0.00,-14.47,31.5928409,120.7784570,2.872,13630367.285,24925429.325,2.872,0.000,0.000,0.000,0.000,0.000,0.000,0.000,16,16,4*6E
$GPGGA,035358.20,3135.5705453,N,12046.7075721,E,4,16,1.2,2.8784,M,8.317,M,01,0004*6F
$GPHPD,0,0.000,54.45,0.05,-14.48,31.5928424,120.7784595,2.878,13630366.310,24925430.628,2.878,0.000,0.000,0.000,0.000,0.000,0.000,0.000,16,16,4*69
$GPGGA,035358.40,3135.5706362,N,12046.7077228,E,4,16,1.2,2.8693,M,8.317,M,01,0004*66
$GPHPD,0,0.000,54.31,-0.57,-14.47,31.5928439,120.7784620,2.869,13630365.322,24925431.915,2.869,0.000,0.000,0.000,0.000,0.000,0.000,0.000,16,16,4*4C
$GPGGA,035358.60,3135.5707286,N,12046.7078756,E,4,16,1.2,2.8683,M,8.317,M,00,0004*6D
$GPHPD,0,0.000,54.34,-0.21,-14.44,31.5928455,120.7784646,2.868,13630364.316,24925433.220,2.868,0.000,0.000,0.000,0.000,0.000,0.000,0.000,16,16,4*48
$GPGGA,035358.80,3135.5708177,N,12046.7080294,E,4,16,1.2,2.8706,M,8.317,M,00,0004*61
$GPHPD,0,0.000,54.28,0.22,-14.42,31.5928470,120.7784672,2.871,13630363.359,24925434.556,2.871,0.000,0.000,0.000,0.000,0.000,0.000,0.000,16,16,4*60
$GPGGA,035359.00,3135.5709056,N,12046.7081788,E,4,16,1.2,2.8703,M,8.317,M,01,0004*66
$GPHPD,0,0.000,54.39,-0.02,-14.41,31.5928484,120.7784696,2.870,13630362.410,24925435.845,2.870,0.000,0.000,0.000,0.000,0.000,0.000,0.000,16,16,4*48
$GPGGA,035359.20,3135.5709952,N,12046.7083275,E,4,16,1.2,2.8702,M,8.317,M,01,0004*6D
$GPHPD,0,0.000,54.34,-0.03,-14.43,31.5928499,120.7784721,2.870,13630361.435,24925437.117,2.870,0.000,0.000,0.000,0.000,0.000,0.000,0.000,16,16,4*4F
$GPGGA,035359.40,3135.5710828,N,12046.7084753,E,4,16,1.2,2.8622,M,8.317,M,01,0004*6A
$GPHPD,0,0.000,54.42,0.45,-14.43,31.5928514,120.7784746,2.862,13630360.488,24925438.389,2.862,0.000,0.000,0.000,0.000,0.000,0.000,0.000,16,16,4*69
$GPGGA,035359.60,3135.5711735,N,12046.7086234,E,4,16,1.2,2.8659,M,8.317,M,00,0004*61
$GPHPD,0,0.000,54.15,0.66,-14.44,31.5928529,120.7784771,2.866,13630359.496,24925439.647,2.866,0.000,0.000,0.000,0.000,0.000,0.000,0.000,16,16,4*64
$GPGGA,035359.80,3135.5712627,N,12046.7087717,E,4,16,1.2,2.8608,M,8.317,M,00,0004*6F
$GPHPD,0,0.000,54.32,1.05,-14.45,31.5928544,120.7784795,2.861,13630358.527,24925440.916,2.861,0.000,0.000,0.000,0.000,0.000,0.000,0.000,16,16,4*6A
$GPGGA,035400.00,3135.5713516,N,12046.7089212,E,4,16,1.2,2.8543,M,8.317,M,01,0004*6F
$GPHPD,0,0.000,54.47,0.83,-14.45,31.5928559,120.7784820,2.854,13630357.564,24925442.201,2.854,0.000,0.000,0.000,0.000,0.000,0.000,0.000,16,16,4*6D
$GPGGA,035400.20,3135.5714370,N,12046.7090654,E,4,16,1.2,2.8671,M,8.317,M,01,0004*60
$GPHPD,0,0.000,54.71,0.10,-14.45,31.5928573,120.7784844,2.867,13630356.640,24925443.442,2.867,0.000,0.000,0.000,0.000,0.000,0.000,0.000,16,16,4*6C
$GPGGA,035400.40,3135.5715265,N,12046.7092080,E,4,16,1.2,2.8672,M,8.317,M,01,0004*6C
$GPHPD,0,0.000,54.44,-0.79,-14.47,31.5928588,120.7784868,2.867,13630355.655,24925444.641,2.867,0.000,0.000,0.000,0.000,0.000,0.000,0.000,16,16,4*41
$GPGGA,035400.60,3135.5716164,N,12046.7093566,E,4,16,1.2,2.8690,M,8.317,M,00,0004*6E
$GPHPD,0,0.000,54.56,-1.10,-14.49,31.5928603,120.7784893,2.869,13630354.676,24925445.909,2.869,0.000,0.000,0.000,0.000,0.000,0.000,0.000,16,16,4*44
$GPGGA,035400.80,3135.5717002,N,12046.7095047,E,4,16,1.2,2.8614,M,8.317,M,00,0004*6C
$GPHPD,0,0.000,54.77,-0.57,-14.50,31.5928617,120.7784917,2.861,13630353.783,24925447.207,2.861,0.000,0.000,0.000,0.000,0.000,0.000,0.000,16,16,4*4E
$GPGGA,035401.00,3135.5717848,N,12046.7096492,E,4,16,1.2,2.8635,M,8.317,M,01,0004*6E
$GPHPD,0,0.000,54.95,-0.35,-14.48,31.5928631,120.7784942,2.864,13630352.871,24925448.457,2.864,0.000,0.000,0.000,0.000,0.000,0.000,0.000,16,16,4*44
$GPGGA,035401.20,3135.5718675,N,12046.7097969,E,4,16,1.2,2.8581,M,8.317,M,01,0004*67
$GPHPD,0,0.000,55.19,-0.35,-14.49,31.5928645,120.7784966,2.858,13630351.993,24925449.756,2.858,0.000,0.000,0.000,0.000,0.000,0.000,0.000,16,16,4*48
$GPGGA,035401.40,3135.5719552,N,12046.7099410,E,4,16,1.2,2.8694,M,8.317,M,01,0004*6C
$GPHPD,0,0.000,55.36,0.33,-14.48,31.5928659,120.7784990,2.869,13630351.037,24925450.983,2.869,0.000,0.000,0.000,0.000,0.000,0.000,0.000,16,16,4*62
$GPGGA,035401.60,3135.5720411,N,12046.7100861,E,4,16,1.2,2.8651,M,8.317,M,00,0004*61
$GPHPD,0,0.000,55.87,0.71,-14.50,31.5928674,120.7785014,2.865,13630350.107,24925452.233,2.865,0.000,0.000,0.000,0.000,0.000,0.000,0.000,16,16,4*6D
$GPGGA,035401.80,3135.5721242,N,12046.7102337,E,4,16,1.2,2.8526,M,8.317,M,00,0004*67
$GPHPD,0,0.000,56.05,-0.29,-14.50,31.5928687,120.7785039,2.853,13630349.223,24925453.529,2.853,0.000,0.000,0.000,0.000,0.000,0.000,0.000,16,16,4*47
$GPGGA,035402.00,3135.5722036,N,12046.7103787,E,4,16,1.2,2.8522,M,8.317,M,01,0004*65
$GPHPD,0,0.000,55.75,-0.15,-14.51,31.5928701,120.7785063,2.852,13630348.386,24925454.815,2.852,0.000,0.000,0.000,0.000,0.000,0.000,0.000,16,16,4*47
$GPGGA,035402.20,3135.5722845,N,12046.7105197,E,4,16,1.2,2.8576,M,8.317,M,01,0004*6B
$GPHPD,0,0.000,55.73,-0.58,-14.50,31.5928714,120.7785087,2.858,13630347.520,24925456.044,2.858,0.000,0.000,0.000,0.000,0.000,0.000,0.000,16,16,4*4C
$GPGGA,035402.40,3135.5723635,N,12046.7106606,E,4,16,1.2,2.8473,M,8.317,M,01,0004*6D
$GPHPD,0,0.000,55.78,-0.47,-14.50,31.5928727,120.7785110,2.847,13630346.681,24925457.283,2.847,0.000,0.000,0.000,0.000,0.000,0.000,0.000,16,16,4*47
$GPGGA,035402.60,3135.5724416,N,12046.7107989,E,4,16,1.2,2.8505,M,8.317,M,00,0004*63
$GPHPD,0,0.000,55.76,-0.27,-14.49,31.5928740,120.7785133,2.851,13630345.849,24925458.496,2.851,0.000,0.000,0.000,0.000,0.000,0.000,0.000,16,16,4*43
$GPGGA,035402.80,3135.5725218,N,12046.7109396,E,4,16,1.2,2.8457,M,8.317,M,00,0004*68
$GPHPD,0,0.000,55.67,-0.24,-14.52,31.5928754,120.7785157,2.846,13630344.992,24925459.726,2.846,0.000,0.000,0.000,0.000,0.000,0.000,0.000,16,16,4*42
$GPGGA,035403.00,3135.5725995,N,12046.7110766,E,4,16,1.2,2.8468,M,8.317,M,01,0004*61
$GPHPD,0,0.000,55.92,0.14,-14.56,31.5928767,120.7785179,2.847,13630344.163,24925460.925,2.847,0.000,0.000,0.000,0.000,0.000,0.000,0.000,16,16,4*6F
$GPGGA,035403.20,3135.5726766,N,12046.7112147,E,4,16,1.2,2.8501,M,8.317,M,01,0004*6B
$GPHPD,0,0.000,56.06,0.62,-14.57,31.5928779,120.7785202,2.850,13630343.345,24925462.141,2.850,0.000,0.000,0.000,0.000,0.000,0.000,0.000,16,16,4*68
$GPGGA,035403.40,3135.5727510,N,12046.7113532,E,4,16,1.2,2.8438,M,8.317,M,01,0004*63
$GPHPD,0,0.000,56.01,0.85,-14.60,31.5928792,120.7785226,2.844,13630342.566,24925463.378,2.844,0.000,0.000,0.000,0.000,0.000,0.000,0.000,16,16,4*6E
$GPGGA,035403.60,3135.5728281,N,12046.7114895,E,4,16,1.2,2.8450,M,8.317,M,00,0004*69
$GPHPD,0,0.000,56.01,0.28,-14.60,31.5928805,120.7785248,2.845,13630341.745,24925464.573,2.845,0.000,0.000,0.000,0.000,0.000,0.000,0.000,16,16,4*6A
$GPGGA,035403.80,3135.5729044,N,12046.7116280,E,4,16,1.2,2.8480,M,8.317,M,00,0004*6C
$GPHPD,0,0.000,56.02,0.59,-14.57,31.5928817,120.7785271,2.848,13630340.939,24925465.799,2.848,0.000,0.000,0.000,0.000,0.000,0.000,0.000,16,16,4*61
$GPGGA,035404.00,3135.5729807,N,12046.7117667,E,4,16,1.2,2.8543,M,8.317,M,01,0004*6F
$GPHPD,0,0.000,55.95,0.36,-14.55,31.5928830,120.7785294,2.854,13630340.133,24925467.027,2.854,0.000,0.000,0.000,0.000,0.000,0.000,0.000,16,16,4*6B
$GPGGA,035404.20,3135.5730570,N,12046.7119032,E,4,16,1.2,2.8519,M,8.317,M,01,0004*6F
$GPHPD,0,0.000,56.00,0.63,-14.54,31.5928843,120.7785317,2.852,13630339.324,24925468.229,2.852,0.000,0.000,0.000,0.000,0.000,0.000,0.000,16,16,4*62
$GPGGA,035404.40,3135.5731341,N,12046.7120411,E,4,16,1.2,2.8464,M,8.317,M,01,0004*68
$GPHPD,0,0.000,56.02,-0.41,-14.54,31.5928856,120.7785340,2.846,13630338.505,24925469.443,2.846,0.000,0.000,0.000,0.000,0.000,0.000,0.000,16,16,4*44
$GPGGA,035404.60,3135.5732081,N,12046.7121724,E,4,16,1.2,2.8434,M,8.317,M,00,0004*66
$GPHPD,0,0.000,56.19,-0.61,-14.52,31.5928868,120.7785362,2.843,13630337.717,24925470.595,2.843,0.000,0.000,0.000,0.000,0.000,0.000,0.000,16,16,4*4B
$GPGGA,035404.80,3135.5732847,N,12046.7123083,E,4,16,1.2,2.8561,M,8.317,M,00,0004*63
$GPHPD,0,0.000,56.25,-0.15,-14.48,31.5928881,120.7785385,2.856,13630336.902,24925471.788,2.856,0.000,0.000,0.000,0.000,0.000,0.000,0.000,16,16,4*46
$GPGGA,035405.00,3135.5733607,N,12046.7124473,E,4,16,1.2,2.8529,M,8.317,M,01,0004*60
$GPHPD,0,0.000,56.80,-0.18,-14.46,31.5928893,120.7785408,2.853,13630336.102,24925473.021,2.853,0.000,0.000,0.000,0.000,0.000,0.000,0.000,16,16,4*45
$GPGGA,035405.20,3135.5734362,N,12046.7125839,E,4,16,1.2,2.8549,M,8.317,M,01,0004*66
$GPHPD,0,0.000,57.16,-0.08,-14.44,31.5928906,120.7785431,2.855,13630335.303,24925474.229,2.855,0.000,0.000,0.000,0.000,0.000,0.000,0.000,16,16,4*42
$GPGGA,035405.40,3135.5735118,N,12046.7127232,E,4,16,1.2,2.8597,M,8.317,M,01,0004*6E
