$GPGGA,035819.20,3135.6144849,N,12046.7851052,E,4,15,1.5,2.7613,M,8.322,M,01,0004*69
$GPHPD,0,0.000,237.04,0.15,-14.83,31.5935747,120.7797518,2.761,13629897.736,24926109.688,2.761,0.000,0.000,0.000,0.000,0.000,0.000,0.000,15,15,4*5B
$GPGGA,035819.40,3135.6144452,N,12046.7850333,E,4,15,1.5,2.7572,M,8.322,M,01,0004*68
$GPHPD,0,0.000,237.08,0.18,-14.71,31.5935741,120.7797506,2.757,13629898.155,24926109.052,2.757,0.000,0.000,0.000,0.000,0.000,0.000,0.000,15,15,4*53
$GPGGA,035819.60,3135.6144126,N,12046.7849758,E,4,15,1.5,2.7546,M,8.322,M,00,0004*6B
$GPHPD,0,0.000,237.08,0.36,-14.66,31.5935735,120.7797496,2.755,13629898.503,24926108.548,2.755,0.000,0.000,0.000,0.000,0.000,0.000,0.000,15,15,4*5A
$GPGGA,035819.80,3135.6143826,N,12046.7849204,E,4,15,1.5,2.7497,M,8.322,M,00,0004*6A
$GPHPD,0,0.000,237.20,0.11,-14.66,31.5935730,120.7797487,2.750,13629898.818,24926108.055,2.750,0.000,0.000,0.000,0.000,0.000,0.000,0.000,15,15,4*5E
$GPGGA,035820.00,3135.6143531,N,12046.7848679,E,4,15,1.5,2.7534,M,8.322,M,01,0004*65
$GPHPD,0,0.000,237.07,-0.01,-14.66,31.5935726,120.7797478,2.753,13629899.132,24926107.594,2.753,0.000,0.000,0.000,0.000,0.000,0.000,0.000,15,15,4*77
$GPGGA,035820.20,3135.6143250,N,12046.7848144,E,4,15,1.5,2.7687,M,8.322,M,01,0004*65
$GPHPD,0,0.000,237.05,0.11,-14.69,31.5935721,120.7797469,2.769,13629899.424,24926107.112,2.769,0.000,0.000,0.000,0.000,0.000,0.000,0.000,15,15,4*59
$GPGGA,035820.40,3135.6142972,N,12046.7847614,E,4,15,1.5,2.7591,M,8.322,M,01,0004*60
$GPHPD,0,0.000,236.94,-0.49,-14.72,31.5935716,120.7797460,2.759,13629899.712,24926106.635,2.759,0.000,0.000,0.000,0.000,0.000,0.000,0.000,15,15,4*72
$GPGGA,035820.60,3135.6142666,N,12046.7847027,E,4,15,1.5,2.7570,M,8.322,M,00,0004*60
$GPHPD,0,0.000,236.94,-0.22,-14.77,31.5935711,120.7797450,2.757,13629900.029,24926106.105,2.757,0.000,0.000,0.000,0.000,0.000,0.000,0.000,15,15,4*74
$GPGGA,035820.80,3135.6142373,N,12046.7846491,E,4,15,1.5,2.7530,M,8.322,M,00,0004*63
$GPHPD,0,0.000,236.89,-0.50,-14.83,31.5935706,120.7797442,2.753,13629900.338,24926105.630,2.753,0.000,0.000,0.000,0.000,0.000,0.000,0.000,15,15,4*72
$GPGGA,035821.00,3135.6142057,N,12046.7845885,E,4,15,1.5,2.7476,M,8.322,M,01,0004*67
$GPHPD,0,0.000,236.91,-0.55,-14.89,31.5935701,120.7797431,2.748,13629900.665,24926105.083,2.748,0.000,0.000,0.000,0.000,0.000,0.000,0.000,15,15,4*74
$GPGGA,035821.20,3135.6141708,N,12046.7845263,E,4,15,1.5,2.7459,M,8.322,M,01,0004*64
$GPHPD,0,0.000,236.86,-0.16,-14.96,31.5935695,120.7797421,2.746,13629901.036,24926104.536,2.746,0.000,0.000,0.000,0.000,0.000,0.000,0.000,15,15,4*7D
$GPGGA,035821.40,3135.6141304,N,12046.7844508,E,4,14,1.6,2.7462,M,8.322,M,01,0004*6B
$GPHPD,0,0.000,236.71,-0.07,-15.07,31.5935688,120.7797408,2.746,13629901.458,24926103.861,2.746,0.000,0.000,0.000,0.000,0.000,0.000,0.000,14,15,4*7E
$GPGGA,035821.60,3135.6140894,N,12046.7843781,E,4,15,1.5,2.7589,M,8.322,M,00,0004*69
$GPHPD,0,0.000,236.69,-0.21,-15.13,31.5935682,120.7797396,2.759,13629901.895,24926103.223,2.759,0.000,0.000,0.000,0.000,0.000,0.000,0.000,15,15,4*7C
$GPGGA,035821.80,3135.6140444,N,12046.7842967,E,4,15,1.5,2.7659,M,8.322,M,00,0004*6F
$GPHPD,0,0.000,236.76,-0.03,-15.15,31.5935674,120.7797383,2.766,13629902.371,24926102.504,2.766,0.000,0.000,0.000,0.000,0.000,0.000,0.000,15,15,4*78
$GPGGA,035822.00,3135.6139962,N,12046.7842070,E,4,15,1.5,2.7680,M,8.322,M,01,0004*69
$GPHPD,0,0.000,236.63,-0.61,-15.18,31.5935666,120.7797368,2.768,13629902.875,24926101.703,2.768,0.000,0.000,0.000,0.000,0.000,0.000,0.000,15,15,4*7A
$GPGGA,035822.20,3135.6139412,N,12046.7841054,E,4,15,1.5,2.7524,M,8.322,M,01,0004*69
$GPHPD,0,0.000,236.38,-0.49,-15.18,31.5935657,120.7797351,2.752,13629903.453,24926100.798,2.752,0.000,0.000,0.000,0.000,0.000,0.000,0.000,15,15,4*7C
$GPGGA,035822.40,3135.6138838,N,12046.7840011,E,4,15,1.5,2.7509,M,8.322,M,01,0004*65
$GPHPD,0,0.000,236.55,0.53,-15.18,31.5935647,120.7797334,2.751,13629904.059,24926099.874,2.751,0.000,0.000,0.000,0.000,0.000,0.000,0.000,15,14,4*57
$GPGGA,035822.60,3135.6138230,N,12046.7838913,E,4,15,1.5,2.7432,M,8.322,M,01,0004*68
$GPHPD,0,0.000,236.64,0.45,-15.18,31.5935637,120.7797315,2.743,13629904.702,24926098.904,2.743,0.000,0.000,0.000,0.000,0.000,0.000,0.000,15,14,4*58
$GPGGA,035822.80,3135.6137597,N,12046.7837722,E,4,15,1.5,2.7393,M,8.322,M,01,0004*6C
$GPHPD,0,0.000,236.45,1.20,-15.17,31.5935627,120.7797295,2.739,13629905.362,24926097.837,2.739,0.000,0.000,0.000,0.000,0.000,0.000,0.000,15,14,4*53
$GPGGA,035823.00,3135.6136940,N,12046.7836518,E,4,15,1.5,2.7464,M,8.321,M,02,0004*67
$GPHPD,0,0.000,236.24,1.43,-15.19,31.5935616,120.7797275,2.746,13629906.054,24926096.768,2.746,0.000,0.000,0.000,0.000,0.000,0.000,0.000,15,14,4*52
$GPGGA,035823.20,3135.6136259,N,12046.7835204,E,4,15,1.5,2.7524,M,8.321,M,02,0004*6A
$GPHPD,0,0.000,236.73,1.14,-15.17,31.5935604,120.7797253,2.752,13629906.758,24926095.580,2.752,0.000,0.000,0.000,0.000,0.000,0.000,0.000,15,14,4*57
$GPGGA,035823.40,3135.6135572,N,12046.7833896,E,4,15,1.5,2.7607,M,8.321,M,02,0004*64
$GPHPD,0,0.000,236.39,1.05,-15.17,31.5935593,120.7797232,2.761,13629907.471,24926094.403,2.761,0.000,0.000,0.000,0.000,0.000,0.000,0.000,15,15,4*50
$GPGGA,035823.60,3135.6134842,N,12046.7832517,E,4,15,1.5,2.7724,M,8.321,M,02,0004*6C
$GPHPD,0,0.000,236.22,1.15,-15.22,31.5935581,120.7797209,2.772,13629908.231,24926093.165,2.772,0.000,0.000,0.000,0.000,0.000,0.000,0.000,15,15,4*59
$GPGGA,035823.80,3135.6134046,N,12046.7831170,E,4,15,1.5,2.7850,M,8.321,M,00,0004*66
$GPHPD,0,0.000,236.44,0.87,-15.19,31.5935567,120.7797186,2.785,13629909.092,24926092.004,2.785,0.000,0.000,0.000,0.000,0.000,0.000,0.000,15,15,4*5A
$GPGGA,035824.00,3135.6133325,N,12046.7829801,E,4,15,1.5,2.7964,M,8.321,M,01,0004*69
$GPHPD,0,0.000,237.64,-0.25,-15.15,31.5935555,120.7797163,2.796,13629909.841,24926090.773,2.796,0.000,0.000,0.000,0.000,0.000,0.000,0.000,15,15,4*79
$GPGGA,035824.20,3135.6132557,N,12046.7828393,E,4,15,1.5,2.7954,M,8.321,M,01,0004*6B
$GPHPD,0,0.000,237.73,-0.44,-15.11,31.5935543,120.7797140,2.795,13629910.650,24926089.523,2.795,0.000,0.000,0.000,0.000,0.000,0.000,0.000,15,15,4*73
$GPGGA,035824.40,3135.6131818,N,12046.7827016,E,4,15,1.5,2.7983,M,8.321,M,01,0004*63
$GPHPD,0,0.000,237.90,-1.06,-15.07,31.5935530,120.7797117,2.798,13629911.423,24926088.293,2.798,0.000,0.000,0.000,0.000,0.000,0.000,0.000,15,15,4*72
$GPGGA,035824.60,3135.6131082,N,12046.7825637,E,4,15,1.5,2.8027,M,8.321,M,01,0004*65
$GPHPD,0,0.000,238.91,-0.91,-15.06,31.5935518,120.7797094,2.803,13629912.192,24926087.058,2.803,0.000,0.000,0.000,0.000,0.000,0.000,0.000,15,15,4*74
$GPGGA,035824.80,3135.6130318,N,12046.7824188,E,4,15,1.5,2.7890,M,8.321,M,01,0004*63
$GPHPD,0,0.000,238.73,-1.06,-15.04,31.5935505,120.7797070,2.789,13629912.986,24926085.756,2.789,0.000,0.000,0.000,0.000,0.000,0.000,0.000,15,15,4*75
$GPGGA,035825.00,3135.6129580,N,12046.7822728,E,4,15,1.5,2.7710,M,8.321,M,02,0004*6B
$GPHPD,0,0.000,238.93,-0.79,-15.02,31.5935493,120.7797045,2.771,13629913.742,24926084.425,2.771,0.000,0.000,0.000,0.000,0.000,0.000,0.000,15,15,4*7D
$GPGGA,035825.20,3135.6128855,N,12046.7821298,E,4,15,1.5,2.7834,M,8.321,M,02,0004*69
$GPHPD,0,0.000,238.77,-0.52,-15.00,31.5935481,120.7797022,2.783,13629914.484,24926083.123,2.783,0.000,0.000,0.000,0.000,0.000,0.000,0.000,15,15,4*74
$GPGGA,035825.40,3135.6128164,N,12046.7819879,E,4,15,1.5,2.7649,M,8.321,M,02,0004*6E
$GPHPD,0,0.000,238.68,-1.01,-14.99,31.5935469,120.7796998,2.765,13629915.181,24926081.814,2.765,0.000,0.000,0.000,0.000,0.000,0.000,0.000,15,15,4*7D
$GPGGA,035825.60,3135.6127485,N,12046.7818452,E,4,15,1.5,2.7738,M,8.321,M,02,0004*6A
$GPHPD,0,0.000,238.72,-0.33,-14.98,31.5935458,120.7796974,2.774,13629915.859,24926080.489,2.774,0.000,0.000,0.000,0.000,0.000,0.000,0.000,15,15,4*72
$GPGGA,035825.80,3135.6126798,N,12046.7817000,E,4,15,1.5,2.7612,M,8.321,M,02,0004*6F
$GPHPD,0,0.000,238.19,-0.89,-14.95,31.5935447,120.7796950,2.761,13629916.544,24926079.138,2.761,0.000,0.000,0.000,0.000,0.000,0.000,0.000,15,15,4*70
$GPGGA,035826.00,3135.6126048,N,12046.7815613,E,4,15,1.5,2.7630,M,8.321,M,03,0004*69
$GPHPD,0,0.000,238.08,-0.67,-14.96,31.5935434,120.7796927,2.763,13629917.331,24926077.902,2.763,0.000,0.000,0.000,0.000,0.000,0.000,0.000,15,15,4*7D
$GPGGA,035826.20,3135.6125313,N,12046.7814263,E,4,15,1.5,2.7661,M,8.321,M,03,0004*63
$GPHPD,0,0.000,238.43,-0.56,-14.94,31.5935422,120.7796904,2.766,13629918.104,24926076.703,2.766,0.000,0.000,0.000,0.000,0.000,0.000,0.000,15,15,4*71
$GPGGA,035826.40,3135.6124610,N,12046.7812835,E,4,15,1.5,2.7588,M,8.321,M,03,0004*69
$GPHPD,0,0.000,238.57,-0.65,-14.92,31.5935410,120.7796881,2.759,13629918.816,24926075.390,2.759,0.000,0.000,0.000,0.000,0.000,0.000,0.000,15,15,4*78
$GPGGA,035826.60,3135.6123903,N,12046.7811384,E,4,15,1.5,2.7585,M,8.321,M,03,0004*6E
$GPHPD,0,0.000,238.55,-0.20,-14.89,31.5935398,120.7796856,2.759,13629919.529,24926074.052,2.759,0.000,0.000,0.000,0.000,0.000,0.000,0.000,15,15,4*70
$GPGGA,035826.80,3135.6123198,N,12046.7809942,E,4,15,1.5,2.7558,M,8.321,M,03,0004*63
$GPHPD,0,0.000,238.59,-0.49,-14.87,31.5935387,120.7796832,2.756,13629920.241,24926072.724,2.756,0.000,0.000,0.000,0.000,0.000,0.000,0.000,15,15,4*72
$GPGGA,035827.00,3135.6122478,N,12046.7808491,E,4,15,1.5,2.7630,M,8.321,M,04,0004*68
$GPHPD,0,0.000,238.27,0.15,-14.85,31.5935375,120.7796808,2.763,13629920.972,24926071.393,2.763,0.000,0.000,0.000,0.000,0.000,0.000,0.000,15,15,4*59
$GPGGA,035827.20,3135.6121740,N,12046.7807046,E,4,15,1.5,2.7593,M,8.321,M,04,0004*6A
$GPHPD,0,0.000,238.51,-0.16,-14.86,31.5935362,120.7796784,2.759,13629921.731,24926070.081,2.759,0.000,0.000,0.000,0.000,0.000,0.000,0.000,15,15,4*71
$GPGGA,035827.40,3135.6120980,N,12046.7805694,E,4,15,1.5,2.7657,M,8.321,M,04,0004*6F
$GPHPD,0,0.000,238.81,0.10,-14.92,31.5935350,120.7796762,2.766,13629922.539,24926068.893,2.766,0.000,0.000,0.000,0.000,0.000,0.000,0.000,15,15,4*50
$GPGGA,035827.60,3135.6120236,N,12046.7804309,E,4,15,1.5,2.7716,M,8.321,M,04,0004*6F
$GPHPD,0,0.000,238.83,0.19,-14.97,31.5935337,120.7796738,2.772,13629923.318,24926067.656,2.772,0.000,0.000,0.000,0.000,0.000,0.000,0.000,15,15,4*5C
$GPGGA,035827.80,3135.6119553,N,12046.7802820,E,4,15,1.5,2.7816,M,8.321,M,04,0004*66
$GPHPD,0,0.000,238.87,-0.37,-14.83,31.5935326,120.7796714,2.782,13629923.989,24926066.258,2.782,0.000,0.000,0.000,0.000,0.000,0.000,0.000,15,15,4*7B
$GPGGA,035828.00,3135.6118879,N,12046.7801373,E,4,15,1.5,2.7752,M,8.321,M,05,0004*65
$GPHPD,0,0.000,239.21,-0.39,-14.70,31.5935315,120.7796690,2.775,13629924.656,24926064.906,2.775,0.000,0.000,0.000,0.000,0.000,0.000,0.000,15,15,5*70
$GPGGA,035828.20,3135.6118094,N,12046.7799936,E,4,15,1.5,2.7828,M,8.321,M,05,0004*6B
$GPHPD,0,0.000,239.44,-0.54,-14.68,31.5935302,120.7796666,2.783,13629925.483,24926063.630,2.783,0.000,0.000,0.000,0.000,0.000,0.000,0.000,15,15,5*78
$GPGGA,035828.40,3135.6117379,N,12046.7798467,E,4,15,1.5,2.7766,M,8.321,M,05,0004*6F
$GPHPD,0,0.000,239.47,-0.36,-14.63,31.5935290,120.7796641,2.777,13629926.204,24926062.275,2.777,0.000,0.000,0.000,0.000,0.000,0.000,0.000,15,15,5*75
$GPGGA,035828.60,3135.6116679,N,12046.7797004,E,4,15,1.5,2.7698,M,8.321,M,05,0004*67
$GPHPD,0,0.000,239.43,-0.38,-14.67,31.5935278,120.7796617,2.770,13629926.904,24926060.919,2.770,0.000,0.000,0.000,0.000,0.000,0.000,0.000,15,15,5*76
$GPGGA,035828.80,3135.6115921,N,12046.7795574,E,4,15,1.5,2.7604,M,8.321,M,05,0004*6D
$GPHPD,0,0.000,239.21,0.12,-14.78,31.5935265,120.7796593,2.760,13629927.694,24926059.636,2.760,0.000,0.000,0.000,0.000,0.000,0.000,0.000,15,15,5*55
$GPGGA,035829.00,3135.6115145,N,12046.7794082,E,4,15,1.5,2.7645,M,8.321,M,06,0004*65
$GPHPD,0,0.000,239.78,-0.12,-14.75,31.5935252,120.7796568,2.765,13629928.497,24926058.289,2.765,0.000,0.000,0.000,0.000,0.000,0.000,0.000,15,15,5*76
$GPGGA,035829.20,3135.6114460,N,12046.7792544,E,4,15,1.5,2.7538,M,8.321,M,06,0004*64
$GPHPD,0,0.000,239.96,-0.51,-14.70,31.5935241,120.7796542,2.754,13629929.161,24926056.833,2.754,0.000,0.000,0.000,0.000,0.000,0.000,0.000,15,15,5*76
$GPGGA,035829.40,3135.6113757,N,12046.7791039,E,4,15,1.5,2.7791,M,8.321,M,06,0004*6F
$GPHPD,0,0.000,240.02,-0.22,-14.56,31.5935229,120.7796517,2.779,13629929.858,24926055.428,2.779,0.000,0.000,0.000,0.000,0.000,0.000,0.000,15,15,5*7D
$GPGGA,035829.60,3135.6112975,N,12046.7789596,E,4,15,1.5,2.7905,M,8.321,M,06,0004*68
$GPHPD,0,0.000,239.94,-0.83,-14.37,31.5935216,120.7796493,2.791,13629930.679,24926054.143,2.791,0.000,0.000,0.000,0.000,0.000,0.000,0.000,15,15,5*7D
$GPGGA,035829.80,3135.6112305,N,12046.7788176,E,4,15,1.5,2.7692,M,8.321,M,00,0004*67
$GPHPD,0,0.000,239.82,-1.14,-14.54,31.5935205,120.7796470,2.769,13629931.346,24926052.821,2.769,0.000,0.000,0.000,0.000,0.000,0.000,0.000,15,15,4*7D
$GPGGA,035830.00,3135.6111650,N,12046.7786589,E,4,15,1.5,2.7495,M,8.321,M,01,0004*6F
$GPHPD,0,0.000,239.76,-1.17,-14.79,31.5935194,120.7796443,2.750,13629931.958,24926051.289,2.750,0.000,0.000,0.000,0.000,0.000,0.000,0.000,15,15,4*7F
$GPGGA,035830.20,3135.6110901,N,12046.7785005,E,4,15,1.5,2.7407,M,8.321,M,01,0004*6E
$GPHPD,0,0.000,239.54,-0.52,-14.72,31.5935182,120.7796417,2.741,13629932.704,24926049.815,2.741,0.000,0.000,0.000,0.000,0.000,0.000,0.000,15,15,4*70
$GPGGA,035830.40,3135.6110141,N,12046.7783499,E,4,15,1.5,2.7542,M,8.321,M,01,0004*63
$GPHPD,0,0.000,239.53,-0.81,-14.64,31.5935169,120.7796392,2.754,13629933.481,24926048.441,2.754,0.000,0.000,0.000,0.000,0.000,0.000,0.000,15,15,4*72
$GPGGA,035830.60,3135.6109432,N,12046.7781963,E,4,15,1.5,2.7494,M,8.321,M,01,0004*68
$GPHPD,0,0.000,239.73,-1.19,-14.64,31.5935157,120.7796366,2.749,13629934.180,24926047.002,2.749,0.000,0.000,0.000,0.000,0.000,0.000,0.000,15,15,4*79
$GPGGA,035830.80,3135.6108691,N,12046.7780435,E,4,15,1.5,2.7544,M,8.321,M,01,0004*6F
$GPHPD,0,0.000,239.76,-0.99,-14.53,31.5935145,120.7796341,2.754,13629934.926,24926045.591,2.754,0.000,0.000,0.000,0.000,0.000,0.000,0.000,15,15,4*7E
$GPGGA,035831.00,3135.6107961,N,12046.7778910,E,4,15,1.5,2.7473,M,8.321,M,02,0004*62
$GPHPD,0,0.000,239.82,-0.70,-14.51,31.5935133,120.7796315,2.747,13629935.656,24926044.177,2.747,0.000,0.000,0.000,0.000,0.000,0.000,0.000,15,15,4*74
$GPGGA,035831.20,3135.6107245,N,12046.7777391,E,4,15,1.5,2.7423,M,8.321,M,02,0004*64
$GPHPD,0,0.000,239.62,-0.68,-14.61,31.5935121,120.7796290,2.742,13629936.369,24926042.763,2.742,0.000,0.000,0.000,0.000,0.000,0.000,0.000,15,15,4*70
$GPGGA,035831.40,3135.6106510,N,12046.7775852,E,4,15,1.5,2.7375,M,8.321,M,02,0004*66
$GPHPD,0,0.000,239.93,-0.50,-14.62,31.5935109,120.7796264,2.738,13629937.104,24926041.335,2.738,0.000,0.000,0.000,0.000,0.000,0.000,0.000,15,15,4*7B
$GPGGA,035831.60,3135.6105684,N,12046.7774373,E,4,15,1.5,2.7395,M,8.321,M,00,0004*6C
$GPHPD,0,0.000,239.58,-0.09,-14.57,31.5935095,120.7796240,2.740,13629937.980,24926040.032,2.740,0.000,0.000,0.000,0.000,0.000,0.000,0.000,15,15,4*75
$GPGGA,035831.80,3135.6104960,N,12046.7772834,E,4,15,1.5,2.7341,M,8.321,M,00,0004*61
$GPHPD,0,0.000,239.30,0.00,-14.55,31.5935083,120.7796214,2.734,13629938.700,24926038.598,2.734,0.000,0.000,0.000,0.000,0.000,0.000,0.000,15,15,4*58
$GPGGA,035832.00,3135.6104214,N,12046.7771307,E,4,15,1.5,2.7257,M,8.321,M,01,0004*6D
$GPHPD,0,0.000,239.62,-0.04,-14.58,31.5935070,120.7796188,2.726,13629939.453,24926037.191,2.726,0.000,0.000,0.000,0.000,0.000,0.000,0.000,15,15,4*77
$GPGGA,035832.20,3135.6103526,N,12046.7769825,E,4,15,1.5,2.7182,M,8.321,M,01,0004*67
$GPHPD,0,0.000,239.77,0.03,-14.60,31.5935059,120.7796164,2.718,13629940.133,24926035.805,2.718,0.000,0.000,0.000,0.000,0.000,0.000,0.000,15,15,4*50
$GPGGA,035832.40,3135.6102785,N,12046.7768299,E,4,15,1.5,2.7219,M,8.321,M,01,0004*66
$GPHPD,0,0.000,239.86,-0.06,-14.60,31.5935046,120.7796138,2.722,13629940.879,24926034.396,2.722,0.000,0.000,0.000,0.000,0.000,0.000,0.000,15,15,4*76
$GPGGA,035832.60,3135.6102087,N,12046.7766840,E,4,15,1.5,2.7509,M,8.321,M,01,0004*67
$GPHPD,0,0.000,239.74,-0.31,-14.60,31.5935035,120.7796114,2.751,13629941.578,24926033.043,2.751,0.000,0.000,0.000,0.000,0.000,0.000,0.000,15,15,4*74
$GPGGA,035832.80,3135.6101324,N,12046.7765422,E,4,15,1.5,2.7668,M,8.321,M,01,0004*6F
$GPHPD,0,0.000,239.98,-1.04,-14.62,31.5935022,120.7796090,2.767,13629942.377,24926031.778,2.767,0.000,0.000,0.000,0.000,0.000,0.000,0.000,15,15,4*7F
$GPGGA,035833.00,3135.6100635,N,12046.7763789,E,4,15,1.5,2.7215,M,8.321,M,02,0004*6B
$GPHPD,0,0.000,240.55,-1.29,-14.67,31.5935011,120.7796063,2.722,13629943.028,24926030.210,2.722,0.000,0.000,0.000,0.000,0.000,0.000,0.000,15,15,4*74
$GPGGA,035833.20,3135.6099852,N,12046.7762367,E,4,15,1.5,2.7307,M,8.321,M,02,0004*60
$GPHPD,0,0.000,240.51,-1.21,-14.65,31.5934998,120.7796039,2.731,13629943.855,24926028.951,2.731,0.000,0.000,0.000,0.000,0.000,0.000,0.000,15,14,4*78
$GPGGA,035833.40,3135.6099127,N,12046.7760841,E,4,15,1.5,2.7178,M,8.321,M,02,0004*6A
$GPHPD,0,0.000,240.83,-0.97,-14.67,31.5934985,120.7796014,2.718,13629944.578,24926027.533,2.718,0.000,0.000,0.000,0.000,0.000,0.000,0.000,15,15,4*79
$GPGGA,035833.60,3135.6098345,N,12046.7759366,E,4,15,1.5,2.7315,M,8.321,M,02,0004*62
$GPHPD,0,0.000,240.92,-0.69,-14.66,31.5934972,120.7795989,2.732,13629945.393,24926026.210,2.732,0.000,0.000,0.000,0.000,0.000,0.000,0.000,15,15,4*7A
$GPGGA,035833.80,3135.6097575,N,12046.7757853,E,4,15,1.5,2.7120,M,8.321,M,00,0004*63
$GPHPD,0,0.000,240.59,-0.27,-14.67,31.5934960,120.7795964,2.712,13629946.183,24926024.834,2.712,0.000,0.000,0.000,0.000,0.000,0.000,0.000,15,15,4*78
$GPGGA,035834.00,3135.6096889,N,12046.7756281,E,4,15,1.5,2.6718,M,8.321,M,01,0004*6A
$GPHPD,0,0.000,240.40,-0.41,-14.67,31.5934948,120.7795938,2.672,13629946.842,24926023.338,2.672,0.000,0.000,0.000,0.000,0.000,0.000,0.000,15,15,4*77
$GPGGA,035834.20,3135.6096235,N,12046.7754794,E,4,15,1.5,2.6877,M,8.321,M,01,0004*60
$GPHPD,0,0.000,239.65,0.21,-14.68,31.5934937,120.7795913,2.688,13629947.472,24926021.926,2.688,0.000,0.000,0.000,0.000,0.000,0.000,0.000,15,15,4*52
$GPGGA,035834.40,3135.6095576,N,12046.7753360,E,4,15,1.5,2.6949,M,8.321,M,01,0004*61
$GPHPD,0,0.000,239.23,0.06,-14.67,31.5934926,120.7795889,2.695,13629948.121,24926020.580,2.695,0.000,0.000,0.000,0.000,0.000,0.000,0.000,15,15,4*55
$GPGGA,035834.60,3135.6094958,N,12046.7751889,E,4,15,1.5,2.7138,M,8.321,M,00,0004*62
$GPHPD,0,0.000,238.95,0.66,-14.67,31.5934916,120.7795865,2.714,13629948.703,24926019.166,2.714,0.000,0.000,0.000,0.000,0.000,0.000,0.000,15,15,4*5E
$GPGGA,035834.80,3135.6094192,N,12046.7750411,E,4,15,1.5,2.7173,M,8.321,M,00,0004*61
$GPHPD,0,0.000,238.53,0.09,-14.67,31.5934903,120.7795840,2.717,13629949.495,24926017.830,2.717,0.000,0.000,0.000,0.000,0.000,0.000,0.000,15,15,4*57
$GPGGA,035835.00,3135.6093423,N,12046.7748973,E,4,15,1.5,2.7075,M,8.321,M,01,0004*66
$GPHPD,0,0.000,238.43,0.09,-14.66,31.5934890,120.7795816,2.708,13629950.298,24926016.544,2.708,0.000,0.000,0.000,0.000,0.000,0.000,0.000,15,15,4*53
$GPGGA,035835.20,3135.6092709,N,12046.7747496,E,4,15,1.5,2.7029,M,8.321,M,01,0004*6E
$GPHPD,0,0.000,238.76,0.21,-14.66,31.5934878,120.7795792,2.703,13629951.016,24926015.179,2.703,0.000,0.000,0.000,0.000,0.000,0.000,0.000,15,15,4*56
$GPGGA,035835.40,3135.6092001,N,12046.7746065,E,4,15,1.7,2.7008,M,8.321,M,01,0004*6F
$GPHPD,0,0.000,238.57,-0.02,-14.66,31.5934867,120.7795768,2.701,13629951.735,24926013.866,2.701,0.000,0.000,0.000,0.000,0.000,0.000,0.000,15,15,4*75
$GPGGA,035835.60,3135.6091255,N,12046.7744586,E,4,15,1.5,2.7073,M,8.321,M,00,0004*68
$GPHPD,0,0.000,238.56,0.14,-14.66,31.5934854,120.7795743,2.707,13629952.498,24926012.517,2.707,0.000,0.000,0.000,0.000,0.000,0.000,0.000,15,15,4*5A
$GPGGA,035835.80,3135.6090525,N,12046.7743121,E,4,15,1.5,2.6963,M,8.321,M,00,0004*60
$GPHPD,0,0.000,238.58,-0.58,-14.67,31.5934842,120.7795719,2.696,13629953.240,24926011.175,2.696,0.000,0.000,0.000,0.000,0.000,0.000,0.000,15,15,4*79
$GPGGA,035836.00,3135.6089789,N,12046.7741727,E,4,15,1.5,2.7091,M,8.321,M,01,0004*61
$GPHPD,0,0.000,238.41,-0.26,-14.68,31.5934830,120.7795695,2.709,13629954.006,24926009.923,2.709,0.000,0.000,0.000,0.000,0.000,0.000,0.000,15,15,4*72
$GPGGA,035836.20,3135.6089096,N,12046.7740310,E,4,15,1.5,2.7037,M,8.321,M,01,0004*67
$GPHPD,0,0.000,238.66,-0.33,-14.66,31.5934818,120.7795672,2.704,13629954.706,24926008.618,2.704,0.000,0.000,0.000,0.000,0.000,0.000,0.000,15,15,4*7F
$GPGGA,035836.40,3135.6088385,N,12046.7738906,E,4,15,1.5,2.7003,M,8.321,M,01,0004*64
$GPHPD,0,0.000,238.50,-0.05,-14.64,31.5934806,120.7795648,2.700,13629955.434,24926007.339,2.700,0.000,0.000,0.000,0.000,0.000,0.000,0.000,15,15,4*71
$GPGGA,035836.60,3135.6087665,N,12046.7737492,E,4,15,1.5,2.6950,M,8.321,M,01,0004*63
$GPHPD,0,0.000,238.23,0.39,-14.63,31.5934794,120.7795625,2.695,13629956.173,24926006.053,2.695,0.000,0.000,0.000,0.000,0.000,0.000,0.000,15,15,4*54
$GPGGA,035836.80,3135.6086949,N,12046.7736100,E,4,15,1.5,2.6989,M,8.321,M,01,0004*66
$GPHPD,0,0.000,238.42,0.37,-14.62,31.5934782,120.7795602,2.699,13629956.911,24926004.791,2.699,0.000,0.000,0.000,0.000,0.000,0.000,0.000,15,15,4*59
$GPGGA,035837.00,3135.6086222,N,12046.7734684,E,4,15,1.5,2.7063,M,8.321,M,02,0004*6F
$GPHPD,0,0.000,238.89,-0.35,-14.66,31.5934770,120.7795578,2.706,13629957.660,24926003.507,2.706,0.000,0.000,0.000,0.000,0.000,0.000,0.000,15,15,4*74
$GPGGA,035837.20,3135.6085517,N,12046.7733238,E,4,15,1.5,2.7111,M,8.321,M,02,0004*6F
$GPHPD,0,0.000,238.59,-0.20,-14.65,31.5934759,120.7795554,2.711,13629958.371,24926002.174,2.711,0.000,0.000,0.000,0.000,0.000,0.000,0.000,15,15,4*70
$GPGGA,035837.40,3135.6084798,N,12046.7731796,E,4,15,1.5,2.7204,M,8.321,M,02,0004*69
$GPHPD,0,0.000,238.62,-0.91,-14.61,31.5934747,120.7795530,2.720,13629959.103,24926000.854,2.720,0.000,0.000,0.000,0.000,0.000,0.000,0.000,15,15,4*74
$GPGGA,035837.60,3135.6084030,N,12046.7730343,E,4,15,1.5,2.7079,M,8.321,M,02,0004*6B
$GPHPD,0,0.000,239.00,-1.30,-14.62,31.5934734,120.7795506,2.708,13629959.902,24925999.549,2.708,0.000,0.000,0.000,0.000,0.000,0.000,0.000,15,15,4*7B
$GPGGA,035837.80,3135.6083325,N,12046.7728932,E,4,15,1.5,2.7009,M,8.321,M,00,0004*65
$GPHPD,0,0.000,239.43,-1.43,-14.61,31.5934722,120.7795482,2.701,13629960.620,24925998.258,2.701,0.000,0.000,0.000,0.000,0.000,0.000,0.000,15,15,4*72
$GPGGA,035838.00,3135.6082608,N,12046.7727443,E,4,15,1.5,2.6888,M,8.321,M,01,0004*6C
$GPHPD,0,0.000,239.63,-0.77,-14.59,31.5934710,120.7795457,2.689,13629961.340,24925996.880,2.689,0.000,0.000,0.000,0.000,0.000,0.000,0.000,15,15,4*77
$GPGGA,035838.20,3135.6081827,N,12046.7726008,E,4,15,1.5,2.6894,M,8.321,M,01,0004*69
$GPHPD,0,0.000,239.59,-0.22,-14.56,31.5934697,120.7795433,2.689,13629962.161,24925995.605,2.689,0.000,0.000,0.000,0.000,0.000,0.000,0.000,15,15,4*7F
$GPGGA,035838.40,3135.6081064,N,12046.7724526,E,4,15,1.5,2.6829,M,8.321,M,01,0004*6D
$GPHPD,0,0.000,239.76,-0.25,-14.58,31.5934684,120.7795409,2.683,13629962.948,24925994.262,2.683,0.000,0.000,0.000,0.000,0.000,0.000,0.000,15,15,4*77
$GPGGA,035838.60,3135.6080357,N,12046.7723059,E,4,15,1.5,2.6815,M,8.321,M,01,0004*68
$GPHPD,0,0.000,239.72,-0.24,-14.60,31.5934673,120.7795384,2.682,13629963.658,24925992.905,2.682,0.000,0.000,0.000,0.000,0.000,0.000,0.000,15,15,4*70
$GPGGA,035838.80,3135.6079625,N,12046.7721544,E,4,15,1.5,2.6764,M,8.321,M,01,0004*62
$GPHPD,0,0.000,239.32,0.15,-14.59,31.5934660,120.7795359,2.676,13629964.393,24925991.504,2.676,0.000,0.000,0.000,0.000,0.000,0.000,0.000,15,15,4*58
$GPGGA,035839.00,3135.6078968,N,12046.7720076,E,4,15,1.5,2.6738,M,8.321,M,02,0004*63
$GPHPD,0,0.000,239.13,-0.36,-14.59,31.5934649,120.7795335,2.674,13629965.032,24925990.117,2.674,0.000,0.000,0.000,0.000,0.000,0.000,0.000,15,15,4*78
$GPGGA,035839.20,3135.6078227,N,12046.7718602,E,4,15,1.5,2.6806,M,8.321,M,02,0004*6D
$GPHPD,0,0.000,238.72,-0.47,-14.60,31.5934637,120.7795310,2.681,13629965.788,24925988.771,2.681,0.000,0.000,0.000,0.000,0.000,0.000,0.000,15,15,4*75
$GPGGA,035839.40,3135.6077484,N,12046.7717067,E,4,15,1.5,2.6732,M,8.321,M,02,0004*69
$GPHPD,0,0.000,238.48,-0.17,-14.63,31.5934625,120.7795284,2.673,13629966.536,24925987.352,2.673,0.000,0.000,0.000,0.000,0.000,0.000,0.000,15,15,4*7B
$GPGGA,035839.60,3135.6076735,N,12046.7715638,E,4,15,1.5,2.6698,M,8.321,M,02,0004*6C
$GPHPD,0,0.000,238.46,-0.62,-14.63,31.5934612,120.7795261,2.670,13629967.313,24925986.065,2.670,0.000,0.000,0.000,0.000,0.000,0.000,0.000,15,15,4*7E
$GPGGA,035839.80,3135.6075994,N,12046.7714137,E,4,15,1.5,2.6767,M,8.321,M,00,0004*6E
$GPHPD,0,0.000,238.45,-0.87,-14.65,31.5934600,120.7795236,2.677,13629968.064,24925984.687,2.677,0.000,0.000,0.000,0.000,0.000,0.000,0.000,15,15,4*75
$GPGGA,035840.00,3135.6075232,N,12046.7712648,E,4,15,1.5,2.6797,M,8.321,M,01,0004*68
$GPHPD,0,0.000,238.25,-0.29,-14.67,31.5934587,120.7795211,2.680,13629968.848,24925983.335,2.680,0.000,0.000,0.000,0.000,0.000,0.000,0.000,15,15,4*71
$GPGGA,035840.20,3135.6074488,N,12046.7711200,E,4,15,1.5,2.6730,M,8.321,M,01,0004*6A
$GPHPD,0,0.000,238.26,-0.29,-14.69,31.5934575,120.7795187,2.673,13629969.614,24925982.022,2.673,0.000,0.000,0.000,0.000,0.000,0.000,0.000,15,15,4*7F
$GPGGA,035840.40,3135.6073741,N,12046.7709709,E,4,15,1.5,2.6801,M,8.321,M,01,0004*65
$GPHPD,0,0.000,238.26,0.30,-14.70,31.5934562,120.7795162,2.680,13629970.376,24925980.659,2.680,0.000,0.000,0.000,0.000,0.000,0.000,0.000,15,15,4*5E
$GPGGA,035840.60,3135.6073019,N,12046.7708220,E,4,15,1.5,2.6822,M,8.321,M,00,0004*62
$GPHPD,0,0.000,238.23,-0.05,-14.67,31.5934550,120.7795137,2.682,13629971.103,24925979.284,2.682,0.000,0.000,0.000,0.000,0.000,0.000,0.000,15,15,4*74
$GPGGA,035840.80,3135.6072269,N,12046.7706799,E,4,15,1.5,2.6693,M,8.321,M,00,0004*65
$GPHPD,0,0.000,237.96,0.06,-14.68,31.5934538,120.7795113,2.669,13629971.883,24925978.008,2.669,0.000,0.000,0.000,0.000,0.000,0.000,0.000,15,15,4*5A
$GPGGA,035841.00,3135.6071507,N,12046.7705357,E,4,15,1.5,2.6757,M,8.321,M,01,0004*6D
$GPHPD,0,0.000,238.28,0.25,-14.68,31.5934525,120.7795089,2.676,13629972.676,24925976.713,2.676,0.000,0.000,0.000,0.000,0.000,0.000,0.000,15,15,4*5B
$GPGGA,035841.20,3135.6070779,N,12046.7703919,E,4,15,1.5,2.6768,M,8.321,M,01,0004*6F
$GPHPD,0,0.000,238.59,-0.32,-14.67,31.5934513,120.7795065,2.677,13629973.421,24925975.403,2.677,0.000,0.000,0.000,0.000,0.000,0.000,0.000,15,15,4*7E
$GPGGA,035841.40,3135.6070032,N,12046.7702487,E,4,15,1.5,2.6800,M,8.321,M,01,0004*6B
$GPHPD,0,0.000,238.56,-0.09,-14.69,31.5934501,120.7795041,2.680,13629974.195,24925974.111,2.680,0.000,0.000,0.000,0.000,0.000,0.000,0.000,15,15,4*78
$GPGGA,035841.60,3135.6069312,N,12046.7701032,E,4,15,1.5,2.6846,M,8.321,M,01,0004*6B
$GPHPD,0,0.000,238.67,0.00,-14.70,31.5934489,120.7795017,2.685,13629974.926,24925972.776,2.685,0.000,0.000,0.000,0.000,0.000,0.000,0.000,15,15,4*55
$GPGGA,035841.80,3135.6068550,N,12046.7699631,E,4,15,1.5,2.6897,M,8.321,M,01,0004*6D
$GPHPD,0,0.000,239.10,-0.41,-14.70,31.5934476,120.7794994,2.690,13629975.727,24925971.530,2.690,0.000,0.000,0.000,0.000,0.000,0.000,0.000,15,15,4*72
$GPGGA,035842.00,3135.6067823,N,12046.7698159,E,4,15,1.5,2.6873,M,8.321,M,02,0004*61
$GPHPD,0,0.000,239.33,-0.68,-14.72,31.5934464,120.7794969,2.687,13629976.464,24925970.178,2.687,0.000,0.000,0.000,0.000,0.000,0.000,0.000,15,15,4*75
$GPGGA,035842.20,3135.6067100,N,12046.7696652,E,4,15,1.5,2.6800,M,8.321,M,02,0004*6D
$GPHPD,0,0.000,239.22,-0.72,-14.70,31.5934452,120.7794944,2.680,13629977.189,24925968.782,2.680,0.000,0.000,0.000,0.000,0.000,0.000,0.000,15,15,4*7B
$GPGGA,035842.40,3135.6066336,N,12046.7695178,E,4,15,1.5,2.6774,M,8.321,M,02,0004*6D
$GPHPD,0,0.000,238.64,-0.17,-14.71,31.5934439,120.7794920,2.677,13629977.978,24925967.450,2.677,0.000,0.000,0.000,0.000,0.000,0.000,0.000,15,15,4*70
$GPGGA,035842.60,3135.6065569,N,12046.7693741,E,4,15,1.5,2.6764,M,8.321,M,02,0004*6B
$GPHPD,0,0.000,238.83,-0.88,-14.70,31.5934426,120.7794896,2.676,13629978.779,24925966.163,2.676,0.000,0.000,0.000,0.000,0.000,0.000,0.000,15,15,4*78
$GPGGA,035842.80,3135.6064843,N,12046.7692225,E,4,15,1.5,2.6629,M,8.321,M,00,0004*6D
$GPHPD,0,0.000,238.72,-0.11,-14.70,31.5934414,120.7794870,2.663,13629979.506,24925964.758,2.663,0.000,0.000,0.000,0.000,0.000,0.000,0.000,15,15,4*78
$GPGGA,035843.00,3135.6064103,N,12046.7690810,E,4,15,1.5,2.6698,M,8.321,M,01,0004*6C
$GPHPD,0,0.000,238.05,-0.31,-14.74,31.5934402,120.7794847,2.670,13629980.274,24925963.483,2.670,0.000,0.000,0.000,0.000,0.000,0.000,0.000,15,15,4*7B
$GPGGA,035843.20,3135.6063372,N,12046.7689319,E,4,15,1.5,2.6552,M,8.321,M,01,0004*62
$GPHPD,0,0.000,238.45,-0.95,-14.75,31.5934390,120.7794822,2.655,13629981.013,24925962.111,2.655,0.000,0.000,0.000,0.000,0.000,0.000,0.000,15,15,4*72
$GPGGA,035843.40,3135.6062633,N,12046.7687878,E,4,15,1.5,2.6446,M,8.321,M,01,0004*63
$GPHPD,0,0.000,238.01,-0.66,-14.75,31.5934377,120.7794798,2.645,13629981.773,24925960.803,2.645,0.000,0.000,0.000,0.000,0.000,0.000,0.000,15,15,4*70
$GPGGA,035843.60,3135.6061872,N,12046.7686463,E,4,15,1.5,2.6455,M,8.321,M,00,0004*6D
$GPHPD,0,0.000,237.96,0.15,-14.76,31.5934365,120.7794774,2.646,13629982.570,24925959.540,2.646,0.000,0.000,0.000,0.000,0.000,0.000,0.000,15,15,4*58
$GPGGA,035843.80,3135.6061124,N,12046.7685035,E,4,15,1.5,2.6612,M,8.321,M,00,0004*6C
$GPHPD,0,0.000,238.02,-0.24,-14.79,31.5934352,120.7794751,2.661,13629983.346,24925958.254,2.661,0.000,0.000,0.000,0.000,0.000,0.000,0.000,15,15,4*78
$GPGGA,035844.00,3135.6060394,N,12046.7683562,E,4,15,1.5,2.6448,M,8.321,M,01,0004*66
$GPHPD,0,0.000,238.00,-0.70,-14.79,31.5934340,120.7794726,2.645,13629984.087,24925956.903,2.645,0.000,0.000,0.000,0.000,0.000,0.000,0.000,15,15,4*76
$GPGGA,035844.20,3135.6059664,N,12046.7682140,E,4,15,1.5,2.6441,M,8.321,M,01,0004*68
$GPHPD,0,0.000,237.96,-0.08,-14.80,31.5934328,120.7794702,2.644,13629984.839,24925955.613,2.644,0.000,0.000,0.000,0.000,0.000,0.000,0.000,15,15,4*77
$GPGGA,035844.40,3135.6058876,N,12046.7680699,E,4,14,1.6,2.6458,M,8.321,M,01,0004*69
$GPHPD,0,0.000,237.89,-0.45,-14.83,31.5934315,120.7794678,2.646,13629985.669,24925954.334,2.646,0.000,0.000,0.000,0.000,0.000,0.000,0.000,14,15,4*7B
$GPGGA,035844.60,3135.6058104,N,12046.7679236,E,4,15,1.5,2.6545,M,8.321,M,01,0004*6F
$GPHPD,0,0.000,237.43,0.19,-14.85,31.5934302,120.7794654,2.655,13629986.472,24925953.020,2.655,0.000,0.000,0.000,0.000,0.000,0.000,0.000,15,15,4*5C
$GPGGA,035844.80,3135.6057377,N,12046.7677772,E,4,15,1.5,2.6403,M,8.321,M,00,0004*61
$GPHPD,0,0.000,237.57,-0.21,-14.84,31.5934290,120.7794630,2.640,13629987.211,24925951.678,2.640,0.000,0.000,0.000,0.000,0.000,0.000,0.000,15,15,4*7D
$GPGGA,035845.00,3135.6056627,N,12046.7676340,E,4,15,1.5,2.6396,M,8.321,M,01,0004*67
$GPHPD,0,0.000,237.08,0.73,-14.83,31.5934277,120.7794606,2.640,13629987.989,24925950.388,2.640,0.000,0.000,0.000,0.000,0.000,0.000,0.000,15,15,4*57
$GPGGA,035845.20,3135.6055888,N,12046.7674878,E,4,15,1.5,2.6539,M,8.321,M,01,0004*6C
$GPHPD,0,0.000,237.34,1.42,-14.82,31.5934265,120.7794581,2.654,13629988.745,24925949.055,2.654,0.000,0.000,0.000,0.000,0.000,0.000,0.000,15,14,4*5E
$GPGGA,035845.40,3135.6055147,N,12046.7673385,E,4,15,1.5,2.6425,M,8.321,M,01,0004*62
$GPHPD,0,0.000,238.58,0.07,-14.81,31.5934252,120.7794556,2.643,13629989.498,24925947.686,2.643,0.000,0.000,0.000,0.000,0.000,0.000,0.000,15,14,4*52
$GPGGA,035845.60,3135.6054369,N,12046.7671965,E,4,15,1.5,2.6490,M,8.321,M,00,0004*66
$GPHPD,0,0.000,238.67,0.07,-14.79,31.5934239,120.7794533,2.649,13629990.318,24925946.427,2.649,0.000,0.000,0.000,0.000,0.000,0.000,0.000,15,14,4*58
$GPGGA,035845.80,3135.6053604,N,12046.7670536,E,4,15,1.5,2.6593,M,8.321,M,00,0004*68
$GPHPD,0,0.000,239.30,0.29,-14.76,31.5934227,120.7794509,2.659,13629991.118,24925945.150,2.659,0.000,0.000,0.000,0.000,0.000,0.000,0.000,15,14,4*5B
$GPGGA,035846.00,3135.6052907,N,12046.7669098,E,4,15,1.5,2.6971,M,8.321,M,01,0004*66
$GPHPD,0,0.000,239.64,0.38,-14.74,31.5934215,120.7794485,2.697,13629991.820,24925943.821,2.697,0.000,0.000,0.000,0.000,0.000,0.000,0.000,15,14,4*57
$GPGGA,035846.20,3135.6052099,N,12046.7667916,E,4,15,1.5,2.7765,M,8.321,M,01,0004*61
$GPHPD,0,0.000,239.25,0.48,-14.72,31.5934202,120.7794465,2.777,13629992.730,24925942.867,2.777,0.000,0.000,0.000,0.000,0.000,0.000,0.000,15,14,4*55
$GPGGA,035846.40,3135.6051353,N,12046.7666417,E,4,15,1.5,2.7717,M,8.320,M,01,0004*68
$GPHPD,0,0.000,239.58,-0.19,-14.70,31.5934189,120.7794440,2.772,13629993.489,24925941.494,2.772,0.000,0.000,0.000,0.000,0.000,0.000,0.000,15,14,4*70
$GPGGA,035846.60,3135.6050632,N,12046.7664898,E,4,15,1.5,2.7524,M,8.320,M,01,0004*62
$GPHPD,0,0.000,239.51,-0.65,-14.69,31.5934177,120.7794415,2.752,13629994.209,24925940.082,2.752,0.000,0.000,0.000,0.000,0.000,0.000,0.000,15,14,4*70
$GPGGA,035846.80,3135.6049897,N,12046.7663370,E,4,15,1.5,2.7513,M,8.320,M,01,0004*6B
$GPHPD,0,0.000,238.97,-0.30,-14.68,31.5934165,120.7794390,2.751,13629994.946,24925938.667,2.751,0.000,0.000,0.000,0.000,0.000,0.000,0.000,15,13,4*76
$GPGGA,035847.00,3135.6049150,N,12046.7661750,E,4,15,1.5,2.7377,M,8.320,M,02,0004*63
$GPHPD,0,0.000,239.38,-0.23,-14.67,31.5934153,120.7794363,2.738,13629995.682,24925937.149,2.738,0.000,0.000,0.000,0.000,0.000,0.000,0.000,15,13,4*74
$GPGGA,035847.20,3135.6048361,N,12046.7660293,E,4,15,1.5,2.7510,M,8.320,M,02,0004*6C
$GPHPD,0,0.000,239.73,-0.47,-14.66,31.5934139,120.7794338,2.751,13629996.510,24925935.851,2.751,0.000,0.000,0.000,0.000,0.000,0.000,0.000,15,13,4*73
$GPGGA,035847.40,3135.6047628,N,12046.7658855,E,4,14,1.7,2.7770,M,8.320,M,02,0004*61
$GPHPD,0,0.000,240.29,-1.25,-14.64,31.5934127,120.7794314,2.777,13629997.263,24925934.544,2.777,0.000,0.000,0.000,0.000,0.000,0.000,0.000,14,13,4*7F
$GPGGA,035847.60,3135.6046892,N,12046.7657297,E,4,15,1.7,2.7597,M,8.320,M,02,0004*6C
$GPHPD,0,0.000,239.75,-0.52,-14.63,31.5934115,120.7794288,2.760,13629997.996,24925933.094,2.760,0.000,0.000,0.000,0.000,0.000,0.000,0.000,15,13,4*74
$GPGGA,035847.80,3135.6046180,N,12046.7655820,E,4,14,1.8,2.7606,M,8.320,M,00,0004*6B
$GPHPD,0,0.000,239.78,0.49,-14.62,31.5934103,120.7794264,2.761,13629998.710,24925931.728,2.761,0.000,0.000,0.000,0.000,0.000,0.000,0.000,14,13,4*56
$GPGGA,035848.00,3135.6045406,N,12046.7654407,E,4,14,1.8,2.7872,M,8.320,M,01,0004*60
$GPHPD,0,0.000,239.55,0.51,-14.64,31.5934090,120.7794240,2.787,13629999.526,24925930.475,2.787,0.000,0.000,0.000,0.000,0.000,0.000,0.000,14,13,4*57
$GPGGA,035848.20,3135.6044667,N,12046.7652880,E,4,14,1.8,2.7820,M,8.320,M,01,0004*64
$GPHPD,0,0.000,239.63,-0.28,-14.63,31.5934078,120.7794215,2.782,13630000.270,24925929.064,2.782,0.000,0.000,0.000,0.000,0.000,0.000,0.000,14,13,4*79
$GPGGA,035848.40,3135.6043893,N,12046.7651360,E,4,14,1.8,2.7968,M,8.320,M,01,0004*6B
$GPHPD,0,0.000,239.59,-0.27,-14.63,31.5934065,120.7794189,2.797,13630001.064,24925927.681,2.797,0.000,0.000,0.000,0.000,0.000,0.000,0.000,14,13,4*70
$GPGGA,035848.60,3135.6043130,N,12046.7649764,E,4,14,1.7,2.7877,M,8.320,M,01,0004*60
$GPHPD,0,0.000,239.73,-0.05,-14.63,31.5934052,120.7794163,2.788,13630001.827,24925926.201,2.788,0.000,0.000,0.000,0.000,0.000,0.000,0.000,14,13,4*7A
$GPGGA,035848.80,3135.6042406,N,12046.7648315,E,4,14,1.7,2.7876,M,8.320,M,01,0004*6D
$GPHPD,0,0.000,239.95,-0.49,-14.63,31.5934040,120.7794139,2.788,13630002.565,24925924.876,2.788,0.000,0.000,0.000,0.000,0.000,0.000,0.000,14,13,4*76
$GPGGA,035849.00,3135.6041709,N,12046.7646786,E,4,14,1.7,2.7901,M,8.320,M,02,0004*69
$GPHPD,0,0.000,239.96,-0.51,-14.65,31.5934028,120.7794113,2.790,13630003.248,24925923.438,2.790,0.000,0.000,0.000,0.000,0.000,0.000,0.000,14,13,4*74
$GPGGA,035849.20,3135.6040954,N,12046.7645266,E,4,15,1.7,2.7868,M,8.320,M,02,0004*6B
$GPHPD,0,0.000,239.74,-0.24,-14.65,31.5934016,120.7794088,2.787,13630004.016,24925922.044,2.787,0.000,0.000,0.000,0.000,0.000,0.000,0.000,15,13,4*75
$GPGGA,035849.40,3135.6040227,N,12046.7643760,E,4,15,1.5,2.7829,M,8.320,M,02,0004*60
$GPHPD,0,0.000,240.06,-0.35,-14.67,31.5934004,120.7794063,2.783,13630004.746,24925920.652,2.783,0.000,0.000,0.000,0.000,0.000,0.000,0.000,15,15,4*7D
$GPGGA,035849.60,3135.6039518,N,12046.7642244,E,4,15,1.5,2.7802,M,8.320,M,02,0004*6C
$GPHPD,0,0.000,239.69,-0.07,-14.69,31.5933992,120.7794037,2.780,13630005.449,24925919.237,2.780,0.000,0.000,0.000,0.000,0.000,0.000,0.000,15,15,4*75
$GPGGA,035849.80,3135.6038787,N,12046.7640776,E,4,15,1.5,2.7923,M,8.320,M,02,0004*63
$GPHPD,0,0.000,239.64,-0.04,-14.71,31.5933980,120.7794013,2.792,13630006.192,24925917.892,2.792,0.000,0.000,0.000,0.000,0.000,0.000,0.000,15,15,4*7C
$GPGGA,035850.00,3135.6038022,N,12046.7639268,E,4,15,1.5,2.7838,M,8.320,M,03,0004*65
$GPHPD,0,0.000,239.39,-0.45,-14.69,31.5933967,120.7793988,2.784,13630006.976,24925916.519,2.784,0.000,0.000,0.000,0.000,0.000,0.000,0.000,15,15,4*70
$GPGGA,035850.20,3135.6037318,N,12046.7637792,E,4,15,1.5,2.7928,M,8.320,M,03,0004*6C
$GPHPD,0,0.000,239.08,0.09,-14.70,31.5933955,120.7793963,2.793,13630007.680,24925915.149,2.793,0.000,0.000,0.000,0.000,0.000,0.000,0.000,15,15,4*5E
$GPGGA,035850.40,3135.6036564,N,12046.7636276,E,4,15,1.5,2.8012,M,8.320,M,03,0004*67
$GPHPD,0,0.000,239.06,0.44,-14.70,31.5933943,120.7793938,2.801,13630008.447,24925913.760,2.801,0.000,0.000,0.000,0.000,0.000,0.000,0.000,15,15,4*5D
$GPGGA,035850.60,3135.6035846,N,12046.7634770,E,4,15,1.5,2.7970,M,8.320,M,03,0004*68
$GPHPD,0,0.000,239.30,-0.20,-14.70,31.5933931,120.7793913,2.797,13630009.165,24925912.362,2.797,0.000,0.000,0.000,0.000,0.000,0.000,0.000,15,15,4*78
$GPGGA,035850.80,3135.6035103,N,12046.7633310,E,4,15,1.5,2.8021,M,8.320,M,00,0004*6A
$GPHPD,0,0.000,239.38,-0.06,-14.70,31.5933918,120.7793889,2.802,13630009.927,24925911.035,2.802,0.000,0.000,0.000,0.000,0.000,0.000,0.000,15,15,4*71
$GPGGA,035851.00,3135.6034356,N,12046.7631773,E,4,15,1.5,2.7897,M,8.320,M,01,0004*68
$GPHPD,0,0.000,239.40,-0.19,-14.70,31.5933906,120.7793863,2.790,13630010.680,24925909.616,2.790,0.000,0.000,0.000,0.000,0.000,0.000,0.000,15,15,4*7F
$GPGGA,035851.20,3135.6033546,N,12046.7630316,E,4,15,1.7,2.8036,M,8.320,M,01,0004*62
$GPHPD,0,0.000,239.56,-0.42,-14.68,31.5933892,120.7793839,2.804,13630011.538,24925908.331,2.804,0.000,0.000,0.000,0.000,0.000,0.000,0.000,15,15,4*7C
$GPGGA,035851.40,3135.6032802,N,12046.7628781,E,4,15,1.7,2.7945,M,8.320,M,01,0004*69
$GPHPD,0,0.000,240.02,-0.60,-14.69,31.5933880,120.7793813,2.795,13630012.286,24925906.913,2.795,0.000,0.000,0.000,0.000,0.000,0.000,0.000,15,15,4*7C
$GPGGA,035851.60,3135.6032072,N,12046.7627234,E,4,15,1.7,2.7815,M,8.320,M,01,0004*64
$GPHPD,0,0.000,239.86,-0.27,-14.67,31.5933868,120.7793787,2.782,13630013.013,24925905.473,2.782,0.000,0.000,0.000,0.000,0.000,0.000,0.000,15,15,4*70
$GPGGA,035851.80,3135.6031376,N,12046.7625731,E,4,15,1.7,2.7957,M,8.320,M,01,0004*6B
$GPHPD,0,0.000,239.99,-0.17,-14.67,31.5933856,120.7793762,2.796,13630013.700,24925904.066,2.796,0.000,0.000,0.000,0.000,0.000,0.000,0.000,15,15,4*7F
$GPGGA,035852.00,3135.6030667,N,12046.7624210,E,4,15,1.7,2.7809,M,8.320,M,02,0004*6A
$GPHPD,0,0.000,239.75,-0.38,-14.68,31.5933844,120.7793737,2.781,13630014.402,24925902.645,2.781,0.000,0.000,0.000,0.000,0.000,0.000,0.000,15,15,4*7B
$GPGGA,035852.20,3135.6029955,N,12046.7622649,E,4,15,1.7,2.7759,M,8.320,M,02,0004*6A
$GPHPD,0,0.000,239.69,-0.29,-14.70,31.5933833,120.7793711,2.776,13630015.100,24925901.177,2.776,0.000,0.000,0.000,0.000,0.000,0.000,0.000,15,15,4*78
$GPGGA,035852.40,3135.6029244,N,12046.7621110,E,4,15,1.5,2.7679,M,8.320,M,02,0004*6E
$GPHPD,0,0.000,239.50,0.14,-14.69,31.5933821,120.7793685,2.768,13630015.801,24925899.735,2.768,0.000,0.000,0.000,0.000,0.000,0.000,0.000,15,15,4*5E
$GPGGA,035852.60,3135.6028495,N,12046.7619605,E,4,15,1.5,2.7641,M,8.320,M,00,0004*66
$GPHPD,0,0.000,239.21,0.44,-14.67,31.5933808,120.7793660,2.764,13630016.562,24925898.357,2.764,0.000,0.000,0.000,0.000,0.000,0.000,0.000,15,15,4*59
$GPGGA,035852.80,3135.6027786,N,12046.7618084,E,4,15,1.5,2.7673,M,8.320,M,00,0004*69
$GPHPD,0,0.000,239.33,1.19,-14.68,31.5933796,120.7793635,2.767,13630017.264,24925896.935,2.767,0.000,0.000,0.000,0.000,0.000,0.000,0.000,15,15,4*54
$GPGGA,035853.00,3135.6027015,N,12046.7616538,E,4,15,1.5,2.7620,M,8.320,M,01,0004*66
$GPHPD,0,0.000,239.22,0.63,-14.66,31.5933784,120.7793609,2.762,13630018.049,24925895.520,2.762,0.000,0.000,0.000,0.000,0.000,0.000,0.000,15,15,4*53
$GPGGA,035853.20,3135.6026212,N,12046.7614998,E,4,15,1.5,2.7742,M,8.320,M,01,0004*61
$GPHPD,0,0.000,239.14,0.97,-14.66,31.5933770,120.7793583,2.774,13630018.881,24925894.131,2.774,0.000,0.000,0.000,0.000,0.000,0.000,0.000,15,15,4*5E
$GPGGA,035853.40,3135.6025488,N,12046.7613454,E,4,15,1.5,2.7761,M,8.320,M,01,0004*6A
$GPHPD,0,0.000,239.30,0.51,-14.64,31.5933758,120.7793558,2.776,13630019.599,24925892.690,2.776,0.000,0.000,0.000,0.000,0.000,0.000,0.000,15,15,4*53
$GPGGA,035853.60,3135.6024721,N,12046.7611953,E,4,15,1.5,2.7762,M,8.320,M,01,0004*62
$GPHPD,0,0.000,239.11,0.28,-14.62,31.5933745,120.7793533,2.776,13630020.387,24925891.327,2.776,0.000,0.000,0.000,0.000,0.000,0.000,0.000,15,15,4*50
$GPGGA,035853.80,3135.6023954,N,12046.7610463,E,4,15,1.5,2.7914,M,8.320,M,00,0004*66
$GPHPD,0,0.000,239.25,0.36,-14.60,31.5933733,120.7793508,2.791,13630021.178,24925889.977,2.791,0.000,0.000,0.000,0.000,0.000,0.000,0.000,15,15,4*56
$GPGGA,035854.00,3135.6023193,N,12046.7608952,E,4,15,1.5,2.7993,M,8.320,M,01,0004*62
$GPHPD,0,0.000,238.71,0.09,-14.60,31.5933720,120.7793483,2.799,13630021.956,24925888.598,2.799,0.000,0.000,0.000,0.000,0.000,0.000,0.000,15,15,4*52
$GPGGA,035854.20,3135.6022415,N,12046.7607464,E,4,15,1.5,2.8013,M,8.320,M,01,0004*63
$GPHPD,0,0.000,238.44,0.18,-14.58,31.5933707,120.7793458,2.801,13630022.762,24925887.257,2.801,0.000,0.000,0.000,0.000,0.000,0.000,0.000,15,15,4*5D
$GPGGA,035854.40,3135.6021630,N,12046.7605936,E,4,15,1.5,2.7850,M,8.320,M,01,0004*6B
$GPHPD,0,0.000,238.64,-0.07,-14.57,31.5933694,120.7793432,2.785,13630023.571,24925885.872,2.785,0.000,0.000,0.000,0.000,0.000,0.000,0.000,15,15,4*7A
$GPGGA,035854.60,3135.6020942,N,12046.7604391,E,4,15,1.5,2.7807,M,8.320,M,00,0004*67
$GPHPD,0,0.000,238.70,0.25,-14.59,31.5933682,120.7793407,2.781,13630024.238,24925884.409,2.781,0.000,0.000,0.000,0.000,0.000,0.000,0.000,15,15,4*51
$GPGGA,035854.80,3135.6020108,N,12046.7602909,E,4,15,1.5,2.7665,M,8.320,M,00,0004*68
$GPHPD,0,0.000,238.25,-0.35,-14.59,31.5933668,120.7793382,2.767,13630025.125,24925883.108,2.767,0.000,0.000,0.000,0.000,0.000,0.000,0.000,15,15,4*7E
$GPGGA,035855.00,3135.6019363,N,12046.7601460,E,4,15,1.5,2.7835,M,8.320,M,01,0004*6F
$GPHPD,0,0.000,239.40,-0.15,-14.59,31.5933656,120.7793358,2.784,13630025.892,24925881.794,2.784,0.000,0.000,0.000,0.000,0.000,0.000,0.000,15,15,4*70
$GPGGA,035855.20,3135.6018619,N,12046.7599974,E,4,15,1.5,2.7782,M,8.320,M,01,0004*6D
$GPHPD,0,0.000,239.17,-0.25,-14.59,31.5933644,120.7793333,2.778,13630026.651,24925880.436,2.778,0.000,0.000,0.000,0.000,0.000,0.000,0.000,15,15,4*77
$GPGGA,035855.40,3135.6017840,N,12046.7598474,E,4,15,1.5,2.7750,M,8.320,M,01,0004*65
$GPHPD,0,0.000,239.28,-0.35,-14.62,31.5933631,120.7793308,2.775,13630027.457,24925879.081,2.775,0.000,0.000,0.000,0.000,0.000,0.000,0.000,15,15,4*73
$GPGGA,035855.60,3135.6017051,N,12046.7596951,E,4,15,1.5,2.7655,M,8.320,M,01,0004*6F
$GPHPD,0,0.000,239.54,-0.27,-14.62,31.5933618,120.7793283,2.766,13630028.272,24925877.704,2.766,0.000,0.000,0.000,0.000,0.000,0.000,0.000,15,15,4*78
$GPGGA,035855.80,3135.6016279,N,12046.7595402,E,4,15,1.5,2.7571,M,8.320,M,00,0004*64
$GPHPD,0,0.000,239.57,-0.58,-14.62,31.5933605,120.7793257,2.757,13630029.057,24925876.285,2.757,0.000,0.000,0.000,0.000,0.000,0.000,0.000,15,15,4*7F
$GPGGA,035856.00,3135.6015592,N,12046.7593847,E,4,15,1.5,2.7569,M,8.320,M,01,0004*6D
$GPHPD,0,0.000,239.26,-0.31,-14.62,31.5933593,120.7793231,2.757,13630029.721,24925874.810,2.757,0.000,0.000,0.000,0.000,0.000,0.000,0.000,15,15,4*78
$GPGGA,035856.20,3135.6014820,N,12046.7592324,E,4,15,1.5,2.7565,M,8.320,M,01,0004*69
$GPHPD,0,0.000,238.87,-0.14,-14.61,31.5933580,120.7793205,2.757,13630030.512,24925873.423,2.757,0.000,0.000,0.000,0.000,0.000,0.000,0.000,15,15,4*72
$GPGGA,035856.40,3135.6014055,N,12046.7590848,E,4,15,1.5,2.7677,M,8.320,M,01,0004*66
$GPHPD,0,0.000,238.73,-0.44,-14.63,31.5933568,120.7793181,2.768,13630031.302,24925872.089,2.768,0.000,0.000,0.000,0.000,0.000,0.000,0.000,15,15,4*74
$GPGGA,035856.60,3135.6013279,N,12046.7589298,E,4,15,1.5,2.7786,M,8.320,M,00,0004*6E
$GPHPD,0,0.000,238.55,-0.48,-14.63,31.5933555,120.7793155,2.779,13630032.094,24925870.672,2.779,0.000,0.000,0.000,0.000,0.000,0.000,0.000,15,15,4*74
$GPGGA,035856.80,3135.6012530,N,12046.7587791,E,4,15,1.5,2.7805,M,8.320,M,00,0004*6D
$GPHPD,0,0.000,238.53,-0.72,-14.65,31.5933542,120.7793130,2.781,13630032.855,24925869.291,2.781,0.000,0.000,0.000,0.000,0.000,0.000,0.000,15,15,4*7C
$GPGGA,035857.00,3135.6011785,N,12046.7586274,E,4,15,1.5,2.7727,M,8.320,M,01,0004*6A
$GPHPD,0,0.000,238.38,-0.87,-14.66,31.5933530,120.7793105,2.773,13630033.609,24925867.895,2.773,0.000,0.000,0.000,0.000,0.000,0.000,0.000,15,15,4*7D
$GPGGA,035857.20,3135.6011023,N,12046.7584782,E,4,15,1.5,2.7651,M,8.320,M,01,0004*6D
$GPHPD,0,0.000,238.35,-0.09,-14.66,31.5933517,120.7793080,2.765,13630034.392,24925866.540,2.765,0.000,0.000,0.000,0.000,0.000,0.000,0.000,15,15,4*7B
$GPGGA,035857.40,3135.6010293,N,12046.7583282,E,4,15,1.5,2.7634,M,8.320,M,01,0004*62
$GPHPD,0,0.000,238.28,0.12,-14.67,31.5933505,120.7793055,2.763,13630035.128,24925865.156,2.763,0.000,0.000,0.000,0.000,0.000,0.000,0.000,15,15,4*58
$GPGGA,035857.60,3135.6009498,N,12046.7581762,E,4,15,1.5,2.7718,M,8.320,M,00,0004*62
$GPHPD,0,0.000,238.02,0.27,-14.68,31.5933492,120.7793029,2.772,13630035.952,24925863.786,2.772,0.000,0.000,0.000,0.000,0.000,0.000,0.000,15,15,4*55
$GPGGA,035857.80,3135.6008750,N,12046.7580284,E,4,15,1.5,2.7875,M,8.320,M,00,0004*62
$GPHPD,0,0.000,238.18,0.19,-14.69,31.5933479,120.7793005,2.788,13630036.718,24925862.440,2.788,0.000,0.000,0.000,0.000,0.000,0.000,0.000,15,15,4*52
$GPGGA,035858.00,3135.6008000,N,12046.7578791,E,4,15,1.5,2.7776,M,8.320,M,01,0004*6C
$GPHPD,0,0.000,238.29,0.04,-14.71,31.5933467,120.7792980,2.778,13630037.483,24925861.076,2.778,0.000,0.000,0.000,0.000,0.000,0.000,0.000,15,15,4*5D
$GPGGA,035858.20,3135.6007250,N,12046.7577366,E,4,15,1.5,2.7961,M,8.320,M,01,0004*6D
$GPHPD,0,0.000,238.65,0.17,-14.74,31.5933454,120.7792956,2.796,13630038.263,24925859.795,2.796,0.000,0.000,0.000,0.000,0.000,0.000,0.000,15,15,4*5F
$GPGGA,035858.40,3135.6006474,N,12046.7575915,E,4,15,1.5,2.8038,M,8.320,M,01,0004*6C
$GPHPD,0,0.000,238.73,-0.50,-14.74,31.5933441,120.7792932,2.804,13630039.074,24925858.497,2.804,0.000,0.000,0.000,0.000,0.000,0.000,0.000,15,15,4*75
$GPGGA,035858.60,3135.6005744,N,12046.7574469,E,4,15,1.5,2.8204,M,8.320,M,00,0004*66
$GPHPD,0,0.000,238.85,0.13,-14.76,31.5933429,120.7792908,2.820,13630039.821,24925857.178,2.820,0.000,0.000,0.000,0.000,0.000,0.000,0.000,15,15,4*50
$GPGGA,035858.80,3135.6005025,N,12046.7572888,E,4,15,1.5,2.7913,M,8.320,M,00,0004*6F
$GPHPD,0,0.000,239.14,-0.26,-14.74,31.5933417,120.7792881,2.791,13630040.525,24925855.690,2.791,0.000,0.000,0.000,0.000,0.000,0.000,0.000,15,15,4*79
$GPGGA,035859.00,3135.6004249,N,12046.7571483,E,4,15,1.5,2.7983,M,8.320,M,01,0004*63
$GPHPD,0,0.000,238.85,-0.34,-14.73,31.5933404,120.7792858,2.798,13630041.345,24925854.448,2.798,0.000,0.000,0.000,0.000,0.000,0.000,0.000,15,15,4*75
$GPGGA,035859.20,3135.6003538,N,12046.7569910,E,4,15,1.5,2.7716,M,8.320,M,01,0004*6B
$GPHPD,0,0.000,239.16,-0.34,-14.71,31.5933392,120.7792832,2.772,13630042.039,24925852.965,2.772,0.000,0.000,0.000,0.000,0.000,0.000,0.000,15,15,4*77
$GPGGA,035859.40,3135.6002812,N,12046.7568462,E,4,15,1.5,2.7657,M,8.320,M,01,0004*64
$GPHPD,0,0.000,239.09,-0.25,-14.70,31.5933380,120.7792808,2.766,13630042.780,24925851.642,2.766,0.000,0.000,0.000,0.000,0.000,0.000,0.000,15,15,4*7E
$GPGGA,035859.60,3135.6002020,N,12046.7567080,E,4,15,1.5,2.7929,M,8.320,M,01,0004*6E
$GPHPD,0,0.000,239.10,-0.12,-14.67,31.5933367,120.7792785,2.793,13630043.627,24925850.437,2.793,0.000,0.000,0.000,0.000,0.000,0.000,0.000,15,15,4*7B
$GPGGA,035859.80,3135.6001306,N,12046.7565487,E,4,15,1.5,2.7724,M,8.320,M,01,0004*66
$GPHPD,0,0.000,239.87,-1.11,-14.65,31.5933355,120.7792758,2.772,13630044.322,24925848.932,2.772,0.000,0.000,0.000,0.000,0.000,0.000,0.000,15,15,4*72
$GPGGA,035900.00,3135.6000570,N,12046.7563973,E,4,15,1.5,2.7653,M,8.320,M,02,0004*67
$GPHPD,0,0.000,239.37,-0.56,-14.63,31.5933343,120.7792733,2.765,13630045.063,24925847.535,2.765,0.000,0.000,0.000,0.000,0.000,0.000,0.000,15,15,4*74
$GPGGA,035900.20,3135.5999841,N,12046.7562466,E,4,15,1.5,2.7701,M,8.320,M,02,0004*6E
$GPHPD,0,0.000,239.40,-0.69,-14.61,31.5933331,120.7792708,2.770,13630045.796,24925846.142,2.770,0.000,0.000,0.000,0.000,0.000,0.000,0.000,15,15,4*7F
$GPGGA,035900.40,3135.5999075,N,12046.7560981,E,4,15,1.7,2.7759,M,8.320,M,02,0004*6E
$GPHPD,0,0.000,239.20,0.38,-14.59,31.5933318,120.7792683,2.776,13630046.587,24925844.797,2.776,0.000,0.000,0.000,0.000,0.000,0.000,0.000,15,14,4*5E
$GPGGA,035900.60,3135.5998349,N,12046.7559413,E,4,15,1.7,2.7745,M,8.320,M,02,0004*60
$GPHPD,0,0.000,238.99,-0.01,-14.56,31.5933306,120.7792657,2.775,13630047.303,24925843.329,2.775,0.000,0.000,0.000,0.000,0.000,0.000,0.000,15,14,4*7E
$GPGGA,035900.80,3135.5997586,N,12046.7557934,E,4,15,1.7,2.7646,M,8.320,M,02,0004*60
$GPHPD,0,0.000,238.82,0.02,-14.54,31.5933293,120.7792632,2.765,13630048.090,24925841.990,2.765,0.000,0.000,0.000,0.000,0.000,0.000,0.000,15,14,4*5A
$GPGGA,035901.00,3135.5996803,N,12046.7556403,E,4,15,1.7,2.7753,M,8.320,M,03,0004*64
$GPHPD,0,0.000,238.91,-0.09,-14.54,31.5933280,120.7792607,2.775,13630048.895,24925840.600,2.775,0.000,0.000,0.000,0.000,0.000,0.000,0.000,15,14,4*70
$GPGGA,035901.20,3135.5996049,N,12046.7554919,E,4,15,1.7,2.7827,M,8.320,M,03,0004*68
$GPHPD,0,0.000,238.86,-0.42,-14.54,31.5933267,120.7792582,2.783,13630049.668,24925839.250,2.783,0.000,0.000,0.000,0.000,0.000,0.000,0.000,15,14,4*7C
$GPGGA,035901.40,3135.5995285,N,12046.7553402,E,4,15,1.8,2.7741,M,8.320,M,03,0004*6F
$GPHPD,0,0.000,239.09,-0.44,-14.57,31.5933255,120.7792557,2.774,13630050.449,24925837.865,2.774,0.000,0.000,0.000,0.000,0.000,0.000,0.000,15,14,4*7D
$GPGGA,035901.60,3135.5994508,N,12046.7551839,E,4,15,1.7,2.7621,M,8.320,M,00,0004*63
$GPHPD,0,0.000,238.84,-0.11,-14.55,31.5933242,120.7792531,2.762,13630051.239,24925836.433,2.762,0.000,0.000,0.000,0.000,0.000,0.000,0.000,15,14,4*73
$GPGGA,035901.80,3135.5993720,N,12046.7550286,E,4,15,1.7,2.7569,M,8.320,M,00,0004*62
$GPHPD,0,0.000,238.79,0.07,-14.55,31.5933229,120.7792505,2.757,13630052.047,24925835.019,2.757,0.000,0.000,0.000,0.000,0.000,0.000,0.000,15,14,4*56
$GPGGA,035902.00,3135.5992950,N,12046.7548770,E,4,15,1.7,2.7633,M,8.320,M,01,0004*69
$GPHPD,0,0.000,238.61,-0.20,-14.53,31.5933216,120.7792480,2.763,13630052.836,24925833.640,2.763,0.000,0.000,0.000,0.000,0.000,0.000,0.000,15,14,4*73
$GPGGA,035902.20,3135.5992205,N,12046.7547240,E,4,15,1.7,2.7630,M,8.320,M,01,0004*6A
$GPHPD,0,0.000,238.64,-0.31,-14.53,31.5933203,120.7792454,2.763,13630053.587,24925832.228,2.763,0.000,0.000,0.000,0.000,0.000,0.000,0.000,15,14,4*76
$GPGGA,035902.40,3135.5991413,N,12046.7545740,E,4,15,1.7,2.7657,M,8.320,M,01,0004*68
$GPHPD,0,0.000,238.25,-0.49,-14.54,31.5933190,120.7792429,2.766,13630054.411,24925830.881,2.766,0.000,0.000,0.000,0.000,0.000,0.000,0.000,15,14,4*7A
$GPGGA,035902.60,3135.5990632,N,12046.7544170,E,4,15,1.7,2.7392,M,8.320,M,00,0004*63
$GPHPD,0,0.000,238.33,-0.39,-14.55,31.5933177,120.7792403,2.739,13630055.205,24925829.442,2.739,0.000,0.000,0.000,0.000,0.000,0.000,0.000,15,14,4*73
$GPGGA,035902.80,3135.5989861,N,12046.7542683,E,4,15,1.5,2.7515,M,8.320,M,00,0004*6B
$GPHPD,0,0.000,238.19,0.13,-14.55,31.5933164,120.7792378,2.752,13630056.002,24925828.098,2.752,0.000,0.000,0.000,0.000,0.000,0.000,0.000,15,14,4*53
$GPGGA,035903.00,3135.5989106,N,12046.7541203,E,4,15,1.5,2.7573,M,8.320,M,01,0004*64
$GPHPD,0,0.000,238.13,-0.28,-14.56,31.5933152,120.7792353,2.757,13630056.778,24925826.753,2.757,0.000,0.000,0.000,0.000,0.000,0.000,0.000,15,14,4*77
$GPGGA,035903.20,3135.5988367,N,12046.7539661,E,4,15,1.5,2.7500,M,8.320,M,01,0004*69
$GPHPD,0,0.000,238.31,-0.54,-14.57,31.5933139,120.7792328,2.750,13630057.518,24925825.324,2.750,0.000,0.000,0.000,0.000,0.000,0.000,0.000,15,14,4*7E
$GPGGA,035903.40,3135.5987580,N,12046.7538200,E,4,15,1.5,2.7633,M,8.320,M,01,0004*6E
$GPHPD,0,0.000,237.93,0.02,-14.54,31.5933126,120.7792303,2.763,13630058.343,24925824.021,2.763,0.000,0.000,0.000,0.000,0.000,0.000,0.000,15,14,4*53
$GPGGA,035903.60,3135.5986816,N,12046.7536706,E,4,15,1.5,2.7543,M,8.320,M,00,0004*67
$GPHPD,0,0.000,238.21,-0.63,-14.55,31.5933114,120.7792278,2.754,13630059.128,24925822.664,2.754,0.000,0.000,0.000,0.000,0.000,0.000,0.000,15,14,4*7D
$GPGGA,035903.80,3135.5985990,N,12046.7535278,E,4,15,1.5,2.7644,M,8.320,M,00,0004*6E
$GPHPD,0,0.000,238.47,-0.35,-14.57,31.5933100,120.7792255,2.764,13630060.015,24925821.423,2.764,0.000,0.000,0.000,0.000,0.000,0.000,0.000,15,14,4*71
$GPGGA,035904.00,3135.5985194,N,12046.7533776,E,4,15,1.5,2.7576,M,8.320,M,01,0004*63
$GPHPD,0,0.000,239.07,-0.39,-14.60,31.5933087,120.7792230,2.758,13630060.844,24925820.076,2.758,0.000,0.000,0.000,0.000,0.000,0.000,0.000,15,14,4*78
$GPGGA,035904.20,3135.5984449,N,12046.7532176,E,4,15,1.5,2.7355,M,8.320,M,01,0004*65
$GPHPD,0,0.000,239.40,-0.97,-14.61,31.5933074,120.7792203,2.736,13630061.581,24925818.580,2.736,0.000,0.000,0.000,0.000,0.000,0.000,0.000,15,14,4*70
$GPGGA,035904.40,3135.5983665,N,12046.7530752,E,4,15,1.5,2.7572,M,8.320,M,01,0004*69
$GPHPD,0,0.000,239.14,-0.70,-14.61,31.5933061,120.7792179,2.757,13630062.409,24925817.320,2.757,0.000,0.000,0.000,0.000,0.000,0.000,0.000,15,13,4*74
$GPGGA,035904.60,3135.5982870,N,12046.7529216,E,4,15,1.7,2.7463,M,8.320,M,00,0004*6F
$GPHPD,0,0.000,239.46,-0.41,-14.61,31.5933048,120.7792154,2.746,13630063.230,24925815.930,2.746,0.000,0.000,0.000,0.000,0.000,0.000,0.000,15,13,4*71
$GPGGA,035904.80,3135.5982141,N,12046.7527640,E,4,15,1.7,2.7151,M,8.320,M,00,0004*67
$GPHPD,0,0.000,239.48,-1.17,-14.60,31.5933036,120.7792127,2.715,13630063.949,24925814.454,2.715,0.000,0.000,0.000,0.000,0.000,0.000,0.000,15,13,4*7A
$GPGGA,035905.00,3135.5981457,N,12046.7526181,E,4,15,1.7,2.7336,M,8.320,M,01,0004*66
$GPHPD,0,0.000,239.09,-0.44,-14.63,31.5933024,120.7792103,2.734,13630064.628,24925813.093,2.734,0.000,0.000,0.000,0.000,0.000,0.000,0.000,15,13,4*79
$GPGGA,035905.20,3135.5980707,N,12046.7524683,E,4,15,1.7,2.7376,M,8.320,M,01,0004*60
$GPHPD,0,0.000,238.96,0.45,-14.63,31.5933012,120.7792078,2.738,13630065.392,24925811.724,2.738,0.000,0.000,0.000,0.000,0.000,0.000,0.000,15,13,4*56
$GPGGA,035905.40,3135.5980066,N,12046.7523299,E,4,14,2.0,2.7658,M,8.320,M,01,0004*62
$GPHPD,0,0.000,238.93,-0.04,-14.63,31.5933001,120.7792055,2.766,13630066.025,24925810.428,2.766,0.000,0.000,0.000,0.000,0.000,0.000,0.000,14,13,4*75
$GPGGA,035905.60,3135.5979329,N,12046.7521763,E,4,15,1.7,2.7537,M,8.320,M,00,0004*62
$GPHPD,0,0.000,238.72,0.39,-14.64,31.5932989,120.7792029,2.754,13630066.764,24925809.005,2.754,0.000,0.000,0.000,0.000,0.000,0.000,0.000,15,14,4*5A
$GPGGA,035905.80,3135.5978618,N,12046.7520247,E,4,15,1.5,2.7395,M,8.320,M,00,0004*64
$GPHPD,0,0.000,238.55,0.01,-14.65,31.5932977,120.7792004,2.740,13630067.469,24925807.591,2.740,0.000,0.000,0.000,0.000,0.000,0.000,0.000,15,14,4*52
$GPGGA,035906.00,3135.5977827,N,12046.7518755,E,4,15,1.5,2.7523,M,8.320,M,01,0004*65
$GPHPD,0,0.000,238.17,0.90,-14.63,31.5932964,120.7791979,2.752,13630068.294,24925806.253,2.752,0.000,0.000,0.000,0.000,0.000,0.000,0.000,15,14,4*5B
$GPGGA,035906.20,3135.5977095,N,12046.7517299,E,4,15,1.5,2.7570,M,8.320,M,01,0004*6A
$GPHPD,0,0.000,238.56,0.68,-14.64,31.5932952,120.7791955,2.757,13630069.041,24925804.923,2.757,0.000,0.000,0.000,0.000,0.000,0.000,0.000,15,14,4*50
$GPGGA,035906.40,3135.5976296,N,12046.7515782,E,4,15,1.5,2.7432,M,8.320,M,01,0004*66
$GPHPD,0,0.000,238.33,0.39,-14.64,31.5932938,120.7791930,2.743,13630069.872,24925803.559,2.743,0.000,0.000,0.000,0.000,0.000,0.000,0.000,15,14,4*56
$GPGGA,035906.60,3135.5975602,N,12046.7514356,E,4,15,1.5,2.7367,M,8.320,M,01,0004*65
$GPHPD,0,0.000,238.93,0.98,-14.65,31.5932927,120.7791906,2.737,13630070.571,24925802.244,2.737,0.000,0.000,0.000,0.000,0.000,0.000,0.000,15,14,4*51
$GPGGA,035906.80,3135.5974811,N,12046.7512815,E,4,15,1.5,2.7330,M,8.320,M,01,0004*6E
$GPHPD,0,0.000,239.01,0.91,-14.67,31.5932914,120.7791880,2.733,13630071.385,24925800.846,2.733,0.000,0.000,0.000,0.000,0.000,0.000,0.000,15,14,4*59
$GPGGA,035907.00,3135.5974101,N,12046.7511407,E,4,15,1.5,2.7342,M,8.320,M,02,0004*65
$GPHPD,0,0.000,239.12,0.76,-14.68,31.5932902,120.7791857,2.734,13630072.111,24925799.562,2.734,0.000,0.000,0.000,0.000,0.000,0.000,0.000,15,14,4*58
$GPGGA,035907.20,3135.5973415,N,12046.7509891,E,4,15,1.5,2.7391,M,8.320,M,02,0004*64
$GPHPD,0,0.000,239.24,0.87,-14.67,31.5932890,120.7791832,2.739,13630072.782,24925798.133,2.739,0.000,0.000,0.000,0.000,0.000,0.000,0.000,15,14,4*58
$GPGGA,035907.40,3135.5972648,N,12046.7508438,E,4,15,1.5,2.7481,M,8.320,M,02,0004*61
$GPHPD,0,0.000,238.58,0.50,-14.69,31.5932877,120.7791807,2.748,13630073.579,24925796.828,2.748,0.000,0.000,0.000,0.000,0.000,0.000,0.000,15,15,4*52
$GPGGA,035907.60,3135.5971915,N,12046.7507044,E,4,15,1.5,2.7707,M,8.320,M,00,0004*68
$GPHPD,0,0.000,238.84,0.80,-14.70,31.5932865,120.7791784,2.771,13630074.341,24925795.574,2.771,0.000,0.000,0.000,0.000,0.000,0.000,0.000,15,15,4*5C
$GPGGA,035907.80,3135.5971182,N,12046.7505604,E,4,15,1.5,2.7944,M,8.320,M,00,0004*69
$GPHPD,0,0.000,239.30,-0.23,-14.70,31.5932853,120.7791760,2.794,13630075.093,24925794.264,2.794,0.000,0.000,0.000,0.000,0.000,0.000,0.000,15,15,4*73
$GPGGA,035908.00,3135.5970474,N,12046.7504056,E,4,15,1.5,2.7646,M,8.320,M,01,0004*6F
$GPHPD,0,0.000,239.21,-0.21,-14.73,31.5932841,120.7791734,2.765,13630075.788,24925792.810,2.765,0.000,0.000,0.000,0.000,0.000,0.000,0.000,15,15,4*72
$GPGGA,035908.20,3135.5969740,N,12046.7502647,E,4,15,1.5,2.7623,M,8.320,M,01,0004*62
$GPHPD,0,0.000,239.43,0.34,-14.75,31.5932829,120.7791711,2.762,13630076.548,24925791.538,2.762,0.000,0.000,0.000,0.000,0.000,0.000,0.000,15,15,4*59
$GPGGA,035908.40,3135.5969050,N,12046.7501166,E,4,15,1.5,2.7464,M,8.320,M,01,0004*64
$GPHPD,0,0.000,240.02,-0.01,-14.75,31.5932818,120.7791686,2.746,13630077.231,24925790.154,2.746,0.000,0.000,0.000,0.000,0.000,0.000,0.000,15,15,4*73
$GPGGA,035908.60,3135.5968291,N,12046.7499648,E,4,15,1.5,2.7450,M,8.320,M,01,0004*64
$GPHPD,0,0.000,239.71,0.53,-14.77,31.5932805,120.7791661,2.745,13630078.004,24925788.766,2.745,0.000,0.000,0.000,0.000,0.000,0.000,0.000,15,15,4*51
$GPGGA,035908.80,3135.5967559,N,12046.7498165,E,4,15,1.5,2.7196,M,8.319,M,01,0004*6A
$GPHPD,0,0.000,239.47,0.00,-14.78,31.5932793,120.7791636,2.720,13630078.746,24925787.404,2.720,0.000,0.000,0.000,0.000,0.000,0.000,0.000,15,15,4*56
$GPGGA,035909.00,3135.5966797,N,12046.7496745,E,4,15,1.7,2.7357,M,8.319,M,02,0004*66
$GPHPD,0,0.000,239.69,-0.08,-14.79,31.5932780,120.7791612,2.736,13630079.544,24925786.135,2.736,0.000,0.000,0.000,0.000,0.000,0.000,0.000,15,15,4*7D
$GPGGA,035909.20,3135.5966131,N,12046.7495254,E,4,15,1.7,2.7451,M,8.319,M,02,0004*69
$GPHPD,0,0.000,239.65,0.43,-14.80,31.5932769,120.7791588,2.745,13630080.190,24925784.725,2.745,0.000,0.000,0.000,0.000,0.000,0.000,0.000,15,15,4*5C
$GPGGA,035909.40,3135.5965398,N,12046.7493812,E,4,15,1.7,2.7407,M,8.319,M,02,0004*60
$GPHPD,0,0.000,239.39,-1.01,-14.80,31.5932757,120.7791564,2.741,13630080.942,24925783.413,2.741,0.000,0.000,0.000,0.000,0.000,0.000,0.000,15,15,4*76
$GPGGA,035909.60,3135.5964669,N,12046.7492305,E,4,15,1.7,2.7288,M,8.319,M,02,0004*65
$GPHPD,0,0.000,239.20,0.11,-14.79,31.5932744,120.7791538,2.729,13630081.675,24925782.020,2.729,0.000,0.000,0.000,0.000,0.000,0.000,0.000,15,15,4*51
$GPGGA,035909.80,3135.5963929,N,12046.7490834,E,4,15,1.7,2.7291,M,8.319,M,00,0004*66
$GPHPD,0,0.000,239.18,0.16,-14.79,31.5932732,120.7791514,2.729,13630082.431,24925780.677,2.729,0.000,0.000,0.000,0.000,0.000,0.000,0.000,15,15,4*55
$GPGGA,035910.00,3135.5963197,N,12046.7489347,E,4,15,1.7,2.7342,M,8.319,M,01,0004*62
