$GPGGA,040137.60,3135.5601158,N,12046.6706689,E,4,17,1.2,3.0284,M,8.315,M,00,0004*66
$GPHPD,0,0.000,277.05,-0.99,-14.28,31.5926686,120.7778445,3.028,13630440.303,24925046.359,3.028,0.000,0.000,0.000,0.000,0.000,0.000,0.000,17,17,4*7C
$GPGGA,040137.80,3135.5601290,N,12046.6705656,E,4,17,1.2,3.0252,M,8.315,M,00,0004*65
$GPHPD,0,0.000,277.10,-0.73,-14.35,31.5926688,120.7778428,3.025,13630439.907,24925045.036,3.025,0.000,0.000,0.000,0.000,0.000,0.000,0.000,17,17,4*7C
$GPGGA,040138.00,3135.5601448,N,12046.6704541,E,4,16,1.2,3.0213,M,8.315,M,01,0004*60
$GPHPD,0,0.000,277.52,-0.48,-14.41,31.5926691,120.7778409,3.021,13630439.459,24925043.600,3.021,0.000,0.000,0.000,0.000,0.000,0.000,0.000,16,17,4*78
$GPGGA,040138.20,3135.5601559,N,12046.6703406,E,4,17,1.2,3.0302,M,8.315,M,01,0004*66
$GPHPD,0,0.000,278.88,-1.52,-14.45,31.5926693,120.7778390,3.030,13630439.072,24925042.167,3.030,0.000,0.000,0.000,0.000,0.000,0.000,0.000,17,17,4*70
$GPGGA,040138.40,3135.5601738,N,12046.6702259,E,4,17,1.2,3.0167,M,8.315,M,01,0004*69
$GPHPD,0,0.000,279.73,-2.18,-14.51,31.5926696,120.7778371,3.017,13630438.587,24925040.679,3.017,0.000,0.000,0.000,0.000,0.000,0.000,0.000,17,17,4*73
$GPGGA,040138.60,3135.5601960,N,12046.6701079,E,4,16,1.2,3.0147,M,8.315,M,00,0004*69
$GPHPD,0,0.000,280.13,-1.96,-14.55,31.5926699,120.7778351,3.015,13630438.034,24925039.127,3.015,0.000,0.000,0.000,0.000,0.000,0.000,0.000,16,16,4*70
$GPGGA,040138.80,3135.5602141,N,12046.6699902,E,4,16,1.2,3.0147,M,8.315,M,00,0004*6A
$GPHPD,0,0.000,279.39,-0.86,-14.54,31.5926702,120.7778332,3.015,13630437.540,24925037.603,3.015,0.000,0.000,0.000,0.000,0.000,0.000,0.000,16,16,4*7F
$GPGGA,040139.00,3135.5602337,N,12046.6698736,E,4,16,1.2,3.0160,M,8.315,M,01,0004*6C
$GPHPD,0,0.000,280.38,-1.22,-14.51,31.5926706,120.7778312,3.016,13630437.027,24925036.082,3.016,0.000,0.000,0.000,0.000,0.000,0.000,0.000,16,16,4*7E
$GPGGA,040139.20,3135.5602586,N,12046.6697595,E,4,16,1.2,3.0111,M,8.315,M,01,0004*60
$GPHPD,0,0.000,280.95,-1.12,-14.48,31.5926710,120.7778293,3.011,13630436.443,24925034.562,3.011,0.000,0.000,0.000,0.000,0.000,0.000,0.000,16,16,4*73
$GPGGA,040139.40,3135.5602790,N,12046.6696473,E,4,16,1.2,2.9972,M,8.315,M,01,0004*6E
$GPHPD,0,0.000,280.65,-0.79,-14.49,31.5926713,120.7778275,2.997,13630435.928,24925033.090,2.997,0.000,0.000,0.000,0.000,0.000,0.000,0.000,16,16,4*76
$GPGGA,040139.60,3135.5603009,N,12046.6695404,E,4,17,1.2,2.9966,M,8.315,M,00,0004*6C
$GPHPD,0,0.000,281.44,-0.93,-14.53,31.5926717,120.7778257,2.997,13630435.401,24925031.673,2.997,0.000,0.000,0.000,0.000,0.000,0.000,0.000,17,17,4*70
$GPGGA,040139.80,3135.5603177,N,12046.6694327,E,4,17,1.2,2.9913,M,8.315,M,00,0004*6F
$GPHPD,0,0.000,281.50,-1.06,-14.57,31.5926720,120.7778239,2.991,13630434.946,24925030.277,2.991,0.000,0.000,0.000,0.000,0.000,0.000,0.000,17,17,4*7E
$GPGGA,040140.00,3135.5603393,N,12046.6693283,E,4,17,1.2,2.9950,M,8.315,M,01,0004*6F
$GPHPD,0,0.000,282.39,-0.92,-14.60,31.5926723,120.7778221,2.995,13630434.429,24925028.892,2.995,0.000,0.000,0.000,0.000,0.000,0.000,0.000,17,17,4*7C
$GPGGA,040140.20,3135.5603599,N,12046.6692268,E,4,17,1.2,2.9933,M,8.315,M,01,0004*60
$GPHPD,0,0.000,282.66,-0.57,-14.64,31.5926727,120.7778204,2.993,13630433.932,24925027.548,2.993,0.000,0.000,0.000,0.000,0.000,0.000,0.000,17,17,4*7D
$GPGGA,040140.40,3135.5603832,N,12046.6691244,E,4,17,1.2,2.9801,M,8.315,M,01,0004*67
$GPHPD,0,0.000,283.25,-0.64,-14.70,31.5926731,120.7778187,2.980,13630433.395,24925026.178,2.980,0.000,0.000,0.000,0.000,0.000,0.000,0.000,17,17,4*70
$GPGGA,040140.60,3135.5604084,N,12046.6690201,E,4,17,1.2,2.9637,M,8.315,M,00,0004*6D
$GPHPD,0,0.000,283.75,-0.20,-14.78,31.5926735,120.7778170,2.964,13630432.827,24925024.773,2.964,0.000,0.000,0.000,0.000,0.000,0.000,0.000,17,17,4*7D
$GPGGA,040140.80,3135.5604310,N,12046.6689224,E,4,17,1.2,2.9560,M,8.315,M,00,0004*63
$GPHPD,0,0.000,284.06,-0.04,-14.81,31.5926739,120.7778154,2.956,13630432.309,24925023.464,2.956,0.000,0.000,0.000,0.000,0.000,0.000,0.000,17,17,4*71
$GPGGA,040141.00,3135.5604539,N,12046.6688222,E,4,17,1.2,2.9636,M,8.315,M,01,0004*61
$GPHPD,0,0.000,284.48,0.17,-14.86,31.5926742,120.7778137,2.964,13630431.782,24925022.122,2.964,0.000,0.000,0.000,0.000,0.000,0.000,0.000,17,17,4*58
$GPGGA,040141.20,3135.5604802,N,12046.6687205,E,4,17,1.2,2.9488,M,8.315,M,01,0004*6B
$GPHPD,0,0.000,285.52,-0.09,-14.90,31.5926747,120.7778120,2.949,13630431.203,24925020.743,2.949,0.000,0.000,0.000,0.000,0.000,0.000,0.000,17,17,4*7B
$GPGGA,040141.40,3135.5605067,N,12046.6686191,E,4,17,1.2,2.9442,M,8.315,M,01,0004*6E
$GPHPD,0,0.000,285.78,0.12,-14.95,31.5926751,120.7778103,2.944,13630430.623,24925019.366,2.944,0.000,0.000,0.000,0.000,0.000,0.000,0.000,17,17,4*59
$GPGGA,040141.60,3135.5605314,N,12046.6685206,E,4,17,1.2,2.9467,M,8.315,M,00,0004*63
$GPHPD,0,0.000,286.20,0.37,-14.98,31.5926755,120.7778087,2.947,13630430.073,24925018.034,2.947,0.000,0.000,0.000,0.000,0.000,0.000,0.000,17,17,4*52
$GPGGA,040141.80,3135.5605594,N,12046.6684196,E,4,17,1.2,2.9439,M,8.315,M,00,0004*63
$GPHPD,0,0.000,286.46,0.10,-15.01,31.5926760,120.7778070,2.944,13630429.472,24925016.653,2.944,0.000,0.000,0.000,0.000,0.000,0.000,0.000,17,17,4*5C
$GPGGA,040142.00,3135.5605875,N,12046.6683185,E,4,17,1.2,2.9552,M,8.315,M,01,0004*62
$GPHPD,0,0.000,286.57,0.86,-15.05,31.5926765,120.7778053,2.955,13630428.869,24925015.270,2.955,0.000,0.000,0.000,0.000,0.000,0.000,0.000,17,17,4*52
$GPGGA,040142.20,3135.5606195,N,12046.6682198,E,4,17,1.2,2.9495,M,8.315,M,01,0004*63
$GPHPD,0,0.000,287.92,0.15,-15.10,31.5926770,120.7778037,2.950,13630428.216,24925013.894,2.950,0.000,0.000,0.000,0.000,0.000,0.000,0.000,17,17,4*56
$GPGGA,040142.40,3135.5606490,N,12046.6681218,E,4,17,1.2,2.9470,M,8.315,M,01,0004*66
$GPHPD,0,0.000,287.95,0.41,-15.14,31.5926775,120.7778020,2.947,13630427.599,24925012.540,2.947,0.000,0.000,0.000,0.000,0.000,0.000,0.000,17,17,4*5D
$GPGGA,040142.60,3135.5606817,N,12046.6680143,E,4,17,1.2,2.9699,M,8.315,M,00,0004*6F
$GPHPD,0,0.000,288.60,0.12,-15.14,31.5926780,120.7778002,2.970,13630426.918,24925011.054,2.970,0.000,0.000,0.000,0.000,0.000,0.000,0.000,17,17,4*53
$GPGGA,040142.80,3135.5607199,N,12046.6679158,E,4,17,1.2,2.9621,M,8.315,M,00,0004*60
$GPHPD,0,0.000,289.03,0.25,-15.13,31.5926787,120.7777986,2.962,13630426.177,24925009.644,2.962,0.000,0.000,0.000,0.000,0.000,0.000,0.000,17,17,4*56
$GPGGA,040143.00,3135.5607505,N,12046.6678213,E,4,17,1.2,2.9627,M,8.315,M,01,0004*62
$GPHPD,0,0.000,289.32,0.34,-15.09,31.5926792,120.7777970,2.963,13630425.552,24925008.326,2.963,0.000,0.000,0.000,0.000,0.000,0.000,0.000,17,17,4*52
$GPGGA,040143.20,3135.5607842,N,12046.6677289,E,4,17,1.2,2.9699,M,8.315,M,01,0004*67
$GPHPD,0,0.000,290.27,-0.31,-15.01,31.5926797,120.7777955,2.970,13630424.887,24925007.015,2.970,0.000,0.000,0.000,0.000,0.000,0.000,0.000,17,17,4*74
$GPGGA,040143.40,3135.5608154,N,12046.6676431,E,4,17,1.2,2.9674,M,8.315,M,01,0004*67
$GPHPD,0,0.000,290.48,0.02,-14.93,31.5926803,120.7777941,2.967,13630424.271,24925005.799,2.967,0.000,0.000,0.000,0.000,0.000,0.000,0.000,17,17,4*5F
$GPGGA,040143.60,3135.5608425,N,12046.6675621,E,4,17,1.2,2.9841,M,8.315,M,00,0004*6F
$GPHPD,0,0.000,291.37,-0.14,-14.86,31.5926807,120.7777927,2.984,13630423.723,24925004.665,2.984,0.000,0.000,0.000,0.000,0.000,0.000,0.000,17,17,4*7A
$GPGGA,040143.80,3135.5608660,N,12046.6674832,E,4,17,1.2,2.9740,M,8.315,M,00,0004*61
$GPHPD,0,0.000,291.40,-0.19,-14.81,31.5926811,120.7777914,2.974,13630423.230,24925003.576,2.974,0.000,0.000,0.000,0.000,0.000,0.000,0.000,17,17,4*76
$GPGGA,040144.00,3135.5608937,N,12046.6674125,E,4,17,1.2,2.9871,M,8.315,M,01,0004*60
$GPHPD,0,0.000,291.66,0.10,-14.77,31.5926816,120.7777902,2.987,13630422.694,24925002.563,2.987,0.000,0.000,0.000,0.000,0.000,0.000,0.000,17,17,4*51
$GPGGA,040144.20,3135.5609186,N,12046.6673470,E,4,17,1.2,2.9826,M,8.315,M,01,0004*61
$GPHPD,0,0.000,292.66,-0.58,-14.75,31.5926820,120.7777891,2.983,13630422.208,24925001.628,2.983,0.000,0.000,0.000,0.000,0.000,0.000,0.000,17,17,4*71
$GPGGA,040144.40,3135.5609466,N,12046.6672777,E,4,17,1.2,2.9823,M,8.315,M,01,0004*6C
$GPHPD,0,0.000,292.97,-0.36,-14.74,31.5926824,120.7777880,2.982,13630421.671,24925000.629,2.982,0.000,0.000,0.000,0.000,0.000,0.000,0.000,17,17,4*7B
$GPGGA,040144.60,3135.5609729,N,12046.6672075,E,4,17,1.2,2.9794,M,8.315,M,00,0004*61
$GPHPD,0,0.000,293.25,-0.28,-14.73,31.5926829,120.7777868,2.979,13630421.156,24924999.629,2.979,0.000,0.000,0.000,0.000,0.000,0.000,0.000,17,17,4*7A
$GPGGA,040144.80,3135.5610010,N,12046.6671369,E,4,17,1.2,2.9713,M,8.315,M,00,0004*68
$GPHPD,0,0.000,293.95,-0.29,-14.75,31.5926834,120.7777856,2.971,13630420.615,24924998.614,2.971,0.000,0.000,0.000,0.000,0.000,0.000,0.000,17,17,4*79
$GPGGA,040145.00,3135.5610287,N,12046.6670637,E,4,17,1.2,2.9713,M,8.315,M,01,0004*63
$GPHPD,0,0.000,293.83,-0.11,-14.81,31.5926838,120.7777844,2.971,13630420.074,24924997.571,2.971,0.000,0.000,0.000,0.000,0.000,0.000,0.000,17,17,4*7F
$GPGGA,040145.20,3135.5610615,N,12046.6669856,E,4,17,1.2,2.9774,M,8.315,M,01,0004*6E
$GPHPD,0,0.000,294.74,-0.04,-14.84,31.5926844,120.7777831,2.977,13630419.450,24924996.438,2.977,0.000,0.000,0.000,0.000,0.000,0.000,0.000,17,17,4*7D
$GPGGA,040145.40,3135.5610983,N,12046.6669024,E,4,17,1.2,2.9598,M,8.315,M,01,0004*65
$GPHPD,0,0.000,294.94,-0.17,-14.88,31.5926850,120.7777817,2.960,13630418.760,24924995.220,2.960,0.000,0.000,0.000,0.000,0.000,0.000,0.000,17,17,4*71
$GPGGA,040145.60,3135.5611391,N,12046.6668106,E,4,17,1.2,2.9592,M,8.315,M,00,0004*64
$GPHPD,0,0.000,295.34,0.06,-14.94,31.5926857,120.7777802,2.959,13630417.995,24924993.876,2.959,0.000,0.000,0.000,0.000,0.000,0.000,0.000,17,17,4*5D
$GPGGA,040145.80,3135.5611825,N,12046.6667091,E,4,17,1.2,2.9668,M,8.315,M,00,0004*68
$GPHPD,0,0.000,295.90,0.03,-15.00,31.5926864,120.7777785,2.967,13630417.174,24924992.399,2.967,0.000,0.000,0.000,0.000,0.000,0.000,0.000,17,17,4*56
$GPGGA,040146.00,3135.5612321,N,12046.6666010,E,4,17,1.2,2.9652,M,8.315,M,01,0004*6F
$GPHPD,0,0.000,296.34,0.01,-15.05,31.5926872,120.7777767,2.965,13630416.252,24924990.807,2.965,0.000,0.000,0.000,0.000,0.000,0.000,0.000,17,17,4*5F
$GPGGA,040146.20,3135.5612846,N,12046.6664909,E,4,17,1.2,2.9652,M,8.315,M,01,0004*64
$GPHPD,0,0.000,296.88,-0.16,-15.07,31.5926881,120.7777748,2.965,13630415.284,24924989.173,2.965,0.000,0.000,0.000,0.000,0.000,0.000,0.000,17,17,4*7A
$GPGGA,040146.40,3135.5613409,N,12046.6663760,E,4,17,1.2,2.9641,M,8.315,M,01,0004*60
$GPHPD,0,0.000,297.74,-0.02,-15.07,31.5926890,120.7777729,2.964,13630414.252,24924987.460,2.964,0.000,0.000,0.000,0.000,0.000,0.000,0.000,17,17,4*79
$GPGGA,040146.60,3135.5613998,N,12046.6662539,E,4,17,1.2,2.9644,M,8.314,M,00,0004*6D
$GPHPD,0,0.000,298.38,-0.13,-15.09,31.5926900,120.7777709,2.964,13630413.170,24924985.645,2.964,0.000,0.000,0.000,0.000,0.000,0.000,0.000,17,17,4*79
$GPGGA,040146.80,3135.5614620,N,12046.6661355,E,4,17,1.2,2.9612,M,8.314,M,00,0004*64
$GPHPD,0,0.000,299.29,-0.11,-15.07,31.5926910,120.7777689,2.961,13630412.047,24924983.855,2.961,0.000,0.000,0.000,0.000,0.000,0.000,0.000,17,17,4*71
$GPGGA,040147.00,3135.5615288,N,12046.6660171,E,4,17,1.2,2.9666,M,8.314,M,01,0004*6D
$GPHPD,0,0.000,299.93,-0.20,-15.01,31.5926921,120.7777670,2.967,13630410.860,24924982.038,2.967,0.000,0.000,0.000,0.000,0.000,0.000,0.000,17,17,4*7D
$GPGGA,040147.20,3135.5615878,N,12046.6659001,E,4,17,1.2,2.9731,M,8.314,M,01,0004*65
$GPHPD,0,0.000,300.71,-0.44,-14.95,31.5926931,120.7777650,2.973,13630409.786,24924980.284,2.973,0.000,0.000,0.000,0.000,0.000,0.000,0.000,17,17,4*75
$GPGGA,040147.40,3135.5616487,N,12046.6657889,E,4,17,1.2,2.9649,M,8.314,M,01,0004*64
$GPHPD,0,0.000,301.69,-0.57,-14.93,31.5926941,120.7777631,2.965,13630408.696,24924978.588,2.965,0.000,0.000,0.000,0.000,0.000,0.000,0.000,17,17,4*74
$GPGGA,040147.60,3135.5617167,N,12046.6656778,E,4,17,1.2,2.9639,M,8.314,M,00,0004*6A
$GPHPD,0,0.000,302.35,-0.18,-14.92,31.5926953,120.7777613,2.964,13630407.506,24924976.853,2.964,0.000,0.000,0.000,0.000,0.000,0.000,0.000,17,17,4*77
$GPGGA,040147.80,3135.5617809,N,12046.6655691,E,4,17,1.2,2.9625,M,8.314,M,00,0004*6D
$GPHPD,0,0.000,303.44,-0.23,-14.89,31.5926963,120.7777595,2.963,13630406.375,24924975.168,2.963,0.000,0.000,0.000,0.000,0.000,0.000,0.000,17,17,4*7D
$GPGGA,040148.00,3135.5618456,N,12046.6654618,E,4,17,1.2,2.9615,M,8.314,M,01,0004*61
$GPHPD,0,0.000,304.21,-0.26,-14.88,31.5926974,120.7777577,2.962,13630405.239,24924973.498,2.962,0.000,0.000,0.000,0.000,0.000,0.000,0.000,17,17,4*71
$GPGGA,040148.20,3135.5619137,N,12046.6653607,E,4,17,1.2,2.9547,M,8.314,M,01,0004*6D
$GPHPD,0,0.000,305.20,-0.34,-14.88,31.5926986,120.7777560,2.955,13630404.068,24924971.882,2.955,0.000,0.000,0.000,0.000,0.000,0.000,0.000,17,17,4*7B
$GPGGA,040148.40,3135.5619797,N,12046.6652576,E,4,17,1.2,2.9481,M,8.314,M,01,0004*68
$GPHPD,0,0.000,305.69,-0.06,-14.90,31.5926997,120.7777543,2.948,13630402.923,24924970.255,2.948,0.000,0.000,0.000,0.000,0.000,0.000,0.000,17,17,4*7E
$GPGGA,040148.60,3135.5620502,N,12046.6651621,E,4,17,1.2,2.9564,M,8.314,M,00,0004*67
$GPHPD,0,0.000,306.78,-0.13,-14.91,31.5927008,120.7777527,2.956,13630401.728,24924968.693,2.956,0.000,0.000,0.000,0.000,0.000,0.000,0.000,17,17,4*75
$GPGGA,040148.80,3135.5621118,N,12046.6650640,E,4,17,1.2,2.9508,M,8.314,M,00,0004*6B
$GPHPD,0,0.000,307.10,-0.24,-14.91,31.5927019,120.7777511,2.951,13630400.655,24924967.151,2.951,0.000,0.000,0.000,0.000,0.000,0.000,0.000,17,17,4*77
$GPGGA,040149.00,3135.5621801,N,12046.6649732,E,4,17,1.2,2.9538,M,8.314,M,01,0004*6D
$GPHPD,0,0.000,307.94,-0.05,-14.90,31.5927030,120.7777496,2.954,13630399.502,24924965.658,2.954,0.000,0.000,0.000,0.000,0.000,0.000,0.000,17,17,4*76
$GPGGA,040149.20,3135.5622467,N,12046.6648803,E,4,17,1.2,2.9540,M,8.314,M,01,0004*63
$GPHPD,0,0.000,308.35,0.00,-14.91,31.5927041,120.7777480,2.954,13630398.368,24924964.150,2.954,0.000,0.000,0.000,0.000,0.000,0.000,0.000,17,17,4*5F
$GPGGA,040149.40,3135.5623114,N,12046.6647904,E,4,17,1.2,2.9466,M,8.314,M,01,0004*69
$GPHPD,0,0.000,308.78,-0.12,-14.94,31.5927052,120.7777465,2.947,13630397.268,24924962.690,2.947,0.000,0.000,0.000,0.000,0.000,0.000,0.000,17,17,4*77
$GPGGA,040149.60,3135.5623780,N,12046.6646998,E,4,17,1.2,2.9505,M,8.314,M,00,0004*61
$GPHPD,0,0.000,309.34,0.10,-14.96,31.5927063,120.7777450,2.951,13630396.139,24924961.209,2.951,0.000,0.000,0.000,0.000,0.000,0.000,0.000,17,17,4*56
$GPGGA,040149.80,3135.5624455,N,12046.6646120,E,4,17,1.2,2.9503,M,8.314,M,00,0004*6E
$GPHPD,0,0.000,309.86,-0.21,-14.99,31.5927074,120.7777435,2.950,13630395.003,24924959.758,2.950,0.000,0.000,0.000,0.000,0.000,0.000,0.000,17,17,4*7B
$GPGGA,040150.00,3135.5625143,N,12046.6645237,E,4,17,1.2,2.9458,M,8.314,M,01,0004*65
$GPHPD,0,0.000,310.51,-0.15,-15.03,31.5927086,120.7777421,2.946,13630393.847,24924958.292,2.946,0.000,0.000,0.000,0.000,0.000,0.000,0.000,17,17,4*78
$GPGGA,040150.20,3135.5625831,N,12046.6644354,E,4,17,1.2,2.9520,M,8.314,M,01,0004*60
$GPHPD,0,0.000,311.33,0.01,-15.06,31.5927097,120.7777406,2.952,13630392.692,24924956.827,2.952,0.000,0.000,0.000,0.000,0.000,0.000,0.000,17,17,4*58
$GPGGA,040150.40,3135.5626540,N,12046.6643478,E,4,17,1.2,2.9544,M,8.314,M,01,0004*62
$GPHPD,0,0.000,312.31,-0.28,-15.09,31.5927109,120.7777391,2.954,13630391.508,24924955.358,2.954,0.000,0.000,0.000,0.000,0.000,0.000,0.000,17,17,4*7C
$GPGGA,040150.60,3135.5627300,N,12046.6642550,E,4,17,1.2,2.9550,M,8.314,M,00,0004*6D
$GPHPD,0,0.000,313.17,-0.32,-15.15,31.5927122,120.7777376,2.955,13630390.241,24924953.796,2.955,0.000,0.000,0.000,0.000,0.000,0.000,0.000,17,17,4*74
$GPGGA,040150.80,3135.5628074,N,12046.6641612,E,4,17,1.2,2.9513,M,8.314,M,00,0004*6D
$GPHPD,0,0.000,313.86,-0.55,-15.21,31.5927135,120.7777360,2.951,13630388.952,24924952.214,2.951,0.000,0.000,0.000,0.000,0.000,0.000,0.000,17,17,4*75
$GPGGA,040151.00,3135.5628882,N,12046.6640731,E,4,17,1.2,2.9606,M,8.314,M,01,0004*62
$GPHPD,0,0.000,314.87,-0.27,-15.21,31.5927148,120.7777346,2.961,13630387.626,24924950.682,2.961,0.000,0.000,0.000,0.000,0.000,0.000,0.000,17,17,4*72
$GPGGA,040151.20,3135.5629738,N,12046.6639787,E,4,17,1.2,2.9575,M,8.314,M,01,0004*6B
$GPHPD,0,0.000,315.78,-0.91,-15.18,31.5927162,120.7777330,2.958,13630386.220,24924949.045,2.958,0.000,0.000,0.000,0.000,0.000,0.000,0.000,17,17,4*7B
$GPGGA,040151.40,3135.5630644,N,12046.6638881,E,4,17,1.2,2.9446,M,8.314,M,01,0004*66
$GPHPD,0,0.000,316.31,-1.00,-15.12,31.5927177,120.7777315,2.945,13630384.750,24924947.425,2.945,0.000,0.000,0.000,0.000,0.000,0.000,0.000,17,17,4*79
$GPGGA,040151.60,3135.5631542,N,12046.6637931,E,4,17,1.2,2.9409,M,8.314,M,00,0004*6F
$GPHPD,0,0.000,316.90,-0.62,-15.06,31.5927192,120.7777299,2.941,13630383.282,24924945.756,2.941,0.000,0.000,0.000,0.000,0.000,0.000,0.000,17,17,4*74
$GPGGA,040151.80,3135.5632463,N,12046.6637039,E,4,17,1.2,2.9237,M,8.314,M,00,0004*6A
$GPHPD,0,0.000,317.69,-0.69,-14.96,31.5927208,120.7777284,2.924,13630381.794,24924944.145,2.924,0.000,0.000,0.000,0.000,0.000,0.000,0.000,17,17,4*79
$GPGGA,040152.00,3135.5633351,N,12046.6636144,E,4,17,1.2,2.9352,M,8.314,M,01,0004*6F
$GPHPD,0,0.000,318.14,-0.13,-14.84,31.5927223,120.7777269,2.935,13630380.351,24924942.548,2.935,0.000,0.000,0.000,0.000,0.000,0.000,0.000,17,17,4*7B
$GPGGA,040152.20,3135.5634239,N,12046.6635254,E,4,17,1.2,2.9285,M,8.314,M,01,0004*6F
$GPHPD,0,0.000,318.55,-0.19,-14.78,31.5927237,120.7777254,2.929,13630378.910,24924940.958,2.929,0.000,0.000,0.000,0.000,0.000,0.000,0.000,17,17,4*7B
$GPGGA,040152.40,3135.5635146,N,12046.6634376,E,4,17,1.2,2.9349,M,8.314,M,01,0004*62
$GPHPD,0,0.000,318.81,0.12,-14.69,31.5927252,120.7777240,2.935,13630377.444,24924939.371,2.935,0.000,0.000,0.000,0.000,0.000,0.000,0.000,17,17,4*5E
$GPGGA,040152.60,3135.5636056,N,12046.6633546,E,4,17,1.2,2.9284,M,8.314,M,00,0004*60
$GPHPD,0,0.000,319.42,0.10,-14.59,31.5927268,120.7777226,2.928,13630375.984,24924937.841,2.928,0.000,0.000,0.000,0.000,0.000,0.000,0.000,17,17,4*5D
$GPGGA,040152.80,3135.5636956,N,12046.6632679,E,4,17,1.2,2.9366,M,8.314,M,00,0004*64
$GPHPD,0,0.000,319.68,-0.31,-14.46,31.5927283,120.7777211,2.937,13630374.530,24924936.271,2.937,0.000,0.000,0.000,0.000,0.000,0.000,0.000,17,17,4*7E
$GPGGA,040153.00,3135.5637886,N,12046.6631785,E,4,17,1.2,2.9318,M,8.314,M,01,0004*69
$GPHPD,0,0.000,319.89,-0.47,-14.35,31.5927298,120.7777196,2.932,13630373.029,24924934.652,2.932,0.000,0.000,0.000,0.000,0.000,0.000,0.000,17,16,4*7E
$GPGGA,040153.20,3135.5638717,N,12046.6630984,E,4,17,1.2,2.9416,M,8.314,M,01,0004*64
$GPHPD,0,0.000,320.11,-0.54,-14.29,31.5927312,120.7777183,2.942,13630371.686,24924933.202,2.942,0.000,0.000,0.000,0.000,0.000,0.000,0.000,17,16,4*7A
$GPGGA,040153.40,3135.5639554,N,12046.6630148,E,4,17,1.2,2.9546,M,8.314,M,01,0004*6A
$GPHPD,0,0.000,320.18,-0.85,-14.23,31.5927326,120.7777169,2.955,13630370.328,24924931.706,2.955,0.000,0.000,0.000,0.000,0.000,0.000,0.000,17,16,4*75
$GPGGA,040153.60,3135.5640460,N,12046.6629334,E,4,17,1.2,2.9391,M,8.314,M,00,0004*6C
$GPHPD,0,0.000,320.13,-1.03,-14.19,31.5927341,120.7777156,2.939,13630368.877,24924930.197,2.939,0.000,0.000,0.000,0.000,0.000,0.000,0.000,17,16,4*72
$GPGGA,040153.80,3135.5641326,N,12046.6628484,E,4,17,1.2,2.9410,M,8.314,M,00,0004*65
$GPHPD,0,0.000,320.59,-0.90,-14.16,31.5927355,120.7777141,2.941,13630367.475,24924928.668,2.941,0.000,0.000,0.000,0.000,0.000,0.000,0.000,17,16,4*74
$GPGGA,040154.00,3135.5642176,N,12046.6627616,E,4,17,1.2,2.9538,M,8.314,M,01,0004*62
$GPHPD,0,0.000,320.67,-1.30,-14.15,31.5927370,120.7777127,2.954,13630366.092,24924927.127,2.954,0.000,0.000,0.000,0.000,0.000,0.000,0.000,17,17,4*78
$GPGGA,040154.20,3135.5643084,N,12046.6626834,E,4,17,1.3,2.9408,M,8.314,M,01,0004*61
$GPHPD,0,0.000,320.61,-1.11,-14.15,31.5927385,120.7777114,2.941,13630364.644,24924925.655,2.941,0.000,0.000,0.000,0.000,0.000,0.000,0.000,17,16,4*79
$GPGGA,040154.40,3135.5643974,N,12046.6625984,E,4,17,1.3,2.9392,M,8.314,M,01,0004*6C
$GPHPD,0,0.000,320.62,-1.36,-14.10,31.5927400,120.7777100,2.939,13630363.208,24924924.112,2.939,0.000,0.000,0.000,0.000,0.000,0.000,0.000,17,16,4*7B
$GPGGA,040154.60,3135.5644880,N,12046.6625153,E,4,17,1.3,2.9305,M,8.314,M,00,0004*6E
$GPHPD,0,0.000,320.66,-1.28,-14.11,31.5927415,120.7777086,2.931,13630361.753,24924922.582,2.931,0.000,0.000,0.000,0.000,0.000,0.000,0.000,17,16,4*78
$GPGGA,040154.80,3135.5645758,N,12046.6624324,E,4,17,1.3,2.9315,M,8.314,M,00,0004*69
$GPHPD,0,0.000,320.44,-1.44,-14.12,31.5927429,120.7777072,2.932,13630360.339,24924921.071,2.932,0.000,0.000,0.000,0.000,0.000,0.000,0.000,17,16,4*76
$GPGGA,040155.00,3135.5646649,N,12046.6623460,E,4,17,1.3,2.9400,M,8.314,M,01,0004*60
$GPHPD,0,0.000,320.52,-1.52,-14.15,31.5927444,120.7777058,2.940,13630358.898,24924919.511,2.940,0.000,0.000,0.000,0.000,0.000,0.000,0.000,17,16,4*71
$GPGGA,040155.20,3135.5647589,N,12046.6622593,E,4,17,1.3,2.9361,M,8.314,M,01,0004*60
$GPHPD,0,0.000,320.60,-1.41,-14.19,31.5927460,120.7777043,2.936,13630357.388,24924917.918,2.936,0.000,0.000,0.000,0.000,0.000,0.000,0.000,17,16,4*7C
$GPGGA,040155.40,3135.5648504,N,12046.6621747,E,4,16,1.3,2.9261,M,8.314,M,01,0004*64
$GPHPD,0,0.000,320.47,-1.72,-14.25,31.5927475,120.7777029,2.926,13630355.917,24924916.365,2.926,0.000,0.000,0.000,0.000,0.000,0.000,0.000,16,16,4*70
$GPGGA,040155.60,3135.5649425,N,12046.6620879,E,4,16,1.3,2.9281,M,8.314,M,00,0004*69
$GPHPD,0,0.000,320.45,-1.42,-14.28,31.5927490,120.7777015,2.928,13630354.433,24924914.782,2.928,0.000,0.000,0.000,0.000,0.000,0.000,0.000,16,16,4*7D
$GPGGA,040155.80,3135.5650374,N,12046.6620022,E,4,16,1.3,2.9197,M,8.314,M,00,0004*6E
$GPHPD,0,0.000,320.62,-1.67,-14.29,31.5927506,120.7777000,2.920,13630352.912,24924913.196,2.920,0.000,0.000,0.000,0.000,0.000,0.000,0.000,16,16,4*78
$GPGGA,040156.00,3135.5651295,N,12046.6619157,E,4,16,1.3,2.9163,M,8.314,M,01,0004*69
$GPHPD,0,0.000,320.51,-1.29,-14.30,31.5927522,120.7776986,2.916,13630351.429,24924911.617,2.916,0.000,0.000,0.000,0.000,0.000,0.000,0.000,16,16,4*70
$GPGGA,040156.20,3135.5652241,N,12046.6618260,E,4,16,1.3,2.9050,M,8.314,M,01,0004*66
$GPHPD,0,0.000,320.34,-1.14,-14.31,31.5927537,120.7776971,2.905,13630349.904,24924909.984,2.905,0.000,0.000,0.000,0.000,0.000,0.000,0.000,16,16,4*77
$GPGGA,040156.40,3135.5653159,N,12046.6617405,E,4,16,1.3,2.9071,M,8.314,M,01,0004*62
$GPHPD,0,0.000,320.23,-0.88,-14.36,31.5927553,120.7776957,2.907,13630348.427,24924908.419,2.907,0.000,0.000,0.000,0.000,0.000,0.000,0.000,16,16,4*71
$GPGGA,040156.60,3135.5654085,N,12046.6616540,E,4,16,1.3,2.8925,M,8.314,M,00,0004*6E
$GPHPD,0,0.000,320.26,-1.20,-14.36,31.5927568,120.7776942,2.893,13630346.937,24924906.837,2.893,0.000,0.000,0.000,0.000,0.000,0.000,0.000,16,16,4*77
$GPGGA,040156.80,3135.5655038,N,12046.6615623,E,4,16,1.3,2.8983,M,8.314,M,00,0004*6E
$GPHPD,0,0.000,320.19,-0.74,-14.32,31.5927584,120.7776927,2.898,13630345.398,24924905.176,2.898,0.000,0.000,0.000,0.000,0.000,0.000,0.000,16,16,4*7D
$GPGGA,040157.00,3135.5656044,N,12046.6614749,E,4,16,1.3,2.8851,M,8.314,M,01,0004*6C
$GPHPD,0,0.000,320.17,-0.93,-14.33,31.5927601,120.7776912,2.885,13630343.792,24924903.536,2.885,0.000,0.000,0.000,0.000,0.000,0.000,0.000,16,16,4*7D
$GPGGA,040157.20,3135.5656989,N,12046.6613815,E,4,16,1.3,2.8976,M,8.314,M,01,0004*63
$GPHPD,0,0.000,320.30,-0.64,-14.32,31.5927616,120.7776897,2.898,13630342.261,24924901.860,2.898,0.000,0.000,0.000,0.000,0.000,0.000,0.000,16,16,4*7F
$GPGGA,040157.40,3135.5657940,N,12046.6612885,E,4,16,1.3,2.8970,M,8.314,M,01,0004*6F
$GPHPD,0,0.000,320.34,-0.97,-14.31,31.5927632,120.7776881,2.897,13630340.722,24924900.185,2.897,0.000,0.000,0.000,0.000,0.000,0.000,0.000,16,16,4*76
$GPGGA,040157.60,3135.5658918,N,12046.6611964,E,4,16,1.3,2.8881,M,8.314,M,00,0004*6C
$GPHPD,0,0.000,320.66,-1.44,-14.29,31.5927649,120.7776866,2.888,13630339.147,24924898.505,2.888,0.000,0.000,0.000,0.000,0.000,0.000,0.000,16,16,4*75
$GPGGA,040157.80,3135.5659882,N,12046.6611036,E,4,16,1.3,2.8862,M,8.314,M,00,0004*62
$GPHPD,0,0.000,320.58,-0.78,-14.27,31.5927665,120.7776851,2.886,13630337.590,24924896.824,2.886,0.000,0.000,0.000,0.000,0.000,0.000,0.000,16,16,4*72
$GPGGA,040158.00,3135.5660865,N,12046.6610150,E,4,16,1.3,2.8727,M,8.314,M,01,0004*69
$GPHPD,0,0.000,320.38,-0.86,-14.34,31.5927681,120.7776836,2.873,13630336.014,24924895.184,2.873,0.000,0.000,0.000,0.000,0.000,0.000,0.000,16,16,4*74
$GPGGA,040158.20,3135.5661803,N,12046.6609234,E,4,16,1.3,2.8774,M,8.314,M,01,0004*65
$GPHPD,0,0.000,320.17,-1.12,-14.39,31.5927697,120.7776821,2.877,13630334.497,24924893.533,2.877,0.000,0.000,0.000,0.000,0.000,0.000,0.000,16,16,4*7A
$GPGGA,040158.40,3135.5662807,N,12046.6608409,E,4,16,1.3,2.8717,M,8.314,M,01,0004*68
$GPHPD,0,0.000,320.50,-1.08,-14.45,31.5927713,120.7776807,2.872,13630332.904,24924891.953,2.872,0.000,0.000,0.000,0.000,0.000,0.000,0.000,16,16,4*79
$GPGGA,040158.60,3135.5663751,N,12046.6607451,E,4,16,1.3,2.8903,M,8.314,M,00,0004*6F
$GPHPD,0,0.000,320.17,-1.00,-14.48,31.5927729,120.7776791,2.890,13630331.369,24924890.249,2.890,0.000,0.000,0.000,0.000,0.000,0.000,0.000,16,16,4*75
$GPGGA,040158.80,3135.5664732,N,12046.6606591,E,4,16,1.3,2.8891,M,8.314,M,00,0004*65
$GPHPD,0,0.000,320.94,-1.26,-14.55,31.5927746,120.7776777,2.889,13630329.802,24924888.640,2.889,0.000,0.000,0.000,0.000,0.000,0.000,0.000,16,16,4*7C
$GPGGA,040159.00,3135.5665763,N,12046.6605693,E,4,16,1.3,2.8737,M,8.314,M,01,0004*69
$GPHPD,0,0.000,320.83,-1.30,-14.62,31.5927763,120.7776762,2.874,13630328.156,24924886.957,2.874,0.000,0.000,0.000,0.000,0.000,0.000,0.000,16,16,4*74
$GPGGA,040159.20,3135.5666748,N,12046.6604721,E,4,16,1.3,2.8624,M,8.314,M,01,0004*6B
$GPHPD,0,0.000,320.14,-0.78,-14.73,31.5927779,120.7776745,2.862,13630326.560,24924885.212,2.862,0.000,0.000,0.000,0.000,0.000,0.000,0.000,16,16,4*7F
$GPGGA,040159.40,3135.5667812,N,12046.6603786,E,4,16,1.3,2.8548,M,8.314,M,01,0004*6F
$GPHPD,0,0.000,320.75,-0.33,-14.86,31.5927797,120.7776730,2.855,13630324.860,24924883.465,2.855,0.000,0.000,0.000,0.000,0.000,0.000,0.000,16,16,4*70
$GPGGA,040159.60,3135.5668802,N,12046.6602780,E,4,16,1.3,2.8572,M,8.314,M,01,0004*6D
$GPHPD,0,0.000,320.95,-0.57,-14.96,31.5927813,120.7776713,2.857,13630323.250,24924881.675,2.857,0.000,0.000,0.000,0.000,0.000,0.000,0.000,16,16,4*70
$GPGGA,040159.80,3135.5669892,N,12046.6601760,E,4,16,1.3,2.8571,M,8.314,M,01,0004*65
$GPHPD,0,0.000,321.11,-0.67,-15.02,31.5927832,120.7776696,2.857,13630321.496,24924879.811,2.857,0.000,0.000,0.000,0.000,0.000,0.000,0.000,16,16,4*78
$GPGGA,040200.00,3135.5671033,N,12046.6600775,E,4,16,1.3,2.8453,M,8.314,M,02,0004*6F
$GPHPD,0,0.000,321.29,-0.98,-15.07,31.5927851,120.7776680,2.845,13630319.676,24924877.958,2.845,0.000,0.000,0.000,0.000,0.000,0.000,0.000,16,16,4*71
$GPGGA,040200.20,3135.5672087,N,12046.6599663,E,4,16,1.3,2.8653,M,8.314,M,02,0004*66
$GPHPD,0,0.000,319.89,0.12,-15.06,31.5927868,120.7776661,2.865,13630317.954,24924876.004,2.865,0.000,0.000,0.000,0.000,0.000,0.000,0.000,16,16,4*5B
$GPGGA,040200.40,3135.5673144,N,12046.6598721,E,4,16,1.4,2.8860,M,8.314,M,02,0004*60
$GPHPD,0,0.000,321.31,-0.60,-14.96,31.5927886,120.7776645,2.886,13630316.262,24924874.253,2.886,0.000,0.000,0.000,0.000,0.000,0.000,0.000,16,16,4*78
$GPGGA,040200.60,3135.5674265,N,12046.6597673,E,4,16,1.4,2.8574,M,8.314,M,02,0004*64
$GPHPD,0,0.000,320.28,-0.39,-14.91,31.5927904,120.7776628,2.857,13630314.458,24924872.336,2.857,0.000,0.000,0.000,0.000,0.000,0.000,0.000,16,16,4*73
$GPGGA,040200.80,3135.5675338,N,12046.6596616,E,4,16,1.4,2.8713,M,8.314,M,00,0004*61
$GPHPD,0,0.000,321.18,0.04,-14.92,31.5927922,120.7776610,2.871,13630312.720,24924870.437,2.871,0.000,0.000,0.000,0.000,0.000,0.000,0.000,16,15,4*53
$GPGGA,040201.00,3135.5676515,N,12046.6595709,E,4,16,1.4,2.8698,M,8.314,M,01,0004*6D
$GPHPD,0,0.000,321.60,-1.10,-14.91,31.5927942,120.7776595,2.870,13630310.865,24924868.658,2.870,0.000,0.000,0.000,0.000,0.000,0.000,0.000,16,15,4*70
$GPGGA,040201.20,3135.5677553,N,12046.6594543,E,4,16,1.6,2.8822,M,8.314,M,01,0004*6C
$GPHPD,0,0.000,320.98,-0.68,-14.92,31.5927959,120.7776576,2.882,13630309.155,24924866.647,2.882,0.000,0.000,0.000,0.000,0.000,0.000,0.000,16,15,4*7E
$GPGGA,040201.40,3135.5678756,N,12046.6593635,E,4,17,1.4,2.8636,M,8.314,M,01,0004*6F
$GPHPD,0,0.000,321.60,-0.39,-14.95,31.5927979,120.7776561,2.864,13630307.262,24924864.852,2.864,0.000,0.000,0.000,0.000,0.000,0.000,0.000,17,16,4*7C
$GPGGA,040201.60,3135.5679788,N,12046.6592587,E,4,17,1.4,2.8863,M,8.314,M,00,0004*6B
$GPHPD,0,0.000,321.75,-0.11,-14.93,31.5927996,120.7776543,2.886,13630305.585,24924862.987,2.886,0.000,0.000,0.000,0.000,0.000,0.000,0.000,17,16,4*76
$GPGGA,040201.80,3135.5680946,N,12046.6591552,E,4,17,1.4,2.8315,M,8.314,M,00,0004*6E
$GPHPD,0,0.000,322.71,-0.60,-14.90,31.5928016,120.7776526,2.832,13630303.730,24924861.065,2.832,0.000,0.000,0.000,0.000,0.000,0.000,0.000,17,16,4*75
$GPGGA,040202.00,3135.5682153,N,12046.6590584,E,4,17,1.4,2.8570,M,8.314,M,01,0004*65
$GPHPD,0,0.000,322.26,-0.74,-14.92,31.5928036,120.7776510,2.857,13630301.820,24924859.195,2.857,0.000,0.000,0.000,0.000,0.000,0.000,0.000,17,16,4*7E
$GPGGA,040202.20,3135.5683360,N,12046.6589569,E,4,17,1.4,2.8570,M,8.314,M,01,0004*6F
$GPHPD,0,0.000,322.02,-0.69,-14.92,31.5928056,120.7776493,2.857,13630299.900,24924857.268,2.857,0.000,0.000,0.000,0.000,0.000,0.000,0.000,17,15,4*77
$GPGGA,040202.40,3135.5684535,N,12046.6588427,E,4,17,1.4,2.8712,M,8.314,M,01,0004*64
$GPHPD,0,0.000,322.18,0.21,-14.90,31.5928076,120.7776474,2.871,13630298.001,24924855.207,2.871,0.000,0.000,0.000,0.000,0.000,0.000,0.000,17,16,4*55
$GPGGA,040202.60,3135.5685729,N,12046.6587383,E,4,17,1.4,2.8576,M,8.314,M,00,0004*6F
$GPHPD,0,0.000,322.63,-1.97,-14.92,31.5928095,120.7776456,2.858,13630296.093,24924853.253,2.858,0.000,0.000,0.000,0.000,0.000,0.000,0.000,17,14,4*77
$GPGGA,040202.80,3135.5687004,N,12046.6586345,E,4,17,1.4,2.8387,M,8.314,M,00,0004*68
$GPHPD,0,0.000,321.87,-2.08,-14.91,31.5928117,120.7776439,2.839,13630294.072,24924851.259,2.839,0.000,0.000,0.000,0.000,0.000,0.000,0.000,17,14,4*7F
$GPGGA,040203.00,3135.5688227,N,12046.6585289,E,4,17,1.4,2.8492,M,8.314,M,01,0004*6D
$GPHPD,0,0.000,321.54,-0.42,-14.89,31.5928137,120.7776421,2.849,13630292.122,24924849.274,2.849,0.000,0.000,0.000,0.000,0.000,0.000,0.000,17,14,4*7B
$GPGGA,040203.20,3135.5689472,N,12046.6584117,E,4,16,1.6,2.8695,M,8.314,M,01,0004*6B
$GPHPD,0,0.000,321.20,-0.72,-14.86,31.5928158,120.7776402,2.870,13630290.116,24924847.135,2.870,0.000,0.000,0.000,0.000,0.000,0.000,0.000,16,14,4*70
$GPGGA,040203.40,3135.5690678,N,12046.6583017,E,4,17,1.6,2.8590,M,8.314,M,01,0004*6C
$GPHPD,0,0.000,321.92,-2.02,-14.82,31.5928178,120.7776384,2.859,13630288.181,24924845.107,2.859,0.000,0.000,0.000,0.000,0.000,0.000,0.000,17,14,4*76
$GPGGA,040203.60,3135.5691914,N,12046.6581863,E,4,17,1.6,2.8481,M,8.314,M,00,0004*63
$GPHPD,0,0.000,322.07,-0.96,-14.80,31.5928199,120.7776364,2.848,13630286.192,24924842.996,2.848,0.000,0.000,0.000,0.000,0.000,0.000,0.000,17,14,4*7E
$GPGGA,040203.80,3135.5693185,N,12046.6580832,E,4,17,1.6,2.8524,M,8.314,M,00,0004*64
$GPHPD,0,0.000,322.17,0.40,-14.81,31.5928220,120.7776347,2.852,13630284.178,24924841.012,2.852,0.000,0.000,0.000,0.000,0.000,0.000,0.000,17,14,4*58
$GPGGA,040204.00,3135.5694424,N,12046.6579692,E,4,17,1.6,2.8408,M,8.314,M,01,0004*6E
$GPHPD,0,0.000,321.45,0.86,-14.79,31.5928240,120.7776328,2.841,13630282.187,24924838.916,2.841,0.000,0.000,0.000,0.000,0.000,0.000,0.000,17,14,4*5B
$GPGGA,040204.20,3135.5695644,N,12046.6578574,E,4,17,1.6,2.8416,M,8.314,M,01,0004*6C
$GPHPD,0,0.000,321.49,-0.04,-14.83,31.5928261,120.7776310,2.842,13630280.228,24924836.858,2.842,0.000,0.000,0.000,0.000,0.000,0.000,0.000,17,14,4*7C
$GPGGA,040204.40,3135.5696920,N,12046.6577502,E,4,17,1.6,2.8420,M,8.314,M,01,0004*6F
$GPHPD,0,0.000,321.68,0.09,-14.86,31.5928282,120.7776292,2.842,13630278.199,24924834.822,2.842,0.000,0.000,0.000,0.000,0.000,0.000,0.000,17,14,4*5D
$GPGGA,040204.60,3135.5698111,N,12046.6576341,E,4,17,1.6,2.8476,M,8.314,M,00,0004*6B
$GPHPD,0,0.000,321.44,0.11,-14.88,31.5928302,120.7776272,2.848,13630276.273,24924832.729,2.848,0.000,0.000,0.000,0.000,0.000,0.000,0.000,17,14,4*58
$GPGGA,040204.80,3135.5699339,N,12046.6575244,E,4,17,1.6,2.8567,M,8.314,M,00,0004*6A
$GPHPD,0,0.000,322.30,-0.68,-14.91,31.5928322,120.7776254,2.857,13630274.307,24924830.691,2.857,0.000,0.000,0.000,0.000,0.000,0.000,0.000,17,14,4*75
$GPGGA,040205.00,3135.5700592,N,12046.6574125,E,4,17,1.6,2.8486,M,8.314,M,01,0004*6F
$GPHPD,0,0.000,321.41,-0.27,-14.95,31.5928343,120.7776235,2.849,13630272.300,24924828.612,2.849,0.000,0.000,0.000,0.000,0.000,0.000,0.000,17,14,4*7C
$GPGGA,040205.20,3135.5701806,N,12046.6573015,E,4,17,1.6,2.8540,M,8.314,M,01,0004*62
$GPHPD,0,0.000,321.78,0.53,-14.97,31.5928363,120.7776217,2.854,13630270.352,24924826.567,2.854,0.000,0.000,0.000,0.000,0.000,0.000,0.000,17,13,4*55
$GPGGA,040205.40,3135.5703088,N,12046.6571952,E,4,16,1.6,2.8547,M,8.314,M,01,0004*66
$GPHPD,0,0.000,321.95,-0.60,-14.98,31.5928385,120.7776199,2.855,13630268.316,24924824.538,2.855,0.000,0.000,0.000,0.000,0.000,0.000,0.000,16,14,4*7E
$GPGGA,040205.60,3135.5704290,N,12046.6570812,E,4,16,1.6,2.8653,M,8.314,M,00,0004*6B
$GPHPD,0,0.000,321.28,-0.89,-14.97,31.5928405,120.7776180,2.865,13630266.378,24924822.464,2.865,0.000,0.000,0.000,0.000,0.000,0.000,0.000,16,14,4*7F
$GPGGA,040205.80,3135.5705498,N,12046.6569694,E,4,16,1.6,2.8664,M,8.314,M,00,0004*66
$GPHPD,0,0.000,322.34,-0.86,-14.94,31.5928425,120.7776162,2.866,13630264.436,24924820.412,2.866,0.000,0.000,0.000,0.000,0.000,0.000,0.000,16,14,4*7F
$GPGGA,040206.00,3135.5706754,N,12046.6568515,E,4,16,1.6,2.8490,M,8.314,M,01,0004*6E
$GPHPD,0,0.000,322.30,-1.38,-14.93,31.5928446,120.7776142,2.849,13630262.413,24924818.259,2.849,0.000,0.000,0.000,0.000,0.000,0.000,0.000,16,14,4*7C
$GPGGA,040206.20,3135.5708022,N,12046.6567490,E,4,16,1.6,2.8346,M,8.314,M,01,0004*6B
$GPHPD,0,0.000,322.61,-1.66,-14.92,31.5928467,120.7776125,2.835,13630260.405,24924816.285,2.835,0.000,0.000,0.000,0.000,0.000,0.000,0.000,16,14,4*7A
$GPGGA,040206.40,3135.5709202,N,12046.6566349,E,4,15,1.6,2.8530,M,8.314,M,01,0004*6A
$GPHPD,0,0.000,322.03,-0.76,-14.91,31.5928487,120.7776106,2.853,13630258.498,24924814.222,2.853,0.000,0.000,0.000,0.000,0.000,0.000,0.000,15,14,4*71
$GPGGA,040206.60,3135.5710474,N,12046.6565221,E,4,15,1.6,2.8526,M,8.314,M,00,0004*6D
$GPHPD,0,0.000,322.02,-1.49,-14.89,31.5928508,120.7776087,2.853,13630256.463,24924812.121,2.853,0.000,0.000,0.000,0.000,0.000,0.000,0.000,15,14,4*76
$GPGGA,040206.80,3135.5711706,N,12046.6564151,E,4,15,1.6,2.8597,M,8.314,M,00,0004*6B
$GPHPD,0,0.000,321.93,-1.08,-14.87,31.5928528,120.7776069,2.860,13630254.497,24924810.114,2.860,0.000,0.000,0.000,0.000,0.000,0.000,0.000,15,14,4*79
$GPGGA,040207.00,3135.5712992,N,12046.6563098,E,4,15,1.6,2.8361,M,8.314,M,01,0004*6F
$GPHPD,0,0.000,321.91,-0.84,-14.85,31.5928550,120.7776052,2.836,13630252.457,24924808.095,2.836,0.000,0.000,0.000,0.000,0.000,0.000,0.000,15,14,4*70
$GPGGA,040207.20,3135.5714202,N,12046.6561976,E,4,15,1.6,2.8561,M,8.314,M,01,0004*64
$GPHPD,0,0.000,321.64,-0.18,-14.83,31.5928570,120.7776033,2.856,13630250.512,24924806.038,2.856,0.000,0.000,0.000,0.000,0.000,0.000,0.000,15,14,4*77
$GPGGA,040207.40,3135.5715413,N,12046.6560861,E,4,15,1.6,2.8474,M,8.314,M,01,0004*66
$GPHPD,0,0.000,321.66,-0.44,-14.83,31.5928590,120.7776014,2.847,13630248.566,24924803.988,2.847,0.000,0.000,0.000,0.000,0.000,0.000,0.000,15,14,4*7A
$GPGGA,040207.60,3135.5716642,N,12046.6559743,E,4,15,1.6,2.8430,M,8.314,M,00,0004*65
$GPHPD,0,0.000,321.26,-0.62,-14.80,31.5928611,120.7775996,2.843,13630246.594,24924801.924,2.843,0.000,0.000,0.000,0.000,0.000,0.000,0.000,15,14,4*74
$GPGGA,040207.80,3135.5717893,N,12046.6558603,E,4,15,1.6,2.8239,M,8.314,M,00,0004*63
$GPHPD,0,0.000,321.54,-0.68,-14.79,31.5928632,120.7775977,2.824,13630244.587,24924799.821,2.824,0.000,0.000,0.000,0.000,0.000,0.000,0.000,15,14,4*79
$GPGGA,040208.00,3135.5719127,N,12046.6557517,E,4,15,1.6,2.8409,M,8.314,M,01,0004*61
$GPHPD,0,0.000,321.73,-0.46,-14.78,31.5928652,120.7775959,2.841,13630242.614,24924797.793,2.841,0.000,0.000,0.000,0.000,0.000,0.000,0.000,15,14,4*7C
$GPGGA,040208.20,3135.5720406,N,12046.6556404,E,4,14,1.6,2.8308,M,8.314,M,01,0004*6A
$GPHPD,0,0.000,321.44,-0.71,-14.78,31.5928673,120.7775940,2.831,13630240.573,24924795.707,2.831,0.000,0.000,0.000,0.000,0.000,0.000,0.000,14,14,4*79
$GPGGA,040208.40,3135.5721635,N,12046.6555232,E,4,15,1.6,2.8307,M,8.314,M,01,0004*61
$GPHPD,0,0.000,321.01,0.23,-14.76,31.5928694,120.7775921,2.831,13630238.590,24924793.578,2.831,0.000,0.000,0.000,0.000,0.000,0.000,0.000,15,14,4*5D
$GPGGA,040208.60,3135.5722888,N,12046.6554134,E,4,14,1.6,2.8353,M,8.314,M,00,0004*6D
$GPHPD,0,0.000,321.85,-0.26,-14.76,31.5928715,120.7775902,2.835,13630236.588,24924791.524,2.835,0.000,0.000,0.000,0.000,0.000,0.000,0.000,14,13,4*7A
$GPGGA,040208.80,3135.5724120,N,12046.6553002,E,4,14,1.6,2.8455,M,8.314,M,00,0004*6C
$GPHPD,0,0.000,320.78,0.07,-14.74,31.5928735,120.7775883,2.846,13630234.609,24924789.442,2.846,0.000,0.000,0.000,0.000,0.000,0.000,0.000,14,13,4*5F
$GPGGA,040209.00,3135.5725386,N,12046.6551865,E,4,14,1.6,2.8486,M,8.314,M,01,0004*6E
$GPHPD,0,0.000,321.35,-0.18,-14.73,31.5928756,120.7775864,2.849,13630232.581,24924787.334,2.849,0.000,0.000,0.000,0.000,0.000,0.000,0.000,14,13,4*72
$GPGGA,040209.20,3135.5726595,N,12046.6550687,E,4,14,1.6,2.8600,M,8.314,M,01,0004*64
$GPHPD,0,0.000,321.67,-0.33,-14.72,31.5928777,120.7775845,2.860,13630230.626,24924785.209,2.860,0.000,0.000,0.000,0.000,0.000,0.000,0.000,14,13,4*7C
$GPGGA,040209.40,3135.5727916,N,12046.6549566,E,4,14,1.6,2.8304,M,8.314,M,01,0004*61
$GPHPD,0,0.000,322.36,-1.58,-14.69,31.5928799,120.7775826,2.830,13630228.523,24924783.088,2.830,0.000,0.000,0.000,0.000,0.000,0.000,0.000,14,13,4*7A
$GPGGA,040209.60,3135.5729159,N,12046.6548359,E,4,14,1.6,2.8503,M,8.314,M,00,0004*65
$GPHPD,0,0.000,321.67,-0.36,-14.67,31.5928819,120.7775806,2.850,13630226.513,24924780.909,2.850,0.000,0.000,0.000,0.000,0.000,0.000,0.000,14,13,4*71
$GPGGA,040209.80,3135.5730432,N,12046.6547251,E,4,14,1.6,2.8523,M,8.314,M,00,0004*6F
$GPHPD,0,0.000,321.52,0.00,-14.64,31.5928841,120.7775788,2.852,13630224.481,24924778.832,2.852,0.000,0.000,0.000,0.000,0.000,0.000,0.000,14,13,4*5E
$GPGGA,040210.00,3135.5731715,N,12046.6546177,E,4,14,1.6,2.8355,M,8.314,M,01,0004*68
$GPHPD,0,0.000,322.00,-1.27,-14.62,31.5928862,120.7775770,2.836,13630222.441,24924776.790,2.836,0.000,0.000,0.000,0.000,0.000,0.000,0.000,14,13,4*70
$GPGGA,040210.20,3135.5732891,N,12046.6544887,E,4,14,1.6,2.8723,M,8.314,M,01,0004*6B
$GPHPD,0,0.000,322.05,-1.19,-14.62,31.5928882,120.7775748,2.872,13630220.510,24924774.549,2.872,0.000,0.000,0.000,0.000,0.000,0.000,0.000,14,13,4*7E
$GPGGA,040210.40,3135.5734290,N,12046.6543891,E,4,13,1.8,2.8288,M,8.314,M,01,0004*6D
$GPHPD,0,0.000,322.96,-1.57,-14.60,31.5928905,120.7775732,2.829,13630218.321,24924772.534,2.829,0.000,0.000,0.000,0.000,0.000,0.000,0.000,13,12,4*7A
$GPGGA,040210.60,3135.5735537,N,12046.6542750,E,4,13,1.8,2.8339,M,8.314,M,00,0004*6D
$GPHPD,0,0.000,322.31,-1.00,-14.61,31.5928926,120.7775713,2.834,13630216.319,24924770.432,2.834,0.000,0.000,0.000,0.000,0.000,0.000,0.000,13,12,4*76
$GPGGA,040210.80,3135.5736836,N,12046.6541615,E,4,13,1.8,2.8263,M,8.314,M,00,0004*61
$GPHPD,0,0.000,321.81,-0.95,-14.63,31.5928947,120.7775694,2.826,13630214.245,24924768.307,2.826,0.000,0.000,0.000,0.000,0.000,0.000,0.000,13,12,4*7A
$GPGGA,040211.00,3135.5738124,N,12046.6540536,E,4,13,1.8,2.8184,M,8.314,M,01,0004*64
$GPHPD,0,0.000,322.44,-1.12,-14.64,31.5928969,120.7775676,2.818,13630212.197,24924766.256,2.818,0.000,0.000,0.000,0.000,0.000,0.000,0.000,13,12,4*78
$GPGGA,040211.20,3135.5739395,N,12046.6539403,E,4,13,1.8,2.8184,M,8.314,M,01,0004*66
$GPHPD,0,0.000,321.80,-0.83,-14.65,31.5928990,120.7775657,2.818,13630210.162,24924764.150,2.818,0.000,0.000,0.000,0.000,0.000,0.000,0.000,13,12,4*71
$GPGGA,040211.40,3135.5740663,N,12046.6538248,E,4,13,1.8,2.8106,M,8.314,M,01,0004*60
$GPHPD,0,0.000,321.73,-0.65,-14.67,31.5929011,120.7775637,2.811,13630208.128,24924762.019,2.811,0.000,0.000,0.000,0.000,0.000,0.000,0.000,13,12,4*7D
$GPGGA,040211.60,3135.5741940,N,12046.6537152,E,4,13,1.8,2.8183,M,8.314,M,00,0004*66
$GPHPD,0,0.000,321.76,-0.55,-14.68,31.5929032,120.7775619,2.818,13630206.092,24924759.953,2.818,0.000,0.000,0.000,0.000,0.000,0.000,0.000,13,12,4*78
$GPGGA,040211.80,3135.5743233,N,12046.6536019,E,4,13,1.8,2.8134,M,8.314,M,00,0004*66
$GPHPD,0,0.000,321.17,-0.61,-14.68,31.5929054,120.7775600,2.813,13630204.026,24924757.834,2.813,0.000,0.000,0.000,0.000,0.000,0.000,0.000,13,12,4*73
$GPGGA,040212.00,3135.5744502,N,12046.6534882,E,4,13,1.8,2.8071,M,8.314,M,01,0004*66
$GPHPD,0,0.000,321.45,-0.32,-14.68,31.5929075,120.7775581,2.807,13630201.994,24924755.724,2.807,0.000,0.000,0.000,0.000,0.000,0.000,0.000,13,12,4*72
$GPGGA,040212.20,3135.5745766,N,12046.6533756,E,4,13,1.8,2.8120,M,8.314,M,01,0004*61
$GPHPD,0,0.000,321.63,-0.72,-14.67,31.5929096,120.7775563,2.812,13630199.971,24924753.631,2.812,0.000,0.000,0.000,0.000,0.000,0.000,0.000,13,12,4*76
$GPGGA,040212.40,3135.5747052,N,12046.6532635,E,4,13,1.8,2.8140,M,8.314,M,01,0004*66
$GPHPD,0,0.000,321.61,-0.70,-14.68,31.5929118,120.7775544,2.814,13630197.917,24924751.530,2.814,0.000,0.000,0.000,0.000,0.000,0.000,0.000,13,12,4*75
$GPGGA,040212.60,3135.5748277,N,12046.6531499,E,4,13,1.8,2.8140,M,8.314,M,00,0004*68
$GPHPD,0,0.000,321.65,-0.45,-14.66,31.5929138,120.7775525,2.814,13630195.948,24924749.447,2.814,0.000,0.000,0.000,0.000,0.000,0.000,0.000,13,12,4*7C
$GPGGA,040212.80,3135.5749525,N,12046.6530374,E,4,13,1.8,2.7966,M,8.314,M,00,0004*61
$GPHPD,0,0.000,321.50,-0.87,-14.66,31.5929159,120.7775506,2.797,13630193.948,24924747.364,2.797,0.000,0.000,0.000,0.000,0.000,0.000,0.000,13,12,4*7C
$GPGGA,040213.00,3135.5750737,N,12046.6529267,E,4,13,1.8,2.7955,M,8.314,M,01,0004*6B
$GPHPD,0,0.000,321.45,0.27,-14.68,31.5929179,120.7775488,2.796,13630192.002,24924745.323,2.796,0.000,0.000,0.000,0.000,0.000,0.000,0.000,13,12,4*53
$GPGGA,040213.20,3135.5751982,N,12046.6528166,E,4,13,1.8,2.7941,M,8.314,M,01,0004*6E
$GPHPD,0,0.000,322.06,-0.67,-14.70,31.5929200,120.7775469,2.794,13630190.011,24924743.271,2.794,0.000,0.000,0.000,0.000,0.000,0.000,0.000,13,12,4*75
$GPGGA,040213.40,3135.5753159,N,12046.6526983,E,4,15,1.6,2.8113,M,8.314,M,01,0004*61
$GPHPD,0,0.000,321.98,-0.39,-14.71,31.5929219,120.7775450,2.811,13630188.100,24924741.159,2.811,0.000,0.000,0.000,0.000,0.000,0.000,0.000,15,14,4*7A
$GPGGA,040213.60,3135.5754353,N,12046.6525849,E,4,15,1.6,2.8225,M,8.314,M,00,0004*6F
$GPHPD,0,0.000,322.00,-0.58,-14.72,31.5929239,120.7775431,2.823,13630186.175,24924739.096,2.823,0.000,0.000,0.000,0.000,0.000,0.000,0.000,15,14,4*78
$GPGGA,040213.80,3135.5755611,N,12046.6524800,E,4,16,1.6,2.8161,M,8.314,M,00,0004*6F
$GPHPD,0,0.000,322.74,-1.04,-14.72,31.5929260,120.7775413,2.816,13630184.176,24924737.099,2.816,0.000,0.000,0.000,0.000,0.000,0.000,0.000,16,15,4*7D
$GPGGA,040214.00,3135.5756824,N,12046.6523735,E,4,16,1.6,2.8196,M,8.313,M,01,0004*6B
$GPHPD,0,0.000,321.88,-0.90,-14.71,31.5929280,120.7775396,2.820,13630182.238,24924735.108,2.820,0.000,0.000,0.000,0.000,0.000,0.000,0.000,16,14,4*73
$GPGGA,040214.20,3135.5758097,N,12046.6522675,E,4,16,1.6,2.8301,M,8.313,M,01,0004*6F
$GPHPD,0,0.000,322.19,-1.01,-14.70,31.5929302,120.7775378,2.830,13630180.215,24924733.089,2.830,0.000,0.000,0.000,0.000,0.000,0.000,0.000,16,14,4*78
$GPGGA,040214.40,3135.5759288,N,12046.6521544,E,4,15,1.6,2.8115,M,8.313,M,01,0004*62
$GPHPD,0,0.000,321.86,-0.81,-14.70,31.5929321,120.7775359,2.812,13630178.295,24924731.032,2.812,0.000,0.000,0.000,0.000,0.000,0.000,0.000,15,14,4*78
$GPGGA,040214.60,3135.5760502,N,12046.6520438,E,4,15,1.6,2.8172,M,8.313,M,00,0004*64
$GPHPD,0,0.000,322.13,-0.98,-14.70,31.5929342,120.7775341,2.817,13630176.347,24924728.991,2.817,0.000,0.000,0.000,0.000,0.000,0.000,0.000,15,14,4*7B
$GPGGA,040214.80,3135.5761761,N,12046.6519419,E,4,15,1.6,2.8056,M,8.313,M,00,0004*62
$GPHPD,0,0.000,322.39,-0.45,-14.71,31.5929363,120.7775324,2.806,13630174.352,24924727.029,2.806,0.000,0.000,0.000,0.000,0.000,0.000,0.000,15,14,4*71
$GPGGA,040215.00,3135.5763006,N,12046.6518363,E,4,15,1.6,2.7975,M,8.313,M,01,0004*62
$GPHPD,0,0.000,322.17,-0.72,-14.69,31.5929383,120.7775306,2.798,13630172.370,24924725.031,2.798,0.000,0.000,0.000,0.000,0.000,0.000,0.000,15,14,4*73
$GPGGA,040215.20,3135.5764263,N,12046.6517302,E,4,15,1.6,2.8020,M,8.313,M,01,0004*68
$GPHPD,0,0.000,322.53,-0.42,-14.67,31.5929404,120.7775288,2.802,13630170.370,24924723.020,2.802,0.000,0.000,0.000,0.000,0.000,0.000,0.000,15,14,4*75
$GPGGA,040215.40,3135.5765472,N,12046.6516224,E,4,15,1.6,2.8101,M,8.313,M,01,0004*6F
$GPHPD,0,0.000,322.18,-0.57,-14.66,31.5929425,120.7775270,2.810,13630168.435,24924721.016,2.810,0.000,0.000,0.000,0.000,0.000,0.000,0.000,15,14,4*73
$GPGGA,040215.60,3135.5766699,N,12046.6515138,E,4,15,1.6,2.7889,M,8.313,M,00,0004*63
$GPHPD,0,0.000,322.37,-0.90,-14.65,31.5929445,120.7775252,2.789,13630166.472,24924718.992,2.789,0.000,0.000,0.000,0.000,0.000,0.000,0.000,15,14,4*72
$GPGGA,040215.80,3135.5767940,N,12046.6514064,E,4,15,1.6,2.7955,M,8.313,M,00,0004*6E
$GPHPD,0,0.000,322.58,-0.45,-14.66,31.5929466,120.7775234,2.796,13630164.492,24924716.974,2.796,0.000,0.000,0.000,0.000,0.000,0.000,0.000,15,14,4*7B
$GPGGA,040216.00,3135.5769159,N,12046.6512983,E,4,15,1.6,2.8078,M,8.313,M,01,0004*65
$GPHPD,0,0.000,322.37,-0.41,-14.65,31.5929486,120.7775216,2.808,13630162.542,24924714.961,2.808,0.000,0.000,0.000,0.000,0.000,0.000,0.000,15,14,4*77
$GPGGA,040216.20,3135.5770401,N,12046.6511899,E,4,15,1.6,2.8002,M,8.313,M,01,0004*63
$GPHPD,0,0.000,322.21,-0.98,-14.65,31.5929507,120.7775198,2.800,13630160.559,24924712.931,2.800,0.000,0.000,0.000,0.000,0.000,0.000,0.000,15,14,4*72
$GPGGA,040216.40,3135.5771635,N,12046.6510825,E,4,15,1.6,2.7899,M,8.313,M,01,0004*62
$GPHPD,0,0.000,322.29,-0.67,-14.59,31.5929527,120.7775180,2.790,13630158.589,24924710.917,2.790,0.000,0.000,0.000,0.000,0.000,0.000,0.000,15,14,4*7E
$GPGGA,040216.60,3135.5772891,N,12046.6509718,E,4,15,1.6,2.7871,M,8.313,M,00,0004*6D
$GPHPD,0,0.000,322.47,-0.50,-14.57,31.5929548,120.7775162,2.787,13630156.581,24924708.851,2.787,0.000,0.000,0.000,0.000,0.000,0.000,0.000,15,14,4*75
$GPGGA,040216.80,3135.5774133,N,12046.6508651,E,4,15,1.6,2.7869,M,8.313,M,00,0004*60
$GPHPD,0,0.000,322.21,-0.06,-14.54,31.5929569,120.7775144,2.787,13630154.601,24924706.841,2.787,0.000,0.000,0.000,0.000,0.000,0.000,0.000,15,14,4*74
$GPGGA,040217.00,3135.5775392,N,12046.6507547,E,4,15,1.6,2.8035,M,8.313,M,01,0004*65
$GPHPD,0,0.000,321.97,0.30,-14.52,31.5929590,120.7775126,2.804,13630152.589,24924704.777,2.804,0.000,0.000,0.000,0.000,0.000,0.000,0.000,15,14,4*5B
$GPGGA,040217.20,3135.5776646,N,12046.6506417,E,4,15,1.6,2.7950,M,8.313,M,01,0004*68
$GPHPD,0,0.000,322.27,-0.98,-14.52,31.5929611,120.7775107,2.795,13630150.580,24924702.684,2.795,0.000,0.000,0.000,0.000,0.000,0.000,0.000,15,14,4*75
$GPGGA,040217.40,3135.5777868,N,12046.6505311,E,4,15,1.6,2.8019,M,8.313,M,01,0004*64
$GPHPD,0,0.000,322.58,-0.62,-14.50,31.5929631,120.7775089,2.802,13630148.620,24924700.639,2.802,0.000,0.000,0.000,0.000,0.000,0.000,0.000,15,14,4*7B
$GPGGA,040217.60,3135.5779112,N,12046.6504234,E,4,15,1.6,2.8164,M,8.313,M,00,0004*61
$GPHPD,0,0.000,322.50,-0.75,-14.52,31.5929652,120.7775071,2.816,13630146.635,24924698.616,2.816,0.000,0.000,0.000,0.000,0.000,0.000,0.000,15,14,4*72
$GPGGA,040217.80,3135.5780389,N,12046.6503105,E,4,15,1.6,2.8073,M,8.313,M,00,0004*68
$GPHPD,0,0.000,322.26,-0.95,-14.54,31.5929673,120.7775052,2.807,13630144.593,24924696.511,2.807,0.000,0.000,0.000,0.000,0.000,0.000,0.000,15,13,4*79
$GPGGA,040218.00,3135.5781672,N,12046.6502016,E,4,15,1.6,2.8001,M,8.313,M,01,0004*69
$GPHPD,0,0.000,322.43,-0.68,-14.54,31.5929695,120.7775034,2.800,13630142.551,24924694.451,2.800,0.000,0.000,0.000,0.000,0.000,0.000,0.000,15,13,4*7F
$GPGGA,040218.20,3135.5782941,N,12046.6500936,E,4,15,1.6,2.7872,M,8.313,M,01,0004*6D
$GPHPD,0,0.000,322.48,-0.26,-14.56,31.5929716,120.7775016,2.787,13630140.530,24924692.410,2.787,0.000,0.000,0.000,0.000,0.000,0.000,0.000,15,13,4*70
$GPGGA,040218.40,3135.5784180,N,12046.6499801,E,4,15,1.6,2.7729,M,8.313,M,01,0004*6D
$GPHPD,0,0.000,321.88,-0.57,-14.60,31.5929736,120.7774997,2.773,13630138.540,24924690.320,2.773,0.000,0.000,0.000,0.000,0.000,0.000,0.000,15,13,4*71
$GPGGA,040218.60,3135.5785439,N,12046.6498692,E,4,15,1.6,2.7911,M,8.313,M,00,0004*68
$GPHPD,0,0.000,322.17,-0.72,-14.63,31.5929757,120.7774978,2.791,13630136.528,24924688.249,2.791,0.000,0.000,0.000,0.000,0.000,0.000,0.000,15,13,4*71
$GPGGA,040218.80,3135.5786703,N,12046.6497590,E,4,15,1.6,2.7816,M,8.313,M,00,0004*67
$GPHPD,0,0.000,322.10,-1.02,-14.64,31.5929778,120.7774960,2.782,13630134.509,24924686.185,2.782,0.000,0.000,0.000,0.000,0.000,0.000,0.000,15,14,4*78
$GPGGA,040219.00,3135.5787966,N,12046.6496490,E,4,15,1.6,2.7726,M,8.313,M,01,0004*6F
$GPHPD,0,0.000,321.64,-0.45,-14.67,31.5929799,120.7774942,2.773,13630132.493,24924684.123,2.773,0.000,0.000,0.000,0.000,0.000,0.000,0.000,15,14,4*7C
$GPGGA,040219.20,3135.5789193,N,12046.6495341,E,4,15,1.6,2.7590,M,8.313,M,01,0004*66
$GPHPD,0,0.000,321.48,-0.07,-14.67,31.5929820,120.7774922,2.759,13630130.518,24924682.023,2.759,0.000,0.000,0.000,0.000,0.000,0.000,0.000,15,14,4*78
$GPGGA,040219.40,3135.5790431,N,12046.6494224,E,4,17,1.6,2.7728,M,8.313,M,01,0004*65
$GPHPD,0,0.000,321.79,-0.03,-14.68,31.5929841,120.7774904,2.773,13630128.533,24924679.955,2.773,0.000,0.000,0.000,0.000,0.000,0.000,0.000,17,16,4*7E
$GPGGA,040219.60,3135.5791715,N,12046.6493107,E,4,17,1.6,2.7738,M,8.313,M,00,0004*66
$GPHPD,0,0.000,321.76,-0.78,-14.69,31.5929862,120.7774885,2.774,13630126.484,24924677.861,2.774,0.000,0.000,0.000,0.000,0.000,0.000,0.000,17,16,4*7E
$GPGGA,040219.80,3135.5792942,N,12046.6491990,E,4,17,1.6,2.7767,M,8.313,M,00,0004*69
$GPHPD,0,0.000,321.40,-0.38,-14.69,31.5929882,120.7774867,2.777,13630124.515,24924675.799,2.777,0.000,0.000,0.000,0.000,0.000,0.000,0.000,17,16,4*7C
$GPGGA,040220.00,3135.5794147,N,12046.6490890,E,4,17,1.6,2.7745,M,8.313,M,01,0004*61
$GPHPD,0,0.000,321.73,-0.64,-14.72,31.5929902,120.7774848,2.775,13630122.581,24924673.771,2.775,0.000,0.000,0.000,0.000,0.000,0.000,0.000,17,16,4*70
$GPGGA,040220.20,3135.5795385,N,12046.6489779,E,4,16,1.6,2.7592,M,8.313,M,01,0004*67
$GPHPD,0,0.000,321.75,-0.88,-14.72,31.5929923,120.7774830,2.759,13630120.598,24924671.711,2.759,0.000,0.000,0.000,0.000,0.000,0.000,0.000,16,16,4*77
$GPGGA,040220.40,3135.5796626,N,12046.6488651,E,4,17,1.6,2.7730,M,8.313,M,01,0004*6F
$GPHPD,0,0.000,321.24,0.68,-14.72,31.5929944,120.7774811,2.773,13630118.607,24924669.628,2.773,0.000,0.000,0.000,0.000,0.000,0.000,0.000,17,16,4*5F
$GPGGA,040220.60,3135.5797856,N,12046.6487525,E,4,17,1.6,2.7702,M,8.313,M,00,0004*6A
$GPHPD,0,0.000,321.12,0.41,-14.72,31.5929964,120.7774792,2.770,13630116.632,24924667.554,2.770,0.000,0.000,0.000,0.000,0.000,0.000,0.000,17,16,4*59
$GPGGA,040220.80,3135.5799099,N,12046.6486420,E,4,16,1.6,2.7667,M,8.313,M,00,0004*67
$GPHPD,0,0.000,321.07,1.05,-14.71,31.5929985,120.7774774,2.767,13630114.643,24924665.498,2.767,0.000,0.000,0.000,0.000,0.000,0.000,0.000,16,16,4*5E
$GPGGA,040221.00,3135.5800276,N,12046.6485272,E,4,17,1.6,2.7789,M,8.313,M,01,0004*61
$GPHPD,0,0.000,320.92,1.04,-14.70,31.5930005,120.7774755,2.779,13630112.739,24924663.428,2.779,0.000,0.000,0.000,0.000,0.000,0.000,0.000,17,16,4*5F
$GPGGA,040221.20,3135.5801496,N,12046.6484201,E,4,17,1.6,2.7873,M,8.313,M,01,0004*65
$GPHPD,0,0.000,321.37,0.78,-14.70,31.5930025,120.7774737,2.787,13630110.790,24924661.426,2.787,0.000,0.000,0.000,0.000,0.000,0.000,0.000,17,16,4*50
$GPGGA,040221.40,3135.5802682,N,12046.6483074,E,4,17,1.6,2.7958,M,8.313,M,01,0004*68
$GPHPD,0,0.000,321.60,0.21,-14.69,31.5930045,120.7774718,2.796,13630108.877,24924659.377,2.796,0.000,0.000,0.000,0.000,0.000,0.000,0.000,17,16,4*5A
$GPGGA,040221.60,3135.5803896,N,12046.6481974,E,4,17,1.6,2.8043,M,8.313,M,00,0004*66
$GPHPD,0,0.000,321.80,-0.73,-14.69,31.5930065,120.7774700,2.804,13630106.931,24924657.344,2.804,0.000,0.000,0.000,0.000,0.000,0.000,0.000,17,16,4*76
$GPGGA,040221.80,3135.5805048,N,12046.6480827,E,4,17,1.6,2.8128,M,8.313,M,00,0004*6F
$GPHPD,0,0.000,321.79,-0.61,-14.69,31.5930084,120.7774680,2.813,13630105.063,24924655.290,2.813,0.000,0.000,0.000,0.000,0.000,0.000,0.000,17,16,4*72
$GPGGA,040222.00,3135.5806340,N,12046.6479810,E,4,17,1.4,2.7874,M,8.313,M,01,0004*62
$GPHPD,0,0.000,322.41,-1.05,-14.67,31.5930106,120.7774664,2.787,13630103.022,24924653.311,2.787,0.000,0.000,0.000,0.000,0.000,0.000,0.000,17,16,4*7B
$GPGGA,040222.20,3135.5807605,N,12046.6478729,E,4,17,1.4,2.7777,M,8.313,M,01,0004*6D
$GPHPD,0,0.000,321.81,-0.74,-14.66,31.5930127,120.7774645,2.778,13630101.006,24924651.271,2.778,0.000,0.000,0.000,0.000,0.000,0.000,0.000,17,16,4*73
$GPGGA,040222.40,3135.5808837,N,12046.6477666,E,4,17,1.4,2.7800,M,8.313,M,01,0004*61
$GPHPD,0,0.000,321.61,-1.18,-14.65,31.5930147,120.7774628,2.780,13630099.041,24924649.272,2.780,0.000,0.000,0.000,0.000,0.000,0.000,0.000,17,16,4*71
$GPGGA,040222.60,3135.5810054,N,12046.6476523,E,4,17,1.4,2.7753,M,8.313,M,00,0004*6C
$GPHPD,0,0.000,321.55,-1.05,-14.63,31.5930168,120.7774609,2.775,13630097.081,24924647.185,2.775,0.000,0.000,0.000,0.000,0.000,0.000,0.000,17,15,4*76
$GPGGA,040222.80,3135.5811324,N,12046.6475470,E,4,17,1.4,2.7735,M,8.313,M,00,0004*63
$GPHPD,0,0.000,321.73,-1.31,-14.64,31.5930189,120.7774591,2.774,13630095.064,24924645.176,2.774,0.000,0.000,0.000,0.000,0.000,0.000,0.000,17,15,4*78
$GPGGA,040223.00,3135.5812509,N,12046.6474395,E,4,17,1.4,2.7735,M,8.313,M,01,0004*6C
$GPHPD,0,0.000,320.98,-1.02,-14.64,31.5930208,120.7774573,2.774,13630093.164,24924643.190,2.774,0.000,0.000,0.000,0.000,0.000,0.000,0.000,17,15,4*73
$GPGGA,040223.20,3135.5813741,N,12046.6473247,E,4,17,1.4,2.7599,M,8.313,M,01,0004*6C
$GPHPD,0,0.000,321.14,-1.18,-14.64,31.5930229,120.7774554,2.760,13630091.182,24924641.088,2.760,0.000,0.000,0.000,0.000,0.000,0.000,0.000,17,15,4*7B
$GPGGA,040223.40,3135.5814963,N,12046.6472142,E,4,17,1.4,2.7715,M,8.313,M,01,0004*62
$GPHPD,0,0.000,321.46,-1.05,-14.64,31.5930249,120.7774536,2.772,13630089.223,24924639.044,2.772,0.000,0.000,0.000,0.000,0.000,0.000,0.000,17,15,4*7C
$GPGGA,040223.60,3135.5816186,N,12046.6471004,E,4,17,1.4,2.7671,M,8.313,M,00,0004*63
$GPHPD,0,0.000,320.90,-0.59,-14.61,31.5930270,120.7774517,2.767,13630087.255,24924636.960,2.767,0.000,0.000,0.000,0.000,0.000,0.000,0.000,17,15,4*7D
$GPGGA,040223.80,3135.5817422,N,12046.6469878,E,4,16,1.6,2.7651,M,8.313,M,00,0004*6C
$GPHPD,0,0.000,321.09,-0.57,-14.62,31.5930290,120.7774498,2.765,13630085.272,24924634.882,2.765,0.000,0.000,0.000,0.000,0.000,0.000,0.000,16,15,4*70
$GPGGA,040224.00,3135.5818661,N,12046.6468731,E,4,16,1.6,2.7523,M,8.313,M,01,0004*6D
$GPHPD,0,0.000,320.83,-0.26,-14.65,31.5930311,120.7774479,2.752,13630083.280,24924632.778,2.752,0.000,0.000,0.000,0.000,0.000,0.000,0.000,16,15,4*72
$GPGGA,040224.20,3135.5819854,N,12046.6467589,E,4,16,1.6,2.7654,M,8.313,M,01,0004*6B
$GPHPD,0,0.000,321.61,0.36,-14.68,31.5930331,120.7774460,2.765,13630081.355,24924630.706,2.765,0.000,0.000,0.000,0.000,0.000,0.000,0.000,16,15,4*54
$GPGGA,040224.40,3135.5821049,N,12046.6466422,E,4,16,1.6,2.7699,M,8.313,M,01,0004*62
$GPHPD,0,0.000,321.19,0.46,-14.71,31.5930351,120.7774440,2.770,13630079.422,24924628.603,2.770,0.000,0.000,0.000,0.000,0.000,0.000,0.000,16,15,4*5D
$GPGGA,040224.60,3135.5822273,N,12046.6465324,E,4,16,1.6,2.7818,M,8.313,M,00,0004*6C
$GPHPD,0,0.000,321.97,-0.28,-14.72,31.5930371,120.7774422,2.782,13630077.461,24924626.566,2.782,0.000,0.000,0.000,0.000,0.000,0.000,0.000,16,15,4*7C
$GPGGA,040224.80,3135.5823574,N,12046.6464202,E,4,16,1.6,2.7676,M,8.313,M,00,0004*61
$GPHPD,0,0.000,321.65,-0.02,-14.71,31.5930393,120.7774403,2.768,13630075.386,24924624.456,2.768,0.000,0.000,0.000,0.000,0.000,0.000,0.000,16,15,4*79
$GPGGA,040225.00,3135.5824789,N,12046.6463066,E,4,16,1.6,2.7762,M,8.313,M,01,0004*6D
$GPHPD,0,0.000,321.81,-0.21,-14.71,31.5930413,120.7774384,2.776,13630073.431,24924622.379,2.776,0.000,0.000,0.000,0.000,0.000,0.000,0.000,16,15,4*74
$GPGGA,040225.20,3135.5826051,N,12046.6462010,E,4,16,1.4,2.7860,M,8.313,M,01,0004*60
$GPHPD,0,0.000,321.84,-0.16,-14.71,31.5930434,120.7774367,2.786,13630071.425,24924620.371,2.786,0.000,0.000,0.000,0.000,0.000,0.000,0.000,16,15,4*70
$GPGGA,040225.40,3135.5827276,N,12046.6460905,E,4,16,1.4,2.7974,M,8.313,M,01,0004*6B
$GPHPD,0,0.000,321.60,-0.51,-14.70,31.5930455,120.7774348,2.797,13630069.461,24924618.325,2.797,0.000,0.000,0.000,0.000,0.000,0.000,0.000,16,15,4*71
$GPGGA,040225.60,3135.5828492,N,12046.6459729,E,4,16,1.4,2.7777,M,8.313,M,00,0004*6C
$GPHPD,0,0.000,321.37,-0.88,-14.72,31.5930475,120.7774329,2.778,13630067.496,24924616.199,2.778,0.000,0.000,0.000,0.000,0.000,0.000,0.000,16,15,4*7D
$GPGGA,040225.80,3135.5829776,N,12046.6458692,E,4,16,1.4,2.7570,M,8.313,M,00,0004*6F
$GPHPD,0,0.000,321.71,-1.04,-14.73,31.5930496,120.7774312,2.757,13630065.463,24924614.201,2.757,0.000,0.000,0.000,0.000,0.000,0.000,0.000,16,15,4*76
$GPGGA,040226.00,3135.5830937,N,12046.6457491,E,4,16,1.4,2.7642,M,8.313,M,01,0004*6A
$GPHPD,0,0.000,320.98,-0.75,-14.73,31.5930516,120.7774292,2.764,13630063.571,24924612.076,2.764,0.000,0.000,0.000,0.000,0.000,0.000,0.000,16,15,4*77
$GPGGA,040226.20,3135.5832244,N,12046.6456419,E,4,16,1.4,2.7727,M,8.313,M,01,0004*66
$GPHPD,0,0.000,322.04,-0.80,-14.68,31.5930537,120.7774274,2.773,13630061.497,24924610.023,2.773,0.000,0.000,0.000,0.000,0.000,0.000,0.000,16,15,4*72
$GPGGA,040226.40,3135.5833492,N,12046.6455270,E,4,16,1.4,2.7502,M,8.313,M,01,0004*63
$GPHPD,0,0.000,321.48,-1.55,-14.67,31.5930558,120.7774255,2.750,13630059.493,24924607.911,2.750,0.000,0.000,0.000,0.000,0.000,0.000,0.000,16,15,4*74
$GPGGA,040226.60,3135.5834729,N,12046.6454178,E,4,16,1.4,2.7620,M,8.313,M,00,0004*6D
$GPHPD,0,0.000,321.58,-1.07,-14.68,31.5930579,120.7774236,2.762,13630057.515,24924605.874,2.762,0.000,0.000,0.000,0.000,0.000,0.000,0.000,16,15,4*7A
$GPGGA,040226.80,3135.5835987,N,12046.6453077,E,4,16,1.4,2.7502,M,8.313,M,00,0004*62
$GPHPD,0,0.000,321.30,-0.99,-14.67,31.5930600,120.7774218,2.750,13630055.505,24924603.814,2.750,0.000,0.000,0.000,0.000,0.000,0.000,0.000,16,15,4*7F
$GPGGA,040227.00,3135.5837175,N,12046.6451927,E,4,16,1.4,2.7582,M,8.313,M,01,0004*6B
$GPHPD,0,0.000,321.41,-0.82,-14.65,31.5930620,120.7774199,2.758,13630053.585,24924601.735,2.758,0.000,0.000,0.000,0.000,0.000,0.000,0.000,16,15,4*79
$GPGGA,040227.20,3135.5838425,N,12046.6450786,E,4,16,1.4,2.7439,M,8.313,M,01,0004*63
$GPHPD,0,0.000,321.69,-1.01,-14.63,31.5930640,120.7774180,2.744,13630051.579,24924599.631,2.744,0.000,0.000,0.000,0.000,0.000,0.000,0.000,16,15,4*77
$GPGGA,040227.40,3135.5839655,N,12046.6449686,E,4,16,1.4,2.7359,M,8.313,M,01,0004*69
$GPHPD,0,0.000,321.67,-1.01,-14.64,31.5930661,120.7774161,2.736,13630049.609,24924597.589,2.736,0.000,0.000,0.000,0.000,0.000,0.000,0.000,16,15,4*71
$GPGGA,040227.60,3135.5840874,N,12046.6448555,E,4,16,1.4,2.7487,M,8.313,M,00,0004*61
$GPHPD,0,0.000,321.44,-0.69,-14.64,31.5930681,120.7774143,2.749,13630047.649,24924595.515,2.749,0.000,0.000,0.000,0.000,0.000,0.000,0.000,16,15,4*7C
$GPGGA,040227.80,3135.5842130,N,12046.6447450,E,4,16,1.4,2.7363,M,8.313,M,00,0004*62
$GPHPD,0,0.000,321.34,-0.94,-14.65,31.5930702,120.7774124,2.736,13630045.642,24924593.452,2.736,0.000,0.000,0.000,0.000,0.000,0.000,0.000,16,15,4*7E
$GPGGA,040228.00,3135.5843340,N,12046.6446299,E,4,16,1.2,2.7427,M,8.313,M,01,0004*63
$GPHPD,0,0.000,321.04,-0.14,-14.66,31.5930722,120.7774105,2.743,13630043.690,24924591.359,2.743,0.000,0.000,0.000,0.000,0.000,0.000,0.000,16,15,4*70
$GPGGA,040228.20,3135.5844583,N,12046.6445197,E,4,16,1.2,2.7517,M,8.313,M,01,0004*63
$GPHPD,0,0.000,321.03,-0.53,-14.68,31.5930743,120.7774087,2.752,13630041.702,24924589.307,2.752,0.000,0.000,0.000,0.000,0.000,0.000,0.000,16,15,4*7C
$GPGGA,040228.40,3135.5845836,N,12046.6444037,E,4,16,1.4,2.7410,M,8.313,M,01,0004*6D
