$GPGGA,040353.80,3135.6232412,N,12046.6098107,E,4,17,1.2,2.4252,M,8.310,M,00,0004*6E
$GPHPD,0,0.000,324.90,0.28,-15.65,31.5937207,120.7768302,2.425,13629420.655,24923944.961,2.425,0.000,0.000,0.000,0.000,0.000,0.000,0.000,17,16,4*55
$GPGGA,040354.00,3135.6232665,N,12046.6097914,E,4,17,1.2,2.4318,M,8.310,M,01,0004*68
$GPHPD,0,0.000,325.28,0.58,-15.51,31.5937211,120.7768299,2.432,13629420.257,24923944.581,2.432,0.000,0.000,0.000,0.000,0.000,0.000,0.000,17,16,4*57
$GPGGA,040354.20,3135.6232895,N,12046.6097772,E,4,17,1.2,2.4280,M,8.310,M,01,0004*65
$GPHPD,0,0.000,325.50,0.34,-15.46,31.5937215,120.7768296,2.428,13629419.902,24923944.276,2.428,0.000,0.000,0.000,0.000,0.000,0.000,0.000,17,16,4*51
$GPGGA,040354.40,3135.6233072,N,12046.6097612,E,4,17,1.2,2.4314,M,8.310,M,01,0004*68
$GPHPD,0,0.000,325.60,0.59,-15.44,31.5937218,120.7768294,2.431,13629419.618,24923943.980,2.431,0.000,0.000,0.000,0.000,0.000,0.000,0.000,17,16,4*55
$GPGGA,040354.60,3135.6233261,N,12046.6097467,E,4,17,1.2,2.4284,M,8.310,M,00,0004*63
$GPHPD,0,0.000,325.70,0.60,-15.44,31.5937221,120.7768291,2.428,13629419.320,24923943.695,2.428,0.000,0.000,0.000,0.000,0.000,0.000,0.000,17,16,4*54
$GPGGA,040354.80,3135.6233501,N,12046.6097288,E,4,17,1.2,2.4242,M,8.310,M,00,0004*61
$GPHPD,0,0.000,326.12,0.71,-15.45,31.5937225,120.7768288,2.424,13629418.943,24923943.340,2.424,0.000,0.000,0.000,0.000,0.000,0.000,0.000,17,16,4*5D
$GPGGA,040355.00,3135.6233695,N,12046.6097091,E,4,17,1.2,2.4318,M,8.310,M,01,0004*63
$GPHPD,0,0.000,326.28,0.47,-15.45,31.5937228,120.7768285,2.432,13629418.628,24923942.989,2.432,0.000,0.000,0.000,0.000,0.000,0.000,0.000,17,16,4*5D
$GPGGA,040355.20,3135.6233964,N,12046.6096885,E,4,17,1.2,2.4367,M,8.310,M,01,0004*64
$GPHPD,0,0.000,326.58,0.81,-15.48,31.5937233,120.7768281,2.437,13629418.204,24923942.584,2.437,0.000,0.000,0.000,0.000,0.000,0.000,0.000,17,16,4*58
$GPGGA,040355.40,3135.6234268,N,12046.6096662,E,4,17,1.2,2.4366,M,8.310,M,01,0004*64
$GPHPD,0,0.000,326.79,0.68,-15.53,31.5937238,120.7768278,2.437,13629417.727,24923942.138,2.437,0.000,0.000,0.000,0.000,0.000,0.000,0.000,17,16,4*53
$GPGGA,040355.60,3135.6234666,N,12046.6096397,E,4,17,1.2,2.4356,M,8.310,M,00,0004*61
$GPHPD,0,0.000,327.11,0.52,-15.57,31.5937244,120.7768273,2.436,13629417.108,24923941.587,2.436,0.000,0.000,0.000,0.000,0.000,0.000,0.000,17,16,4*59
$GPGGA,040355.80,3135.6235103,N,12046.6096087,E,4,17,1.2,2.4313,M,8.310,M,00,0004*69
$GPHPD,0,0.000,327.40,0.52,-15.61,31.5937252,120.7768268,2.431,13629416.424,24923940.959,2.431,0.000,0.000,0.000,0.000,0.000,0.000,0.000,17,16,4*51
$GPGGA,040356.00,3135.6235572,N,12046.6095749,E,4,17,1.2,2.4363,M,8.310,M,01,0004*60
$GPHPD,0,0.000,327.72,0.63,-15.66,31.5937260,120.7768262,2.436,13629415.690,24923940.278,2.436,0.000,0.000,0.000,0.000,0.000,0.000,0.000,17,16,4*58
$GPGGA,040356.20,3135.6236120,N,12046.6095385,E,4,17,1.2,2.4315,M,8.310,M,01,0004*67
$GPHPD,0,0.000,328.24,0.61,-15.68,31.5937269,120.7768256,2.432,13629414.838,24923939.520,2.432,0.000,0.000,0.000,0.000,0.000,0.000,0.000,17,16,4*5F
$GPGGA,040356.40,3135.6236744,N,12046.6094979,E,4,17,1.2,2.4406,M,8.310,M,01,0004*68
$GPHPD,0,0.000,328.73,0.57,-15.67,31.5937279,120.7768250,2.441,13629413.869,24923938.667,2.441,0.000,0.000,0.000,0.000,0.000,0.000,0.000,17,16,4*52
$GPGGA,040356.60,3135.6237374,N,12046.6094560,E,4,17,1.2,2.4389,M,8.310,M,00,0004*69
$GPHPD,0,0.000,329.02,0.50,-15.61,31.5937290,120.7768243,2.439,13629412.890,24923937.795,2.439,0.000,0.000,0.000,0.000,0.000,0.000,0.000,17,16,4*55
$GPGGA,040356.80,3135.6238011,N,12046.6094132,E,4,17,1.2,2.4274,M,8.310,M,00,0004*68
$GPHPD,0,0.000,329.79,0.25,-15.47,31.5937300,120.7768236,2.427,13629411.898,24923936.908,2.427,0.000,0.000,0.000,0.000,0.000,0.000,0.000,17,16,4*55
$GPGGA,040357.00,3135.6238575,N,12046.6093789,E,4,17,1.2,2.4421,M,8.310,M,01,0004*60
$GPHPD,0,0.000,330.35,0.50,-15.27,31.5937310,120.7768230,2.442,13629411.027,24923936.166,2.442,0.000,0.000,0.000,0.000,0.000,0.000,0.000,17,16,4*5A
$GPGGA,040357.20,3135.6239092,N,12046.6093518,E,4,17,1.2,2.4390,M,8.310,M,01,0004*68
$GPHPD,0,0.000,330.99,-0.12,-15.14,31.5937318,120.7768225,2.439,13629410.238,24923935.538,2.439,0.000,0.000,0.000,0.000,0.000,0.000,0.000,17,16,4*7A
$GPGGA,040357.40,3135.6239469,N,12046.6093256,E,4,17,1.2,2.4504,M,8.310,M,01,0004*68
$GPHPD,0,0.000,331.12,-0.10,-15.04,31.5937324,120.7768221,2.450,13629409.650,24923935.003,2.450,0.000,0.000,0.000,0.000,0.000,0.000,0.000,17,16,4*7F
$GPGGA,040357.60,3135.6239886,N,12046.6093022,E,4,17,1.2,2.4389,M,8.310,M,00,0004*64
$GPHPD,0,0.000,331.62,-0.40,-14.98,31.5937331,120.7768217,2.439,13629409.010,24923934.478,2.439,0.000,0.000,0.000,0.000,0.000,0.000,0.000,17,16,4*73
$GPGGA,040357.80,3135.6240251,N,12046.6092825,E,4,17,1.2,2.4483,M,8.310,M,00,0004*67
$GPHPD,0,0.000,331.86,0.04,-14.94,31.5937338,120.7768214,2.448,13629408.451,24923934.028,2.448,0.000,0.000,0.000,0.000,0.000,0.000,0.000,17,16,4*53
$GPGGA,040358.00,3135.6240596,N,12046.6092605,E,4,17,1.2,2.4470,M,8.310,M,01,0004*6D
$GPHPD,0,0.000,332.06,-0.32,-14.91,31.5937343,120.7768210,2.447,13629407.917,24923933.562,2.447,0.000,0.000,0.000,0.000,0.000,0.000,0.000,17,16,4*71
$GPGGA,040358.20,3135.6240959,N,12046.6092395,E,4,17,1.2,2.4492,M,8.310,M,01,0004*60
$GPHPD,0,0.000,332.53,-0.44,-14.91,31.5937349,120.7768207,2.449,13629407.359,24923933.097,2.449,0.000,0.000,0.000,0.000,0.000,0.000,0.000,17,16,4*73
$GPGGA,040358.40,3135.6241339,N,12046.6092186,E,4,17,1.2,2.4492,M,8.310,M,01,0004*6B
$GPHPD,0,0.000,332.83,-0.62,-14.91,31.5937356,120.7768203,2.449,13629406.777,24923932.624,2.449,0.000,0.000,0.000,0.000,0.000,0.000,0.000,17,16,4*76
$GPGGA,040358.60,3135.6241728,N,12046.6091953,E,4,17,1.2,2.4415,M,8.310,M,00,0004*60
$GPHPD,0,0.000,332.93,-0.50,-14.92,31.5937362,120.7768199,2.442,13629406.177,24923932.116,2.442,0.000,0.000,0.000,0.000,0.000,0.000,0.000,17,16,4*72
$GPGGA,040358.80,3135.6242116,N,12046.6091770,E,4,17,1.2,2.4496,M,8.310,M,00,0004*62
$GPHPD,0,0.000,333.42,-0.32,-14.95,31.5937369,120.7768196,2.450,13629405.589,24923931.670,2.450,0.000,0.000,0.000,0.000,0.000,0.000,0.000,17,16,4*7A
$GPGGA,040359.00,3135.6242578,N,12046.6091538,E,4,17,1.2,2.4452,M,8.310,M,01,0004*60
$GPHPD,0,0.000,333.55,-0.25,-14.99,31.5937376,120.7768192,2.445,13629404.885,24923931.121,2.445,0.000,0.000,0.000,0.000,0.000,0.000,0.000,17,16,4*7F
$GPGGA,040359.20,3135.6243066,N,12046.6091281,E,4,17,1.2,2.4516,M,8.310,M,01,0004*6D
$GPHPD,0,0.000,333.87,-0.20,-15.00,31.5937384,120.7768188,2.452,13629404.140,24923930.527,2.452,0.000,0.000,0.000,0.000,0.000,0.000,0.000,17,16,4*71
$GPGGA,040359.40,3135.6243571,N,12046.6091009,E,4,17,1.2,2.4471,M,8.310,M,01,0004*6A
$GPHPD,0,0.000,334.19,-0.30,-15.01,31.5937393,120.7768183,2.447,13629403.368,24923929.905,2.447,0.000,0.000,0.000,0.000,0.000,0.000,0.000,17,16,4*77
$GPGGA,040359.60,3135.6244117,N,12046.6090687,E,4,17,1.2,2.4521,M,8.310,M,00,0004*6F
$GPHPD,0,0.000,334.78,-0.25,-15.01,31.5937402,120.7768178,2.452,13629402.527,24923929.199,2.452,0.000,0.000,0.000,0.000,0.000,0.000,0.000,17,16,4*7E
$GPGGA,040359.80,3135.6244715,N,12046.6090419,E,4,17,1.2,2.4440,M,8.310,M,00,0004*66
$GPHPD,0,0.000,335.23,-0.16,-15.00,31.5937412,120.7768174,2.444,13629401.623,24923928.527,2.444,0.000,0.000,0.000,0.000,0.000,0.000,0.000,17,16,4*79
$GPGGA,040400.00,3135.6245249,N,12046.6090142,E,4,17,1.2,2.4499,M,8.310,M,01,0004*66
$GPHPD,0,0.000,335.48,0.11,-14.97,31.5937421,120.7768169,2.450,13629400.808,24923927.882,2.450,0.000,0.000,0.000,0.000,0.000,0.000,0.000,17,16,4*56
$GPGGA,040400.20,3135.6245797,N,12046.6089873,E,4,17,1.2,2.4525,M,8.310,M,01,0004*67
$GPHPD,0,0.000,335.77,-0.13,-14.90,31.5937430,120.7768165,2.453,13629399.975,24923927.239,2.453,0.000,0.000,0.000,0.000,0.000,0.000,0.000,17,16,4*78
$GPGGA,040400.40,3135.6246273,N,12046.6089652,E,4,17,1.2,2.4537,M,8.310,M,01,0004*63
$GPHPD,0,0.000,336.13,-0.03,-14.79,31.5937438,120.7768161,2.454,13629399.254,24923926.695,2.454,0.000,0.000,0.000,0.000,0.000,0.000,0.000,17,16,4*78
$GPGGA,040400.60,3135.6246692,N,12046.6089443,E,4,17,1.2,2.4518,M,8.310,M,00,0004*64
$GPHPD,0,0.000,336.52,-0.08,-14.72,31.5937445,120.7768157,2.452,13629398.617,24923926.199,2.452,0.000,0.000,0.000,0.000,0.000,0.000,0.000,17,16,4*7B
$GPGGA,040400.80,3135.6247100,N,12046.6089252,E,4,17,1.2,2.4591,M,8.310,M,00,0004*60
$GPHPD,0,0.000,336.71,-0.17,-14.67,31.5937452,120.7768154,2.459,13629397.998,24923925.731,2.459,0.000,0.000,0.000,0.000,0.000,0.000,0.000,17,16,4*75
$GPGGA,040401.00,3135.6247470,N,12046.6089078,E,4,17,1.2,2.4673,M,8.310,M,01,0004*6F
$GPHPD,0,0.000,337.12,-0.27,-14.65,31.5937458,120.7768151,2.467,13629397.438,24923925.306,2.467,0.000,0.000,0.000,0.000,0.000,0.000,0.000,17,16,4*78
$GPGGA,040401.20,3135.6247785,N,12046.6088933,E,4,17,1.2,2.4636,M,8.310,M,01,0004*62
$GPHPD,0,0.000,337.41,-0.21,-14.65,31.5937463,120.7768149,2.464,13629396.961,24923924.948,2.464,0.000,0.000,0.000,0.000,0.000,0.000,0.000,17,16,4*78
$GPGGA,040401.40,3135.6248108,N,12046.6088803,E,4,17,1.2,2.4541,M,8.310,M,01,0004*69
$GPHPD,0,0.000,337.43,-0.17,-14.67,31.5937468,120.7768147,2.454,13629396.475,24923924.603,2.454,0.000,0.000,0.000,0.000,0.000,0.000,0.000,17,16,4*70
$GPGGA,040401.60,3135.6248470,N,12046.6088638,E,4,17,1.2,2.4587,M,8.310,M,00,0004*6C
$GPHPD,0,0.000,337.41,0.17,-14.72,31.5937475,120.7768144,2.459,13629395.928,24923924.193,2.459,0.000,0.000,0.000,0.000,0.000,0.000,0.000,17,16,4*5C
$GPGGA,040401.80,3135.6248824,N,12046.6088470,E,4,17,1.2,2.4563,M,8.310,M,00,0004*6B
$GPHPD,0,0.000,337.72,0.08,-14.80,31.5937480,120.7768141,2.456,13629395.391,24923923.785,2.456,0.000,0.000,0.000,0.000,0.000,0.000,0.000,17,16,4*5E
$GPGGA,040402.00,3135.6249236,N,12046.6088309,E,4,17,1.2,2.4519,M,8.310,M,01,0004*6D
$GPHPD,0,0.000,338.20,0.15,-14.90,31.5937487,120.7768138,2.452,13629394.773,24923923.351,2.452,0.000,0.000,0.000,0.000,0.000,0.000,0.000,17,16,4*56
$GPGGA,040402.20,3135.6249677,N,12046.6088081,E,4,17,1.2,2.4538,M,8.310,M,01,0004*6E
$GPHPD,0,0.000,338.31,0.28,-14.96,31.5937495,120.7768135,2.454,13629394.100,24923922.819,2.454,0.000,0.000,0.000,0.000,0.000,0.000,0.000,17,16,4*54
$GPGGA,040402.40,3135.6250163,N,12046.6087891,E,4,17,1.2,2.4556,M,8.310,M,01,0004*6C
$GPHPD,0,0.000,338.56,0.12,-15.03,31.5937503,120.7768132,2.456,13629393.371,24923922.307,2.456,0.000,0.000,0.000,0.000,0.000,0.000,0.000,17,16,4*5F
$GPGGA,040402.60,3135.6250722,N,12046.6087679,E,4,17,1.2,2.4488,M,8.310,M,00,0004*66
$GPHPD,0,0.000,339.07,0.06,-15.08,31.5937512,120.7768128,2.449,13629392.534,24923921.726,2.449,0.000,0.000,0.000,0.000,0.000,0.000,0.000,17,16,4*5D
$GPGGA,040402.80,3135.6251315,N,12046.6087448,E,4,17,1.2,2.4551,M,8.310,M,00,0004*6C
$GPHPD,0,0.000,339.15,0.08,-15.13,31.5937522,120.7768124,2.455,13629391.645,24923921.102,2.455,0.000,0.000,0.000,0.000,0.000,0.000,0.000,17,16,4*53
$GPGGA,040403.00,3135.6251950,N,12046.6087170,E,4,17,1.2,2.4461,M,8.310,M,01,0004*63
$GPHPD,0,0.000,339.46,0.07,-15.15,31.5937533,120.7768120,2.446,13629390.686,24923920.397,2.446,0.000,0.000,0.000,0.000,0.000,0.000,0.000,17,16,4*59
$GPGGA,040403.20,3135.6252580,N,12046.6086939,E,4,17,1.2,2.4537,M,8.310,M,01,0004*65
$GPHPD,0,0.000,339.97,0.28,-15.14,31.5937543,120.7768116,2.454,13629389.745,24923919.751,2.454,0.000,0.000,0.000,0.000,0.000,0.000,0.000,17,16,4*59
$GPGGA,040403.40,3135.6253200,N,12046.6086694,E,4,17,1.2,2.4532,M,8.310,M,01,0004*60
$GPHPD,0,0.000,340.08,0.13,-15.08,31.5937553,120.7768112,2.453,13629388.814,24923919.095,2.453,0.000,0.000,0.000,0.000,0.000,0.000,0.000,17,17,4*55
$GPGGA,040403.60,3135.6253751,N,12046.6086476,E,4,17,1.2,2.4551,M,8.310,M,00,0004*69
$GPHPD,0,0.000,340.58,0.01,-15.06,31.5937563,120.7768108,2.455,13629387.987,24923918.511,2.455,0.000,0.000,0.000,0.000,0.000,0.000,0.000,17,17,4*59
$GPGGA,040403.80,3135.6254331,N,12046.6086278,E,4,17,1.2,2.4573,M,8.310,M,00,0004*6A
$GPHPD,0,0.000,340.79,-0.27,-15.04,31.5937572,120.7768105,2.457,13629387.123,24923917.935,2.457,0.000,0.000,0.000,0.000,0.000,0.000,0.000,17,17,4*7F
$GPGGA,040404.00,3135.6254856,N,12046.6086078,E,4,17,1.2,2.4522,M,8.310,M,01,0004*68
$GPHPD,0,0.000,341.11,-0.21,-15.03,31.5937581,120.7768101,2.452,13629386.337,24923917.388,2.452,0.000,0.000,0.000,0.000,0.000,0.000,0.000,17,17,4*73
$GPGGA,040404.20,3135.6255351,N,12046.6085887,E,4,17,1.2,2.4572,M,8.310,M,01,0004*69
$GPHPD,0,0.000,341.60,-0.10,-15.02,31.5937589,120.7768098,2.457,13629385.595,24923916.869,2.457,0.000,0.000,0.000,0.000,0.000,0.000,0.000,17,17,4*77
$GPGGA,040404.40,3135.6255899,N,12046.6085711,E,4,17,1.2,2.4586,M,8.310,M,01,0004*6B
$GPHPD,0,0.000,341.82,-0.12,-15.03,31.5937598,120.7768095,2.459,13629384.780,24923916.338,2.459,0.000,0.000,0.000,0.000,0.000,0.000,0.000,17,17,4*7D
$GPGGA,040404.60,3135.6256428,N,12046.6085528,E,4,17,1.2,2.4574,M,8.310,M,00,0004*68
$GPHPD,0,0.000,342.06,-0.03,-15.04,31.5937607,120.7768092,2.457,13629383.992,24923915.809,2.457,0.000,0.000,0.000,0.000,0.000,0.000,0.000,17,17,4*77
$GPGGA,040404.80,3135.6256955,N,12046.6085340,E,4,17,1.2,2.4463,M,8.310,M,00,0004*6E
$GPHPD,0,0.000,342.31,-0.17,-15.11,31.5937616,120.7768089,2.446,13629383.205,24923915.276,2.446,0.000,0.000,0.000,0.000,0.000,0.000,0.000,17,17,4*7F
$GPGGA,040405.00,3135.6257496,N,12046.6085165,E,4,17,1.2,2.4546,M,8.310,M,01,0004*66
$GPHPD,0,0.000,342.54,-0.17,-15.18,31.5937625,120.7768086,2.455,13629382.401,24923914.750,2.455,0.000,0.000,0.000,0.000,0.000,0.000,0.000,17,17,4*79
$GPGGA,040405.20,3135.6258104,N,12046.6084971,E,4,17,1.2,2.4486,M,8.310,M,01,0004*64
$GPHPD,0,0.000,342.92,-0.19,-15.20,31.5937635,120.7768083,2.449,13629381.498,24923914.162,2.449,0.000,0.000,0.000,0.000,0.000,0.000,0.000,17,17,4*76
$GPGGA,040405.40,3135.6258742,N,12046.6084783,E,4,17,1.2,2.4518,M,8.310,M,01,0004*63
$GPHPD,0,0.000,343.28,-0.03,-15.21,31.5937646,120.7768080,2.452,13629380.553,24923913.564,2.452,0.000,0.000,0.000,0.000,0.000,0.000,0.000,17,17,4*79
$GPGGA,040405.60,3135.6259365,N,12046.6084569,E,4,17,1.2,2.4517,M,8.310,M,00,0004*69
$GPHPD,0,0.000,343.41,0.27,-15.22,31.5937656,120.7768076,2.452,13629379.624,24923912.943,2.452,0.000,0.000,0.000,0.000,0.000,0.000,0.000,17,17,4*5B
$GPGGA,040405.80,3135.6260008,N,12046.6084362,E,4,17,1.2,2.4542,M,8.310,M,00,0004*68
$GPHPD,0,0.000,343.61,-0.05,-15.23,31.5937667,120.7768073,2.454,13629378.669,24923912.319,2.454,0.000,0.000,0.000,0.000,0.000,0.000,0.000,17,17,4*7F
$GPGGA,040406.00,3135.6260685,N,12046.6084135,E,4,17,1.2,2.4513,M,8.310,M,01,0004*65
$GPHPD,0,0.000,343.84,-0.11,-15.24,31.5937678,120.7768069,2.451,13629377.661,24923911.651,2.451,0.000,0.000,0.000,0.000,0.000,0.000,0.000,17,17,4*7E
$GPGGA,040406.20,3135.6261365,N,12046.6083926,E,4,17,1.2,2.4493,M,8.310,M,01,0004*69
$GPHPD,0,0.000,343.94,0.11,-15.25,31.5937689,120.7768065,2.449,13629376.653,24923911.003,2.449,0.000,0.000,0.000,0.000,0.000,0.000,0.000,17,17,4*50
$GPGGA,040406.40,3135.6262072,N,12046.6083716,E,4,17,1.2,2.4581,M,8.310,M,01,0004*66
$GPHPD,0,0.000,344.04,0.11,-15.21,31.5937701,120.7768062,2.458,13629375.606,24923910.338,2.458,0.000,0.000,0.000,0.000,0.000,0.000,0.000,17,17,4*55
$GPGGA,040406.60,3135.6262763,N,12046.6083500,E,4,17,1.2,2.4501,M,8.310,M,00,0004*6F
$GPHPD,0,0.000,344.29,-0.15,-15.18,31.5937713,120.7768058,2.450,13629374.580,24923909.675,2.450,0.000,0.000,0.000,0.000,0.000,0.000,0.000,17,17,4*7B
$GPGGA,040406.80,3135.6263486,N,12046.6083270,E,4,17,1.2,2.4479,M,8.310,M,00,0004*66
$GPHPD,0,0.000,344.32,-0.06,-15.16,31.5937725,120.7768055,2.448,13629373.506,24923908.977,2.448,0.000,0.000,0.000,0.000,0.000,0.000,0.000,17,17,4*70
$GPGGA,040407.00,3135.6264174,N,12046.6083074,E,4,17,1.2,2.4545,M,8.310,M,01,0004*69
$GPHPD,0,0.000,344.49,-0.18,-15.15,31.5937736,120.7768051,2.455,13629372.489,24923908.340,2.455,0.000,0.000,0.000,0.000,0.000,0.000,0.000,17,17,4*7F
$GPGGA,040407.20,3135.6264865,N,12046.6082868,E,4,17,1.2,2.4599,M,8.310,M,01,0004*67
$GPHPD,0,0.000,344.72,-0.22,-15.12,31.5937748,120.7768048,2.460,13629371.465,24923907.689,2.460,0.000,0.000,0.000,0.000,0.000,0.000,0.000,17,17,4*76
$GPGGA,040407.40,3135.6265562,N,12046.6082655,E,4,17,1.2,2.4536,M,8.310,M,01,0004*6F
$GPHPD,0,0.000,344.91,-0.39,-15.10,31.5937759,120.7768044,2.454,13629370.432,24923907.026,2.454,0.000,0.000,0.000,0.000,0.000,0.000,0.000,17,17,4*7F
$GPGGA,040407.60,3135.6266268,N,12046.6082445,E,4,17,1.2,2.4587,M,8.310,M,00,0004*6B
$GPHPD,0,0.000,345.00,-0.22,-15.09,31.5937771,120.7768041,2.459,13629369.386,24923906.362,2.459,0.000,0.000,0.000,0.000,0.000,0.000,0.000,17,17,4*79
$GPGGA,040407.80,3135.6266980,N,12046.6082253,E,4,17,1.2,2.4530,M,8.310,M,00,0004*65
$GPHPD,0,0.000,345.26,-0.05,-15.09,31.5937783,120.7768038,2.453,13629368.336,24923905.716,2.453,0.000,0.000,0.000,0.000,0.000,0.000,0.000,17,17,4*75
$GPGGA,040408.00,3135.6267681,N,12046.6082060,E,4,17,1.2,2.4557,M,8.310,M,01,0004*6F
$GPHPD,0,0.000,345.31,-0.10,-15.08,31.5937795,120.7768034,2.456,13629367.300,24923905.075,2.456,0.000,0.000,0.000,0.000,0.000,0.000,0.000,17,17,4*75
$GPGGA,040408.20,3135.6268353,N,12046.6081823,E,4,17,1.2,2.4449,M,8.310,M,01,0004*6A
$GPHPD,0,0.000,345.52,-0.28,-15.07,31.5937806,120.7768030,2.445,13629366.298,24923904.398,2.445,0.000,0.000,0.000,0.000,0.000,0.000,0.000,17,17,4*75
$GPGGA,040408.40,3135.6269096,N,12046.6081665,E,4,17,1.2,2.4523,M,8.310,M,01,0004*66
$GPHPD,0,0.000,346.00,-0.26,-15.06,31.5937818,120.7768028,2.452,13629365.210,24923903.775,2.452,0.000,0.000,0.000,0.000,0.000,0.000,0.000,17,17,4*7B
$GPGGA,040408.60,3135.6269786,N,12046.6081484,E,4,17,1.2,2.4545,M,8.310,M,00,0004*6E
$GPHPD,0,0.000,346.15,-0.18,-15.04,31.5937830,120.7768025,2.455,13629364.193,24923903.155,2.455,0.000,0.000,0.000,0.000,0.000,0.000,0.000,17,17,4*7A
$GPGGA,040408.80,3135.6270482,N,12046.6081303,E,4,17,1.2,2.4483,M,8.310,M,00,0004*6C
$GPHPD,0,0.000,346.41,-0.31,-15.02,31.5937841,120.7768022,2.448,13629363.167,24923902.531,2.448,0.000,0.000,0.000,0.000,0.000,0.000,0.000,17,17,4*7C
$GPGGA,040409.00,3135.6271163,N,12046.6081146,E,4,17,1.2,2.4523,M,8.310,M,01,0004*67
$GPHPD,0,0.000,346.66,-0.18,-15.01,31.5937853,120.7768019,2.452,13629362.168,24923901.945,2.452,0.000,0.000,0.000,0.000,0.000,0.000,0.000,17,17,4*78
$GPGGA,040409.20,3135.6271874,N,12046.6080964,E,4,17,1.2,2.4509,M,8.310,M,01,0004*6B
$GPHPD,0,0.000,347.05,0.08,-15.00,31.5937865,120.7768016,2.451,13629361.121,24923901.312,2.451,0.000,0.000,0.000,0.000,0.000,0.000,0.000,17,17,4*5D
$GPGGA,040409.40,3135.6272588,N,12046.6080802,E,4,17,1.2,2.4483,M,8.310,M,01,0004*62
$GPHPD,0,0.000,347.33,-0.07,-15.01,31.5937876,120.7768013,2.448,13629360.073,24923900.701,2.448,0.000,0.000,0.000,0.000,0.000,0.000,0.000,17,17,4*7C
$GPGGA,040409.60,3135.6273263,N,12046.6080639,E,4,17,1.2,2.4485,M,8.310,M,00,0004*62
$GPHPD,0,0.000,347.97,-0.07,-15.02,31.5937888,120.7768011,2.449,13629359.081,24923900.111,2.449,0.000,0.000,0.000,0.000,0.000,0.000,0.000,17,17,4*72
$GPGGA,040409.80,3135.6273943,N,12046.6080495,E,4,17,1.2,2.4454,M,8.310,M,00,0004*6D
$GPHPD,0,0.000,348.12,-0.14,-15.04,31.5937899,120.7768008,2.445,13629358.086,24923899.542,2.445,0.000,0.000,0.000,0.000,0.000,0.000,0.000,17,17,4*79
$GPGGA,040410.00,3135.6274652,N,12046.6080372,E,4,17,1.2,2.4497,M,8.310,M,01,0004*65
$GPHPD,0,0.000,348.74,0.10,-15.04,31.5937911,120.7768006,2.450,13629357.053,24923898.981,2.450,0.000,0.000,0.000,0.000,0.000,0.000,0.000,17,17,4*5A
$GPGGA,040410.20,3135.6275348,N,12046.6080238,E,4,17,1.2,2.4539,M,8.310,M,01,0004*62
$GPHPD,0,0.000,349.12,-0.10,-15.03,31.5937922,120.7768004,2.454,13629356.037,24923898.414,2.454,0.000,0.000,0.000,0.000,0.000,0.000,0.000,17,17,4*71
$GPGGA,040410.40,3135.6276054,N,12046.6080109,E,4,17,1.2,2.4507,M,8.310,M,01,0004*65
$GPHPD,0,0.000,349.72,-0.21,-15.01,31.5937934,120.7768002,2.451,13629355.008,24923897.847,2.451,0.000,0.000,0.000,0.000,0.000,0.000,0.000,17,17,4*7C
$GPGGA,040410.60,3135.6276758,N,12046.6079994,E,4,17,1.2,2.4548,M,8.310,M,00,0004*6C
$GPHPD,0,0.000,350.34,-0.16,-15.00,31.5937946,120.7768000,2.455,13629353.984,24923897.298,2.455,0.000,0.000,0.000,0.000,0.000,0.000,0.000,17,17,4*77
$GPGGA,040410.80,3135.6277453,N,12046.6079874,E,4,17,1.2,2.4463,M,8.310,M,00,0004*6C
$GPHPD,0,0.000,350.70,-0.01,-15.01,31.5937958,120.7767998,2.446,13629352.972,24923896.749,2.446,0.000,0.000,0.000,0.000,0.000,0.000,0.000,17,17,4*78
$GPGGA,040411.00,3135.6278114,N,12046.6079792,E,4,17,1.2,2.4553,M,8.310,M,01,0004*68
$GPHPD,0,0.000,351.51,-0.05,-15.01,31.5937969,120.7767997,2.455,13629352.016,24923896.265,2.455,0.000,0.000,0.000,0.000,0.000,0.000,0.000,17,17,4*73
$GPGGA,040411.20,3135.6278793,N,12046.6079709,E,4,17,1.2,2.4518,M,8.310,M,01,0004*6E
$GPHPD,0,0.000,351.94,-0.15,-15.04,31.5937980,120.7767995,2.452,13629351.034,24923895.770,2.452,0.000,0.000,0.000,0.000,0.000,0.000,0.000,17,17,4*7A
$GPGGA,040411.40,3135.6279391,N,12046.6079635,E,4,17,1.2,2.4508,M,8.310,M,01,0004*60
$GPHPD,0,0.000,352.29,0.09,-15.07,31.5937990,120.7767994,2.451,13629350.170,24923895.332,2.451,0.000,0.000,0.000,0.000,0.000,0.000,0.000,17,17,4*5E
$GPGGA,040411.60,3135.6280013,N,12046.6079587,E,4,17,1.2,2.4500,M,8.310,M,00,0004*6E
$GPHPD,0,0.000,353.10,-0.03,-15.10,31.5938000,120.7767993,2.450,13629349.276,24923894.912,2.450,0.000,0.000,0.000,0.000,0.000,0.000,0.000,17,17,4*78
$GPGGA,040411.80,3135.6280604,N,12046.6079547,E,4,17,1.2,2.4466,M,8.310,M,00,0004*6D
$GPHPD,0,0.000,353.47,0.25,-15.12,31.5938010,120.7767992,2.447,13629348.428,24923894.520,2.447,0.000,0.000,0.000,0.000,0.000,0.000,0.000,17,17,4*50
$GPGGA,040412.00,3135.6281142,N,12046.6079488,E,4,17,1.2,2.4509,M,8.310,M,01,0004*69
$GPHPD,0,0.000,354.04,0.06,-15.15,31.5938019,120.7767991,2.451,13629347.651,24923894.135,2.451,0.000,0.000,0.000,0.000,0.000,0.000,0.000,17,17,4*5F
$GPGGA,040412.20,3135.6281701,N,12046.6079439,E,4,17,1.2,2.4480,M,8.310,M,01,0004*60
$GPHPD,0,0.000,354.61,0.46,-15.20,31.5938028,120.7767991,2.448,13629346.847,24923893.751,2.448,0.000,0.000,0.000,0.000,0.000,0.000,0.000,17,17,4*57
$GPGGA,040412.40,3135.6282249,N,12046.6079417,E,4,17,1.2,2.4497,M,8.310,M,01,0004*66
$GPHPD,0,0.000,355.07,0.36,-15.28,31.5938037,120.7767990,2.450,13629346.064,24923893.405,2.450,0.000,0.000,0.000,0.000,0.000,0.000,0.000,17,17,4*5D
$GPGGA,040412.60,3135.6282831,N,12046.6079350,E,4,17,1.2,2.4487,M,8.310,M,00,0004*65
$GPHPD,0,0.000,355.61,0.45,-15.38,31.5938047,120.7767989,2.449,13629345.223,24923892.986,2.449,0.000,0.000,0.000,0.000,0.000,0.000,0.000,17,17,4*52
$GPGGA,040412.80,3135.6283450,N,12046.6079355,E,4,17,1.2,2.4544,M,8.310,M,00,0004*6A
$GPHPD,0,0.000,356.33,0.76,-15.45,31.5938058,120.7767989,2.454,13629344.344,24923892.631,2.454,0.000,0.000,0.000,0.000,0.000,0.000,0.000,17,17,4*50
$GPGGA,040413.00,3135.6284055,N,12046.6079335,E,4,17,1.2,2.4520,M,8.310,M,01,0004*60
$GPHPD,0,0.000,356.81,0.54,-15.54,31.5938068,120.7767989,2.452,13629343.480,24923892.255,2.452,0.000,0.000,0.000,0.000,0.000,0.000,0.000,17,17,4*54
$GPGGA,040413.20,3135.6284722,N,12046.6079307,E,4,17,1.2,2.4519,M,8.310,M,01,0004*6E
$GPHPD,0,0.000,357.26,0.82,-15.59,31.5938079,120.7767988,2.452,13629342.527,24923891.833,2.452,0.000,0.000,0.000,0.000,0.000,0.000,0.000,17,17,4*5B
$GPGGA,040413.40,3135.6285412,N,12046.6079304,E,4,17,1.2,2.4521,M,8.310,M,01,0004*61
$GPHPD,0,0.000,357.95,0.69,-15.67,31.5938090,120.7767988,2.452,13629341.546,24923891.427,2.452,0.000,0.000,0.000,0.000,0.000,0.000,0.000,17,17,4*51
$GPGGA,040413.60,3135.6286192,N,12046.6079307,E,4,17,1.2,2.4505,M,8.310,M,00,0004*69
$GPHPD,0,0.000,358.56,0.89,-15.73,31.5938103,120.7767988,2.451,13629340.438,24923890.977,2.451,0.000,0.000,0.000,0.000,0.000,0.000,0.000,17,17,4*51
$GPGGA,040413.80,3135.6286948,N,12046.6079330,E,4,17,1.2,2.4464,M,8.310,M,00,0004*6A
$GPHPD,0,0.000,359.12,0.86,-15.79,31.5938116,120.7767989,2.446,13629339.368,24923890.564,2.446,0.000,0.000,0.000,0.000,0.000,0.000,0.000,17,17,4*52
$GPGGA,040414.00,3135.6287739,N,12046.6079345,E,4,17,1.2,2.4492,M,8.310,M,01,0004*66
$GPHPD,0,0.000,359.84,0.61,-15.81,31.5938129,120.7767989,2.449,13629338.246,24923890.122,2.449,0.000,0.000,0.000,0.000,0.000,0.000,0.000,17,17,4*55
$GPGGA,040414.20,3135.6288549,N,12046.6079414,E,4,17,1.2,2.4485,M,8.310,M,01,0004*6B
$GPHPD,0,0.000,0.54,0.78,-15.78,31.5938142,120.7767990,2.449,13629337.109,24923889.733,2.449,0.000,0.000,0.000,0.000,0.000,0.000,0.000,17,17,4*55
$GPGGA,040414.40,3135.6289326,N,12046.6079458,E,4,17,1.2,2.4562,M,8.310,M,01,0004*63
$GPHPD,0,0.000,1.26,0.70,-15.77,31.5938155,120.7767991,2.456,13629336.014,24923889.334,2.456,0.000,0.000,0.000,0.000,0.000,0.000,0.000,17,17,4*5E
$GPGGA,040414.60,3135.6290096,N,12046.6079567,E,4,17,1.2,2.4624,M,8.310,M,00,0004*6C
$GPHPD,0,0.000,2.06,0.71,-15.77,31.5938168,120.7767993,2.462,13629334.941,24923889.017,2.462,0.000,0.000,0.000,0.000,0.000,0.000,0.000,17,17,4*5B
$GPGGA,040414.80,3135.6290881,N,12046.6079646,E,4,17,1.2,2.4498,M,8.310,M,00,0004*69
$GPHPD,0,0.000,3.00,0.56,-15.77,31.5938181,120.7767994,2.450,13629333.841,24923888.655,2.450,0.000,0.000,0.000,0.000,0.000,0.000,0.000,17,17,4*5E
$GPGGA,040415.00,3135.6291643,N,12046.6079761,E,4,17,1.2,2.4546,M,8.310,M,01,0004*66
$GPHPD,0,0.000,3.87,0.94,-15.75,31.5938194,120.7767996,2.455,13629332.781,24923888.350,2.455,0.000,0.000,0.000,0.000,0.000,0.000,0.000,17,17,4*59
$GPGGA,040415.20,3135.6292393,N,12046.6079886,E,4,17,1.2,2.4602,M,8.310,M,01,0004*6A
$GPHPD,0,0.000,4.82,0.51,-15.68,31.5938207,120.7767998,2.460,13629331.741,24923888.064,2.460,0.000,0.000,0.000,0.000,0.000,0.000,0.000,17,17,4*52
$GPGGA,040415.40,3135.6293129,N,12046.6079984,E,4,17,1.2,2.4621,M,8.310,M,01,0004*6C
$GPHPD,0,0.000,5.74,0.54,-15.63,31.5938219,120.7768000,2.462,13629330.714,24923887.753,2.462,0.000,0.000,0.000,0.000,0.000,0.000,0.000,17,17,4*51
$GPGGA,040415.60,3135.6293856,N,12046.6080148,E,4,17,1.2,2.4662,M,8.310,M,00,0004*67
$GPHPD,0,0.000,6.59,0.56,-15.55,31.5938231,120.7768002,2.466,13629329.714,24923887.528,2.466,0.000,0.000,0.000,0.000,0.000,0.000,0.000,17,17,4*54
$GPGGA,040415.80,3135.6294574,N,12046.6080288,E,4,17,1.2,2.4604,M,8.310,M,00,0004*6C
$GPHPD,0,0.000,7.51,0.31,-15.46,31.5938243,120.7768005,2.460,13629328.722,24923887.278,2.460,0.000,0.000,0.000,0.000,0.000,0.000,0.000,17,17,4*5A
$GPGGA,040416.00,3135.6295254,N,12046.6080444,E,4,17,1.2,2.4637,M,8.310,M,01,0004*64
$GPHPD,0,0.000,8.14,0.34,-15.40,31.5938254,120.7768007,2.464,13629327.787,24923887.071,2.464,0.000,0.000,0.000,0.000,0.000,0.000,0.000,17,17,4*58
$GPGGA,040416.20,3135.6295938,N,12046.6080626,E,4,17,1.2,2.4667,M,8.310,M,01,0004*64
$GPHPD,0,0.000,9.16,0.38,-15.40,31.5938266,120.7768010,2.467,13629326.851,24923886.892,2.467,0.000,0.000,0.000,0.000,0.000,0.000,0.000,17,17,4*51
$GPGGA,040416.40,3135.6296633,N,12046.6080772,E,4,17,1.2,2.4758,M,8.310,M,01,0004*68
$GPHPD,0,0.000,9.95,0.34,-15.39,31.5938277,120.7768013,2.476,13629325.893,24923886.663,2.476,0.000,0.000,0.000,0.000,0.000,0.000,0.000,17,17,4*56
$GPGGA,040416.60,3135.6297271,N,12046.6080913,E,4,17,1.2,2.4641,M,8.310,M,00,0004*68
$GPHPD,0,0.000,10.91,0.02,-15.35,31.5938288,120.7768015,2.464,13629325.014,24923886.462,2.464,0.000,0.000,0.000,0.000,0.000,0.000,0.000,17,17,4*61
$GPGGA,040416.80,3135.6297996,N,12046.6081111,E,4,17,1.2,2.4756,M,8.310,M,00,0004*68
$GPHPD,0,0.000,11.68,0.54,-15.37,31.5938300,120.7768019,2.476,13629324.024,24923886.278,2.476,0.000,0.000,0.000,0.000,0.000,0.000,0.000,17,17,4*65
$GPGGA,040417.00,3135.6298673,N,12046.6081311,E,4,17,1.2,2.4764,M,8.310,M,01,0004*68
$GPHPD,0,0.000,12.22,0.21,-15.46,31.5938311,120.7768022,2.476,13629323.102,24923886.125,2.476,0.000,0.000,0.000,0.000,0.000,0.000,0.000,17,17,4*6D
$GPGGA,040417.20,3135.6299418,N,12046.6081523,E,4,17,1.2,2.4801,M,8.310,M,01,0004*6F
$GPHPD,0,0.000,12.82,0.38,-15.51,31.5938324,120.7768025,2.480,13629322.086,24923885.947,2.480,0.000,0.000,0.000,0.000,0.000,0.000,0.000,17,17,4*6B
$GPGGA,040417.40,3135.6300201,N,12046.6081762,E,4,17,1.2,2.4804,M,8.310,M,01,0004*64
$GPHPD,0,0.000,13.22,0.28,-15.52,31.5938337,120.7768029,2.480,13629321.021,24923885.779,2.480,0.000,0.000,0.000,0.000,0.000,0.000,0.000,17,17,4*61
$GPGGA,040417.60,3135.6301032,N,12046.6082020,E,4,17,1.2,2.4823,M,8.310,M,00,0004*63
$GPHPD,0,0.000,13.66,0.05,-15.51,31.5938351,120.7768034,2.482,13629319.892,24923885.606,2.482,0.000,0.000,0.000,0.000,0.000,0.000,0.000,17,17,4*63
$GPGGA,040417.80,3135.6301849,N,12046.6082319,E,4,17,1.2,2.4758,M,8.310,M,00,0004*63
$GPHPD,0,0.000,14.08,0.29,-15.54,31.5938364,120.7768039,2.476,13629318.791,24923885.491,2.476,0.000,0.000,0.000,0.000,0.000,0.000,0.000,17,17,4*6D
$GPGGA,040418.00,3135.6302695,N,12046.6082619,E,4,17,1.2,2.4825,M,8.310,M,01,0004*69
$GPHPD,0,0.000,14.32,0.31,-15.56,31.5938378,120.7768044,2.483,13629317.648,24923885.360,2.483,0.000,0.000,0.000,0.000,0.000,0.000,0.000,17,17,4*6B
$GPGGA,040418.20,3135.6303536,N,12046.6082900,E,4,17,1.2,2.4778,M,8.310,M,01,0004*60
$GPHPD,0,0.000,14.74,0.31,-15.55,31.5938392,120.7768048,2.478,13629316.510,24923885.209,2.478,0.000,0.000,0.000,0.000,0.000,0.000,0.000,17,17,4*63
$GPGGA,040418.40,3135.6304370,N,12046.6083230,E,4,17,1.2,2.4851,M,8.310,M,01,0004*68
$GPHPD,0,0.000,15.10,0.38,-15.53,31.5938406,120.7768054,2.485,13629315.391,24923885.121,2.485,0.000,0.000,0.000,0.000,0.000,0.000,0.000,17,17,4*6D
$GPGGA,040418.60,3135.6305149,N,12046.6083479,E,4,17,1.2,2.4795,M,8.310,M,00,0004*6E
$GPHPD,0,0.000,15.27,0.21,-15.46,31.5938419,120.7768058,2.480,13629314.334,24923884.968,2.480,0.000,0.000,0.000,0.000,0.000,0.000,0.000,17,17,4*6D
$GPGGA,040418.80,3135.6305856,N,12046.6083727,E,4,17,1.2,2.4763,M,8.310,M,00,0004*66
$GPHPD,0,0.000,15.68,0.38,-15.39,31.5938431,120.7768062,2.476,13629313.379,24923884.855,2.476,0.000,0.000,0.000,0.000,0.000,0.000,0.000,17,17,4*64
$GPGGA,040419.00,3135.6306485,N,12046.6083911,E,4,17,1.2,2.4789,M,8.310,M,01,0004*60
$GPHPD,0,0.000,15.96,0.35,-15.36,31.5938441,120.7768065,2.479,13629312.522,24923884.711,2.479,0.000,0.000,0.000,0.000,0.000,0.000,0.000,17,17,4*61
$GPGGA,040419.20,3135.6307090,N,12046.6084130,E,4,17,1.2,2.4847,M,8.310,M,01,0004*62
$GPHPD,0,0.000,16.32,0.51,-15.30,31.5938452,120.7768069,2.485,13629311.706,24923884.623,2.485,0.000,0.000,0.000,0.000,0.000,0.000,0.000,17,17,4*61
$GPGGA,040419.40,3135.6307603,N,12046.6084320,E,4,17,1.2,2.4879,M,8.310,M,01,0004*66
$GPHPD,0,0.000,16.39,0.39,-15.24,31.5938460,120.7768072,2.488,13629311.015,24923884.553,2.488,0.000,0.000,0.000,0.000,0.000,0.000,0.000,17,17,4*6B
$GPGGA,040419.60,3135.6308140,N,12046.6084473,E,4,17,1.2,2.4869,M,8.310,M,00,0004*6A
$GPHPD,0,0.000,16.65,0.44,-15.16,31.5938469,120.7768075,2.487,13629310.283,24923884.425,2.487,0.000,0.000,0.000,0.000,0.000,0.000,0.000,17,17,4*6B
$GPGGA,040419.80,3135.6308584,N,12046.6084638,E,4,17,1.2,2.4844,M,8.310,M,00,0004*6A
$GPHPD,0,0.000,17.01,0.28,-15.12,31.5938476,120.7768077,2.484,13629309.685,24923884.365,2.484,0.000,0.000,0.000,0.000,0.000,0.000,0.000,17,17,4*63
$GPGGA,040420.00,3135.6309103,N,12046.6084839,E,4,17,1.2,2.4856,M,8.310,M,01,0004*6F
$GPHPD,0,0.000,17.20,0.70,-15.14,31.5938485,120.7768081,2.486,13629308.988,24923884.305,2.486,0.000,0.000,0.000,0.000,0.000,0.000,0.000,17,17,4*6B
$GPGGA,040420.20,3135.6309542,N,12046.6084996,E,4,17,1.2,2.4891,M,8.310,M,01,0004*63
$GPHPD,0,0.000,17.54,0.50,-15.12,31.5938492,120.7768083,2.489,13629308.395,24923884.239,2.489,0.000,0.000,0.000,0.000,0.000,0.000,0.000,17,17,4*60
$GPGGA,040420.40,3135.6309930,N,12046.6085129,E,4,17,1.2,2.4975,M,8.310,M,01,0004*6A
$GPHPD,0,0.000,17.69,0.61,-14.97,31.5938499,120.7768085,2.498,13629307.870,24923884.173,2.498,0.000,0.000,0.000,0.000,0.000,0.000,0.000,17,17,4*6F
$GPGGA,040420.60,3135.6310237,N,12046.6085281,E,4,17,1.2,2.4920,M,8.310,M,00,0004*6C
$GPHPD,0,0.000,17.89,0.22,-14.80,31.5938504,120.7768088,2.492,13629307.465,24923884.178,2.492,0.000,0.000,0.000,0.000,0.000,0.000,0.000,17,17,4*6B
$GPGGA,040420.80,3135.6310390,N,12046.6085334,E,4,17,1.2,2.4965,M,8.310,M,00,0004*60
$GPHPD,0,0.000,18.12,0.51,-14.68,31.5938507,120.7768089,2.497,13629307.258,24923884.153,2.497,0.000,0.000,0.000,0.000,0.000,0.000,0.000,17,17,4*67
$GPGGA,040421.00,3135.6310439,N,12046.6085358,E,4,17,1.2,2.4945,M,8.310,M,01,0004*64
$GPHPD,0,0.000,18.23,0.30,-14.56,31.5938507,120.7768089,2.495,13629307.193,24923884.153,2.495,0.000,0.000,0.000,0.000,0.000,0.000,0.000,17,17,4*6B
$GPGGA,040421.20,3135.6310384,N,12046.6085349,E,4,17,1.2,2.4927,M,8.310,M,01,0004*63
$GPHPD,0,0.000,18.24,0.46,-14.57,31.5938506,120.7768089,2.493,13629307.269,24923884.174,2.493,0.000,0.000,0.000,0.000,0.000,0.000,0.000,17,17,4*6E
$GPGGA,040421.40,3135.6310424,N,12046.6085340,E,4,17,1.2,2.4950,M,8.310,M,01,0004*61
$GPHPD,0,0.000,18.26,0.36,-14.63,31.5938507,120.7768089,2.495,13629307.211,24923884.140,2.495,0.000,0.000,0.000,0.000,0.000,0.000,0.000,17,17,4*65
$GPGGA,040421.60,3135.6310377,N,12046.6085339,E,4,17,1.2,2.4919,M,8.310,M,00,0004*60
$GPHPD,0,0.000,18.42,0.42,-14.64,31.5938506,120.7768089,2.492,13629307.277,24923884.166,2.492,0.000,0.000,0.000,0.000,0.000,0.000,0.000,17,17,4*66
$GPGGA,040421.80,3135.6310404,N,12046.6085361,E,4,17,1.2,2.4971,M,8.310,M,00,0004*6E
$GPHPD,0,0.000,18.33,0.40,-14.66,31.5938507,120.7768089,2.497,13629307.243,24923884.177,2.497,0.000,0.000,0.000,0.000,0.000,0.000,0.000,17,17,4*66
$GPGGA,040422.00,3135.6310394,N,12046.6085345,E,4,17,1.2,2.4941,M,8.310,M,01,0004*6F
$GPHPD,0,0.000,18.11,0.23,-14.69,31.5938507,120.7768089,2.494,13629307.254,24923884.164,2.494,0.000,0.000,0.000,0.000,0.000,0.000,0.000,17,17,4*68
$GPGGA,040422.20,3135.6310398,N,12046.6085355,E,4,17,1.2,2.4939,M,8.310,M,01,0004*6F
$GPHPD,0,0.000,18.49,0.30,-14.69,31.5938507,120.7768089,2.494,13629307.251,24923884.173,2.494,0.000,0.000,0.000,0.000,0.000,0.000,0.000,17,17,4*64
