$GPGGA,040520.20,3135.6261668,N,12046.6007567,E,4,17,1.2,2.6002,M,8.310,M,01,0004*6F
$GPHPD,0,0.000,134.96,-0.58,-14.44,31.5937694,120.7766793,2.600,13629360.862,24923818.756,2.600,0.000,0.000,0.000,0.000,0.000,0.000,0.000,17,17,4*7E
$GPGGA,040520.40,3135.6260605,N,12046.6008789,E,4,17,1.2,2.5978,M,8.310,M,01,0004*69
$GPHPD,0,0.000,135.47,-0.23,-14.44,31.5937677,120.7766813,2.598,13629362.618,24923820.849,2.598,0.000,0.000,0.000,0.000,0.000,0.000,0.000,17,17,4*7E
$GPGGA,040520.60,3135.6259526,N,12046.6009948,E,4,17,1.2,2.5987,M,8.310,M,00,0004*60
$GPHPD,0,0.000,136.10,-0.22,-14.42,31.5937659,120.7766832,2.599,13629364.385,24923822.874,2.599,0.000,0.000,0.000,0.000,0.000,0.000,0.000,17,17,4*7C
$GPGGA,040520.80,3135.6258431,N,12046.6011105,E,4,17,1.2,2.5958,M,8.310,M,00,0004*62
$GPHPD,0,0.000,136.93,-0.26,-14.42,31.5937641,120.7766852,2.596,13629366.174,24923824.907,2.596,0.000,0.000,0.000,0.000,0.000,0.000,0.000,17,17,4*71
$GPGGA,040521.00,3135.6257321,N,12046.6012235,E,4,17,1.2,2.5924,M,8.310,M,01,0004*6B
$GPHPD,0,0.000,137.31,-0.34,-14.42,31.5937622,120.7766871,2.592,13629367.979,24923826.916,2.592,0.000,0.000,0.000,0.000,0.000,0.000,0.000,17,17,4*79
$GPGGA,040521.20,3135.6256227,N,12046.6013335,E,4,17,1.2,2.5904,M,8.310,M,01,0004*6D
$GPHPD,0,0.000,138.17,-0.18,-14.41,31.5937604,120.7766889,2.590,13629369.755,24923828.879,2.590,0.000,0.000,0.000,0.000,0.000,0.000,0.000,17,17,4*74
$GPGGA,040521.40,3135.6255133,N,12046.6014399,E,4,17,1.2,2.5906,M,8.310,M,01,0004*6D
$GPHPD,0,0.000,138.70,-0.39,-14.38,31.5937586,120.7766907,2.591,13629371.524,24923830.799,2.591,0.000,0.000,0.000,0.000,0.000,0.000,0.000,17,17,4*73
$GPGGA,040521.60,3135.6254067,N,12046.6015455,E,4,17,1.2,2.5937,M,8.310,M,00,0004*6B
$GPHPD,0,0.000,139.38,-0.46,-14.34,31.5937568,120.7766924,2.594,13629373.252,24923832.693,2.594,0.000,0.000,0.000,0.000,0.000,0.000,0.000,17,17,4*76
$GPGGA,040521.80,3135.6252995,N,12046.6016469,E,4,17,1.2,2.5944,M,8.310,M,00,0004*6F
$GPHPD,0,0.000,139.57,-0.43,-14.28,31.5937550,120.7766941,2.594,13629374.979,24923834.540,2.594,0.000,0.000,0.000,0.000,0.000,0.000,0.000,17,17,4*71
$GPGGA,040522.00,3135.6251942,N,12046.6017461,E,4,17,1.2,2.5900,M,8.310,M,01,0004*65
$GPHPD,0,0.000,139.94,-0.39,-14.22,31.5937532,120.7766958,2.590,13629376.675,24923836.349,2.590,0.000,0.000,0.000,0.000,0.000,0.000,0.000,17,17,4*79
$GPGGA,040522.20,3135.6250916,N,12046.6018427,E,4,17,1.2,2.5894,M,8.310,M,01,0004*66
$GPHPD,0,0.000,140.47,-0.43,-14.16,31.5937515,120.7766974,2.589,13629378.328,24923838.112,2.589,0.000,0.000,0.000,0.000,0.000,0.000,0.000,17,17,4*79
$GPGGA,040522.40,3135.6249917,N,12046.6019378,E,4,17,1.2,2.5876,M,8.310,M,01,0004*69
$GPHPD,0,0.000,140.45,-0.38,-14.09,31.5937499,120.7766990,2.588,13629379.939,24923839.840,2.588,0.000,0.000,0.000,0.000,0.000,0.000,0.000,17,17,4*72
$GPGGA,040522.60,3135.6248901,N,12046.6020276,E,4,17,1.2,2.5837,M,8.310,M,00,0004*6C
$GPHPD,0,0.000,140.81,-0.37,-14.04,31.5937482,120.7767005,2.584,13629381.564,24923841.514,2.584,0.000,0.000,0.000,0.000,0.000,0.000,0.000,17,17,4*76
$GPGGA,040522.80,3135.6247935,N,12046.6021141,E,4,17,1.2,2.5847,M,8.310,M,00,0004*6B
$GPHPD,0,0.000,140.94,-0.39,-14.00,31.5937466,120.7767019,2.585,13629383.111,24923843.120,2.585,0.000,0.000,0.000,0.000,0.000,0.000,0.000,17,17,4*7A
$GPGGA,040523.00,3135.6247013,N,12046.6021968,E,4,17,1.2,2.5775,M,8.310,M,01,0004*63
$GPHPD,0,0.000,141.16,-0.52,-13.97,31.5937450,120.7767033,2.578,13629384.587,24923844.654,2.578,0.000,0.000,0.000,0.000,0.000,0.000,0.000,17,17,4*77
$GPGGA,040523.20,3135.6246098,N,12046.6022808,E,4,17,1.2,2.5775,M,8.310,M,01,0004*67
$GPHPD,0,0.000,141.57,-0.47,-13.96,31.5937435,120.7767047,2.578,13629386.057,24923846.200,2.578,0.000,0.000,0.000,0.000,0.000,0.000,0.000,17,17,4*7A
$GPGGA,040523.40,3135.6245212,N,12046.6023597,E,4,17,1.2,2.5768,M,8.310,M,01,0004*64
$GPHPD,0,0.000,141.39,-0.47,-13.94,31.5937420,120.7767060,2.577,13629387.475,24923847.667,2.577,0.000,0.000,0.000,0.000,0.000,0.000,0.000,17,17,4*70
$GPGGA,040523.60,3135.6244373,N,12046.6024369,E,4,17,1.2,2.5796,M,8.310,M,00,0004*61
$GPHPD,0,0.000,141.64,-0.44,-13.94,31.5937406,120.7767073,2.580,13629388.823,24923849.086,2.580,0.000,0.000,0.000,0.000,0.000,0.000,0.000,17,17,4*7A
$GPGGA,040523.80,3135.6243542,N,12046.6025135,E,4,17,1.2,2.5765,M,8.310,M,00,0004*6A
$GPHPD,0,0.000,141.58,-0.42,-13.96,31.5937392,120.7767086,2.577,13629390.158,24923850.494,2.577,0.000,0.000,0.000,0.000,0.000,0.000,0.000,17,17,4*72
$GPGGA,040524.00,3135.6242734,N,12046.6025860,E,4,17,1.2,2.5688,M,8.310,M,01,0004*6D
$GPHPD,0,0.000,141.81,-0.59,-13.97,31.5937379,120.7767098,2.569,13629391.452,24923851.838,2.569,0.000,0.000,0.000,0.000,0.000,0.000,0.000,17,17,4*72
$GPGGA,040524.20,3135.6241937,N,12046.6026572,E,4,17,1.2,2.5733,M,8.310,M,01,0004*6D
$GPHPD,0,0.000,141.84,-0.37,-13.99,31.5937366,120.7767110,2.573,13629392.728,24923853.161,2.573,0.000,0.000,0.000,0.000,0.000,0.000,0.000,17,17,4*74
$GPGGA,040524.40,3135.6241171,N,12046.6027261,E,4,17,1.2,2.5758,M,8.310,M,01,0004*68
$GPHPD,0,0.000,141.85,-0.44,-14.01,31.5937353,120.7767121,2.576,13629393.955,24923854.438,2.576,0.000,0.000,0.000,0.000,0.000,0.000,0.000,17,17,4*78
$GPGGA,040524.60,3135.6240403,N,12046.6027952,E,4,17,1.2,2.5688,M,8.310,M,00,0004*6D
$GPHPD,0,0.000,142.06,-0.41,-14.05,31.5937340,120.7767133,2.569,13629395.186,24923855.718,2.569,0.000,0.000,0.000,0.000,0.000,0.000,0.000,17,17,4*70
$GPGGA,040524.80,3135.6239653,N,12046.6028599,E,4,17,1.2,2.5691,M,8.310,M,00,0004*66
$GPHPD,0,0.000,142.16,-0.30,-14.09,31.5937328,120.7767143,2.569,13629396.382,24923856.935,2.569,0.000,0.000,0.000,0.000,0.000,0.000,0.000,17,17,4*75
$GPGGA,040525.00,3135.6238934,N,12046.6029222,E,4,17,1.2,2.5674,M,8.310,M,01,0004*6C
$GPHPD,0,0.000,142.10,-0.12,-14.17,31.5937316,120.7767154,2.567,13629397.529,24923858.105,2.567,0.000,0.000,0.000,0.000,0.000,0.000,0.000,17,17,4*74
$GPGGA,040525.20,3135.6238175,N,12046.6029859,E,4,17,1.2,2.5692,M,8.310,M,01,0004*6D
$GPHPD,0,0.000,142.45,0.01,-14.25,31.5937303,120.7767164,2.569,13629398.736,24923859.315,2.569,0.000,0.000,0.000,0.000,0.000,0.000,0.000,17,17,4*5C
$GPGGA,040525.40,3135.6237470,N,12046.6030547,E,4,17,1.2,2.5613,M,8.310,M,01,0004*67
$GPHPD,0,0.000,142.32,-0.18,-14.33,31.5937291,120.7767176,2.561,13629399.876,24923860.555,2.561,0.000,0.000,0.000,0.000,0.000,0.000,0.000,17,17,4*75
$GPGGA,040525.60,3135.6236705,N,12046.6031173,E,4,17,1.2,2.5602,M,8.310,M,00,0004*66
$GPHPD,0,0.000,142.53,0.26,-14.40,31.5937278,120.7767186,2.560,13629401.089,24923861.755,2.560,0.000,0.000,0.000,0.000,0.000,0.000,0.000,17,17,4*53
$GPGGA,040525.80,3135.6235960,N,12046.6031861,E,4,17,1.2,2.5622,M,8.310,M,00,0004*6E
$GPHPD,0,0.000,142.33,0.21,-14.50,31.5937266,120.7767198,2.562,13629402.287,24923863.019,2.562,0.000,0.000,0.000,0.000,0.000,0.000,0.000,17,17,4*51
$GPGGA,040526.00,3135.6235168,N,12046.6032519,E,4,17,1.2,2.5535,M,8.310,M,01,0004*60
$GPHPD,0,0.000,142.39,0.23,-14.61,31.5937253,120.7767209,2.554,13629403.545,24923864.273,2.554,0.000,0.000,0.000,0.000,0.000,0.000,0.000,17,17,4*57
$GPGGA,040526.20,3135.6234344,N,12046.6033194,E,4,17,1.2,2.5577,M,8.310,M,01,0004*69
$GPHPD,0,0.000,142.32,0.42,-14.67,31.5937239,120.7767220,2.558,13629404.852,24923865.567,2.558,0.000,0.000,0.000,0.000,0.000,0.000,0.000,17,17,4*55
$GPGGA,040526.40,3135.6233545,N,12046.6033939,E,4,17,1.2,2.5590,M,8.310,M,01,0004*69
$GPHPD,0,0.000,142.50,0.48,-14.72,31.5937226,120.7767232,2.559,13629406.137,24923866.930,2.559,0.000,0.000,0.000,0.000,0.000,0.000,0.000,17,17,4*57
$GPGGA,040526.60,3135.6232678,N,12046.6034726,E,4,17,1.2,2.5553,M,8.310,M,00,0004*6E
$GPHPD,0,0.000,142.44,0.50,-14.77,31.5937211,120.7767245,2.555,13629407.528,24923868.384,2.555,0.000,0.000,0.000,0.000,0.000,0.000,0.000,17,17,4*5A
$GPGGA,040526.80,3135.6231791,N,12046.6035517,E,4,17,1.2,2.5541,M,8.310,M,00,0004*67
$GPHPD,0,0.000,142.63,0.45,-14.77,31.5937197,120.7767259,2.554,13629408.947,24923869.854,2.554,0.000,0.000,0.000,0.000,0.000,0.000,0.000,17,17,4*56
$GPGGA,040527.00,3135.6230889,N,12046.6036281,E,4,17,1.2,2.5576,M,8.310,M,01,0004*67
$GPHPD,0,0.000,142.46,0.45,-14.76,31.5937181,120.7767271,2.558,13629410.383,24923871.301,2.558,0.000,0.000,0.000,0.000,0.000,0.000,0.000,17,17,4*54
$GPGGA,040527.20,3135.6229966,N,12046.6037116,E,4,17,1.2,2.5586,M,8.310,M,01,0004*6E
$GPHPD,0,0.000,142.56,0.33,-14.74,31.5937166,120.7767285,2.559,13629411.863,24923872.845,2.559,0.000,0.000,0.000,0.000,0.000,0.000,0.000,17,17,4*58
$GPGGA,040527.40,3135.6229038,N,12046.6037939,E,4,17,1.2,2.5605,M,8.310,M,01,0004*67
$GPHPD,0,0.000,142.43,0.23,-14.68,31.5937151,120.7767299,2.561,13629413.347,24923874.378,2.561,0.000,0.000,0.000,0.000,0.000,0.000,0.000,17,17,4*55
$GPGGA,040527.60,3135.6228102,N,12046.6038756,E,4,17,1.2,2.5634,M,8.310,M,00,0004*67
$GPHPD,0,0.000,142.26,0.18,-14.59,31.5937135,120.7767313,2.563,13629414.842,24923875.908,2.563,0.000,0.000,0.000,0.000,0.000,0.000,0.000,17,17,4*58
$GPGGA,040527.80,3135.6227159,N,12046.6039600,E,4,17,1.2,2.5563,M,8.310,M,00,0004*6A
$GPHPD,0,0.000,142.25,0.14,-14.51,31.5937119,120.7767327,2.556,13629416.352,24923877.475,2.556,0.000,0.000,0.000,0.000,0.000,0.000,0.000,17,17,4*5B
$GPGGA,040528.00,3135.6226235,N,12046.6040422,E,4,17,1.2,2.5594,M,8.310,M,01,0004*60
$GPHPD,0,0.000,142.43,0.25,-14.39,31.5937104,120.7767340,2.559,13629417.831,24923879.004,2.559,0.000,0.000,0.000,0.000,0.000,0.000,0.000,17,17,4*59
$GPGGA,040528.20,3135.6225280,N,12046.6041276,E,4,17,1.2,2.5592,M,8.310,M,01,0004*6F
$GPHPD,0,0.000,142.39,-0.03,-14.32,31.5937088,120.7767355,2.559,13629419.360,24923880.590,2.559,0.000,0.000,0.000,0.000,0.000,0.000,0.000,17,17,4*78
$GPGGA,040528.40,3135.6224321,N,12046.6042077,E,4,17,1.2,2.5658,M,8.310,M,01,0004*67
$GPHPD,0,0.000,142.50,-0.06,-14.22,31.5937072,120.7767368,2.566,13629420.884,24923882.114,2.566,0.000,0.000,0.000,0.000,0.000,0.000,0.000,17,17,4*79
$GPGGA,040528.60,3135.6223390,N,12046.6042933,E,4,17,1.2,2.5711,M,8.310,M,00,0004*6C
$GPHPD,0,0.000,142.20,-0.33,-14.13,31.5937057,120.7767382,2.571,13629422.379,24923883.688,2.571,0.000,0.000,0.000,0.000,0.000,0.000,0.000,17,17,4*71
$GPGGA,040528.80,3135.6222477,N,12046.6043734,E,4,17,1.2,2.5662,M,8.310,M,00,0004*60
$GPHPD,0,0.000,142.42,-0.31,-14.04,31.5937041,120.7767396,2.566,13629423.838,24923885.186,2.566,0.000,0.000,0.000,0.000,0.000,0.000,0.000,17,17,4*73
$GPGGA,040529.00,3135.6221544,N,12046.6044537,E,4,17,1.2,2.5738,M,8.310,M,01,0004*62
$GPHPD,0,0.000,142.53,-0.31,-13.99,31.5937026,120.7767409,2.574,13629425.326,24923886.697,2.574,0.000,0.000,0.000,0.000,0.000,0.000,0.000,17,17,4*76
$GPGGA,040529.20,3135.6220628,N,12046.6045314,E,4,17,1.2,2.5650,M,8.310,M,01,0004*61
$GPHPD,0,0.000,142.56,-0.60,-13.98,31.5937010,120.7767422,2.565,13629426.784,24923888.168,2.565,0.000,0.000,0.000,0.000,0.000,0.000,0.000,17,17,4*7C
$GPGGA,040529.40,3135.6219742,N,12046.6046112,E,4,17,1.2,2.5734,M,8.310,M,01,0004*64
$GPHPD,0,0.000,142.54,-0.54,-13.98,31.5936996,120.7767435,2.573,13629428.204,24923889.646,2.573,0.000,0.000,0.000,0.000,0.000,0.000,0.000,17,17,4*70
$GPGGA,040529.60,3135.6218850,N,12046.6046895,E,4,17,1.2,2.5665,M,8.310,M,00,0004*69
$GPHPD,0,0.000,142.79,-0.49,-13.96,31.5936981,120.7767448,2.567,13629429.629,24923891.109,2.567,0.000,0.000,0.000,0.000,0.000,0.000,0.000,17,17,4*7E
$GPGGA,040529.80,3135.6217990,N,12046.6047668,E,4,17,1.2,2.5629,M,8.310,M,00,0004*60
$GPHPD,0,0.000,142.79,-0.29,-13.94,31.5936967,120.7767461,2.563,13629431.007,24923892.542,2.563,0.000,0.000,0.000,0.000,0.000,0.000,0.000,17,17,4*72
$GPGGA,040530.00,3135.6217135,N,12046.6048386,E,4,17,1.2,2.5600,M,8.310,M,01,0004*67
$GPHPD,0,0.000,142.52,-0.40,-13.95,31.5936952,120.7767473,2.560,13629432.366,24923893.906,2.560,0.000,0.000,0.000,0.000,0.000,0.000,0.000,17,17,4*7A
$GPGGA,040530.20,3135.6216313,N,12046.6049101,E,4,17,1.2,2.5581,M,8.310,M,01,0004*64
$GPHPD,0,0.000,142.67,-0.29,-13.96,31.5936939,120.7767485,2.558,13629433.678,24923895.246,2.558,0.000,0.000,0.000,0.000,0.000,0.000,0.000,17,17,4*76
$GPGGA,040530.40,3135.6215514,N,12046.6049841,E,4,17,1.2,2.5590,M,8.310,M,01,0004*6D
$GPHPD,0,0.000,142.60,-0.01,-14.00,31.5936925,120.7767497,2.559,13629434.963,24923896.604,2.559,0.000,0.000,0.000,0.000,0.000,0.000,0.000,17,17,4*7E
$GPGGA,040530.60,3135.6214705,N,12046.6050527,E,4,17,1.2,2.5560,M,8.310,M,00,0004*67
$GPHPD,0,0.000,142.59,0.16,-14.03,31.5936912,120.7767509,2.556,13629436.251,24923897.902,2.556,0.000,0.000,0.000,0.000,0.000,0.000,0.000,17,17,4*5E
$GPGGA,040530.80,3135.6213924,N,12046.6051218,E,4,17,1.2,2.5558,M,8.310,M,00,0004*62
$GPHPD,0,0.000,142.44,0.15,-14.10,31.5936899,120.7767520,2.556,13629437.500,24923899.190,2.556,0.000,0.000,0.000,0.000,0.000,0.000,0.000,17,17,4*55
$GPGGA,040531.00,3135.6213124,N,12046.6051869,E,4,17,1.2,2.5453,M,8.310,M,01,0004*64
$GPHPD,0,0.000,142.55,0.34,-14.20,31.5936885,120.7767531,2.545,13629438.768,24923900.441,2.545,0.000,0.000,0.000,0.000,0.000,0.000,0.000,17,17,4*53
$GPGGA,040531.20,3135.6212375,N,12046.6052546,E,4,17,1.2,2.5475,M,8.310,M,01,0004*66
$GPHPD,0,0.000,142.35,0.58,-14.29,31.5936873,120.7767542,2.548,13629439.968,24923901.693,2.548,0.000,0.000,0.000,0.000,0.000,0.000,0.000,17,17,4*58
$GPGGA,040531.40,3135.6211602,N,12046.6053177,E,4,17,1.2,2.5504,M,8.310,M,01,0004*66
$GPHPD,0,0.000,142.33,0.27,-14.41,31.5936860,120.7767553,2.550,13629441.194,24923902.904,2.550,0.000,0.000,0.000,0.000,0.000,0.000,0.000,17,17,4*5C
$GPGGA,040531.60,3135.6210882,N,12046.6053872,E,4,17,1.2,2.5546,M,8.310,M,00,0004*68
$GPHPD,0,0.000,142.49,0.42,-14.52,31.5936848,120.7767565,2.555,13629442.357,24923904.162,2.555,0.000,0.000,0.000,0.000,0.000,0.000,0.000,17,17,4*5F
$GPGGA,040531.80,3135.6210157,N,12046.6054518,E,4,17,1.2,2.5517,M,8.310,M,00,0004*65
$GPHPD,0,0.000,142.38,0.45,-14.65,31.5936836,120.7767575,2.552,13629443.518,24923905.363,2.552,0.000,0.000,0.000,0.000,0.000,0.000,0.000,17,17,4*5C
$GPGGA,040532.00,3135.6209400,N,12046.6055162,E,4,17,1.2,2.5512,M,8.310,M,01,0004*6D
$GPHPD,0,0.000,142.30,0.94,-14.73,31.5936823,120.7767586,2.551,13629444.723,24923906.580,2.551,0.000,0.000,0.000,0.000,0.000,0.000,0.000,17,17,4*52
$GPGGA,040532.20,3135.6208634,N,12046.6055831,E,4,17,1.2,2.5516,M,8.310,M,01,0004*60
$GPHPD,0,0.000,142.24,0.66,-14.79,31.5936811,120.7767597,2.552,13629445.946,24923907.833,2.552,0.000,0.000,0.000,0.000,0.000,0.000,0.000,17,17,4*59
$GPGGA,040532.40,3135.6207847,N,12046.6056528,E,4,17,1.2,2.5487,M,8.310,M,01,0004*6C
$GPHPD,0,0.000,142.09,0.49,-14.86,31.5936797,120.7767609,2.549,13629447.205,24923909.131,2.549,0.000,0.000,0.000,0.000,0.000,0.000,0.000,17,17,4*55
$GPGGA,040532.60,3135.6207066,N,12046.6057222,E,4,17,1.2,2.5537,M,8.310,M,01,0004*63
$GPHPD,0,0.000,141.79,0.38,-14.92,31.5936784,120.7767620,2.554,13629448.455,24923910.423,2.554,0.000,0.000,0.000,0.000,0.000,0.000,0.000,17,17,4*59
$GPGGA,040532.80,3135.6206243,N,12046.6057925,E,4,17,1.2,2.5558,M,8.310,M,01,0004*6C
$GPHPD,0,0.000,142.02,0.64,-14.97,31.5936771,120.7767632,2.556,13629449.766,24923911.750,2.556,0.000,0.000,0.000,0.000,0.000,0.000,0.000,17,17,4*57
$GPGGA,040533.00,3135.6205494,N,12046.6058621,E,4,17,1.2,2.5555,M,8.310,M,02,0004*60
$GPHPD,0,0.000,141.95,0.59,-15.03,31.5936758,120.7767644,2.556,13629450.970,24923913.025,2.556,0.000,0.000,0.000,0.000,0.000,0.000,0.000,17,17,4*54
$GPGGA,040533.20,3135.6204684,N,12046.6059311,E,4,17,1.2,2.5579,M,8.310,M,02,0004*69
$GPHPD,0,0.000,142.23,0.61,-15.04,31.5936745,120.7767655,2.558,13629452.260,24923914.329,2.558,0.000,0.000,0.000,0.000,0.000,0.000,0.000,17,17,4*5A
$GPGGA,040533.40,3135.6203894,N,12046.6060010,E,4,17,1.2,2.5559,M,8.310,M,02,0004*6D
$GPHPD,0,0.000,142.26,1.07,-15.01,31.5936732,120.7767667,2.556,13629453.524,24923915.632,2.556,0.000,0.000,0.000,0.000,0.000,0.000,0.000,17,16,4*53
$GPGGA,040533.60,3135.6203132,N,12046.6060691,E,4,17,1.2,2.5549,M,8.310,M,02,0004*64
$GPHPD,0,0.000,142.62,1.02,-14.97,31.5936719,120.7767678,2.555,13629454.744,24923916.896,2.555,0.000,0.000,0.000,0.000,0.000,0.000,0.000,17,16,4*5F
$GPGGA,040533.80,3135.6202430,N,12046.6061369,E,4,17,1.2,2.5438,M,8.310,M,00,0004*6A
$GPHPD,0,0.000,142.16,0.74,-14.93,31.5936707,120.7767689,2.544,13629455.878,24923918.123,2.544,0.000,0.000,0.000,0.000,0.000,0.000,0.000,17,16,4*51
$GPGGA,040534.00,3135.6201761,N,12046.6061942,E,4,17,1.2,2.5530,M,8.310,M,01,0004*6A
$GPHPD,0,0.000,142.21,1.01,-14.86,31.5936696,120.7767699,2.553,13629456.944,24923919.203,2.553,0.000,0.000,0.000,0.000,0.000,0.000,0.000,17,16,4*57
$GPGGA,040534.20,3135.6201106,N,12046.6062532,E,4,17,1.2,2.5518,M,8.310,M,01,0004*6D
$GPHPD,0,0.000,141.87,0.59,-14.77,31.5936685,120.7767709,2.552,13629457.994,24923920.296,2.552,0.000,0.000,0.000,0.000,0.000,0.000,0.000,17,16,4*5A
$GPGGA,040534.40,3135.6200484,N,12046.6063025,E,4,17,1.2,2.5576,M,8.310,M,01,0004*6F
$GPHPD,0,0.000,141.75,0.48,-14.73,31.5936675,120.7767717,2.558,13629458.977,24923921.253,2.558,0.000,0.000,0.000,0.000,0.000,0.000,0.000,17,16,4*59
$GPGGA,040534.60,3135.6199921,N,12046.6063569,E,4,17,1.2,2.5623,M,8.310,M,00,0004*63
$GPHPD,0,0.000,141.60,0.14,-14.68,31.5936665,120.7767726,2.562,13629459.886,24923922.236,2.562,0.000,0.000,0.000,0.000,0.000,0.000,0.000,17,16,4*53
$GPGGA,040534.80,3135.6199353,N,12046.6064048,E,4,17,1.2,2.5593,M,8.310,M,00,0004*6B
$GPHPD,0,0.000,141.75,0.02,-14.57,31.5936656,120.7767734,2.559,13629460.790,24923923.145,2.559,0.000,0.000,0.000,0.000,0.000,0.000,0.000,17,16,4*5B
$GPGGA,040535.00,3135.6198758,N,12046.6064554,E,4,17,1.2,2.5661,M,8.310,M,01,0004*6B
$GPHPD,0,0.000,141.49,-0.01,-14.50,31.5936646,120.7767743,2.566,13629461.737,24923924.101,2.566,0.000,0.000,0.000,0.000,0.000,0.000,0.000,17,16,4*77
$GPGGA,040535.20,3135.6198180,N,12046.6065103,E,4,17,1.2,2.5659,M,8.310,M,01,0004*66
$GPHPD,0,0.000,141.53,-0.18,-14.56,31.5936636,120.7767752,2.566,13629462.669,24923925.100,2.566,0.000,0.000,0.000,0.000,0.000,0.000,0.000,17,16,4*7C
$GPGGA,040535.40,3135.6197479,N,12046.6065693,E,4,17,1.2,2.5574,M,8.310,M,01,0004*6E
$GPHPD,0,0.000,141.25,-0.36,-14.67,31.5936625,120.7767762,2.557,13629463.784,24923926.219,2.557,0.000,0.000,0.000,0.000,0.000,0.000,0.000,17,16,4*79
$GPGGA,040535.60,3135.6196762,N,12046.6066370,E,4,17,1.3,2.5582,M,8.310,M,00,0004*66
$GPHPD,0,0.000,140.70,0.06,-14.76,31.5936613,120.7767773,2.558,13629464.940,24923927.453,2.558,0.000,0.000,0.000,0.000,0.000,0.000,0.000,17,16,4*5B
$GPGGA,040535.80,3135.6195913,N,12046.6067068,E,4,17,1.3,2.5648,M,8.310,M,00,0004*6D
$GPHPD,0,0.000,140.59,-0.27,-14.84,31.5936599,120.7767784,2.565,13629466.287,24923928.789,2.565,0.000,0.000,0.000,0.000,0.000,0.000,0.000,17,16,4*73
$GPGGA,040536.00,3135.6195058,N,12046.6067885,E,4,17,1.2,2.5670,M,8.310,M,01,0004*60
$GPHPD,0,0.000,140.62,0.03,-14.87,31.5936584,120.7767798,2.567,13629467.666,24923930.272,2.567,0.000,0.000,0.000,0.000,0.000,0.000,0.000,17,16,4*50
$GPGGA,040536.20,3135.6194125,N,12046.6068716,E,4,17,1.2,2.5697,M,8.310,M,01,0004*6B
$GPHPD,0,0.000,142.13,0.00,-14.84,31.5936569,120.7767812,2.570,13629469.160,24923931.817,2.570,0.000,0.000,0.000,0.000,0.000,0.000,0.000,17,16,4*5D
$GPGGA,040536.40,3135.6193125,N,12046.6069552,E,4,17,1.2,2.5727,M,8.310,M,01,0004*63
$GPHPD,0,0.000,141.40,0.20,-14.77,31.5936552,120.7767826,2.573,13629470.749,24923933.408,2.573,0.000,0.000,0.000,0.000,0.000,0.000,0.000,17,16,4*5C
$GPGGA,040536.60,3135.6192230,N,12046.6070392,E,4,17,1.2,2.5805,M,8.310,M,00,0004*6B
$GPHPD,0,0.000,141.83,-0.05,-14.77,31.5936537,120.7767840,2.581,13629472.190,24923934.942,2.581,0.000,0.000,0.000,0.000,0.000,0.000,0.000,17,16,4*7E
$GPGGA,040536.80,3135.6191277,N,12046.6071253,E,4,17,1.2,2.5805,M,8.310,M,00,0004*68
$GPHPD,0,0.000,143.65,1.05,-14.79,31.5936521,120.7767854,2.581,13629473.718,24923936.535,2.581,0.000,0.000,0.000,0.000,0.000,0.000,0.000,17,15,4*5E
$GPGGA,040537.00,3135.6190357,N,12046.6072077,E,4,17,1.2,2.5899,M,8.310,M,01,0004*60
$GPHPD,0,0.000,142.30,0.33,-14.75,31.5936506,120.7767868,2.590,13629475.191,24923938.064,2.590,0.000,0.000,0.000,0.000,0.000,0.000,0.000,17,15,4*53
$GPGGA,040537.20,3135.6189460,N,12046.6072864,E,4,17,1.2,2.5845,M,8.310,M,01,0004*62
$GPHPD,0,0.000,142.61,0.35,-14.69,31.5936491,120.7767881,2.585,13629476.624,24923939.535,2.585,0.000,0.000,0.000,0.000,0.000,0.000,0.000,17,14,4*5F
$GPGGA,040537.40,3135.6188520,N,12046.6073594,E,4,17,1.2,2.5852,M,8.310,M,01,0004*65
$GPHPD,0,0.000,142.61,0.35,-14.65,31.5936475,120.7767893,2.585,13629478.107,24923940.963,2.585,0.000,0.000,0.000,0.000,0.000,0.000,0.000,17,14,4*53
$GPGGA,040537.60,3135.6187696,N,12046.6074398,E,4,17,1.2,2.5844,M,8.310,M,00,0004*6D
$GPHPD,0,0.000,142.32,0.06,-14.64,31.5936462,120.7767907,2.584,13629479.440,24923942.412,2.584,0.000,0.000,0.000,0.000,0.000,0.000,0.000,17,14,4*50
$GPGGA,040537.80,3135.6186896,N,12046.6075124,E,4,17,1.2,2.5794,M,8.310,M,00,0004*6A
$GPHPD,0,0.000,142.76,0.16,-14.65,31.5936448,120.7767919,2.579,13629480.723,24923943.753,2.579,0.000,0.000,0.000,0.000,0.000,0.000,0.000,17,14,4*50
$GPGGA,040538.00,3135.6185983,N,12046.6075761,E,4,17,1.2,2.5793,M,8.310,M,01,0004*6A
$GPHPD,0,0.000,142.68,0.31,-14.61,31.5936433,120.7767929,2.579,13629482.149,24923945.053,2.579,0.000,0.000,0.000,0.000,0.000,0.000,0.000,17,15,4*59
$GPGGA,040538.20,3135.6185125,N,12046.6076432,E,4,17,1.2,2.5860,M,8.310,M,01,0004*69
$GPHPD,0,0.000,143.00,0.04,-14.62,31.5936419,120.7767941,2.586,13629483.503,24923946.362,2.586,0.000,0.000,0.000,0.000,0.000,0.000,0.000,17,15,4*5C
$GPGGA,040538.40,3135.6184344,N,12046.6077152,E,4,17,1.2,2.5794,M,8.310,M,01,0004*6D
$GPHPD,0,0.000,142.60,0.21,-14.62,31.5936406,120.7767953,2.579,13629484.758,24923947.685,2.579,0.000,0.000,0.000,0.000,0.000,0.000,0.000,17,15,4*57
$GPGGA,040538.60,3135.6183549,N,12046.6077895,E,4,16,1.2,2.5798,M,8.310,M,00,0004*6D
$GPHPD,0,0.000,142.89,0.10,-14.66,31.5936392,120.7767965,2.580,13629486.037,24923949.043,2.580,0.000,0.000,0.000,0.000,0.000,0.000,0.000,16,15,4*56
$GPGGA,040538.80,3135.6182707,N,12046.6078617,E,4,16,1.2,2.5785,M,8.310,M,00,0004*6D
$GPHPD,0,0.000,142.81,0.00,-14.72,31.5936378,120.7767977,2.579,13629487.379,24923950.404,2.579,0.000,0.000,0.000,0.000,0.000,0.000,0.000,16,15,4*5A
$GPGGA,040539.00,3135.6181843,N,12046.6079394,E,4,16,1.2,2.5741,M,8.310,M,01,0004*6E
$GPHPD,0,0.000,142.70,0.25,-14.77,31.5936364,120.7767990,2.574,13629488.764,24923951.844,2.574,0.000,0.000,0.000,0.000,0.000,0.000,0.000,16,15,4*5C
$GPGGA,040539.20,3135.6180958,N,12046.6080179,E,4,16,1.2,2.5813,M,8.310,M,01,0004*69
$GPHPD,0,0.000,142.62,0.97,-14.82,31.5936349,120.7768003,2.581,13629490.179,24923953.306,2.581,0.000,0.000,0.000,0.000,0.000,0.000,0.000,16,15,4*53
$GPGGA,040539.40,3135.6180022,N,12046.6080998,E,4,15,1.3,2.5784,M,8.310,M,01,0004*6F
$GPHPD,0,0.000,142.49,0.82,-14.85,31.5936334,120.7768017,2.578,13629491.674,24923954.839,2.578,0.000,0.000,0.000,0.000,0.000,0.000,0.000,15,15,4*5E
$GPGGA,040539.60,3135.6179047,N,12046.6081823,E,4,16,1.3,2.5746,M,8.310,M,00,0004*64
$GPHPD,0,0.000,142.30,0.56,-14.90,31.5936317,120.7768030,2.575,13629493.226,24923956.401,2.575,0.000,0.000,0.000,0.000,0.000,0.000,0.000,16,15,4*5E
$GPGGA,040539.80,3135.6178052,N,12046.6082756,E,4,16,1.3,2.5853,M,8.310,M,00,0004*6A
$GPHPD,0,0.000,141.93,1.02,-14.94,31.5936301,120.7768046,2.585,13629494.828,24923958.106,2.585,0.000,0.000,0.000,0.000,0.000,0.000,0.000,16,15,4*59
$GPGGA,040540.00,3135.6176998,N,12046.6083646,E,4,16,1.3,2.5850,M,8.310,M,01,0004*6E
$GPHPD,0,0.000,142.37,0.50,-14.98,31.5936283,120.7768061,2.585,13629496.505,24923959.792,2.585,0.000,0.000,0.000,0.000,0.000,0.000,0.000,16,15,4*5A
$GPGGA,040540.20,3135.6175917,N,12046.6084593,E,4,16,1.3,2.5820,M,8.310,M,01,0004*63
$GPHPD,0,0.000,142.66,0.01,-15.01,31.5936265,120.7768077,2.582,13629498.232,24923961.564,2.582,0.000,0.000,0.000,0.000,0.000,0.000,0.000,16,15,4*59
$GPGGA,040540.40,3135.6174756,N,12046.6085572,E,4,15,1.3,2.5886,M,8.310,M,01,0004*6E
$GPHPD,0,0.000,142.63,0.00,-15.08,31.5936246,120.7768093,2.589,13629500.079,24923963.420,2.589,0.000,0.000,0.000,0.000,0.000,0.000,0.000,15,15,4*52
$GPGGA,040540.60,3135.6173638,N,12046.6086633,E,4,16,1.3,2.5964,M,8.310,M,00,0004*68
$GPHPD,0,0.000,142.33,0.04,-15.11,31.5936227,120.7768111,2.596,13629501.881,24923965.351,2.596,0.000,0.000,0.000,0.000,0.000,0.000,0.000,16,15,4*5D
$GPGGA,040540.80,3135.6172470,N,12046.6087716,E,4,16,1.3,2.6065,M,8.310,M,00,0004*65
$GPHPD,0,0.000,142.66,0.08,-15.17,31.5936208,120.7768129,2.607,13629503.759,24923967.337,2.607,0.000,0.000,0.000,0.000,0.000,0.000,0.000,16,15,4*5B
$GPGGA,040541.00,3135.6171156,N,12046.6088755,E,4,16,1.3,2.5926,M,8.310,M,01,0004*6A
$GPHPD,0,0.000,142.53,-0.05,-15.18,31.5936186,120.7768146,2.593,13629505.836,24923969.354,2.593,0.000,0.000,0.000,0.000,0.000,0.000,0.000,16,15,4*75
$GPGGA,040541.20,3135.6169907,N,12046.6089831,E,4,16,1.3,2.6047,M,8.310,M,01,0004*6C
$GPHPD,0,0.000,142.17,0.26,-15.19,31.5936165,120.7768164,2.605,13629507.828,24923971.379,2.605,0.000,0.000,0.000,0.000,0.000,0.000,0.000,16,16,4*5D
$GPGGA,040541.40,3135.6168662,N,12046.6090929,E,4,15,1.3,2.5895,M,8.310,M,01,0004*60
$GPHPD,0,0.000,142.35,-0.34,-15.14,31.5936144,120.7768182,2.590,13629509.818,24923973.428,2.590,0.000,0.000,0.000,0.000,0.000,0.000,0.000,15,16,4*7A
$GPGGA,040541.60,3135.6167456,N,12046.6092029,E,4,16,1.3,2.5877,M,8.310,M,00,0004*6D
$GPHPD,0,0.000,142.18,0.01,-15.10,31.5936124,120.7768200,2.588,13629511.753,24923975.457,2.588,0.000,0.000,0.000,0.000,0.000,0.000,0.000,16,16,4*51
$GPGGA,040541.80,3135.6166292,N,12046.6093105,E,4,16,1.4,2.5935,M,8.310,M,00,0004*62
$GPHPD,0,0.000,142.14,0.06,-15.07,31.5936105,120.7768218,2.594,13629513.624,24923977.432,2.594,0.000,0.000,0.000,0.000,0.000,0.000,0.000,16,16,4*54
$GPGGA,040542.00,3135.6165117,N,12046.6094163,E,4,16,1.4,2.5907,M,8.310,M,01,0004*63
$GPHPD,0,0.000,142.11,0.14,-15.05,31.5936085,120.7768236,2.591,13629515.507,24923979.392,2.591,0.000,0.000,0.000,0.000,0.000,0.000,0.000,16,16,4*52
$GPGGA,040542.20,3135.6163921,N,12046.6095268,E,4,16,1.4,2.5919,M,8.310,M,01,0004*6C
$GPHPD,0,0.000,142.00,0.41,-15.00,31.5936065,120.7768254,2.592,13629517.429,24923981.421,2.592,0.000,0.000,0.000,0.000,0.000,0.000,0.000,16,16,4*5A
$GPGGA,040542.40,3135.6162767,N,12046.6096280,E,4,15,1.4,2.5826,M,8.310,M,01,0004*6C
$GPHPD,0,0.000,142.25,0.51,-14.97,31.5936046,120.7768271,2.583,13629519.273,24923983.313,2.583,0.000,0.000,0.000,0.000,0.000,0.000,0.000,15,16,4*55
$GPGGA,040542.60,3135.6161565,N,12046.6097315,E,4,16,1.4,2.5751,M,8.310,M,00,0004*6C
$GPHPD,0,0.000,142.11,0.55,-14.97,31.5936026,120.7768289,2.575,13629521.189,24923985.261,2.575,0.000,0.000,0.000,0.000,0.000,0.000,0.000,16,16,4*5B
$GPGGA,040542.80,3135.6160331,N,12046.6098374,E,4,16,1.4,2.5838,M,8.310,M,00,0004*6C
$GPHPD,0,0.000,141.61,0.51,-15.01,31.5936006,120.7768306,2.584,13629523.156,24923987.256,2.584,0.000,0.000,0.000,0.000,0.000,0.000,0.000,16,16,4*57
$GPGGA,040543.00,3135.6159125,N,12046.6099466,E,4,16,1.3,2.5942,M,8.310,M,01,0004*67
$GPHPD,0,0.000,141.03,1.07,-14.95,31.5935985,120.7768324,2.594,13629525.090,24923989.275,2.594,0.000,0.000,0.000,0.000,0.000,0.000,0.000,16,16,4*5E
$GPGGA,040543.20,3135.6157937,N,12046.6100533,E,4,16,1.3,2.5938,M,8.310,M,01,0004*6D
$GPHPD,0,0.000,141.27,0.88,-14.94,31.5935966,120.7768342,2.594,13629526.993,24923991.253,2.594,0.000,0.000,0.000,0.000,0.000,0.000,0.000,16,16,4*56
$GPGGA,040543.40,3135.6156787,N,12046.6101643,E,4,16,1.2,2.5942,M,8.310,M,01,0004*66
$GPHPD,0,0.000,140.99,0.77,-14.96,31.5935946,120.7768361,2.594,13629528.851,24923993.261,2.594,0.000,0.000,0.000,0.000,0.000,0.000,0.000,16,17,4*50
$GPGGA,040543.60,3135.6155586,N,12046.6102714,E,4,17,1.2,2.5920,M,8.310,M,00,0004*60
$GPHPD,0,0.000,141.27,0.34,-14.95,31.5935926,120.7768379,2.592,13629530.773,24923995.252,2.592,0.000,0.000,0.000,0.000,0.000,0.000,0.000,17,17,4*5E
$GPGGA,040543.80,3135.6154399,N,12046.6103782,E,4,17,1.2,2.5973,M,8.310,M,00,0004*6F
$GPHPD,0,0.000,141.05,0.61,-14.98,31.5935907,120.7768396,2.597,13629532.675,24923997.231,2.597,0.000,0.000,0.000,0.000,0.000,0.000,0.000,17,17,4*53
$GPGGA,040544.00,3135.6153214,N,12046.6104878,E,4,17,1.2,2.5965,M,8.310,M,01,0004*68
$GPHPD,0,0.000,141.45,0.47,-14.98,31.5935887,120.7768415,2.597,13629534.580,24923999.243,2.597,0.000,0.000,0.000,0.000,0.000,0.000,0.000,17,17,4*52
$GPGGA,040544.20,3135.6152031,N,12046.6106003,E,4,17,1.2,2.5932,M,8.310,M,01,0004*6A
$GPHPD,0,0.000,141.70,0.29,-14.98,31.5935867,120.7768433,2.593,13629536.488,24924001.288,2.593,0.000,0.000,0.000,0.000,0.000,0.000,0.000,17,16,4*54
$GPGGA,040544.40,3135.6150808,N,12046.6107099,E,4,16,1.2,2.6094,M,8.311,M,01,0004*68
$GPHPD,0,0.000,142.30,-0.42,-14.97,31.5935847,120.7768452,2.609,13629538.446,24924003.322,2.609,0.000,0.000,0.000,0.000,0.000,0.000,0.000,16,16,4*77
$GPGGA,040544.60,3135.6149589,N,12046.6108140,E,4,17,1.2,2.6098,M,8.311,M,00,0004*60
$GPHPD,0,0.000,142.35,-1.05,-15.01,31.5935826,120.7768469,2.610,13629540.388,24924005.287,2.610,0.000,0.000,0.000,0.000,0.000,0.000,0.000,17,15,4*71
$GPGGA,040544.80,3135.6148389,N,12046.6109316,E,4,17,1.2,2.6087,M,8.311,M,00,0004*67
$GPHPD,0,0.000,141.81,-0.19,-15.01,31.5935806,120.7768489,2.609,13629542.330,24924007.403,2.609,0.000,0.000,0.000,0.000,0.000,0.000,0.000,17,15,4*74
$GPGGA,040545.00,3135.6147170,N,12046.6110443,E,4,17,1.2,2.6095,M,8.311,M,01,0004*68
$GPHPD,0,0.000,142.09,0.00,-15.01,31.5935786,120.7768507,2.610,13629544.290,24924009.472,2.610,0.000,0.000,0.000,0.000,0.000,0.000,0.000,17,15,4*57
$GPGGA,040545.20,3135.6145910,N,12046.6111586,E,4,17,1.2,2.6109,M,8.311,M,01,0004*6B
$GPHPD,0,0.000,142.39,-0.39,-14.98,31.5935765,120.7768526,2.611,13629546.310,24924011.584,2.611,0.000,0.000,0.000,0.000,0.000,0.000,0.000,17,15,4*76
$GPGGA,040545.40,3135.6144651,N,12046.6112678,E,4,16,1.2,2.6070,M,8.311,M,01,0004*69
$GPHPD,0,0.000,142.55,-0.37,-14.98,31.5935744,120.7768545,2.607,13629548.319,24924013.634,2.607,0.000,0.000,0.000,0.000,0.000,0.000,0.000,16,14,4*79
$GPGGA,040545.60,3135.6143427,N,12046.6113855,E,4,17,1.3,2.6082,M,8.311,M,01,0004*62
$GPHPD,0,0.000,141.81,0.36,-14.97,31.5935724,120.7768564,2.608,13629550.296,24924015.766,2.608,0.000,0.000,0.000,0.000,0.000,0.000,0.000,17,13,4*5C
$GPGGA,040545.80,3135.6142081,N,12046.6114925,E,4,17,1.3,2.6132,M,8.311,M,01,0004*6E
$GPHPD,0,0.000,141.96,0.63,-14.98,31.5935701,120.7768582,2.613,13629552.424,24924017.840,2.613,0.000,0.000,0.000,0.000,0.000,0.000,0.000,17,13,4*5E
$GPGGA,040546.00,3135.6140799,N,12046.6116083,E,4,17,1.3,2.6102,M,8.311,M,02,0004*6E
$GPHPD,0,0.000,141.21,0.78,-14.97,31.5935680,120.7768601,2.610,13629554.479,24924019.982,2.610,0.000,0.000,0.000,0.000,0.000,0.000,0.000,17,13,4*58
$GPGGA,040546.20,3135.6139525,N,12046.6117179,E,4,17,1.3,2.5986,M,8.311,M,02,0004*65
$GPHPD,0,0.000,141.16,0.98,-14.97,31.5935659,120.7768620,2.599,13629556.510,24924022.046,2.599,0.000,0.000,0.000,0.000,0.000,0.000,0.000,17,13,4*50
$GPGGA,040546.40,3135.6138254,N,12046.6118317,E,4,16,1.3,2.5921,M,8.311,M,02,0004*6A
$GPHPD,0,0.000,141.34,0.85,-14.96,31.5935638,120.7768639,2.592,13629558.546,24924024.158,2.592,0.000,0.000,0.000,0.000,0.000,0.000,0.000,16,13,4*56
$GPGGA,040546.60,3135.6136938,N,12046.6119370,E,4,16,1.8,2.5918,M,8.311,M,02,0004*66
$GPHPD,0,0.000,141.70,0.62,-14.96,31.5935616,120.7768656,2.592,13629560.628,24924026.194,2.592,0.000,0.000,0.000,0.000,0.000,0.000,0.000,16,13,4*58
$GPGGA,040546.80,3135.6135683,N,12046.6120639,E,4,17,1.5,2.6210,M,8.311,M,00,0004*68
$GPHPD,0,0.000,141.59,0.80,-14.95,31.5935595,120.7768677,2.621,13629562.667,24924028.455,2.621,0.000,0.000,0.000,0.000,0.000,0.000,0.000,17,13,4*59
$GPGGA,040547.00,3135.6134391,N,12046.6121738,E,4,17,1.5,2.6247,M,8.311,M,01,0004*64
$GPHPD,0,0.000,141.83,0.76,-14.93,31.5935573,120.7768696,2.625,13629564.724,24924030.532,2.625,0.000,0.000,0.000,0.000,0.000,0.000,0.000,17,13,4*5F
$GPGGA,040547.20,3135.6133113,N,12046.6122896,E,4,17,1.5,2.6339,M,8.311,M,01,0004*69
$GPHPD,0,0.000,142.02,0.44,-14.92,31.5935552,120.7768715,2.634,13629566.774,24924032.673,2.634,0.000,0.000,0.000,0.000,0.000,0.000,0.000,17,13,4*5F
$GPGGA,040547.40,3135.6131802,N,12046.6124007,E,4,16,1.8,2.6234,M,8.311,M,01,0004*62
$GPHPD,0,0.000,142.17,0.13,-14.92,31.5935530,120.7768733,2.623,13629568.861,24924034.776,2.623,0.000,0.000,0.000,0.000,0.000,0.000,0.000,16,13,4*5F
$GPGGA,040547.60,3135.6130545,N,12046.6125185,E,4,17,1.8,2.6333,M,8.311,M,00,0004*63
$GPHPD,0,0.000,142.90,0.28,-14.91,31.5935509,120.7768753,2.633,13629570.884,24924036.928,2.633,0.000,0.000,0.000,0.000,0.000,0.000,0.000,17,13,4*53
$GPGGA,040547.80,3135.6129265,N,12046.6126330,E,4,17,1.8,2.6338,M,8.311,M,00,0004*64
$GPHPD,0,0.000,142.73,0.50,-14.92,31.5935488,120.7768772,2.634,13629572.934,24924039.054,2.634,0.000,0.000,0.000,0.000,0.000,0.000,0.000,17,14,4*5B
$GPGGA,040548.00,3135.6127964,N,12046.6127511,E,4,17,1.7,2.6358,M,8.311,M,01,0004*6B
$GPHPD,0,0.000,143.38,0.00,-14.92,31.5935466,120.7768792,2.636,13629575.020,24924041.236,2.636,0.000,0.000,0.000,0.000,0.000,0.000,0.000,17,14,4*5C
$GPGGA,040548.20,3135.6126704,N,12046.6128651,E,4,17,1.7,2.6441,M,8.311,M,01,0004*67
$GPHPD,0,0.000,142.72,-0.16,-14.95,31.5935445,120.7768811,2.644,13629577.040,24924043.344,2.644,0.000,0.000,0.000,0.000,0.000,0.000,0.000,17,14,4*79
$GPGGA,040548.40,3135.6125401,N,12046.6129785,E,4,16,1.8,2.6389,M,8.311,M,01,0004*60
$GPHPD,0,0.000,142.87,-0.09,-14.95,31.5935423,120.7768830,2.639,13629579.121,24924045.470,2.639,0.000,0.000,0.000,0.000,0.000,0.000,0.000,16,14,4*71
$GPGGA,040548.60,3135.6124073,N,12046.6130908,E,4,17,1.3,2.6471,M,8.311,M,01,0004*6B
$GPHPD,0,0.000,143.37,-0.60,-14.97,31.5935401,120.7768848,2.647,13629581.234,24924047.597,2.647,0.000,0.000,0.000,0.000,0.000,0.000,0.000,17,15,4*73
$GPGGA,040548.80,3135.6122776,N,12046.6132032,E,4,17,1.3,2.6562,M,8.311,M,00,0004*61
$GPHPD,0,0.000,143.20,-0.47,-14.98,31.5935380,120.7768867,2.656,13629583.303,24924049.708,2.656,0.000,0.000,0.000,0.000,0.000,0.000,0.000,17,15,4*71
$GPGGA,040549.00,3135.6121517,N,12046.6133186,E,4,17,1.5,2.6486,M,8.311,M,01,0004*6D
$GPHPD,0,0.000,142.80,0.09,-15.00,31.5935359,120.7768886,2.649,13629585.325,24924051.832,2.649,0.000,0.000,0.000,0.000,0.000,0.000,0.000,17,14,4*5A
$GPGGA,040549.20,3135.6120215,N,12046.6134299,E,4,17,1.5,2.6457,M,8.311,M,01,0004*6D
$GPHPD,0,0.000,143.02,0.19,-15.03,31.5935337,120.7768905,2.646,13629587.399,24924053.933,2.646,0.000,0.000,0.000,0.000,0.000,0.000,0.000,17,14,4*56
$GPGGA,040549.40,3135.6118911,N,12046.6135395,E,4,17,1.5,2.6427,M,8.311,M,01,0004*64
$GPHPD,0,0.000,142.50,0.67,-15.03,31.5935315,120.7768923,2.643,13629589.473,24924056.013,2.643,0.000,0.000,0.000,0.000,0.000,0.000,0.000,17,15,4*5F
$GPGGA,040549.60,3135.6117595,N,12046.6136505,E,4,16,1.5,2.6378,M,8.311,M,00,0004*68
$GPHPD,0,0.000,142.06,0.56,-15.05,31.5935293,120.7768942,2.638,13629591.567,24924058.118,2.638,0.000,0.000,0.000,0.000,0.000,0.000,0.000,16,14,4*59
$GPGGA,040549.80,3135.6116313,N,12046.6137664,E,4,16,1.5,2.6496,M,8.311,M,00,0004*6D
$GPHPD,0,0.000,141.90,0.53,-15.06,31.5935272,120.7768961,2.650,13629593.622,24924060.262,2.650,0.000,0.000,0.000,0.000,0.000,0.000,0.000,16,14,4*58
$GPGGA,040550.00,3135.6115006,N,12046.6138758,E,4,16,1.5,2.6391,M,8.311,M,01,0004*69
$GPHPD,0,0.000,141.70,0.77,-15.04,31.5935250,120.7768979,2.639,13629595.700,24924062.342,2.639,0.000,0.000,0.000,0.000,0.000,0.000,0.000,16,14,4*5D
$GPGGA,040550.20,3135.6113757,N,12046.6139939,E,4,16,1.5,2.6535,M,8.311,M,01,0004*6E
$GPHPD,0,0.000,141.30,1.36,-15.08,31.5935229,120.7768999,2.654,13629597.713,24924064.494,2.654,0.000,0.000,0.000,0.000,0.000,0.000,0.000,16,14,4*5B
$GPGGA,040550.40,3135.6112487,N,12046.6141084,E,4,15,1.5,2.6617,M,8.311,M,01,0004*67
$GPHPD,0,0.000,141.58,0.73,-15.08,31.5935208,120.7769018,2.662,13629599.748,24924066.614,2.662,0.000,0.000,0.000,0.000,0.000,0.000,0.000,15,15,4*5D
$GPGGA,040550.60,3135.6111206,N,12046.6142238,E,4,16,1.5,2.6523,M,8.311,M,00,0004*69
$GPHPD,0,0.000,141.57,0.85,-15.07,31.5935187,120.7769037,2.652,13629601.801,24924068.751,2.652,0.000,0.000,0.000,0.000,0.000,0.000,0.000,16,15,4*50
$GPGGA,040550.80,3135.6109946,N,12046.6143382,E,4,16,1.5,2.6608,M,8.311,M,00,0004*6A
$GPHPD,0,0.000,141.56,1.11,-15.08,31.5935166,120.7769056,2.661,13629603.822,24924070.864,2.661,0.000,0.000,0.000,0.000,0.000,0.000,0.000,16,15,4*59
$GPGGA,040551.00,3135.6108660,N,12046.6144530,E,4,16,1.5,2.6647,M,8.311,M,01,0004*6B
$GPHPD,0,0.000,141.36,0.73,-15.09,31.5935144,120.7769076,2.665,13629605.880,24924072.997,2.665,0.000,0.000,0.000,0.000,0.000,0.000,0.000,16,15,4*58
$GPGGA,040551.20,3135.6107369,N,12046.6145675,E,4,16,1.5,2.6513,M,8.311,M,01,0004*6B
$GPHPD,0,0.000,140.85,0.62,-15.07,31.5935123,120.7769095,2.651,13629607.946,24924075.130,2.651,0.000,0.000,0.000,0.000,0.000,0.000,0.000,16,15,4*58
$GPGGA,040551.40,3135.6106101,N,12046.6146818,E,4,15,1.5,2.6517,M,8.311,M,01,0004*61
$GPHPD,0,0.000,140.60,1.35,-15.07,31.5935102,120.7769114,2.652,13629609.978,24924077.246,2.652,0.000,0.000,0.000,0.000,0.000,0.000,0.000,15,15,4*5B
$GPGGA,040551.60,3135.6104832,N,12046.6147999,E,4,16,1.5,2.6744,M,8.311,M,00,0004*67
$GPHPD,0,0.000,140.94,1.53,-15.08,31.5935081,120.7769133,2.674,13629612.019,24924079.409,2.674,0.000,0.000,0.000,0.000,0.000,0.000,0.000,16,15,4*54
$GPGGA,040551.80,3135.6103625,N,12046.6149272,E,4,16,1.4,2.6925,M,8.311,M,00,0004*6E
$GPHPD,0,0.000,141.96,0.13,-15.09,31.5935060,120.7769155,2.693,13629613.991,24924081.647,2.693,0.000,0.000,0.000,0.000,0.000,0.000,0.000,16,15,4*5B
$GPGGA,040552.00,3135.6102343,N,12046.6150404,E,4,17,1.4,2.6890,M,8.311,M,01,0004*61
$GPHPD,0,0.000,142.23,0.36,-15.09,31.5935039,120.7769173,2.689,13629616.040,24924083.758,2.689,0.000,0.000,0.000,0.000,0.000,0.000,0.000,17,16,4*56
$GPGGA,040552.20,3135.6101046,N,12046.6151514,E,4,17,1.5,2.6807,M,8.311,M,01,0004*68
$GPHPD,0,0.000,142.75,0.00,-15.06,31.5935017,120.7769192,2.681,13629618.107,24924085.852,2.681,0.000,0.000,0.000,0.000,0.000,0.000,0.000,17,16,4*53
$GPGGA,040552.40,3135.6099735,N,12046.6152699,E,4,15,1.5,2.6913,M,8.311,M,01,0004*6E
$GPHPD,0,0.000,142.84,-0.20,-15.07,31.5934996,120.7769212,2.691,13629620.209,24924088.044,2.691,0.000,0.000,0.000,0.000,0.000,0.000,0.000,15,15,4*7C
$GPGGA,040552.60,3135.6098373,N,12046.6153779,E,4,17,1.3,2.6837,M,8.311,M,00,0004*67
$GPHPD,0,0.000,143.02,-0.04,-15.08,31.5934973,120.7769230,2.684,13629622.362,24924090.139,2.684,0.000,0.000,0.000,0.000,0.000,0.000,0.000,17,15,4*7F
$GPGGA,040552.80,3135.6097112,N,12046.6154913,E,4,17,1.3,2.6848,M,8.311,M,00,0004*6E
$GPHPD,0,0.000,142.03,0.68,-15.06,31.5934952,120.7769249,2.685,13629624.382,24924092.241,2.685,0.000,0.000,0.000,0.000,0.000,0.000,0.000,17,15,4*5D
$GPGGA,040553.00,3135.6095797,N,12046.6156035,E,4,17,1.3,2.6867,M,8.311,M,01,0004*6D
$GPHPD,0,0.000,141.83,0.42,-15.07,31.5934930,120.7769267,2.687,13629626.477,24924094.360,2.687,0.000,0.000,0.000,0.000,0.000,0.000,0.000,17,15,4*5C
$GPGGA,040553.20,3135.6094496,N,12046.6157185,E,4,17,1.3,2.6723,M,8.311,M,01,0004*68
$GPHPD,0,0.000,141.11,1.28,-15.06,31.5934908,120.7769286,2.672,13629628.557,24924096.504,2.672,0.000,0.000,0.000,0.000,0.000,0.000,0.000,17,15,4*54
$GPGGA,040553.40,3135.6093195,N,12046.6158331,E,4,16,1.3,2.6804,M,8.311,M,01,0004*66
$GPHPD,0,0.000,140.61,1.59,-15.05,31.5934887,120.7769306,2.680,13629630.637,24924098.643,2.680,0.000,0.000,0.000,0.000,0.000,0.000,0.000,16,15,4*5B
$GPGGA,040553.60,3135.6091882,N,12046.6159598,E,4,17,1.3,2.6887,M,8.311,M,00,0004*66
$GPHPD,0,0.000,140.15,1.26,-15.03,31.5934865,120.7769327,2.689,13629632.758,24924100.936,2.689,0.000,0.000,0.000,0.000,0.000,0.000,0.000,17,15,4*5F
$GPGGA,040553.80,3135.6090578,N,12046.6160784,E,4,17,1.3,2.6885,M,8.311,M,00,0004*66
$GPHPD,0,0.000,139.91,1.46,-15.01,31.5934843,120.7769346,2.689,13629634.850,24924103.125,2.689,0.000,0.000,0.000,0.000,0.000,0.000,0.000,17,15,4*52
$GPGGA,040554.00,3135.6089312,N,12046.6162014,E,4,17,1.3,2.7084,M,8.311,M,01,0004*6E
$GPHPD,0,0.000,141.05,0.82,-14.99,31.5934822,120.7769367,2.708,13629636.897,24924105.345,2.708,0.000,0.000,0.000,0.000,0.000,0.000,0.000,17,15,4*56
$GPGGA,040554.20,3135.6088069,N,12046.6163266,E,4,17,1.3,2.7168,M,8.311,M,01,0004*67
$GPHPD,0,0.000,140.37,0.55,-15.00,31.5934801,120.7769388,2.717,13629638.915,24924107.579,2.717,0.000,0.000,0.000,0.000,0.000,0.000,0.000,17,15,4*53
$GPGGA,040554.40,3135.6086769,N,12046.6164499,E,4,17,1.3,2.7105,M,8.311,M,01,0004*62
$GPHPD,0,0.000,140.36,0.36,-14.99,31.5934779,120.7769408,2.711,13629641.011,24924109.822,2.711,0.000,0.000,0.000,0.000,0.000,0.000,0.000,17,15,4*57
$GPGGA,040554.60,3135.6085579,N,12046.6165778,E,4,17,1.3,2.7221,M,8.311,M,00,0004*69
$GPHPD,0,0.000,140.86,0.30,-15.01,31.5934760,120.7769430,2.722,13629642.960,24924112.057,2.722,0.000,0.000,0.000,0.000,0.000,0.000,0.000,17,15,4*55
$GPGGA,040554.80,3135.6084152,N,12046.6166787,E,4,17,1.3,2.7076,M,8.311,M,00,0004*68
$GPHPD,0,0.000,141.32,-0.18,-14.99,31.5934736,120.7769446,2.708,13629645.191,24924114.105,2.708,0.000,0.000,0.000,0.000,0.000,0.000,0.000,17,14,4*7E
$GPGGA,040555.00,3135.6082912,N,12046.6168038,E,4,17,1.3,2.7181,M,8.311,M,01,0004*6E
$GPHPD,0,0.000,140.01,0.28,-14.97,31.5934715,120.7769467,2.718,13629647.205,24924116.335,2.718,0.000,0.000,0.000,0.000,0.000,0.000,0.000,17,14,4*52
$GPGGA,040555.20,3135.6081613,N,12046.6169282,E,4,17,1.3,2.7215,M,8.311,M,01,0004*6D
$GPHPD,0,0.000,141.04,0.10,-14.95,31.5934694,120.7769488,2.722,13629649.301,24924118.592,2.722,0.000,0.000,0.000,0.000,0.000,0.000,0.000,17,14,4*58
$GPGGA,040555.40,3135.6080354,N,12046.6170459,E,4,16,1.5,2.7000,M,8.311,M,01,0004*65
$GPHPD,0,0.000,141.27,0.23,-14.94,31.5934673,120.7769508,2.700,13629651.328,24924120.744,2.700,0.000,0.000,0.000,0.000,0.000,0.000,0.000,16,14,4*59
$GPGGA,040555.60,3135.6079064,N,12046.6171693,E,4,16,1.5,2.6955,M,8.311,M,00,0004*6D
$GPHPD,0,0.000,141.56,0.23,-14.94,31.5934651,120.7769528,2.696,13629653.409,24924122.983,2.696,0.000,0.000,0.000,0.000,0.000,0.000,0.000,16,15,4*5D
$GPGGA,040555.80,3135.6077718,N,12046.6172836,E,4,16,1.5,2.6970,M,8.311,M,00,0004*64
$GPHPD,0,0.000,142.03,0.10,-14.96,31.5934629,120.7769547,2.697,13629655.552,24924125.145,2.697,0.000,0.000,0.000,0.000,0.000,0.000,0.000,16,15,4*56
$GPGGA,040556.00,3135.6076429,N,12046.6174013,E,4,16,1.5,2.7063,M,8.311,M,01,0004*6D
$GPHPD,0,0.000,141.35,0.87,-14.96,31.5934607,120.7769567,2.706,13629657.621,24924127.315,2.706,0.000,0.000,0.000,0.000,0.000,0.000,0.000,16,15,4*50
$GPGGA,040556.20,3135.6075142,N,12046.6175225,E,4,16,1.5,2.7086,M,8.311,M,01,0004*69
$GPHPD,0,0.000,141.35,0.75,-14.96,31.5934586,120.7769587,2.709,13629659.694,24924129.526,2.709,0.000,0.000,0.000,0.000,0.000,0.000,0.000,16,15,4*51
$GPGGA,040556.40,3135.6073821,N,12046.6176395,E,4,17,1.5,2.7081,M,8.311,M,01,0004*6A
$GPHPD,0,0.000,141.54,0.70,-14.94,31.5934564,120.7769607,2.708,13629661.807,24924131.706,2.708,0.000,0.000,0.000,0.000,0.000,0.000,0.000,17,15,4*51
$GPGGA,040556.60,3135.6072457,N,12046.6177562,E,4,17,1.3,2.7052,M,8.311,M,00,0004*62
$GPHPD,0,0.000,141.22,0.90,-14.93,31.5934541,120.7769626,2.705,13629663.980,24924133.907,2.705,0.000,0.000,0.000,0.000,0.000,0.000,0.000,17,15,4*5C
$GPGGA,040556.80,3135.6071173,N,12046.6178806,E,4,17,1.3,2.7175,M,8.311,M,00,0004*68
$GPHPD,0,0.000,140.58,0.90,-14.92,31.5934520,120.7769647,2.718,13629666.056,24924136.155,2.718,0.000,0.000,0.000,0.000,0.000,0.000,0.000,17,15,4*5C
$GPGGA,040557.00,3135.6069848,N,12046.6179989,E,4,16,1.4,2.7257,M,8.311,M,01,0004*6A
$GPHPD,0,0.000,140.92,0.55,-14.92,31.5934497,120.7769666,2.726,13629668.177,24924138.353,2.726,0.000,0.000,0.000,0.000,0.000,0.000,0.000,16,16,4*59
$GPGGA,040557.20,3135.6068587,N,12046.6181209,E,4,16,1.4,2.7228,M,8.311,M,01,0004*6B
$GPHPD,0,0.000,140.92,0.16,-14.93,31.5934476,120.7769687,2.723,13629670.215,24924140.558,2.723,0.000,0.000,0.000,0.000,0.000,0.000,0.000,16,16,4*53
$GPGGA,040557.40,3135.6067248,N,12046.6182427,E,4,16,1.4,2.7300,M,8.311,M,01,0004*64
$GPHPD,0,0.000,140.95,0.47,-14.91,31.5934454,120.7769707,2.730,13629672.363,24924142.806,2.730,0.000,0.000,0.000,0.000,0.000,0.000,0.000,16,16,4*5D
$GPGGA,040557.60,3135.6065970,N,12046.6183647,E,4,16,1.4,2.7339,M,8.311,M,00,0004*6A
$GPHPD,0,0.000,140.82,0.29,-14.88,31.5934433,120.7769727,2.734,13629674.424,24924145.022,2.734,0.000,0.000,0.000,0.000,0.000,0.000,0.000,16,15,4*50
$GPGGA,040557.80,3135.6064642,N,12046.6184870,E,4,16,1.4,2.7325,M,8.311,M,00,0004*6B
$GPHPD,0,0.000,141.15,-0.26,-14.84,31.5934411,120.7769748,2.733,13629676.558,24924147.269,2.733,0.000,0.000,0.000,0.000,0.000,0.000,0.000,16,15,4*7F
$GPGGA,040558.00,3135.6063369,N,12046.6186020,E,4,16,1.4,2.7288,M,8.311,M,01,0004*6F
$GPHPD,0,0.000,141.01,0.15,-14.83,31.5934389,120.7769767,2.729,13629678.599,24924149.397,2.729,0.000,0.000,0.000,0.000,0.000,0.000,0.000,16,15,4*56
$GPGGA,040558.20,3135.6062090,N,12046.6187199,E,4,16,1.4,2.7242,M,8.311,M,01,0004*6D
$GPHPD,0,0.000,140.80,0.90,-14.83,31.5934368,120.7769787,2.724,13629680.654,24924151.564,2.724,0.000,0.000,0.000,0.000,0.000,0.000,0.000,16,15,4*54
$GPGGA,040558.40,3135.6060829,N,12046.6188455,E,4,15,1.4,2.7406,M,8.311,M,01,0004*6C
$GPHPD,0,0.000,140.73,0.97,-14.85,31.5934347,120.7769808,2.741,13629682.699,24924153.812,2.741,0.000,0.000,0.000,0.000,0.000,0.000,0.000,15,15,4*52
$GPGGA,040558.60,3135.6059478,N,12046.6189559,E,4,16,1.5,2.7174,M,8.311,M,00,0004*63
$GPHPD,0,0.000,141.35,0.07,-14.84,31.5934325,120.7769826,2.717,13629684.841,24924155.930,2.717,0.000,0.000,0.000,0.000,0.000,0.000,0.000,16,14,4*59
$GPGGA,040558.80,3135.6058176,N,12046.6190731,E,4,16,1.5,2.7289,M,8.311,M,00,0004*62
$GPHPD,0,0.000,141.48,0.31,-14.84,31.5934303,120.7769846,2.729,13629686.927,24924158.102,2.729,0.000,0.000,0.000,0.000,0.000,0.000,0.000,16,14,4*53
$GPGGA,040559.00,3135.6056867,N,12046.6191962,E,4,15,1.5,2.7491,M,8.311,M,01,0004*68
$GPHPD,0,0.000,141.33,0.42,-14.84,31.5934281,120.7769866,2.749,13629689.035,24924160.348,2.749,0.000,0.000,0.000,0.000,0.000,0.000,0.000,15,14,4*53
$GPGGA,040559.20,3135.6055561,N,12046.6193157,E,4,15,1.5,2.7504,M,8.311,M,01,0004*63
$GPHPD,0,0.000,141.58,0.42,-14.86,31.5934259,120.7769886,2.750,13629691.132,24924162.550,2.750,0.000,0.000,0.000,0.000,0.000,0.000,0.000,15,14,4*55
$GPGGA,040559.40,3135.6054253,N,12046.6194257,E,4,14,1.8,2.7213,M,8.311,M,01,0004*6B
$GPHPD,0,0.000,141.71,0.52,-14.85,31.5934238,120.7769904,2.721,13629693.212,24924164.637,2.721,0.000,0.000,0.000,0.000,0.000,0.000,0.000,14,14,4*56
$GPGGA,040559.60,3135.6052923,N,12046.6195447,E,4,14,1.8,2.7196,M,8.311,M,00,0004*6A
$GPHPD,0,0.000,141.87,0.32,-14.84,31.5934215,120.7769924,2.720,13629695.342,24924166.847,2.720,0.000,0.000,0.000,0.000,0.000,0.000,0.000,14,14,4*5C
$GPGGA,040559.80,3135.6051620,N,12046.6196641,E,4,14,1.8,2.7233,M,8.311,M,00,0004*60
$GPHPD,0,0.000,141.86,0.70,-14.84,31.5934194,120.7769944,2.723,13629697.434,24924169.045,2.723,0.000,0.000,0.000,0.000,0.000,0.000,0.000,14,14,4*56
$GPGGA,040600.00,3135.6050300,N,12046.6197793,E,4,14,1.8,2.7329,M,8.311,M,01,0004*65
$GPHPD,0,0.000,142.10,0.58,-14.85,31.5934172,120.7769963,2.733,13629699.542,24924171.203,2.733,0.000,0.000,0.000,0.000,0.000,0.000,0.000,14,14,4*5B
$GPGGA,040600.20,3135.6048973,N,12046.6198979,E,4,14,1.8,2.7377,M,8.311,M,01,0004*6E
$GPHPD,0,0.000,141.82,0.29,-14.84,31.5934150,120.7769983,2.738,13629701.667,24924173.406,2.738,0.000,0.000,0.000,0.000,0.000,0.000,0.000,14,14,4*5F
$GPGGA,040600.40,3135.6047658,N,12046.6200137,E,4,14,1.8,2.7246,M,8.311,M,01,0004*62
$GPHPD,0,0.000,141.97,0.00,-14.83,31.5934128,120.7770002,2.725,13629703.769,24924175.568,2.725,0.000,0.000,0.000,0.000,0.000,0.000,0.000,14,14,4*52
$GPGGA,040600.60,3135.6046377,N,12046.6201293,E,4,14,1.8,2.7395,M,8.311,M,00,0004*6B
$GPHPD,0,0.000,142.03,0.63,-14.84,31.5934106,120.7770022,2.740,13629705.822,24924177.707,2.740,0.000,0.000,0.000,0.000,0.000,0.000,0.000,14,14,4*5F
$GPGGA,040600.80,3135.6045055,N,12046.6202476,E,4,14,1.8,2.7363,M,8.311,M,00,0004*62
$GPHPD,0,0.000,142.21,0.03,-14.83,31.5934084,120.7770041,2.736,13629707.939,24924179.904,2.736,0.000,0.000,0.000,0.000,0.000,0.000,0.000,14,14,4*5A
$GPGGA,040601.00,3135.6043771,N,12046.6203669,E,4,14,1.8,2.7404,M,8.311,M,01,0004*66
$GPHPD,0,0.000,142.16,0.52,-14.81,31.5934063,120.7770061,2.740,13629710.004,24924182.090,2.740,0.000,0.000,0.000,0.000,0.000,0.000,0.000,14,14,4*52
$GPGGA,040601.20,3135.6042462,N,12046.6204827,E,4,14,1.8,2.7372,M,8.311,M,01,0004*61
$GPHPD,0,0.000,142.11,0.25,-14.82,31.5934041,120.7770080,2.737,13629712.097,24924184.248,2.737,0.000,0.000,0.000,0.000,0.000,0.000,0.000,14,14,4*50
$GPGGA,040601.40,3135.6041121,N,12046.6205987,E,4,14,1.8,2.7476,M,8.311,M,01,0004*6F
$GPHPD,0,0.000,142.11,0.80,-14.81,31.5934019,120.7770100,2.748,13629714.236,24924186.428,2.748,0.000,0.000,0.000,0.000,0.000,0.000,0.000,14,14,4*55
$GPGGA,040601.60,3135.6039814,N,12046.6207150,E,4,14,1.8,2.7404,M,8.311,M,01,0004*68
$GPHPD,0,0.000,141.85,0.44,-14.80,31.5933997,120.7770119,2.740,13629716.328,24924188.591,2.740,0.000,0.000,0.000,0.000,0.000,0.000,0.000,14,14,4*53
$GPGGA,040601.80,3135.6038497,N,12046.6208289,E,4,14,1.8,2.7468,M,8.311,M,01,0004*62
$GPHPD,0,0.000,142.19,0.36,-14.79,31.5933975,120.7770138,2.747,13629718.429,24924190.732,2.747,0.000,0.000,0.000,0.000,0.000,0.000,0.000,14,14,4*53
$GPGGA,040602.00,3135.6037198,N,12046.6209461,E,4,14,1.8,2.7404,M,8.311,M,02,0004*64
$GPHPD,0,0.000,142.11,0.40,-14.80,31.5933953,120.7770158,2.740,13629720.511,24924192.901,2.740,0.000,0.000,0.000,0.000,0.000,0.000,0.000,14,14,4*53
$GPGGA,040602.20,3135.6035904,N,12046.6210624,E,4,14,1.8,2.7533,M,8.311,M,02,0004*67
$GPHPD,0,0.000,142.31,0.37,-14.81,31.5933932,120.7770177,2.753,13629722.584,24924195.057,2.753,0.000,0.000,0.000,0.000,0.000,0.000,0.000,14,14,4*59
$GPGGA,040602.40,3135.6034581,N,12046.6211767,E,4,14,1.8,2.7527,M,8.311,M,02,0004*63
$GPHPD,0,0.000,142.19,0.16,-14.84,31.5933910,120.7770196,2.753,13629724.694,24924197.205,2.753,0.000,0.000,0.000,0.000,0.000,0.000,0.000,14,14,4*59
$GPGGA,040602.60,3135.6033290,N,12046.6212896,E,4,14,1.8,2.7392,M,8.311,M,02,0004*6B
$GPHPD,0,0.000,142.29,-0.02,-14.86,31.5933888,120.7770215,2.739,13629726.756,24924199.319,2.739,0.000,0.000,0.000,0.000,0.000,0.000,0.000,14,14,4*77
$GPGGA,040602.80,3135.6031994,N,12046.6214049,E,4,14,1.8,2.7460,M,8.311,M,00,0004*6C
$GPHPD,0,0.000,142.17,1.05,-14.87,31.5933867,120.7770234,2.746,13629728.830,24924201.463,2.746,0.000,0.000,0.000,0.000,0.000,0.000,0.000,14,14,4*5B
$GPGGA,040603.00,3135.6030702,N,12046.6215209,E,4,14,1.8,2.7464,M,8.311,M,01,0004*67
$GPHPD,0,0.000,142.20,0.65,-14.89,31.5933845,120.7770253,2.746,13629730.900,24924203.614,2.746,0.000,0.000,0.000,0.000,0.000,0.000,0.000,14,14,4*5C
$GPGGA,040603.20,3135.6029420,N,12046.6216387,E,4,14,1.8,2.7487,M,8.311,M,01,0004*67
$GPHPD,0,0.000,142.07,0.91,-14.91,31.5933824,120.7770273,2.749,13629732.959,24924205.781,2.749,0.000,0.000,0.000,0.000,0.000,0.000,0.000,14,14,4*5B
$GPGGA,040603.40,3135.6028115,N,12046.6217523,E,4,14,1.8,2.7478,M,8.311,M,01,0004*6A
$GPHPD,0,0.000,142.32,1.12,-14.92,31.5933802,120.7770292,2.748,13629735.043,24924207.911,2.748,0.000,0.000,0.000,0.000,0.000,0.000,0.000,14,14,4*5F
$GPGGA,040603.60,3135.6026859,N,12046.6218682,E,4,14,1.8,2.7459,M,8.311,M,00,0004*62
$GPHPD,0,0.000,142.54,0.79,-14.92,31.5933781,120.7770311,2.746,13629737.061,24924210.040,2.746,0.000,0.000,0.000,0.000,0.000,0.000,0.000,14,14,4*54
$GPGGA,040603.80,3135.6025492,N,12046.6219782,E,4,14,1.8,2.7558,M,8.311,M,00,0004*64
$GPHPD,0,0.000,142.49,0.61,-14.92,31.5933758,120.7770330,2.756,13629739.225,24924212.162,2.756,0.000,0.000,0.000,0.000,0.000,0.000,0.000,14,14,4*59
$GPGGA,040604.00,3135.6024242,N,12046.6220973,E,4,14,1.8,2.7580,M,8.311,M,01,0004*6F
$GPHPD,0,0.000,141.97,0.53,-14.89,31.5933737,120.7770350,2.758,13629741.241,24924214.326,2.758,0.000,0.000,0.000,0.000,0.000,0.000,0.000,14,14,4*54
$GPGGA,040604.20,3135.6022925,N,12046.6222126,E,4,14,1.8,2.7638,M,8.311,M,01,0004*6B
$GPHPD,0,0.000,142.22,0.52,-14.88,31.5933715,120.7770369,2.764,13629743.345,24924216.483,2.764,0.000,0.000,0.000,0.000,0.000,0.000,0.000,14,14,4*5E
$GPGGA,040604.40,3135.6021600,N,12046.6223265,E,4,14,1.8,2.7693,M,8.311,M,01,0004*62
$GPHPD,0,0.000,142.40,0.17,-14.86,31.5933693,120.7770388,2.769,13629745.457,24924218.628,2.769,0.000,0.000,0.000,0.000,0.000,0.000,0.000,14,14,4*5A
$GPGGA,040604.60,3135.6020319,N,12046.6224420,E,4,14,1.8,2.7591,M,8.311,M,01,0004*6D
$GPHPD,0,0.000,142.32,0.20,-14.86,31.5933672,120.7770407,2.759,13629747.510,24924220.767,2.759,0.000,0.000,0.000,0.000,0.000,0.000,0.000,14,14,4*55
$GPGGA,040604.80,3135.6019029,N,12046.6225557,E,4,14,1.8,2.7634,M,8.311,M,00,0004*64
$GPHPD,0,0.000,142.23,0.80,-14.85,31.5933650,120.7770426,2.763,13629749.573,24924222.889,2.763,0.000,0.000,0.000,0.000,0.000,0.000,0.000,14,14,4*59
$GPGGA,040605.00,3135.6017739,N,12046.6226726,E,4,14,1.8,2.7698,M,8.311,M,01,0004*65
$GPHPD,0,0.000,142.05,0.48,-14.83,31.5933629,120.7770445,2.770,13629751.641,24924225.050,2.770,0.000,0.000,0.000,0.000,0.000,0.000,0.000,14,14,4*54
$GPGGA,040605.20,3135.6016444,N,12046.6227871,E,4,14,1.8,2.7709,M,8.311,M,01,0004*6A
$GPHPD,0,0.000,141.88,0.81,-14.84,31.5933607,120.7770465,2.771,13629753.712,24924227.184,2.771,0.000,0.000,0.000,0.000,0.000,0.000,0.000,14,14,4*51
$GPGGA,040605.40,3135.6015152,N,12046.6229029,E,4,14,1.8,2.7768,M,8.311,M,01,0004*61
$GPHPD,0,0.000,141.95,0.51,-14.83,31.5933586,120.7770484,2.777,13629755.782,24924229.333,2.777,0.000,0.000,0.000,0.000,0.000,0.000,0.000,14,14,4*5D
$GPGGA,040605.60,3135.6013824,N,12046.6230192,E,4,14,1.8,2.7699,M,8.311,M,00,0004*6A
$GPHPD,0,0.000,142.01,0.33,-14.84,31.5933564,120.7770503,2.770,13629757.903,24924231.509,2.770,0.000,0.000,0.000,0.000,0.000,0.000,0.000,14,14,4*51
$GPGGA,040605.80,3135.6012538,N,12046.6231370,E,4,14,1.8,2.7738,M,8.311,M,00,0004*60
$GPHPD,0,0.000,141.94,0.85,-14.85,31.5933542,120.7770523,2.774,13629759.968,24924233.678,2.774,0.000,0.000,0.000,0.000,0.000,0.000,0.000,14,14,4*50
$GPGGA,040606.00,3135.6011251,N,12046.6232549,E,4,14,1.8,2.7825,M,8.311,M,01,0004*6D
$GPHPD,0,0.000,142.03,0.62,-14.85,31.5933521,120.7770542,2.783,13629762.034,24924235.849,2.783,0.000,0.000,0.000,0.000,0.000,0.000,0.000,14,14,4*54
$GPGGA,040606.20,3135.6009939,N,12046.6233683,E,4,14,1.8,2.7791,M,8.311,M,01,0004*67
$GPHPD,0,0.000,142.03,0.62,-14.84,31.5933499,120.7770561,2.779,13629764.127,24924237.980,2.779,0.000,0.000,0.000,0.000,0.000,0.000,0.000,14,14,4*55
$GPGGA,040606.40,3135.6008625,N,12046.6234823,E,4,14,1.8,2.7755,M,8.311,M,01,0004*69
$GPHPD,0,0.000,141.53,0.47,-14.81,31.5933477,120.7770580,2.776,13629766.224,24924240.120,2.776,0.000,0.000,0.000,0.000,0.000,0.000,0.000,14,14,4*5E
$GPGGA,040606.60,3135.6007336,N,12046.6236008,E,4,14,1.8,2.7831,M,8.311,M,00,0004*6C
$GPHPD,0,0.000,140.82,1.21,-14.80,31.5933456,120.7770600,2.783,13629768.294,24924242.299,2.783,0.000,0.000,0.000,0.000,0.000,0.000,0.000,14,14,4*5D
$GPGGA,040606.80,3135.6006045,N,12046.6237183,E,4,14,1.8,2.7814,M,8.311,M,00,0004*60
$GPHPD,0,0.000,140.93,0.70,-14.80,31.5933434,120.7770620,2.781,13629770.366,24924244.468,2.781,0.000,0.000,0.000,0.000,0.000,0.000,0.000,14,14,4*55
$GPGGA,040607.00,3135.6004740,N,12046.6238342,E,4,14,1.8,2.7814,M,8.311,M,01,0004*68
$GPHPD,0,0.000,139.73,0.30,-14.81,31.5933412,120.7770639,2.781,13629772.454,24924246.625,2.781,0.000,0.000,0.000,0.000,0.000,0.000,0.000,14,14,4*51
$GPGGA,040607.20,3135.6003493,N,12046.6239593,E,4,14,1.8,2.7875,M,8.311,M,01,0004*6C
$GPHPD,0,0.000,141.35,0.11,-14.83,31.5933392,120.7770660,2.788,13629774.478,24924248.860,2.788,0.000,0.000,0.000,0.000,0.000,0.000,0.000,14,14,4*57
$GPGGA,040607.40,3135.6002213,N,12046.6240831,E,4,14,1.8,2.7912,M,8.311,M,01,0004*6E
$GPHPD,0,0.000,141.67,0.31,-14.84,31.5933370,120.7770681,2.791,13629776.546,24924251.098,2.791,0.000,0.000,0.000,0.000,0.000,0.000,0.000,14,14,4*5F
$GPGGA,040607.60,3135.6000943,N,12046.6241985,E,4,14,1.8,2.7975,M,8.311,M,00,0004*6F
$GPHPD,0,0.000,142.35,0.08,-14.83,31.5933349,120.7770700,2.798,13629778.583,24924253.229,2.798,0.000,0.000,0.000,0.000,0.000,0.000,0.000,14,14,4*59
$GPGGA,040607.80,3135.5999714,N,12046.6243280,E,4,14,1.8,2.8033,M,8.312,M,00,0004*6C
$GPHPD,0,0.000,141.78,-0.13,-14.82,31.5933329,120.7770721,2.803,13629780.590,24924255.506,2.803,0.000,0.000,0.000,0.000,0.000,0.000,0.000,14,14,4*79
$GPGGA,040608.00,3135.5998243,N,12046.6244304,E,4,14,1.8,2.7826,M,8.312,M,01,0004*65
$GPHPD,0,0.000,141.83,-0.15,-14.77,31.5933304,120.7770738,2.783,13629782.887,24924257.597,2.783,0.000,0.000,0.000,0.000,0.000,0.000,0.000,14,14,4*75
$GPGGA,040608.20,3135.5996980,N,12046.6245570,E,4,14,1.8,2.7961,M,8.312,M,01,0004*6B
$GPHPD,0,0.000,140.28,0.93,-14.78,31.5933283,120.7770760,2.796,13629784.937,24924259.859,2.796,0.000,0.000,0.000,0.000,0.000,0.000,0.000,14,14,4*57
$GPGGA,040608.40,3135.5995643,N,12046.6246739,E,4,14,1.7,2.7958,M,8.312,M,01,0004*67
$GPHPD,0,0.000,140.77,0.67,-14.78,31.5933261,120.7770779,2.796,13629787.072,24924262.047,2.796,0.000,0.000,0.000,0.000,0.000,0.000,0.000,14,14,4*56
$GPGGA,040608.60,3135.5994398,N,12046.6247975,E,4,14,1.7,2.7997,M,8.312,M,01,0004*63
$GPHPD,0,0.000,140.20,0.61,-14.79,31.5933240,120.7770800,2.800,13629789.091,24924264.262,2.800,0.000,0.000,0.000,0.000,0.000,0.000,0.000,14,14,4*51
$GPGGA,040608.80,3135.5993131,N,12046.6249259,E,4,14,1.7,2.7980,M,8.312,M,01,0004*66
$GPHPD,0,0.000,140.19,0.80,-14.76,31.5933219,120.7770821,2.798,13629791.150,24924266.548,2.798,0.000,0.000,0.000,0.000,0.000,0.000,0.000,14,14,4*5C
$GPGGA,040609.00,3135.5991799,N,12046.6250489,E,4,14,1.7,2.8034,M,8.312,M,02,0004*60
$GPHPD,0,0.000,140.63,0.54,-14.76,31.5933197,120.7770841,2.803,13629793.290,24924268.807,2.803,0.000,0.000,0.000,0.000,0.000,0.000,0.000,14,14,4*5E
$GPGGA,040609.20,3135.5990521,N,12046.6251670,E,4,14,1.7,2.7999,M,8.312,M,02,0004*66
$GPHPD,0,0.000,140.61,0.28,-14.75,31.5933175,120.7770861,2.800,13629795.344,24924270.975,2.800,0.000,0.000,0.000,0.000,0.000,0.000,0.000,14,14,4*59
$GPGGA,040609.40,3135.5989251,N,12046.6252881,E,4,14,1.7,2.8042,M,8.312,M,02,0004*6B
$GPHPD,0,0.000,139.99,0.77,-14.76,31.5933154,120.7770881,2.804,13629797.393,24924273.175,2.804,0.000,0.000,0.000,0.000,0.000,0.000,0.000,14,14,4*57
$GPGGA,040609.60,3135.5987976,N,12046.6254142,E,4,14,1.7,2.8070,M,8.312,M,00,0004*6A
$GPHPD,0,0.000,139.20,1.21,-14.78,31.5933133,120.7770902,2.807,13629799.459,24924275.438,2.807,0.000,0.000,0.000,0.000,0.000,0.000,0.000,14,14,4*57
$GPGGA,040609.80,3135.5986706,N,12046.6255327,E,4,14,1.7,2.7948,M,8.312,M,00,0004*61
$GPHPD,0,0.000,138.06,0.74,-14.80,31.5933112,120.7770922,2.795,13629801.502,24924277.606,2.795,0.000,0.000,0.000,0.000,0.000,0.000,0.000,14,14,4*59
$GPGGA,040610.00,3135.5985430,N,12046.6256611,E,4,14,1.7,2.8025,M,8.312,M,01,0004*6B
$GPHPD,0,0.000,137.62,1.99,-14.82,31.5933091,120.7770944,2.803,13629803.574,24924279.898,2.803,0.000,0.000,0.000,0.000,0.000,0.000,0.000,14,14,4*5A
$GPGGA,040610.20,3135.5984143,N,12046.6257900,E,4,14,1.7,2.8155,M,8.312,M,01,0004*61
$GPHPD,0,0.000,137.94,1.25,-14.82,31.5933069,120.7770965,2.816,13629805.663,24924282.201,2.816,0.000,0.000,0.000,0.000,0.000,0.000,0.000,14,14,4*5D
$GPGGA,040610.40,3135.5982959,N,12046.6259236,E,4,14,1.7,2.8324,M,8.312,M,01,0004*66
$GPHPD,0,0.000,137.87,0.68,-14.82,31.5933049,120.7770987,2.832,13629807.614,24924284.502,2.832,0.000,0.000,0.000,0.000,0.000,0.000,0.000,14,14,4*59
$GPGGA,040610.60,3135.5981841,N,12046.6260578,E,4,14,1.7,2.8215,M,8.312,M,00,0004*6A
$GPHPD,0,0.000,138.14,-0.31,-14.84,31.5933031,120.7771010,2.822,13629809.473,24924286.771,2.822,0.000,0.000,0.000,0.000,0.000,0.000,0.000,14,14,4*7B
$GPGGA,040610.80,3135.5980625,N,12046.6261894,E,4,14,1.7,2.8389,M,8.312,M,00,0004*63
$GPHPD,0,0.000,139.77,-0.52,-14.83,31.5933010,120.7771032,2.839,13629811.466,24924289.066,2.839,0.000,0.000,0.000,0.000,0.000,0.000,0.000,14,13,4*7A
$GPGGA,040611.00,3135.5979303,N,12046.6263053,E,4,14,1.7,2.8294,M,8.312,M,01,0004*60
$GPHPD,0,0.000,138.54,-0.27,-14.84,31.5932988,120.7771051,2.829,13629813.579,24924291.233,2.829,0.000,0.000,0.000,0.000,0.000,0.000,0.000,14,13,4*75
