$GPGGA,040839.60,3135.5624375,N,12046.6548806,E,4,17,1.2,3.0369,M,8.314,M,00,0004*69
$GPHPD,0,0.000,328.02,0.13,-14.05,31.5927073,120.7775813,3.037,13630375.537,24924842.460,3.037,0.000,0.000,0.000,0.000,0.000,0.000,0.000,17,17,4*5F
$GPGGA,040839.80,3135.5624930,N,12046.6548394,E,4,17,1.2,3.0381,M,8.314,M,00,0004*6A
$GPHPD,0,0.000,328.01,-0.20,-14.04,31.5927082,120.7775807,3.038,13630374.665,24924841.640,3.038,0.000,0.000,0.000,0.000,0.000,0.000,0.000,17,17,4*7D
$GPGGA,040840.00,3135.5625460,N,12046.6548010,E,4,17,1.2,3.0282,M,8.314,M,01,0004*69
$GPHPD,0,0.000,327.71,-0.04,-14.05,31.5927091,120.7775800,3.028,13630373.835,24924840.868,3.028,0.000,0.000,0.000,0.000,0.000,0.000,0.000,17,17,4*7E
$GPGGA,040840.20,3135.5625974,N,12046.6547617,E,4,17,1.2,3.0357,M,8.314,M,01,0004*64
$GPHPD,0,0.000,327.82,-0.05,-14.06,31.5927100,120.7775794,3.036,13630373.025,24924840.095,3.036,0.000,0.000,0.000,0.000,0.000,0.000,0.000,17,17,4*78
$GPGGA,040840.40,3135.5626543,N,12046.6547225,E,4,17,1.2,3.0308,M,8.314,M,01,0004*66
$GPHPD,0,0.000,327.55,-0.45,-14.11,31.5927109,120.7775787,3.031,13630372.137,24924839.291,3.031,0.000,0.000,0.000,0.000,0.000,0.000,0.000,17,17,4*70
$GPGGA,040840.60,3135.5627113,N,12046.6546797,E,4,17,1.2,3.0393,M,8.314,M,00,0004*6A
$GPHPD,0,0.000,327.02,0.23,-14.15,31.5927119,120.7775780,3.039,13630371.241,24924838.443,3.039,0.000,0.000,0.000,0.000,0.000,0.000,0.000,17,17,4*54
$GPGGA,040840.80,3135.5627707,N,12046.6546363,E,4,16,1.3,3.0277,M,8.314,M,00,0004*63
$GPHPD,0,0.000,327.06,-0.24,-14.21,31.5927128,120.7775773,3.028,13630370.309,24924837.574,3.028,0.000,0.000,0.000,0.000,0.000,0.000,0.000,16,17,4*74
$GPGGA,040841.00,3135.5628281,N,12046.6545911,E,4,17,1.3,3.0314,M,8.314,M,01,0004*66
$GPHPD,0,0.000,326.85,-0.12,-14.25,31.5927138,120.7775765,3.031,13630369.403,24924836.694,3.031,0.000,0.000,0.000,0.000,0.000,0.000,0.000,17,17,4*71
$GPGGA,040841.20,3135.5628895,N,12046.6545504,E,4,17,1.3,3.0268,M,8.314,M,01,0004*69
$GPHPD,0,0.000,326.73,-0.27,-14.24,31.5927148,120.7775758,3.027,13630368.448,24924835.846,3.027,0.000,0.000,0.000,0.000,0.000,0.000,0.000,17,17,4*7A
$GPGGA,040841.40,3135.5629450,N,12046.6545050,E,4,17,1.3,3.0310,M,8.314,M,01,0004*61
$GPHPD,0,0.000,326.59,0.18,-14.20,31.5927158,120.7775751,3.031,13630367.568,24924834.976,3.031,0.000,0.000,0.000,0.000,0.000,0.000,0.000,17,17,4*50
$GPGGA,040841.60,3135.5629960,N,12046.6544637,E,4,17,1.3,3.0351,M,8.314,M,00,0004*6F
$GPHPD,0,0.000,326.37,-0.06,-14.14,31.5927166,120.7775744,3.035,13630366.760,24924834.181,3.035,0.000,0.000,0.000,0.000,0.000,0.000,0.000,17,17,4*7F
$GPGGA,040841.80,3135.5630469,N,12046.6544285,E,4,17,1.3,3.0284,M,8.314,M,00,0004*69
$GPHPD,0,0.000,326.22,0.22,-14.11,31.5927174,120.7775738,3.028,13630365.966,24924833.460,3.028,0.000,0.000,0.000,0.000,0.000,0.000,0.000,17,17,4*5B
$GPGGA,040842.00,3135.5630914,N,12046.6543913,E,4,17,1.5,3.0177,M,8.314,M,01,0004*6E
$GPHPD,0,0.000,326.21,-0.05,-14.08,31.5927182,120.7775732,3.018,13630365.258,24924832.752,3.018,0.000,0.000,0.000,0.000,0.000,0.000,0.000,17,17,4*7E
$GPGGA,040842.20,3135.5631317,N,12046.6543621,E,4,17,1.3,3.0237,M,8.314,M,01,0004*6B
$GPHPD,0,0.000,325.89,-0.21,-14.08,31.5927189,120.7775727,3.024,13630364.627,24924832.165,3.024,0.000,0.000,0.000,0.000,0.000,0.000,0.000,17,17,4*79
$GPGGA,040842.40,3135.5631701,N,12046.6543307,E,4,17,1.3,3.0261,M,8.314,M,01,0004*6C
$GPHPD,0,0.000,326.06,-0.23,-14.09,31.5927195,120.7775722,3.026,13630364.018,24924831.563,3.026,0.000,0.000,0.000,0.000,0.000,0.000,0.000,17,17,4*7D
$GPGGA,040842.60,3135.5632105,N,12046.6543005,E,4,17,1.3,3.0166,M,8.314,M,00,0004*6B
$GPHPD,0,0.000,326.08,-0.36,-14.15,31.5927202,120.7775717,3.017,13630363.383,24924830.964,3.017,0.000,0.000,0.000,0.000,0.000,0.000,0.000,17,16,4*7C
$GPGGA,040842.80,3135.5632544,N,12046.6542679,E,4,17,1.3,3.0139,M,8.314,M,00,0004*62
$GPHPD,0,0.000,325.92,-0.47,-14.22,31.5927209,120.7775711,3.014,13630362.693,24924830.315,3.014,0.000,0.000,0.000,0.000,0.000,0.000,0.000,17,16,4*7A
$GPGGA,040843.00,3135.5633004,N,12046.6542336,E,4,17,1.3,3.0133,M,8.314,M,01,0004*6E
$GPHPD,0,0.000,325.77,-0.34,-14.28,31.5927217,120.7775706,3.013,13630361.970,24924829.634,3.013,0.000,0.000,0.000,0.000,0.000,0.000,0.000,17,16,4*79
$GPGGA,040843.20,3135.5633439,N,12046.6541939,E,4,17,1.3,3.0192,M,8.314,M,01,0004*6B
$GPHPD,0,0.000,325.47,0.14,-14.28,31.5927224,120.7775699,3.019,13630361.272,24924828.902,3.019,0.000,0.000,0.000,0.000,0.000,0.000,0.000,17,16,4*50
$GPGGA,040843.40,3135.5633947,N,12046.6541553,E,4,17,1.3,3.0321,M,8.314,M,01,0004*63
$GPHPD,0,0.000,325.87,-0.45,-14.31,31.5927232,120.7775693,3.032,13630360.472,24924828.140,3.032,0.000,0.000,0.000,0.000,0.000,0.000,0.000,17,16,4*79
$GPGGA,040843.60,3135.5634522,N,12046.6541094,E,4,17,1.5,3.0241,M,8.314,M,00,0004*67
$GPHPD,0,0.000,325.67,-0.75,-14.45,31.5927242,120.7775685,3.024,13630359.563,24924827.252,3.024,0.000,0.000,0.000,0.000,0.000,0.000,0.000,17,15,4*70
$GPGGA,040843.80,3135.5635189,N,12046.6540581,E,4,17,1.5,3.0220,M,8.314,M,00,0004*6A
$GPHPD,0,0.000,325.50,-0.41,-14.60,31.5927253,120.7775676,3.022,13630358.512,24924826.245,3.022,0.000,0.000,0.000,0.000,0.000,0.000,0.000,17,15,4*78
$GPGGA,040844.00,3135.5635896,N,12046.6539972,E,4,16,1.5,3.0281,M,8.314,M,01,0004*67
$GPHPD,0,0.000,325.39,-0.41,-14.70,31.5927265,120.7775666,3.028,13630357.384,24924825.099,3.028,0.000,0.000,0.000,0.000,0.000,0.000,0.000,16,15,4*75
$GPGGA,040844.20,3135.5636696,N,12046.6539291,E,4,16,1.5,3.0363,M,8.314,M,01,0004*63
$GPHPD,0,0.000,324.84,-0.25,-14.74,31.5927278,120.7775655,3.036,13630356.110,24924823.812,3.036,0.000,0.000,0.000,0.000,0.000,0.000,0.000,16,15,4*7B
$GPGGA,040844.40,3135.5637573,N,12046.6538547,E,4,16,1.5,3.0357,M,8.314,M,01,0004*66
$GPHPD,0,0.000,325.08,-0.61,-14.75,31.5927293,120.7775642,3.036,13630354.714,24924822.404,3.036,0.000,0.000,0.000,0.000,0.000,0.000,0.000,16,15,4*76
$GPGGA,040844.60,3135.5638540,N,12046.6537828,E,4,16,1.5,3.0259,M,8.314,M,00,0004*6E
$GPHPD,0,0.000,324.82,-0.11,-14.84,31.5927309,120.7775630,3.026,13630353.195,24924820.974,3.026,0.000,0.000,0.000,0.000,0.000,0.000,0.000,16,15,4*7B
$GPGGA,040844.80,3135.5639556,N,12046.6537047,E,4,15,1.7,3.0165,M,8.314,M,00,0004*6A
$GPHPD,0,0.000,324.51,-0.23,-14.91,31.5927326,120.7775617,3.017,13630351.593,24924819.441,3.017,0.000,0.000,0.000,0.000,0.000,0.000,0.000,15,15,4*7A
$GPGGA,040845.00,3135.5640570,N,12046.6536191,E,4,15,1.7,3.0163,M,8.314,M,01,0004*65
$GPHPD,0,0.000,324.42,-0.11,-14.87,31.5927343,120.7775603,3.016,13630349.980,24924817.818,3.016,0.000,0.000,0.000,0.000,0.000,0.000,0.000,15,15,4*71
$GPGGA,040845.20,3135.5641577,N,12046.6535392,E,4,15,1.7,3.0228,M,8.314,M,01,0004*6F
$GPHPD,0,0.000,324.44,-0.27,-14.84,31.5927360,120.7775590,3.023,13630348.388,24924816.269,3.023,0.000,0.000,0.000,0.000,0.000,0.000,0.000,15,15,4*77
$GPGGA,040845.40,3135.5642524,N,12046.6534515,E,4,15,1.7,3.0232,M,8.314,M,01,0004*6F
$GPHPD,0,0.000,324.04,-0.72,-14.77,31.5927375,120.7775575,3.023,13630346.866,24924814.660,3.023,0.000,0.000,0.000,0.000,0.000,0.000,0.000,15,15,4*7A
$GPGGA,040845.60,3135.5643457,N,12046.6533759,E,4,15,1.7,3.0207,M,8.314,M,01,0004*62
$GPHPD,0,0.000,324.23,-0.33,-14.68,31.5927391,120.7775563,3.021,13630345.387,24924813.205,3.021,0.000,0.000,0.000,0.000,0.000,0.000,0.000,15,15,4*7E
$GPGGA,040845.80,3135.5644342,N,12046.6532982,E,4,15,1.7,3.0312,M,8.314,M,00,0004*65
$GPHPD,0,0.000,324.06,-0.34,-14.62,31.5927406,120.7775550,3.031,13630343.973,24924811.753,3.031,0.000,0.000,0.000,0.000,0.000,0.000,0.000,15,15,4*7E
$GPGGA,040846.00,3135.5645215,N,12046.6532252,E,4,15,1.7,3.0325,M,8.314,M,01,0004*6F
$GPHPD,0,0.000,323.77,-0.36,-14.57,31.5927420,120.7775538,3.033,13630342.585,24924810.364,3.033,0.000,0.000,0.000,0.000,0.000,0.000,0.000,15,15,4*74
$GPGGA,040846.20,3135.5646058,N,12046.6531573,E,4,15,1.7,3.0182,M,8.314,M,01,0004*6D
$GPHPD,0,0.000,323.32,-0.31,-14.53,31.5927434,120.7775526,3.018,13630341.251,24924809.054,3.018,0.000,0.000,0.000,0.000,0.000,0.000,0.000,15,15,4*79
$GPGGA,040846.40,3135.5646855,N,12046.6530856,E,4,15,1.7,3.0151,M,8.314,M,01,0004*6B
$GPHPD,0,0.000,323.38,0.38,-14.48,31.5927448,120.7775514,3.015,13630339.973,24924807.726,3.015,0.000,0.000,0.000,0.000,0.000,0.000,0.000,15,15,4*5F
$GPGGA,040846.60,3135.5647633,N,12046.6530227,E,4,15,1.4,3.0200,M,8.314,M,00,0004*6F
$GPHPD,0,0.000,323.06,0.18,-14.43,31.5927461,120.7775504,3.020,13630338.741,24924806.514,3.020,0.000,0.000,0.000,0.000,0.000,0.000,0.000,15,15,4*5D
$GPGGA,040846.80,3135.5648414,N,12046.6529622,E,4,15,1.4,3.0070,M,8.314,M,00,0004*65
$GPHPD,0,0.000,322.21,1.03,-14.42,31.5927474,120.7775494,3.007,13630337.509,24924805.330,3.007,0.000,0.000,0.000,0.000,0.000,0.000,0.000,15,15,4*5D
$GPGGA,040847.00,3135.5649081,N,12046.6528936,E,4,15,1.4,3.0157,M,8.314,M,01,0004*6B
$GPHPD,0,0.000,322.55,0.35,-14.38,31.5927485,120.7775482,3.016,13630336.423,24924804.115,3.016,0.000,0.000,0.000,0.000,0.000,0.000,0.000,15,15,4*52
$GPGGA,040847.20,3135.5649795,N,12046.6528359,E,4,15,1.4,3.0166,M,8.314,M,01,0004*6A
$GPHPD,0,0.000,322.76,-0.08,-14.35,31.5927497,120.7775473,3.017,13630335.292,24924803.003,3.017,0.000,0.000,0.000,0.000,0.000,0.000,0.000,15,15,4*7E
$GPGGA,040847.40,3135.5650504,N,12046.6527745,E,4,15,1.4,3.0244,M,8.314,M,01,0004*6B
$GPHPD,0,0.000,322.59,-0.48,-14.31,31.5927508,120.7775462,3.024,13630334.161,24924801.850,3.024,0.000,0.000,0.000,0.000,0.000,0.000,0.000,15,15,4*76
$GPGGA,040847.60,3135.5651155,N,12046.6527141,E,4,15,1.4,3.0230,M,8.314,M,00,0004*68
$GPHPD,0,0.000,322.55,-0.48,-14.29,31.5927519,120.7775452,3.023,13630333.114,24924800.742,3.023,0.000,0.000,0.000,0.000,0.000,0.000,0.000,15,15,4*78
$GPGGA,040847.80,3135.5651783,N,12046.6526552,E,4,15,1.4,3.0179,M,8.314,M,00,0004*62
$GPHPD,0,0.000,322.74,-0.31,-14.28,31.5927530,120.7775443,3.018,13630332.103,24924799.667,3.018,0.000,0.000,0.000,0.000,0.000,0.000,0.000,15,15,4*71
$GPGGA,040848.00,3135.5652439,N,12046.6526018,E,4,15,1.4,3.0223,M,8.314,M,01,0004*62
$GPHPD,0,0.000,322.59,0.00,-14.32,31.5927541,120.7775434,3.022,13630331.063,24924798.641,3.022,0.000,0.000,0.000,0.000,0.000,0.000,0.000,15,15,4*5D
$GPGGA,040848.20,3135.5653099,N,12046.6525415,E,4,15,1.4,3.0202,M,8.314,M,01,0004*66
$GPHPD,0,0.000,322.35,-0.35,-14.37,31.5927552,120.7775424,3.020,13630330.004,24924797.529,3.020,0.000,0.000,0.000,0.000,0.000,0.000,0.000,15,15,4*78
$GPGGA,040848.40,3135.5653730,N,12046.6524775,E,4,15,1.4,3.0287,M,8.314,M,01,0004*6D
$GPHPD,0,0.000,322.50,-0.13,-14.43,31.5927562,120.7775413,3.029,13630328.978,24924796.390,3.029,0.000,0.000,0.000,0.000,0.000,0.000,0.000,15,15,4*75
$GPGGA,040848.60,3135.5654433,N,12046.6524167,E,4,15,1.4,3.0373,M,8.314,M,00,0004*66
$GPHPD,0,0.000,322.70,-0.39,-14.48,31.5927574,120.7775403,3.037,13630327.857,24924795.248,3.037,0.000,0.000,0.000,0.000,0.000,0.000,0.000,15,15,4*76
$GPGGA,040848.80,3135.5655215,N,12046.6523533,E,4,16,1.7,3.0230,M,8.314,M,00,0004*6F
$GPHPD,0,0.000,322.54,-0.73,-14.52,31.5927587,120.7775392,3.023,13630326.618,24924794.028,3.023,0.000,0.000,0.000,0.000,0.000,0.000,0.000,16,16,4*77
$GPGGA,040849.00,3135.5655993,N,12046.6522809,E,4,16,1.4,3.0153,M,8.314,M,01,0004*62
$GPHPD,0,0.000,322.16,-0.09,-14.57,31.5927600,120.7775380,3.015,13630325.366,24924792.702,3.015,0.000,0.000,0.000,0.000,0.000,0.000,0.000,16,16,4*70
$GPGGA,040849.20,3135.5656837,N,12046.6522130,E,4,16,1.4,3.0263,M,8.314,M,01,0004*6F
$GPHPD,0,0.000,322.28,-0.07,-14.62,31.5927614,120.7775369,3.026,13630324.030,24924791.392,3.026,0.000,0.000,0.000,0.000,0.000,0.000,0.000,16,16,4*78
$GPGGA,040849.40,3135.5657702,N,12046.6521309,E,4,16,1.4,3.0256,M,8.314,M,01,0004*6C
$GPHPD,0,0.000,322.22,-0.58,-14.67,31.5927628,120.7775355,3.026,13630322.635,24924789.898,3.026,0.000,0.000,0.000,0.000,0.000,0.000,0.000,16,16,4*70
$GPGGA,040849.60,3135.5658631,N,12046.6520535,E,4,16,1.4,3.0270,M,8.314,M,01,0004*6C
$GPHPD,0,0.000,322.29,-0.70,-14.75,31.5927644,120.7775342,3.027,13630321.159,24924788.424,3.027,0.000,0.000,0.000,0.000,0.000,0.000,0.000,16,16,4*7A
$GPGGA,040849.80,3135.5659610,N,12046.6519631,E,4,16,1.4,3.0152,M,8.314,M,00,0004*6F
$GPHPD,0,0.000,322.25,-0.58,-14.81,31.5927660,120.7775327,3.015,13630319.586,24924786.764,3.015,0.000,0.000,0.000,0.000,0.000,0.000,0.000,16,16,4*76
$GPGGA,040850.00,3135.5660612,N,12046.6518717,E,4,16,1.4,3.0185,M,8.314,M,01,0004*68
$GPHPD,0,0.000,322.17,-0.43,-14.88,31.5927677,120.7775312,3.019,13630317.978,24924785.078,3.019,0.000,0.000,0.000,0.000,0.000,0.000,0.000,16,16,4*7E
$GPGGA,040850.20,3135.5661665,N,12046.6517748,E,4,16,1.4,3.0149,M,8.314,M,01,0004*6E
$GPHPD,0,0.000,322.48,-0.52,-14.95,31.5927694,120.7775296,3.015,13630316.286,24924783.297,3.015,0.000,0.000,0.000,0.000,0.000,0.000,0.000,16,16,4*76
$GPGGA,040850.40,3135.5662767,N,12046.6516755,E,4,16,1.4,3.0176,M,8.314,M,01,0004*69
$GPHPD,0,0.000,322.50,-0.90,-15.00,31.5927713,120.7775279,3.018,13630314.520,24924781.458,3.018,0.000,0.000,0.000,0.000,0.000,0.000,0.000,16,16,4*7D
$GPGGA,040850.60,3135.5663931,N,12046.6515766,E,4,16,1.4,3.0135,M,8.314,M,00,0004*62
$GPHPD,0,0.000,322.57,-0.75,-14.98,31.5927732,120.7775263,3.014,13630312.667,24924779.587,3.014,0.000,0.000,0.000,0.000,0.000,0.000,0.000,16,16,4*7B
$GPGGA,040850.80,3135.5665118,N,12046.6514729,E,4,16,1.4,3.0002,M,8.314,M,00,0004*66
$GPHPD,0,0.000,322.10,-0.40,-14.95,31.5927752,120.7775245,3.000,13630310.771,24924777.646,3.000,0.000,0.000,0.000,0.000,0.000,0.000,0.000,16,16,4*75
$GPGGA,040851.00,3135.5666263,N,12046.6513724,E,4,16,1.4,3.0020,M,8.314,M,01,0004*68
$GPHPD,0,0.000,321.99,-0.09,-14.90,31.5927771,120.7775229,3.002,13630308.941,24924775.767,3.002,0.000,0.000,0.000,0.000,0.000,0.000,0.000,16,16,4*70
$GPGGA,040851.20,3135.5667436,N,12046.6512684,E,4,16,1.4,3.0031,M,8.314,M,01,0004*67
$GPHPD,0,0.000,322.15,-0.44,-14.85,31.5927791,120.7775211,3.003,13630307.065,24924773.830,3.003,0.000,0.000,0.000,0.000,0.000,0.000,0.000,16,16,4*74
$GPGGA,040851.40,3135.5668600,N,12046.6511658,E,4,16,1.4,2.9981,M,8.313,M,01,0004*66
$GPHPD,0,0.000,322.07,-0.46,-14.85,31.5927810,120.7775194,2.998,13630305.204,24924771.915,2.998,0.000,0.000,0.000,0.000,0.000,0.000,0.000,16,16,4*7E
$GPGGA,040851.60,3135.5669765,N,12046.6510632,E,4,16,1.4,2.9928,M,8.313,M,00,0004*68
$GPHPD,0,0.000,321.80,-0.18,-14.85,31.5927829,120.7775177,2.993,13630303.341,24924770.000,2.993,0.000,0.000,0.000,0.000,0.000,0.000,0.000,16,16,4*74
$GPGGA,040851.80,3135.5670892,N,12046.6509589,E,4,16,1.4,3.0020,M,8.313,M,00,0004*6B
$GPHPD,0,0.000,322.20,-0.18,-14.83,31.5927848,120.7775160,3.002,13630301.530,24924768.086,3.002,0.000,0.000,0.000,0.000,0.000,0.000,0.000,16,16,4*7F
$GPGGA,040852.00,3135.5672050,N,12046.6508573,E,4,16,1.4,2.9998,M,8.313,M,01,0004*63
$GPHPD,0,0.000,322.15,-0.13,-14.80,31.5927868,120.7775143,3.000,13630299.679,24924766.186,3.000,0.000,0.000,0.000,0.000,0.000,0.000,0.000,16,16,4*73
$GPGGA,040852.20,3135.5673219,N,12046.6507536,E,4,16,1.4,3.0029,M,8.313,M,01,0004*6A
$GPHPD,0,0.000,321.85,0.36,-14.79,31.5927887,120.7775126,3.003,13630297.809,24924764.255,3.003,0.000,0.000,0.000,0.000,0.000,0.000,0.000,16,16,4*5F
$GPGGA,040852.40,3135.5674409,N,12046.6506544,E,4,16,1.4,2.9945,M,8.313,M,01,0004*63
$GPHPD,0,0.000,322.08,0.26,-14.77,31.5927907,120.7775109,2.995,13630295.918,24924762.366,2.995,0.000,0.000,0.000,0.000,0.000,0.000,0.000,16,16,4*56
$GPGGA,040852.60,3135.5675541,N,12046.6505501,E,4,16,1.4,2.9987,M,8.313,M,00,0004*60
$GPHPD,0,0.000,321.68,0.48,-14.77,31.5927926,120.7775092,2.999,13630294.099,24924760.450,2.999,0.000,0.000,0.000,0.000,0.000,0.000,0.000,16,16,4*5A
$GPGGA,040852.80,3135.5676746,N,12046.6504462,E,4,16,1.4,2.9894,M,8.313,M,00,0004*6E
$GPHPD,0,0.000,322.30,-0.07,-14.76,31.5927946,120.7775074,2.989,13630292.178,24924758.495,2.989,0.000,0.000,0.000,0.000,0.000,0.000,0.000,16,16,4*77
$GPGGA,040853.00,3135.5677900,N,12046.6503400,E,4,16,1.4,3.0031,M,8.313,M,01,0004*67
$GPHPD,0,0.000,321.79,0.44,-14.79,31.5927965,120.7775057,3.003,13630290.324,24924756.543,3.003,0.000,0.000,0.000,0.000,0.000,0.000,0.000,16,16,4*51
$GPGGA,040853.20,3135.5679049,N,12046.6502296,E,4,16,1.4,3.0174,M,8.313,M,01,0004*67
$GPHPD,0,0.000,322.13,-0.14,-14.79,31.5927984,120.7775038,3.017,13630288.469,24924754.542,3.017,0.000,0.000,0.000,0.000,0.000,0.000,0.000,16,16,4*74
$GPGGA,040853.40,3135.5680254,N,12046.6501226,E,4,16,1.4,3.0056,M,8.313,M,01,0004*60
$GPHPD,0,0.000,322.08,-0.60,-14.77,31.5928004,120.7775020,3.006,13630286.541,24924752.550,3.006,0.000,0.000,0.000,0.000,0.000,0.000,0.000,16,16,4*74
$GPGGA,040853.60,3135.5681547,N,12046.6500189,E,4,16,1.4,2.9922,M,8.313,M,00,0004*62
$GPHPD,0,0.000,322.62,-1.05,-14.72,31.5928026,120.7775003,2.992,13630284.494,24924750.547,2.992,0.000,0.000,0.000,0.000,0.000,0.000,0.000,16,16,4*71
$GPGGA,040853.80,3135.5682672,N,12046.6499026,E,4,16,1.4,3.0159,M,8.313,M,00,0004*63
$GPHPD,0,0.000,321.76,-0.07,-14.72,31.5928045,120.7774984,3.016,13630282.661,24924748.490,3.016,0.000,0.000,0.000,0.000,0.000,0.000,0.000,16,16,4*7A
$GPGGA,040854.00,3135.5683942,N,12046.6497997,E,4,16,1.4,3.0105,M,8.313,M,01,0004*64
$GPHPD,0,0.000,322.45,-0.88,-14.73,31.5928066,120.7774967,3.011,13630280.649,24924746.509,3.011,0.000,0.000,0.000,0.000,0.000,0.000,0.000,16,16,4*74
$GPGGA,040854.20,3135.5685153,N,12046.6496875,E,4,16,1.4,3.0082,M,8.313,M,01,0004*6A
$GPHPD,0,0.000,322.48,-1.08,-14.74,31.5928086,120.7774948,3.008,13630278.702,24924744.451,3.008,0.000,0.000,0.000,0.000,0.000,0.000,0.000,16,16,4*73
$GPGGA,040854.40,3135.5686387,N,12046.6495799,E,4,16,1.4,3.0032,M,8.313,M,01,0004*61
$GPHPD,0,0.000,322.57,-1.12,-14.74,31.5928106,120.7774930,3.003,13630276.732,24924742.435,3.003,0.000,0.000,0.000,0.000,0.000,0.000,0.000,16,16,4*79
$GPGGA,040854.60,3135.5687644,N,12046.6494692,E,4,16,1.4,3.0030,M,8.313,M,00,0004*60
$GPHPD,0,0.000,322.30,-1.12,-14.74,31.5928127,120.7774912,3.003,13630274.722,24924740.369,3.003,0.000,0.000,0.000,0.000,0.000,0.000,0.000,16,16,4*74
$GPGGA,040854.80,3135.5688886,N,12046.6493586,E,4,16,1.4,2.9953,M,8.313,M,00,0004*64
$GPHPD,0,0.000,322.26,-1.18,-14.77,31.5928148,120.7774893,2.995,13630272.734,24924738.312,2.995,0.000,0.000,0.000,0.000,0.000,0.000,0.000,16,16,4*79
$GPGGA,040855.00,3135.5690199,N,12046.6492483,E,4,16,1.4,2.9848,M,8.313,M,01,0004*6C
$GPHPD,0,0.000,322.38,-1.16,-14.74,31.5928170,120.7774875,2.985,13630270.646,24924736.217,2.985,0.000,0.000,0.000,0.000,0.000,0.000,0.000,16,16,4*74
$GPGGA,040855.20,3135.5691465,N,12046.6491333,E,4,16,1.4,2.9828,M,8.313,M,01,0004*60
$GPHPD,0,0.000,322.18,-0.48,-14.73,31.5928191,120.7774856,2.983,13630268.616,24924734.094,2.983,0.000,0.000,0.000,0.000,0.000,0.000,0.000,16,16,4*72
$GPGGA,040855.40,3135.5692761,N,12046.6490212,E,4,16,1.4,2.9838,M,8.313,M,01,0004*60
$GPHPD,0,0.000,321.94,-0.56,-14.69,31.5928213,120.7774837,2.984,13630266.548,24924731.987,2.984,0.000,0.000,0.000,0.000,0.000,0.000,0.000,16,16,4*77
$GPGGA,040855.60,3135.5694066,N,12046.6489098,E,4,16,1.4,2.9783,M,8.313,M,00,0004*62
$GPHPD,0,0.000,321.96,-0.31,-14.70,31.5928234,120.7774818,2.978,13630264.469,24924729.884,2.978,0.000,0.000,0.000,0.000,0.000,0.000,0.000,16,16,4*7F
$GPGGA,040855.80,3135.5695339,N,12046.6487915,E,4,16,1.4,2.9684,M,8.313,M,00,0004*60
$GPHPD,0,0.000,321.62,0.01,-14.71,31.5928256,120.7774799,2.968,13630262.422,24924727.716,2.968,0.000,0.000,0.000,0.000,0.000,0.000,0.000,16,16,4*5A
$GPGGA,040856.00,3135.5696627,N,12046.6486798,E,4,16,1.4,2.9685,M,8.313,M,01,0004*68
$GPHPD,0,0.000,321.29,1.04,-14.68,31.5928277,120.7774780,2.969,13630260.366,24924725.620,2.969,0.000,0.000,0.000,0.000,0.000,0.000,0.000,16,16,4*51
$GPGGA,040856.20,3135.5697863,N,12046.6485610,E,4,16,1.4,2.9732,M,8.313,M,01,0004*6A
$GPHPD,0,0.000,321.21,0.79,-14.66,31.5928298,120.7774760,2.973,13630258.370,24924723.467,2.973,0.000,0.000,0.000,0.000,0.000,0.000,0.000,16,16,4*58
$GPGGA,040856.40,3135.5699159,N,12046.6484500,E,4,16,1.4,2.9843,M,8.313,M,01,0004*68
$GPHPD,0,0.000,321.69,0.68,-14.64,31.5928319,120.7774742,2.984,13630256.305,24924721.374,2.984,0.000,0.000,0.000,0.000,0.000,0.000,0.000,16,16,4*55
$GPGGA,040856.60,3135.5700407,N,12046.6483325,E,4,16,1.4,2.9818,M,8.313,M,00,0004*6C
$GPHPD,0,0.000,321.22,0.59,-14.66,31.5928340,120.7774722,2.982,13630254.295,24924719.231,2.982,0.000,0.000,0.000,0.000,0.000,0.000,0.000,16,16,4*51
$GPGGA,040856.80,3135.5701651,N,12046.6482129,E,4,16,1.4,3.0016,M,8.313,M,00,0004*63
$GPHPD,0,0.000,321.68,0.69,-14.67,31.5928361,120.7774702,3.002,13630252.286,24924717.064,3.002,0.000,0.000,0.000,0.000,0.000,0.000,0.000,16,16,4*54
$GPGGA,040857.00,3135.5702929,N,12046.6480990,E,4,16,1.4,2.9939,M,8.313,M,01,0004*6C
$GPHPD,0,0.000,322.06,-0.26,-14.69,31.5928382,120.7774683,2.994,13630250.240,24924714.947,2.994,0.000,0.000,0.000,0.000,0.000,0.000,0.000,16,16,4*71
$GPGGA,040857.20,3135.5704245,N,12046.6479869,E,4,16,1.4,2.9893,M,8.313,M,01,0004*69
$GPHPD,0,0.000,322.61,-1.08,-14.70,31.5928404,120.7774664,2.989,13630248.144,24924712.829,2.989,0.000,0.000,0.000,0.000,0.000,0.000,0.000,16,16,4*74
$GPGGA,040857.40,3135.5705501,N,12046.6478674,E,4,16,1.4,3.0005,M,8.313,M,01,0004*65
$GPHPD,0,0.000,322.10,-0.82,-14.71,31.5928425,120.7774645,3.001,13630246.119,24924710.656,3.001,0.000,0.000,0.000,0.000,0.000,0.000,0.000,16,16,4*72
$GPGGA,040857.60,3135.5706763,N,12046.6477540,E,4,16,1.4,3.0024,M,8.313,M,00,0004*6B
$GPHPD,0,0.000,322.37,-1.24,-14.68,31.5928446,120.7774626,3.002,13630244.097,24924708.554,3.002,0.000,0.000,0.000,0.000,0.000,0.000,0.000,16,16,4*7F
$GPGGA,040857.80,3135.5708031,N,12046.6476357,E,4,16,1.4,3.0005,M,8.313,M,00,0004*69
$GPHPD,0,0.000,322.20,-1.06,-14.63,31.5928467,120.7774606,3.001,13630242.057,24924706.389,3.001,0.000,0.000,0.000,0.000,0.000,0.000,0.000,16,16,4*71
$GPGGA,040858.00,3135.5709391,N,12046.6475218,E,4,16,1.4,2.9767,M,8.313,M,01,0004*65
$GPHPD,0,0.000,322.01,-0.87,-14.61,31.5928490,120.7774587,2.977,13630239.894,24924704.224,2.977,0.000,0.000,0.000,0.000,0.000,0.000,0.000,16,16,4*75
$GPGGA,040858.20,3135.5710636,N,12046.6474057,E,4,16,1.4,2.9882,M,8.313,M,01,0004*6B
$GPHPD,0,0.000,321.34,-0.30,-14.59,31.5928511,120.7774568,2.988,13630237.891,24924702.099,2.988,0.000,0.000,0.000,0.000,0.000,0.000,0.000,16,16,4*77
$GPGGA,040858.40,3135.5711937,N,12046.6472903,E,4,16,1.5,2.9753,M,8.313,M,01,0004*6E
$GPHPD,0,0.000,321.40,-0.71,-14.58,31.5928532,120.7774548,2.975,13630235.810,24924699.950,2.975,0.000,0.000,0.000,0.000,0.000,0.000,0.000,16,16,4*77
$GPGGA,040858.60,3135.5713212,N,12046.6471765,E,4,16,1.4,2.9779,M,8.313,M,00,0004*67
$GPHPD,0,0.000,321.66,-0.83,-14.57,31.5928554,120.7774529,2.978,13630233.769,24924697.836,2.978,0.000,0.000,0.000,0.000,0.000,0.000,0.000,16,16,4*7E
$GPGGA,040858.80,3135.5714482,N,12046.6470601,E,4,16,1.4,2.9707,M,8.313,M,00,0004*6A
$GPHPD,0,0.000,321.55,-1.18,-14.61,31.5928575,120.7774510,2.971,13630231.729,24924695.693,2.971,0.000,0.000,0.000,0.000,0.000,0.000,0.000,16,16,4*74
$GPGGA,040859.00,3135.5715730,N,12046.6469423,E,4,16,1.4,2.9717,M,8.313,M,01,0004*62
$GPHPD,0,0.000,321.42,-0.61,-14.58,31.5928596,120.7774490,2.972,13630229.719,24924693.546,2.972,0.000,0.000,0.000,0.000,0.000,0.000,0.000,16,16,4*74
$GPGGA,040859.20,3135.5716995,N,12046.6468272,E,4,16,1.4,2.9698,M,8.313,M,01,0004*67
$GPHPD,0,0.000,321.59,-0.42,-14.59,31.5928617,120.7774471,2.970,13630227.689,24924691.421,2.970,0.000,0.000,0.000,0.000,0.000,0.000,0.000,16,16,4*7F
$GPGGA,040859.40,3135.5718274,N,12046.6467115,E,4,16,1.4,2.9667,M,8.313,M,01,0004*66
$GPHPD,0,0.000,321.69,-0.65,-14.60,31.5928638,120.7774452,2.967,13630225.638,24924689.281,2.967,0.000,0.000,0.000,0.000,0.000,0.000,0.000,16,16,4*72
$GPGGA,040859.60,3135.5719524,N,12046.6465990,E,4,16,1.4,2.9646,M,8.313,M,00,0004*62
$GPHPD,0,0.000,321.45,0.20,-14.61,31.5928659,120.7774433,2.965,13630223.635,24924687.197,2.965,0.000,0.000,0.000,0.000,0.000,0.000,0.000,16,16,4*50
$GPGGA,040859.80,3135.5720802,N,12046.6464859,E,4,16,1.4,2.9581,M,8.313,M,00,0004*62
$GPHPD,0,0.000,321.25,0.15,-14.64,31.5928680,120.7774414,2.958,13630221.591,24924685.089,2.958,0.000,0.000,0.000,0.000,0.000,0.000,0.000,16,16,4*57
$GPGGA,040900.00,3135.5722061,N,12046.6463715,E,4,16,1.4,2.9594,M,8.313,M,01,0004*6D
$GPHPD,0,0.000,320.67,0.97,-14.61,31.5928701,120.7774395,2.959,13630219.572,24924682.976,2.959,0.000,0.000,0.000,0.000,0.000,0.000,0.000,16,16,4*51
$GPGGA,040900.20,3135.5723309,N,12046.6462540,E,4,16,1.4,2.9631,M,8.313,M,01,0004*6C
$GPHPD,0,0.000,321.01,0.49,-14.63,31.5928722,120.7774376,2.963,13630217.561,24924680.833,2.963,0.000,0.000,0.000,0.000,0.000,0.000,0.000,16,16,4*53
$GPGGA,040900.40,3135.5724574,N,12046.6461392,E,4,16,1.4,2.9781,M,8.313,M,01,0004*61
$GPHPD,0,0.000,321.47,0.45,-14.63,31.5928743,120.7774357,2.978,13630215.533,24924678.712,2.978,0.000,0.000,0.000,0.000,0.000,0.000,0.000,16,16,4*57
$GPGGA,040900.60,3135.5725817,N,12046.6460233,E,4,16,1.4,2.9745,M,8.313,M,00,0004*68
$GPHPD,0,0.000,321.56,-0.15,-14.61,31.5928764,120.7774337,2.975,13630213.533,24924676.591,2.975,0.000,0.000,0.000,0.000,0.000,0.000,0.000,16,16,4*7F
$GPGGA,040900.80,3135.5727035,N,12046.6459048,E,4,16,1.4,2.9877,M,8.313,M,00,0004*66
$GPHPD,0,0.000,322.00,-0.26,-14.60,31.5928784,120.7774317,2.988,13630211.563,24924674.453,2.988,0.000,0.000,0.000,0.000,0.000,0.000,0.000,16,16,4*78
$GPGGA,040901.00,3135.5728325,N,12046.6457901,E,4,16,1.4,2.9805,M,8.313,M,01,0004*6C
$GPHPD,0,0.000,322.15,-0.48,-14.56,31.5928805,120.7774298,2.981,13630209.499,24924672.318,2.981,0.000,0.000,0.000,0.000,0.000,0.000,0.000,16,16,4*72
$GPGGA,040901.20,3135.5729607,N,12046.6456788,E,4,16,1.4,2.9858,M,8.313,M,01,0004*6C
$GPHPD,0,0.000,322.09,-0.13,-14.54,31.5928827,120.7774280,2.986,13630207.453,24924670.230,2.986,0.000,0.000,0.000,0.000,0.000,0.000,0.000,16,16,4*7B
$GPGGA,040901.40,3135.5730901,N,12046.6455665,E,4,16,1.4,2.9820,M,8.313,M,01,0004*65
$GPHPD,0,0.000,321.97,-0.58,-14.53,31.5928848,120.7774261,2.982,13630205.388,24924668.122,2.982,0.000,0.000,0.000,0.000,0.000,0.000,0.000,16,16,4*7B
$GPGGA,040901.60,3135.5732188,N,12046.6454509,E,4,16,1.4,2.9831,M,8.313,M,00,0004*65
$GPHPD,0,0.000,321.81,-0.66,-14.52,31.5928870,120.7774242,2.983,13630203.326,24924665.979,2.983,0.000,0.000,0.000,0.000,0.000,0.000,0.000,16,16,4*73
$GPGGA,040901.80,3135.5733417,N,12046.6453317,E,4,16,1.4,2.9932,M,8.313,M,00,0004*65
$GPHPD,0,0.000,322.17,-0.60,-14.54,31.5928890,120.7774222,2.993,13630201.339,24924663.826,2.993,0.000,0.000,0.000,0.000,0.000,0.000,0.000,16,16,4*76
$GPGGA,040902.00,3135.5734705,N,12046.6452202,E,4,16,1.4,2.9835,M,8.313,M,01,0004*6A
$GPHPD,0,0.000,322.53,-1.29,-14.56,31.5928912,120.7774203,2.984,13630199.284,24924661.732,2.984,0.000,0.000,0.000,0.000,0.000,0.000,0.000,16,16,4*7D
$GPGGA,040902.20,3135.5735980,N,12046.6451068,E,4,16,1.4,2.9887,M,8.313,M,01,0004*6E
$GPHPD,0,0.000,322.48,-1.36,-14.56,31.5928933,120.7774184,2.989,13630197.244,24924659.622,2.989,0.000,0.000,0.000,0.000,0.000,0.000,0.000,16,16,4*7F
$GPGGA,040902.40,3135.5737257,N,12046.6449937,E,4,16,1.4,2.9823,M,8.313,M,01,0004*6F
$GPHPD,0,0.000,322.33,-1.65,-14.55,31.5928954,120.7774166,2.982,13630195.201,24924657.515,2.982,0.000,0.000,0.000,0.000,0.000,0.000,0.000,16,16,4*71
$GPGGA,040902.60,3135.5738568,N,12046.6448851,E,4,16,1.4,2.9686,M,8.313,M,00,0004*69
$GPHPD,0,0.000,322.18,-0.79,-14.59,31.5928976,120.7774148,2.969,13630193.119,24924655.442,2.969,0.000,0.000,0.000,0.000,0.000,0.000,0.000,16,16,4*79
$GPGGA,040902.80,3135.5739803,N,12046.6447675,E,4,16,1.4,2.9598,M,8.313,M,00,0004*6D
$GPHPD,0,0.000,321.58,-0.21,-14.61,31.5928997,120.7774128,2.960,13630191.127,24924653.305,2.960,0.000,0.000,0.000,0.000,0.000,0.000,0.000,16,16,4*7C
$GPGGA,040903.00,3135.5741111,N,12046.6446574,E,4,16,1.4,2.9466,M,8.313,M,01,0004*63
$GPHPD,0,0.000,321.82,0.04,-14.63,31.5929019,120.7774110,2.947,13630189.047,24924651.215,2.947,0.000,0.000,0.000,0.000,0.000,0.000,0.000,16,16,4*5A
$GPGGA,040903.20,3135.5742409,N,12046.6445409,E,4,16,1.4,2.9526,M,8.313,M,01,0004*63
$GPHPD,0,0.000,321.45,0.73,-14.60,31.5929040,120.7774090,2.953,13630186.967,24924649.055,2.953,0.000,0.000,0.000,0.000,0.000,0.000,0.000,16,16,4*5C
$GPGGA,040903.40,3135.5743660,N,12046.6444182,E,4,16,1.4,2.9566,M,8.313,M,01,0004*6A
$GPHPD,0,0.000,321.22,1.19,-14.59,31.5929061,120.7774070,2.957,13630184.942,24924646.847,2.957,0.000,0.000,0.000,0.000,0.000,0.000,0.000,16,16,4*56
$GPGGA,040903.60,3135.5744980,N,12046.6443060,E,4,16,1.4,2.9602,M,8.313,M,00,0004*64
$GPHPD,0,0.000,322.21,-0.21,-14.59,31.5929083,120.7774051,2.960,13630182.841,24924644.725,2.960,0.000,0.000,0.000,0.000,0.000,0.000,0.000,16,16,4*73
$GPGGA,040903.80,3135.5746227,N,12046.6441926,E,4,16,1.4,2.9621,M,8.313,M,00,0004*66
$GPHPD,0,0.000,321.42,0.38,-14.57,31.5929104,120.7774032,2.962,13630180.840,24924642.632,2.962,0.000,0.000,0.000,0.000,0.000,0.000,0.000,16,16,4*57
$GPGGA,040904.00,3135.5747481,N,12046.6440720,E,4,16,1.4,2.9715,M,8.313,M,01,0004*6C
$GPHPD,0,0.000,322.10,-0.69,-14.55,31.5929125,120.7774012,2.972,13630178.815,24924640.448,2.972,0.000,0.000,0.000,0.000,0.000,0.000,0.000,16,16,4*73
$GPGGA,040904.20,3135.5748714,N,12046.6439516,E,4,16,1.4,2.9849,M,8.313,M,01,0004*61
$GPHPD,0,0.000,321.98,-0.53,-14.54,31.5929145,120.7773992,2.985,13630176.820,24924638.278,2.985,0.000,0.000,0.000,0.000,0.000,0.000,0.000,16,16,4*7A
$GPGGA,040904.40,3135.5750037,N,12046.6438430,E,4,16,1.4,2.9739,M,8.313,M,01,0004*64
$GPHPD,0,0.000,323.29,-2.33,-14.51,31.5929167,120.7773974,2.974,13630174.721,24924636.198,2.974,0.000,0.000,0.000,0.000,0.000,0.000,0.000,16,15,4*77
$GPGGA,040904.60,3135.5751307,N,12046.6437303,E,4,16,1.4,2.9709,M,8.313,M,00,0004*6D
$GPHPD,0,0.000,321.62,-0.06,-14.50,31.5929188,120.7773955,2.971,13630172.690,24924634.100,2.971,0.000,0.000,0.000,0.000,0.000,0.000,0.000,16,15,4*73
$GPGGA,040904.80,3135.5752597,N,12046.6436165,E,4,16,1.4,2.9581,M,8.313,M,00,0004*6E
$GPHPD,0,0.000,321.59,-0.07,-14.50,31.5929210,120.7773936,2.958,13630170.627,24924631.976,2.958,0.000,0.000,0.000,0.000,0.000,0.000,0.000,16,15,4*7F
$GPGGA,040905.00,3135.5753974,N,12046.6435106,E,4,16,1.4,2.9218,M,8.313,M,01,0004*67
$GPHPD,0,0.000,321.53,-0.20,-14.55,31.5929233,120.7773918,2.922,13630168.457,24924629.897,2.922,0.000,0.000,0.000,0.000,0.000,0.000,0.000,16,15,4*73
$GPGGA,040905.20,3135.5755188,N,12046.6433885,E,4,16,1.5,2.9488,M,8.313,M,01,0004*62
$GPHPD,0,0.000,321.76,0.07,-14.55,31.5929253,120.7773898,2.949,13630166.486,24924627.718,2.949,0.000,0.000,0.000,0.000,0.000,0.000,0.000,16,15,4*57
$GPGGA,040905.40,3135.5756434,N,12046.6432653,E,4,16,1.4,2.9697,M,8.313,M,01,0004*6C
$GPHPD,0,0.000,321.89,-0.42,-14.54,31.5929274,120.7773878,2.970,13630164.467,24924625.507,2.970,0.000,0.000,0.000,0.000,0.000,0.000,0.000,16,15,4*72
$GPGGA,040905.60,3135.5757768,N,12046.6431539,E,4,15,1.5,2.9499,M,8.313,M,00,0004*66
$GPHPD,0,0.000,321.60,-0.35,-14.53,31.5929296,120.7773859,2.950,13630162.347,24924623.387,2.950,0.000,0.000,0.000,0.000,0.000,0.000,0.000,15,15,4*75
$GPGGA,040905.80,3135.5759020,N,12046.6430359,E,4,15,1.5,2.9471,M,8.313,M,00,0004*6A
$GPHPD,0,0.000,322.11,-0.58,-14.52,31.5929317,120.7773839,2.947,13630160.330,24924621.235,2.947,0.000,0.000,0.000,0.000,0.000,0.000,0.000,15,15,4*7C
$GPGGA,040906.00,3135.5760315,N,12046.6429257,E,4,15,1.5,2.9398,M,8.313,M,01,0004*68
$GPHPD,0,0.000,322.37,-0.60,-14.51,31.5929339,120.7773821,2.940,13630158.267,24924619.153,2.940,0.000,0.000,0.000,0.000,0.000,0.000,0.000,15,15,4*75
$GPGGA,040906.20,3135.5761596,N,12046.6428100,E,4,15,1.5,2.9440,M,8.313,M,01,0004*64
$GPHPD,0,0.000,321.83,-0.17,-14.50,31.5929360,120.7773802,2.944,13630156.214,24924617.012,2.944,0.000,0.000,0.000,0.000,0.000,0.000,0.000,15,15,4*75
$GPGGA,040906.40,3135.5762826,N,12046.6426956,E,4,15,1.5,2.9470,M,8.313,M,01,0004*61
$GPHPD,0,0.000,322.12,-0.37,-14.54,31.5929380,120.7773783,2.947,13630154.235,24924614.916,2.947,0.000,0.000,0.000,0.000,0.000,0.000,0.000,15,15,4*7F
$GPGGA,040906.60,3135.5764124,N,12046.6425818,E,4,15,1.5,2.9486,M,8.313,M,00,0004*6E
$GPHPD,0,0.000,322.12,-0.48,-14.51,31.5929402,120.7773764,2.949,13630152.162,24924612.788,2.949,0.000,0.000,0.000,0.000,0.000,0.000,0.000,15,15,4*7E
$GPGGA,040906.80,3135.5765409,N,12046.6424661,E,4,15,1.5,2.9446,M,8.313,M,00,0004*66
$GPHPD,0,0.000,322.03,-0.17,-14.51,31.5929423,120.7773744,2.945,13630150.102,24924610.645,2.945,0.000,0.000,0.000,0.000,0.000,0.000,0.000,15,15,4*73
$GPGGA,040907.00,3135.5766694,N,12046.6423524,E,4,15,1.5,2.9535,M,8.313,M,01,0004*6B
$GPHPD,0,0.000,322.15,-0.90,-14.53,31.5929445,120.7773725,2.954,13630148.047,24924608.525,2.954,0.000,0.000,0.000,0.000,0.000,0.000,0.000,15,15,4*7B
$GPGGA,040907.20,3135.5768000,N,12046.6422353,E,4,15,1.5,2.9350,M,8.313,M,01,0004*6E
$GPHPD,0,0.000,321.86,-1.08,-14.54,31.5929467,120.7773706,2.935,13630145.955,24924606.353,2.935,0.000,0.000,0.000,0.000,0.000,0.000,0.000,15,15,4*7A
$GPGGA,040907.40,3135.5769198,N,12046.6421097,E,4,16,1.4,2.9694,M,8.313,M,01,0004*6E
$GPHPD,0,0.000,321.90,-0.06,-14.52,31.5929487,120.7773685,2.969,13630144.000,24924604.141,2.969,0.000,0.000,0.000,0.000,0.000,0.000,0.000,16,15,4*78
$GPGGA,040907.60,3135.5770526,N,12046.6419923,E,4,16,1.4,2.9747,M,8.313,M,00,0004*66
$GPHPD,0,0.000,321.53,-0.21,-14.46,31.5929509,120.7773665,2.975,13630141.876,24924601.952,2.975,0.000,0.000,0.000,0.000,0.000,0.000,0.000,16,15,4*7D
$GPGGA,040907.80,3135.5771812,N,12046.6418725,E,4,16,1.4,2.9658,M,8.313,M,00,0004*65
$GPHPD,0,0.000,322.07,-1.05,-14.40,31.5929530,120.7773645,2.966,13630139.807,24924599.759,2.966,0.000,0.000,0.000,0.000,0.000,0.000,0.000,16,15,4*78
$GPGGA,040908.00,3135.5773126,N,12046.6417542,E,4,16,1.4,2.9676,M,8.313,M,01,0004*6F
$GPHPD,0,0.000,322.55,-1.10,-14.36,31.5929552,120.7773626,2.968,13630137.702,24924597.567,2.968,0.000,0.000,0.000,0.000,0.000,0.000,0.000,16,15,4*7E
$GPGGA,040908.20,3135.5774505,N,12046.6416503,E,4,16,1.5,2.9439,M,8.313,M,01,0004*63
$GPHPD,0,0.000,321.69,-0.74,-14.30,31.5929575,120.7773608,2.944,13630135.533,24924595.511,2.944,0.000,0.000,0.000,0.000,0.000,0.000,0.000,16,15,4*7F
$GPGGA,040908.40,3135.5775748,N,12046.6415279,E,4,16,1.5,2.9394,M,8.313,M,01,0004*66
$GPHPD,0,0.000,321.32,-0.69,-14.30,31.5929596,120.7773588,2.939,13630133.520,24924593.312,2.939,0.000,0.000,0.000,0.000,0.000,0.000,0.000,16,15,4*7C
$GPGGA,040908.60,3135.5777053,N,12046.6414118,E,4,15,1.5,2.9467,M,8.313,M,00,0004*67
$GPHPD,0,0.000,321.67,-0.72,-14.34,31.5929618,120.7773569,2.947,13630131.431,24924591.152,2.947,0.000,0.000,0.000,0.000,0.000,0.000,0.000,15,15,4*7C
$GPGGA,040908.80,3135.5778395,N,12046.6412960,E,4,15,1.5,2.9438,M,8.313,M,00,0004*64
$GPHPD,0,0.000,321.99,-0.75,-14.35,31.5929640,120.7773549,2.944,13630129.291,24924588.974,2.944,0.000,0.000,0.000,0.000,0.000,0.000,0.000,15,15,4*75
$GPGGA,040909.00,3135.5779654,N,12046.6411769,E,4,15,1.5,2.9361,M,8.313,M,01,0004*6A
$GPHPD,0,0.000,321.37,-0.80,-14.37,31.5929661,120.7773529,2.936,13630127.262,24924586.805,2.936,0.000,0.000,0.000,0.000,0.000,0.000,0.000,15,15,4*77
$GPGGA,040909.20,3135.5780947,N,12046.6410583,E,4,15,1.5,2.9311,M,8.313,M,01,0004*63
$GPHPD,0,0.000,321.63,-0.62,-14.35,31.5929682,120.7773510,2.931,13630125.186,24924584.622,2.931,0.000,0.000,0.000,0.000,0.000,0.000,0.000,15,15,4*7D
$GPGGA,040909.40,3135.5782263,N,12046.6409416,E,4,15,1.5,2.9314,M,8.313,M,01,0004*6A
$GPHPD,0,0.000,321.68,-0.51,-14.34,31.5929704,120.7773490,2.931,13630123.080,24924582.448,2.931,0.000,0.000,0.000,0.000,0.000,0.000,0.000,15,15,4*78
$GPGGA,040909.60,3135.5783588,N,12046.6408230,E,4,15,1.5,2.9330,M,8.313,M,00,0004*6F
$GPHPD,0,0.000,321.51,-0.36,-14.32,31.5929726,120.7773471,2.933,13630120.958,24924580.247,2.933,0.000,0.000,0.000,0.000,0.000,0.000,0.000,15,15,4*7E
$GPGGA,040909.80,3135.5784885,N,12046.6407036,E,4,15,1.5,2.9302,M,8.313,M,00,0004*6C
$GPHPD,0,0.000,321.41,-0.33,-14.30,31.5929748,120.7773451,2.930,13630118.875,24924578.052,2.930,0.000,0.000,0.000,0.000,0.000,0.000,0.000,15,15,4*76
$GPGGA,040910.00,3135.5786234,N,12046.6405865,E,4,15,1.5,2.9226,M,8.313,M,01,0004*64
$GPHPD,0,0.000,321.02,0.29,-14.33,31.5929771,120.7773431,2.923,13630116.722,24924575.854,2.923,0.000,0.000,0.000,0.000,0.000,0.000,0.000,15,15,4*58
$GPGGA,040910.20,3135.5787524,N,12046.6404660,E,4,15,1.5,2.9204,M,8.313,M,01,0004*6B
$GPHPD,0,0.000,321.45,-0.09,-14.33,31.5929792,120.7773411,2.920,13630114.646,24924573.650,2.920,0.000,0.000,0.000,0.000,0.000,0.000,0.000,15,15,4*76
$GPGGA,040910.40,3135.5788810,N,12046.6403472,E,4,15,1.5,2.9265,M,8.313,M,01,0004*69
$GPHPD,0,0.000,321.64,-0.36,-14.34,31.5929814,120.7773391,2.927,13630112.579,24924571.469,2.927,0.000,0.000,0.000,0.000,0.000,0.000,0.000,15,15,4*73
$GPGGA,040910.60,3135.5790166,N,12046.6402312,E,4,15,1.5,2.9313,M,8.313,M,00,0004*6B
$GPHPD,0,0.000,321.53,-0.14,-14.34,31.5929836,120.7773372,2.931,13630110.418,24924569.281,2.931,0.000,0.000,0.000,0.000,0.000,0.000,0.000,15,15,4*77
$GPGGA,040910.80,3135.5791385,N,12046.6401043,E,4,15,1.5,2.9382,M,8.313,M,00,0004*67
$GPHPD,0,0.000,321.09,-0.22,-14.34,31.5929856,120.7773351,2.938,13630108.430,24924567.041,2.938,0.000,0.000,0.000,0.000,0.000,0.000,0.000,15,15,4*79
$GPGGA,040911.00,3135.5792736,N,12046.6399901,E,4,15,1.5,2.9301,M,8.313,M,01,0004*62
$GPHPD,0,0.000,321.90,-0.46,-14.33,31.5929879,120.7773332,2.930,13630106.280,24924564.877,2.930,0.000,0.000,0.000,0.000,0.000,0.000,0.000,15,15,4*79
$GPGGA,040911.20,3135.5794049,N,12046.6398751,E,4,15,1.5,2.9267,M,8.313,M,01,0004*62
$GPHPD,0,0.000,321.79,-0.40,-14.36,31.5929901,120.7773313,2.927,13630104.183,24924562.726,2.927,0.000,0.000,0.000,0.000,0.000,0.000,0.000,15,15,4*7F
$GPGGA,040911.40,3135.5795355,N,12046.6397554,E,4,15,1.5,2.9282,M,8.313,M,01,0004*68
$GPHPD,0,0.000,321.48,-0.09,-14.39,31.5929923,120.7773293,2.928,13630102.086,24924560.522,2.928,0.000,0.000,0.000,0.000,0.000,0.000,0.000,15,15,4*70
$GPGGA,040911.60,3135.5796634,N,12046.6396366,E,4,15,1.5,2.9247,M,8.313,M,00,0004*65
$GPHPD,0,0.000,321.60,-0.49,-14.39,31.5929944,120.7773273,2.925,13630100.029,24924558.345,2.925,0.000,0.000,0.000,0.000,0.000,0.000,0.000,15,15,4*7A
$GPGGA,040911.80,3135.5797941,N,12046.6395206,E,4,15,1.5,2.9304,M,8.313,M,00,0004*65
$GPHPD,0,0.000,321.86,-0.11,-14.35,31.5929966,120.7773253,2.930,13630097.938,24924556.185,2.930,0.000,0.000,0.000,0.000,0.000,0.000,0.000,15,15,4*77
$GPGGA,040912.00,3135.5799259,N,12046.6394048,E,4,15,1.5,2.9234,M,8.313,M,01,0004*68
$GPHPD,0,0.000,321.95,-0.80,-14.35,31.5929988,120.7773234,2.923,13630095.832,24924554.021,2.923,0.000,0.000,0.000,0.000,0.000,0.000,0.000,15,15,4*78
$GPGGA,040912.20,3135.5800560,N,12046.6392874,E,4,15,1.5,2.9343,M,8.313,M,01,0004*68
$GPHPD,0,0.000,321.57,-0.45,-14.33,31.5930009,120.7773215,2.934,13630093.746,24924551.848,2.934,0.000,0.000,0.000,0.000,0.000,0.000,0.000,15,15,4*7A
$GPGGA,040912.40,3135.5801824,N,12046.6391711,E,4,15,1.5,2.9180,M,8.313,M,01,0004*60
$GPHPD,0,0.000,321.67,-1.05,-14.29,31.5930030,120.7773195,2.918,13630091.716,24924549.710,2.918,0.000,0.000,0.000,0.000,0.000,0.000,0.000,15,15,4*7A
$GPGGA,040912.60,3135.5803107,N,12046.6390541,E,4,15,1.5,2.9219,M,8.313,M,00,0004*6C
$GPHPD,0,0.000,322.08,-0.84,-14.27,31.5930052,120.7773176,2.922,13630089.657,24924547.552,2.922,0.000,0.000,0.000,0.000,0.000,0.000,0.000,15,15,4*78
$GPGGA,040912.80,3135.5804371,N,12046.6389365,E,4,15,1.5,2.9132,M,8.313,M,00,0004*64
$GPHPD,0,0.000,321.80,-0.80,-14.28,31.5930073,120.7773156,2.913,13630087.624,24924545.398,2.913,0.000,0.000,0.000,0.000,0.000,0.000,0.000,15,15,4*79
$GPGGA,040913.00,3135.5805666,N,12046.6388237,E,4,15,1.5,2.9081,M,8.313,M,01,0004*60
$GPHPD,0,0.000,321.78,-0.74,-14.27,31.5930094,120.7773137,2.908,13630085.556,24924543.284,2.908,0.000,0.000,0.000,0.000,0.000,0.000,0.000,15,15,4*7A
$GPGGA,040913.20,3135.5806948,N,12046.6387084,E,4,15,1.5,2.9156,M,8.313,M,01,0004*6C
$GPHPD,0,0.000,322.01,-0.63,-14.30,31.5930116,120.7773118,2.916,13630083.502,24924541.147,2.916,0.000,0.000,0.000,0.000,0.000,0.000,0.000,15,15,4*78
$GPGGA,040913.40,3135.5808208,N,12046.6385951,E,4,16,1.5,2.9105,M,8.313,M,01,0004*6D
$GPHPD,0,0.000,322.01,-0.80,-14.30,31.5930137,120.7773099,2.911,13630081.483,24924539.047,2.911,0.000,0.000,0.000,0.000,0.000,0.000,0.000,16,16,4*7A
$GPGGA,040913.60,3135.5809395,N,12046.6384730,E,4,16,1.4,2.9210,M,8.313,M,00,0004*64
$GPHPD,0,0.000,321.92,-0.79,-14.34,31.5930157,120.7773079,2.921,13630079.550,24924536.884,2.921,0.000,0.000,0.000,0.000,0.000,0.000,0.000,16,16,4*79
$GPGGA,040913.80,3135.5810669,N,12046.6383608,E,4,16,1.4,2.9165,M,8.313,M,00,0004*68
$GPHPD,0,0.000,322.03,-0.27,-14.33,31.5930178,120.7773060,2.917,13630077.514,24924534.789,2.917,0.000,0.000,0.000,0.000,0.000,0.000,0.000,16,16,4*75
$GPGGA,040914.00,3135.5811997,N,12046.6382484,E,4,16,1.4,2.9041,M,8.313,M,01,0004*69
$GPHPD,0,0.000,321.85,-0.57,-14.31,31.5930200,120.7773041,2.904,13630075.400,24924532.661,2.904,0.000,0.000,0.000,0.000,0.000,0.000,0.000,16,16,4*75
$GPGGA,040914.20,3135.5813270,N,12046.6381349,E,4,16,1.4,2.9057,M,8.313,M,01,0004*69
$GPHPD,0,0.000,321.55,-0.23,-14.32,31.5930221,120.7773022,2.906,13630073.362,24924530.551,2.906,0.000,0.000,0.000,0.000,0.000,0.000,0.000,16,16,4*79
$GPGGA,040914.40,3135.5814506,N,12046.6380203,E,4,16,1.4,2.8924,M,8.313,M,01,0004*6C
$GPHPD,0,0.000,321.50,-0.57,-14.34,31.5930242,120.7773003,2.892,13630071.375,24924528.449,2.892,0.000,0.000,0.000,0.000,0.000,0.000,0.000,16,16,4*7A
$GPGGA,040914.60,3135.5815786,N,12046.6379032,E,4,16,1.4,2.9006,M,8.313,M,00,0004*6A
$GPHPD,0,0.000,321.61,-0.10,-14.34,31.5930263,120.7772984,2.901,13630069.320,24924526.292,2.901,0.000,0.000,0.000,0.000,0.000,0.000,0.000,16,16,4*78
$GPGGA,040914.80,3135.5817041,N,12046.6377892,E,4,16,1.4,2.8999,M,8.313,M,00,0004*68
$GPHPD,0,0.000,321.59,-0.28,-14.34,31.5930284,120.7772965,2.900,13630067.307,24924524.187,2.900,0.000,0.000,0.000,0.000,0.000,0.000,0.000,16,16,4*70
$GPGGA,040915.00,3135.5818292,N,12046.6376751,E,4,16,1.4,2.8978,M,8.313,M,01,0004*6D
$GPHPD,0,0.000,321.63,-0.26,-14.32,31.5930305,120.7772946,2.898,13630065.300,24924522.082,2.898,0.000,0.000,0.000,0.000,0.000,0.000,0.000,16,16,4*7F
$GPGGA,040915.20,3135.5819596,N,12046.6375631,E,4,16,1.4,2.8979,M,8.312,M,01,0004*69
$GPHPD,0,0.000,321.67,-0.34,-14.34,31.5930327,120.7772927,2.898,13630063.221,24924519.972,2.898,0.000,0.000,0.000,0.000,0.000,0.000,0.000,16,16,4*73
$GPGGA,040915.40,3135.5820839,N,12046.6374470,E,4,16,1.4,2.9046,M,8.312,M,01,0004*6F
$GPHPD,0,0.000,321.51,-0.30,-14.35,31.5930347,120.7772908,2.905,13630061.221,24924517.849,2.905,0.000,0.000,0.000,0.000,0.000,0.000,0.000,16,16,4*7D
$GPGGA,040915.60,3135.5822083,N,12046.6373332,E,4,16,1.4,2.9071,M,8.312,M,00,0004*65
$GPHPD,0,0.000,321.56,-0.70,-14.36,31.5930368,120.7772889,2.907,13630059.223,24924515.752,2.907,0.000,0.000,0.000,0.000,0.000,0.000,0.000,16,16,4*76
$GPGGA,040915.80,3135.5823317,N,12046.6372189,E,4,16,1.4,2.9038,M,8.312,M,00,0004*6A
$GPHPD,0,0.000,321.72,-0.71,-14.39,31.5930389,120.7772870,2.904,13630057.240,24924513.655,2.904,0.000,0.000,0.000,0.000,0.000,0.000,0.000,16,16,4*7C
$GPGGA,040916.00,3135.5824553,N,12046.6371035,E,4,16,1.4,2.9056,M,8.312,M,01,0004*6C
$GPHPD,0,0.000,321.44,-0.54,-14.39,31.5930409,120.7772851,2.906,13630055.251,24924511.544,2.906,0.000,0.000,0.000,0.000,0.000,0.000,0.000,16,16,4*71
$GPGGA,040916.20,3135.5825798,N,12046.6369921,E,4,16,1.4,2.9088,M,8.312,M,01,0004*6C
$GPHPD,0,0.000,321.58,-0.71,-14.41,31.5930430,120.7772832,2.909,13630053.257,24924509.476,2.909,0.000,0.000,0.000,0.000,0.000,0.000,0.000,16,16,4*72
$GPGGA,040916.40,3135.5827031,N,12046.6368784,E,4,16,1.4,2.8961,M,8.312,M,01,0004*63
$GPHPD,0,0.000,321.41,-0.79,-14.39,31.5930451,120.7772813,2.896,13630051.276,24924507.387,2.896,0.000,0.000,0.000,0.000,0.000,0.000,0.000,16,16,4*7F
$GPGGA,040916.60,3135.5828248,N,12046.6367680,E,4,16,1.4,2.8980,M,8.312,M,00,0004*66
$GPHPD,0,0.000,321.34,-0.20,-14.40,31.5930471,120.7772795,2.898,13630049.324,24924505.347,2.898,0.000,0.000,0.000,0.000,0.000,0.000,0.000,16,16,4*7D
$GPGGA,040916.80,3135.5829470,N,12046.6366550,E,4,16,1.4,2.9023,M,8.312,M,00,0004*6A
$GPHPD,0,0.000,321.16,-0.30,-14.43,31.5930491,120.7772776,2.902,13630047.360,24924503.273,2.902,0.000,0.000,0.000,0.000,0.000,0.000,0.000,16,16,4*72
$GPGGA,040917.00,3135.5830701,N,12046.6365393,E,4,16,1.4,2.8936,M,8.312,M,01,0004*69
$GPHPD,0,0.000,321.04,-0.12,-14.44,31.5930512,120.7772757,2.894,13630045.377,24924501.161,2.894,0.000,0.000,0.000,0.000,0.000,0.000,0.000,16,16,4*79
$GPGGA,040917.20,3135.5831930,N,12046.6364214,E,4,16,1.4,2.8882,M,8.312,M,01,0004*67
$GPHPD,0,0.000,321.07,-0.34,-14.45,31.5930532,120.7772737,2.888,13630043.393,24924499.024,2.888,0.000,0.000,0.000,0.000,0.000,0.000,0.000,16,16,4*77
$GPGGA,040917.40,3135.5833137,N,12046.6363054,E,4,16,1.4,2.8923,M,8.312,M,01,0004*67
$GPHPD,0,0.000,320.83,0.11,-14.42,31.5930552,120.7772718,2.892,13630041.444,24924496.923,2.892,0.000,0.000,0.000,0.000,0.000,0.000,0.000,16,16,4*52
$GPGGA,040917.60,3135.5834388,N,12046.6361943,E,4,16,1.4,2.8948,M,8.312,M,00,0004*65
$GPHPD,0,0.000,320.89,-0.15,-14.40,31.5930573,120.7772699,2.895,13630039.443,24924494.854,2.895,0.000,0.000,0.000,0.000,0.000,0.000,0.000,16,16,4*73
$GPGGA,040917.80,3135.5835602,N,12046.6360740,E,4,16,1.4,2.8992,M,8.312,M,00,0004*66
$GPHPD,0,0.000,320.41,-0.41,-14.38,31.5930593,120.7772679,2.899,13630037.475,24924492.697,2.899,0.000,0.000,0.000,0.000,0.000,0.000,0.000,16,16,4*75
$GPGGA,040918.00,3135.5836858,N,12046.6359558,E,4,16,1.4,2.8925,M,8.312,M,01,0004*6F
$GPHPD,0,0.000,320.53,-0.65,-14.35,31.5930614,120.7772659,2.893,13630035.452,24924490.540,2.893,0.000,0.000,0.000,0.000,0.000,0.000,0.000,16,16,4*7F
$GPGGA,040918.20,3135.5838075,N,12046.6358397,E,4,16,1.4,2.8935,M,8.312,M,01,0004*61
$GPHPD,0,0.000,320.27,-0.48,-14.32,31.5930635,120.7772640,2.894,13630033.489,24924488.432,2.894,0.000,0.000,0.000,0.000,0.000,0.000,0.000,16,16,4*72
$GPGGA,040918.40,3135.5839329,N,12046.6357214,E,4,16,1.4,2.8943,M,8.312,M,01,0004*68
$GPHPD,0,0.000,320.35,-0.50,-14.33,31.5930655,120.7772620,2.894,13630031.469,24924486.275,2.894,0.000,0.000,0.000,0.000,0.000,0.000,0.000,16,16,4*7E
$GPGGA,040918.60,3135.5840562,N,12046.6356019,E,4,16,1.4,2.8963,M,8.312,M,00,0004*60
$GPHPD,0,0.000,320.31,-0.65,-14.31,31.5930676,120.7772600,2.896,13630029.476,24924484.116,2.896,0.000,0.000,0.000,0.000,0.000,0.000,0.000,16,16,4*7E
$GPGGA,040918.80,3135.5841806,N,12046.6354834,E,4,16,1.4,2.8893,M,8.312,M,00,0004*6B
$GPHPD,0,0.000,320.28,-0.86,-14.29,31.5930697,120.7772581,2.889,13630027.469,24924481.963,2.889,0.000,0.000,0.000,0.000,0.000,0.000,0.000,16,16,4*78
$GPGGA,040919.00,3135.5843052,N,12046.6353649,E,4,16,1.4,2.8920,M,8.312,M,01,0004*62
$GPHPD,0,0.000,320.04,-0.76,-14.27,31.5930718,120.7772561,2.892,13630025.460,24924479.809,2.892,0.000,0.000,0.000,0.000,0.000,0.000,0.000,16,16,4*7E
$GPGGA,040919.20,3135.5844313,N,12046.6352442,E,4,16,1.4,2.8870,M,8.312,M,01,0004*6D
$GPHPD,0,0.000,319.53,-0.85,-14.24,31.5930739,120.7772541,2.887,13630023.425,24924477.619,2.887,0.000,0.000,0.000,0.000,0.000,0.000,0.000,16,16,4*7E
$GPGGA,040919.40,3135.5845574,N,12046.6351181,E,4,16,1.4,2.8916,M,8.312,M,01,0004*65
$GPHPD,0,0.000,319.63,-0.94,-14.25,31.5930760,120.7772520,2.892,13630021.379,24924475.364,2.892,0.000,0.000,0.000,0.000,0.000,0.000,0.000,16,16,4*76
$GPGGA,040919.60,3135.5846828,N,12046.6349984,E,4,16,1.4,2.8886,M,8.312,M,01,0004*6C
$GPHPD,0,0.000,319.58,-0.87,-14.24,31.5930780,120.7772500,2.889,13630019.356,24924473.191,2.889,0.000,0.000,0.000,0.000,0.000,0.000,0.000,16,16,4*79
$GPGGA,040919.80,3135.5848072,N,12046.6348703,E,4,16,1.4,2.8842,M,8.312,M,00,0004*62
$GPHPD,0,0.000,319.48,-0.89,-14.22,31.5930801,120.7772478,2.884,13630017.330,24924470.922,2.884,0.000,0.000,0.000,0.000,0.000,0.000,0.000,16,16,4*75
$GPGGA,040920.00,3135.5849287,N,12046.6347444,E,4,16,1.4,2.8824,M,8.312,M,01,0004*67
$GPHPD,0,0.000,319.21,-0.46,-14.20,31.5930821,120.7772457,2.882,13630015.350,24924468.696,2.882,0.000,0.000,0.000,0.000,0.000,0.000,0.000,16,16,4*79
$GPGGA,040920.20,3135.5850565,N,12046.6346217,E,4,16,1.4,2.8761,M,8.312,M,01,0004*69
$GPHPD,0,0.000,319.27,-0.46,-14.21,31.5930843,120.7772437,2.876,13630013.286,24924466.473,2.876,0.000,0.000,0.000,0.000,0.000,0.000,0.000,16,16,4*77
$GPGGA,040920.40,3135.5851803,N,12046.6344965,E,4,16,1.4,2.8747,M,8.312,M,01,0004*6B
$GPHPD,0,0.000,318.95,-0.31,-14.20,31.5930863,120.7772416,2.875,13630011.275,24924464.242,2.875,0.000,0.000,0.000,0.000,0.000,0.000,0.000,16,16,4*77
$GPGGA,040920.60,3135.5853090,N,12046.6343728,E,4,16,1.4,2.8674,M,8.312,M,00,0004*69
$GPHPD,0,0.000,318.83,-0.49,-14.22,31.5930885,120.7772395,2.867,13630009.197,24924462.001,2.867,0.000,0.000,0.000,0.000,0.000,0.000,0.000,16,16,4*7C
$GPGGA,040920.80,3135.5854308,N,12046.6342429,E,4,16,1.4,2.8707,M,8.312,M,00,0004*64
$GPHPD,0,0.000,318.38,-0.25,-14.21,31.5930905,120.7772374,2.871,13630007.204,24924459.726,2.871,0.000,0.000,0.000,0.000,0.000,0.000,0.000,16,16,4*7E
$GPGGA,040921.00,3135.5855546,N,12046.6341168,E,4,16,1.4,2.8726,M,8.312,M,01,0004*61
$GPHPD,0,0.000,318.36,-0.63,-14.23,31.5930926,120.7772353,2.873,13630005.191,24924457.484,2.873,0.000,0.000,0.000,0.000,0.000,0.000,0.000,16,16,4*7C
$GPGGA,040921.20,3135.5856799,N,12046.6339885,E,4,16,1.4,2.8696,M,8.312,M,01,0004*6F
$GPHPD,0,0.000,318.19,-0.62,-14.23,31.5930947,120.7772331,2.870,13630003.152,24924455.208,2.870,0.000,0.000,0.000,0.000,0.000,0.000,0.000,16,16,4*7A
$GPGGA,040921.40,3135.5858040,N,12046.6338572,E,4,16,1.4,2.8667,M,8.312,M,01,0004*6E
$GPHPD,0,0.000,317.73,-0.49,-14.24,31.5930967,120.7772310,2.867,13630001.124,24924452.902,2.867,0.000,0.000,0.000,0.000,0.000,0.000,0.000,16,16,4*73
$GPGGA,040921.60,3135.5859252,N,12046.6337283,E,4,16,1.4,2.8696,M,8.312,M,00,0004*65
$GPHPD,0,0.000,317.56,-0.19,-14.25,31.5930988,120.7772288,2.870,13629999.142,24924450.642,2.870,0.000,0.000,0.000,0.000,0.000,0.000,0.000,16,16,4*78
$GPGGA,040921.80,3135.5860525,N,12046.6336022,E,4,16,1.4,2.8704,M,8.312,M,00,0004*64
$GPHPD,0,0.000,317.57,-0.69,-14.24,31.5931009,120.7772267,2.870,13629997.079,24924448.380,2.870,0.000,0.000,0.000,0.000,0.000,0.000,0.000,16,16,4*7A
$GPGGA,040922.00,3135.5861773,N,12046.6334711,E,4,16,1.4,2.8674,M,8.312,M,01,0004*6D
$GPHPD,0,0.000,317.18,0.01,-14.18,31.5931030,120.7772245,2.867,13629995.041,24924446.073,2.867,0.000,0.000,0.000,0.000,0.000,0.000,0.000,16,16,4*5F
$GPGGA,040922.20,3135.5862980,N,12046.6333370,E,4,16,1.4,2.8703,M,8.312,M,01,0004*6B
$GPHPD,0,0.000,317.28,-0.09,-14.19,31.5931050,120.7772223,2.870,13629993.056,24924443.753,2.870,0.000,0.000,0.000,0.000,0.000,0.000,0.000,16,16,4*7E
$GPGGA,040922.40,3135.5864194,N,12046.6332072,E,4,16,1.4,2.8672,M,8.312,M,01,0004*61
$GPHPD,0,0.000,317.13,-0.21,-14.19,31.5931070,120.7772201,2.867,13629991.069,24924441.481,2.867,0.000,0.000,0.000,0.000,0.000,0.000,0.000,16,16,4*7E
$GPGGA,040922.60,3135.5865417,N,12046.6330771,E,4,16,1.4,2.8641,M,8.312,M,00,0004*6B
$GPHPD,0,0.000,316.38,0.63,-14.23,31.5931090,120.7772180,2.864,13629989.069,24924439.200,2.864,0.000,0.000,0.000,0.000,0.000,0.000,0.000,16,16,4*59
$GPGGA,040922.80,3135.5866649,N,12046.6329452,E,4,16,1.4,2.8781,M,8.312,M,00,0004*68
$GPHPD,0,0.000,317.16,0.17,-14.20,31.5931111,120.7772158,2.878,13629987.053,24924436.892,2.878,0.000,0.000,0.000,0.000,0.000,0.000,0.000,16,16,4*50
$GPGGA,040923.00,3135.5867840,N,12046.6328162,E,4,16,1.4,2.8843,M,8.312,M,01,0004*60
$GPHPD,0,0.000,317.54,-1.08,-14.20,31.5931131,120.7772136,2.884,13629985.101,24924434.643,2.884,0.000,0.000,0.000,0.000,0.000,0.000,0.000,16,16,4*7A
$GPGGA,040923.20,3135.5869065,N,12046.6326849,E,4,16,1.4,2.8743,M,8.312,M,01,0004*62
$GPHPD,0,0.000,317.56,-1.04,-14.18,31.5931151,120.7772114,2.874,13629983.095,24924432.347,2.874,0.000,0.000,0.000,0.000,0.000,0.000,0.000,16,16,4*74
$GPGGA,040923.40,3135.5870217,N,12046.6325489,E,4,16,1.4,2.9004,M,8.312,M,01,0004*6D
$GPHPD,0,0.000,317.05,-1.14,-14.18,31.5931170,120.7772091,2.900,13629981.184,24924430.036,2.900,0.000,0.000,0.000,0.000,0.000,0.000,0.000,16,16,4*78
$GPGGA,040923.60,3135.5871497,N,12046.6324276,E,4,16,1.4,2.8784,M,8.312,M,00,0004*68
$GPHPD,0,0.000,317.54,-2.28,-14.21,31.5931192,120.7772071,2.878,13629979.121,24924427.828,2.878,0.000,0.000,0.000,0.000,0.000,0.000,0.000,16,16,4*71
$GPGGA,040923.80,3135.5872745,N,12046.6322984,E,4,16,1.4,2.8580,M,8.312,M,00,0004*6F
$GPHPD,0,0.000,317.00,-0.80,-14.22,31.5931212,120.7772050,2.858,13629977.087,24924425.544,2.858,0.000,0.000,0.000,0.000,0.000,0.000,0.000,16,16,4*7D
$GPGGA,040924.00,3135.5873922,N,12046.6321701,E,4,16,1.4,2.8681,M,8.312,M,01,0004*6D
$GPHPD,0,0.000,316.77,-0.47,-14.23,31.5931232,120.7772028,2.868,13629975.156,24924423.311,2.868,0.000,0.000,0.000,0.000,0.000,0.000,0.000,16,16,4*74
$GPGGA,040924.20,3135.5875095,N,12046.6320359,E,4,16,1.4,2.8504,M,8.312,M,01,0004*6A
$GPHPD,0,0.000,316.54,-1.23,-14.22,31.5931252,120.7772006,2.850,13629973.219,24924421.010,2.850,0.000,0.000,0.000,0.000,0.000,0.000,0.000,16,16,4*73
$GPGGA,040924.40,3135.5876334,N,12046.6319071,E,4,16,1.4,2.8418,M,8.312,M,01,0004*68
$GPHPD,0,0.000,316.85,-0.11,-14.21,31.5931272,120.7771985,2.842,13629971.199,24924418.735,2.842,0.000,0.000,0.000,0.000,0.000,0.000,0.000,16,16,4*7C
$GPGGA,040924.60,3135.5877502,N,12046.6317765,E,4,16,1.4,2.8680,M,8.312,M,00,0004*66
$GPHPD,0,0.000,316.78,-0.75,-14.23,31.5931292,120.7771963,2.868,13629969.276,24924416.481,2.868,0.000,0.000,0.000,0.000,0.000,0.000,0.000,16,16,4*71
$GPGGA,040924.80,3135.5878675,N,12046.6316533,E,4,16,1.4,2.8647,M,8.312,M,00,0004*6F
$GPHPD,0,0.000,317.17,-1.45,-14.23,31.5931311,120.7771942,2.865,13629967.361,24924414.312,2.865,0.000,0.000,0.000,0.000,0.000,0.000,0.000,16,16,4*74
$GPGGA,040925.00,3135.5879847,N,12046.6315204,E,4,16,1.4,2.8582,M,8.312,M,01,0004*63
$GPHPD,0,0.000,316.83,-1.26,-14.21,31.5931331,120.7771920,2.858,13629965.428,24924412.027,2.858,0.000,0.000,0.000,0.000,0.000,0.000,0.000,16,16,4*72
$GPGGA,040925.20,3135.5881076,N,12046.6313925,E,4,16,1.4,2.8554,M,8.312,M,01,0004*69
$GPHPD,0,0.000,316.91,-0.59,-14.20,31.5931351,120.7771899,2.855,13629963.424,24924409.769,2.855,0.000,0.000,0.000,0.000,0.000,0.000,0.000,16,16,4*71
$GPGGA,040925.40,3135.5882263,N,12046.6312662,E,4,16,1.4,2.8302,M,8.312,M,01,0004*62
$GPHPD,0,0.000,316.21,-0.91,-14.16,31.5931371,120.7771878,2.830,13629961.483,24924407.555,2.830,0.000,0.000,0.000,0.000,0.000,0.000,0.000,16,16,4*7A
$GPGGA,040925.60,3135.5883441,N,12046.6311382,E,4,16,1.4,2.8427,M,8.312,M,00,0004*6E
$GPHPD,0,0.000,316.30,-0.16,-14.21,31.5931391,120.7771856,2.843,13629959.551,24924405.326,2.843,0.000,0.000,0.000,0.000,0.000,0.000,0.000,16,16,4*76
$GPGGA,040925.80,3135.5884614,N,12046.6310072,E,4,16,1.4,2.8366,M,8.312,M,00,0004*6A
$GPHPD,0,0.000,315.78,-0.36,-14.28,31.5931410,120.7771835,2.837,13629957.620,24924403.063,2.837,0.000,0.000,0.000,0.000,0.000,0.000,0.000,16,16,4*76
$GPGGA,040926.00,3135.5885751,N,12046.6308783,E,4,16,1.4,2.8436,M,8.312,M,01,0004*63
$GPHPD,0,0.000,315.81,-0.36,-14.24,31.5931429,120.7771813,2.844,13629955.745,24924400.847,2.844,0.000,0.000,0.000,0.000,0.000,0.000,0.000,16,16,4*7F
$GPGGA,040926.20,3135.5886926,N,12046.6307460,E,4,16,1.4,2.8364,M,8.312,M,01,0004*6D
$GPHPD,0,0.000,315.23,0.04,-14.22,31.5931449,120.7771791,2.836,13629953.809,24924398.567,2.836,0.000,0.000,0.000,0.000,0.000,0.000,0.000,16,16,4*56
$GPGGA,040926.40,3135.5888109,N,12046.6306184,E,4,16,1.4,2.8381,M,8.312,M,01,0004*65
$GPHPD,0,0.000,315.38,0.58,-14.22,31.5931468,120.7771770,2.838,13629951.870,24924396.340,2.838,0.000,0.000,0.000,0.000,0.000,0.000,0.000,16,16,4*58
$GPGGA,040926.60,3135.5889238,N,12046.6304847,E,4,16,1.4,2.8314,M,8.312,M,00,0004*6E
$GPHPD,0,0.000,315.25,0.39,-14.21,31.5931487,120.7771747,2.831,13629949.997,24924394.071,2.831,0.000,0.000,0.000,0.000,0.000,0.000,0.000,16,16,4*57
$GPGGA,040926.80,3135.5890313,N,12046.6303512,E,4,16,1.4,2.8513,M,8.312,M,00,0004*6B
$GPHPD,0,0.000,315.25,0.43,-14.18,31.5931505,120.7771725,2.851,13629948.200,24924391.835,2.851,0.000,0.000,0.000,0.000,0.000,0.000,0.000,16,16,4*56
$GPGGA,040927.00,3135.5891551,N,12046.6302283,E,4,16,1.5,2.8228,M,8.312,M,01,0004*62
$GPHPD,0,0.000,315.44,0.00,-14.22,31.5931526,120.7771705,2.823,13629946.193,24924389.632,2.823,0.000,0.000,0.000,0.000,0.000,0.000,0.000,16,16,4*5B
$GPGGA,040927.20,3135.5892707,N,12046.6300984,E,4,15,1.5,2.8300,M,8.312,M,01,0004*64
$GPHPD,0,0.000,316.41,-1.00,-14.23,31.5931545,120.7771683,2.830,13629944.289,24924387.393,2.830,0.000,0.000,0.000,0.000,0.000,0.000,0.000,15,14,4*71
$GPGGA,040927.40,3135.5893889,N,12046.6299762,E,4,15,1.5,2.8223,M,8.312,M,01,0004*6D
$GPHPD,0,0.000,315.71,-0.66,-14.27,31.5931565,120.7771663,2.822,13629942.363,24924385.231,2.822,0.000,0.000,0.000,0.000,0.000,0.000,0.000,15,15,4*71
$GPGGA,040927.60,3135.5894983,N,12046.6298437,E,4,15,1.5,2.8367,M,8.312,M,00,0004*61
$GPHPD,0,0.000,315.56,-0.28,-14.25,31.5931583,120.7771641,2.837,13629940.542,24924382.996,2.837,0.000,0.000,0.000,0.000,0.000,0.000,0.000,15,15,4*72
$GPGGA,040927.80,3135.5896161,N,12046.6297148,E,4,15,1.5,2.8330,M,8.312,M,00,0004*69
$GPHPD,0,0.000,315.97,-0.39,-14.22,31.5931603,120.7771619,2.833,13629938.608,24924380.756,2.833,0.000,0.000,0.000,0.000,0.000,0.000,0.000,15,15,4*7C
$GPGGA,040928.00,3135.5897299,N,12046.6295927,E,4,15,1.5,2.8416,M,8.312,M,01,0004*6A
$GPHPD,0,0.000,315.84,-0.20,-14.29,31.5931622,120.7771599,2.842,13629936.745,24924378.621,2.842,0.000,0.000,0.000,0.000,0.000,0.000,0.000,15,15,4*75
$GPGGA,040928.20,3135.5898455,N,12046.6294648,E,4,15,1.5,2.8345,M,8.312,M,01,0004*67
$GPHPD,0,0.000,315.51,-0.30,-14.32,31.5931641,120.7771577,2.835,13629934.845,24924376.406,2.835,0.000,0.000,0.000,0.000,0.000,0.000,0.000,15,15,4*77
$GPGGA,040928.40,3135.5899638,N,12046.6293389,E,4,15,1.6,2.8319,M,8.312,M,01,0004*6C
$GPHPD,0,0.000,315.56,-0.09,-14.30,31.5931661,120.7771556,2.832,13629932.910,24924374.199,2.832,0.000,0.000,0.000,0.000,0.000,0.000,0.000,15,15,4*7F
$GPGGA,040928.60,3135.5900721,N,12046.6292088,E,4,15,1.6,2.8260,M,8.312,M,00,0004*6B
$GPHPD,0,0.000,315.49,-0.53,-14.32,31.5931679,120.7771535,2.826,13629931.109,24924372.000,2.826,0.000,0.000,0.000,0.000,0.000,0.000,0.000,15,15,4*74
$GPGGA,040928.80,3135.5901903,N,12046.6290789,E,4,14,1.6,2.8238,M,8.312,M,00,0004*62
$GPHPD,0,0.000,315.74,-0.96,-14.33,31.5931698,120.7771513,2.824,13629929.168,24924369.745,2.824,0.000,0.000,0.000,0.000,0.000,0.000,0.000,14,15,4*7A
$GPGGA,040929.00,3135.5903002,N,12046.6289550,E,4,14,1.6,2.8278,M,8.312,M,01,0004*6A
$GPHPD,0,0.000,315.71,-0.71,-14.33,31.5931717,120.7771493,2.828,13629927.356,24924367.611,2.828,0.000,0.000,0.000,0.000,0.000,0.000,0.000,14,14,4*77
$GPGGA,040929.20,3135.5904111,N,12046.6288266,E,4,14,1.6,2.8245,M,8.312,M,01,0004*61
$GPHPD,0,0.000,315.79,-0.64,-14.36,31.5931735,120.7771471,2.825,13629925.522,24924365.417,2.825,0.000,0.000,0.000,0.000,0.000,0.000,0.000,14,14,4*73
$GPGGA,040929.40,3135.5905275,N,12046.6287023,E,4,14,1.6,2.8270,M,8.312,M,01,0004*6D
$GPHPD,0,0.000,315.67,-0.36,-14.34,31.5931755,120.7771450,2.827,13629923.617,24924363.241,2.827,0.000,0.000,0.000,0.000,0.000,0.000,0.000,14,14,4*7C
$GPGGA,040929.60,3135.5906399,N,12046.6285760,E,4,14,1.8,2.8208,M,8.312,M,00,0004*6D
$GPHPD,0,0.000,315.43,-0.37,-14.33,31.5931773,120.7771429,2.821,13629921.766,24924361.063,2.821,0.000,0.000,0.000,0.000,0.000,0.000,0.000,14,13,4*74
$GPGGA,040929.80,3135.5907513,N,12046.6284489,E,4,14,1.8,2.8108,M,8.312,M,00,0004*60
$GPHPD,0,0.000,315.46,-0.71,-14.30,31.5931792,120.7771408,2.811,13629919.927,24924358.882,2.811,0.000,0.000,0.000,0.000,0.000,0.000,0.000,14,13,4*71
$GPGGA,040930.00,3135.5908713,N,12046.6283172,E,4,15,1.8,2.8111,M,8.312,M,01,0004*63
$GPHPD,0,0.000,315.62,-0.36,-14.23,31.5931812,120.7771386,2.811,13629917.956,24924356.595,2.811,0.000,0.000,0.000,0.000,0.000,0.000,0.000,15,14,4*7B
$GPGGA,040930.20,3135.5909871,N,12046.6281853,E,4,14,1.8,2.7999,M,8.312,M,01,0004*65
$GPHPD,0,0.000,315.53,-0.50,-14.20,31.5931831,120.7771364,2.800,13629916.045,24924354.330,2.800,0.000,0.000,0.000,0.000,0.000,0.000,0.000,14,14,4*77
$GPGGA,040930.40,3135.5911008,N,12046.6280485,E,4,14,1.8,2.8073,M,8.312,M,01,0004*68
