$GPGGA,041057.80,3135.6246109,N,12046.5881557,E,4,16,1.4,2.5944,M,8.309,M,00,0004*64
$GPHPD,0,0.000,247.89,-0.17,-15.05,31.5937435,120.7764693,2.594,13629357.627,24923675.880,2.594,0.000,0.000,0.000,0.000,0.000,0.000,0.000,16,16,4*78
$GPGGA,041058.00,3135.6245510,N,12046.5879934,E,4,16,1.4,2.5952,M,8.309,M,01,0004*64
$GPHPD,0,0.000,246.96,-0.46,-14.97,31.5937425,120.7764666,2.595,13629358.152,24923674.271,2.595,0.000,0.000,0.000,0.000,0.000,0.000,0.000,16,16,4*7D
$GPGGA,041058.20,3135.6244922,N,12046.5878340,E,4,16,1.5,2.5811,M,8.309,M,01,0004*65
$GPHPD,0,0.000,246.57,-0.76,-14.89,31.5937415,120.7764639,2.581,13629358.667,24923672.692,2.581,0.000,0.000,0.000,0.000,0.000,0.000,0.000,16,16,4*7B
$GPGGA,041058.40,3135.6244359,N,12046.5876795,E,4,16,1.5,2.5866,M,8.309,M,01,0004*67
$GPHPD,0,0.000,246.13,-0.38,-14.83,31.5937406,120.7764613,2.587,13629359.157,24923671.157,2.587,0.000,0.000,0.000,0.000,0.000,0.000,0.000,16,16,4*79
$GPGGA,041058.60,3135.6243788,N,12046.5875335,E,4,16,1.5,2.5839,M,8.309,M,00,0004*6C
$GPHPD,0,0.000,246.03,-0.33,-14.80,31.5937396,120.7764589,2.584,13629359.674,24923669.729,2.584,0.000,0.000,0.000,0.000,0.000,0.000,0.000,16,16,4*7E
$GPGGA,041058.80,3135.6243259,N,12046.5873909,E,4,16,1.7,2.5819,M,8.309,M,00,0004*68
$GPHPD,0,0.000,245.66,-0.38,-14.78,31.5937388,120.7764565,2.582,13629360.139,24923668.318,2.582,0.000,0.000,0.000,0.000,0.000,0.000,0.000,16,14,4*7E
$GPGGA,041059.00,3135.6242729,N,12046.5872550,E,4,16,1.7,2.5632,M,8.309,M,01,0004*65
$GPHPD,0,0.000,245.49,-0.61,-14.78,31.5937379,120.7764543,2.563,13629360.619,24923666.988,2.563,0.000,0.000,0.000,0.000,0.000,0.000,0.000,16,14,4*7D
$GPGGA,041059.20,3135.6242226,N,12046.5871263,E,4,16,1.7,2.5720,M,8.309,M,01,0004*6B
$GPHPD,0,0.000,245.34,-0.11,-14.78,31.5937370,120.7764521,2.572,13629361.075,24923665.729,2.572,0.000,0.000,0.000,0.000,0.000,0.000,0.000,16,14,4*76
$GPGGA,041059.40,3135.6241737,N,12046.5869982,E,4,16,1.7,2.5734,M,8.309,M,01,0004*63
$GPHPD,0,0.000,245.20,-0.14,-14.81,31.5937362,120.7764500,2.573,13629361.513,24923664.469,2.573,0.000,0.000,0.000,0.000,0.000,0.000,0.000,16,14,4*73
$GPGGA,041059.60,3135.6241286,N,12046.5868753,E,4,16,1.7,2.5766,M,8.309,M,00,0004*6B
$GPHPD,0,0.000,244.97,-0.27,-14.84,31.5937355,120.7764479,2.577,13629361.906,24923663.250,2.577,0.000,0.000,0.000,0.000,0.000,0.000,0.000,16,14,4*73
$GPGGA,041059.80,3135.6240798,N,12046.5867587,E,4,16,1.7,2.5662,M,8.309,M,00,0004*6F
$GPHPD,0,0.000,244.86,-0.26,-14.85,31.5937347,120.7764460,2.566,13629362.365,24923662.128,2.566,0.000,0.000,0.000,0.000,0.000,0.000,0.000,16,14,4*79
$GPGGA,041100.00,3135.6240358,N,12046.5866448,E,4,15,1.7,2.5655,M,8.309,M,01,0004*67
$GPHPD,0,0.000,244.88,0.36,-14.88,31.5937339,120.7764441,2.566,13629362.762,24923661.011,2.566,0.000,0.000,0.000,0.000,0.000,0.000,0.000,15,14,4*54
$GPGGA,041100.20,3135.6239928,N,12046.5865341,E,4,14,1.7,2.5670,M,8.309,M,01,0004*6D
$GPHPD,0,0.000,244.87,0.69,-14.90,31.5937332,120.7764422,2.567,13629363.150,24923659.926,2.567,0.000,0.000,0.000,0.000,0.000,0.000,0.000,14,14,4*57
$GPGGA,041100.40,3135.6239476,N,12046.5864248,E,4,14,1.7,2.5638,M,8.309,M,01,0004*68
$GPHPD,0,0.000,244.81,0.55,-14.88,31.5937325,120.7764404,2.564,13629363.573,24923658.872,2.564,0.000,0.000,0.000,0.000,0.000,0.000,0.000,14,14,4*51
$GPGGA,041100.60,3135.6239094,N,12046.5863163,E,4,14,1.7,2.5721,M,8.309,M,00,0004*67
$GPHPD,0,0.000,244.80,0.52,-14.88,31.5937318,120.7764386,2.572,13629363.897,24923657.786,2.572,0.000,0.000,0.000,0.000,0.000,0.000,0.000,14,14,4*58
$GPGGA,041100.80,3135.6238633,N,12046.5862116,E,4,14,1.7,2.5675,M,8.309,M,00,0004*60
$GPHPD,0,0.000,244.52,0.64,-14.89,31.5937311,120.7764369,2.568,13629364.342,24923656.792,2.568,0.000,0.000,0.000,0.000,0.000,0.000,0.000,14,14,4*5B
$GPGGA,041101.00,3135.6238221,N,12046.5861048,E,4,14,1.7,2.5618,M,8.309,M,01,0004*6D
$GPHPD,0,0.000,244.59,0.58,-14.87,31.5937304,120.7764351,2.562,13629364.713,24923655.744,2.562,0.000,0.000,0.000,0.000,0.000,0.000,0.000,14,14,4*56
$GPGGA,041101.20,3135.6237781,N,12046.5860012,E,4,14,1.7,2.5723,M,8.309,M,01,0004*68
$GPHPD,0,0.000,244.65,0.99,-14.85,31.5937296,120.7764334,2.572,13629365.130,24923654.751,2.572,0.000,0.000,0.000,0.000,0.000,0.000,0.000,14,14,4*5C
$GPGGA,041101.40,3135.6237356,N,12046.5858919,E,4,14,1.7,2.5724,M,8.309,M,01,0004*6E
$GPHPD,0,0.000,244.68,0.74,-14.84,31.5937289,120.7764315,2.572,13629365.514,24923653.681,2.572,0.000,0.000,0.000,0.000,0.000,0.000,0.000,14,14,4*57
$GPGGA,041101.60,3135.6236940,N,12046.5857847,E,4,14,1.7,2.5715,M,8.309,M,00,0004*66
$GPHPD,0,0.000,244.63,0.33,-14.85,31.5937282,120.7764297,2.572,13629365.889,24923652.630,2.572,0.000,0.000,0.000,0.000,0.000,0.000,0.000,14,14,4*5C
$GPGGA,041101.80,3135.6236500,N,12046.5856721,E,4,14,1.7,2.5752,M,8.309,M,00,0004*6D
$GPHPD,0,0.000,244.50,0.64,-14.85,31.5937275,120.7764279,2.575,13629366.288,24923651.529,2.575,0.000,0.000,0.000,0.000,0.000,0.000,0.000,14,14,4*56
$GPGGA,041102.00,3135.6236043,N,12046.5855609,E,4,14,1.7,2.5895,M,8.309,M,01,0004*69
$GPHPD,0,0.000,244.65,0.14,-14.84,31.5937267,120.7764260,2.590,13629366.714,24923650.454,2.590,0.000,0.000,0.000,0.000,0.000,0.000,0.000,14,14,4*57
$GPGGA,041102.20,3135.6235579,N,12046.5854444,E,4,14,1.7,2.5886,M,8.309,M,01,0004*6C
$GPHPD,0,0.000,244.48,0.21,-14.84,31.5937260,120.7764241,2.589,13629367.139,24923649.320,2.589,0.000,0.000,0.000,0.000,0.000,0.000,0.000,14,14,4*5E
$GPGGA,041102.40,3135.6235108,N,12046.5853243,E,4,14,1.7,2.5870,M,8.309,M,01,0004*67
$GPHPD,0,0.000,244.47,0.06,-14.82,31.5937252,120.7764221,2.587,13629367.567,24923648.146,2.587,0.000,0.000,0.000,0.000,0.000,0.000,0.000,14,14,4*59
$GPGGA,041102.60,3135.6234622,N,12046.5851994,E,4,14,1.7,2.5907,M,8.309,M,00,0004*68
$GPHPD,0,0.000,244.43,-0.21,-14.81,31.5937244,120.7764200,2.591,13629368.006,24923646.923,2.591,0.000,0.000,0.000,0.000,0.000,0.000,0.000,14,14,4*7A
$GPGGA,041102.80,3135.6234101,N,12046.5850736,E,4,14,1.7,2.5932,M,8.309,M,00,0004*61
$GPHPD,0,0.000,244.28,-0.29,-14.76,31.5937235,120.7764179,2.593,13629368.494,24923645.709,2.593,0.000,0.000,0.000,0.000,0.000,0.000,0.000,14,14,4*76
$GPGGA,041103.00,3135.6233599,N,12046.5849428,E,4,14,1.7,2.5936,M,8.309,M,01,0004*6B
$GPHPD,0,0.000,244.32,-0.64,-14.73,31.5937227,120.7764157,2.594,13629368.944,24923644.425,2.594,0.000,0.000,0.000,0.000,0.000,0.000,0.000,14,14,4*72
$GPGGA,041103.20,3135.6233070,N,12046.5848061,E,4,14,1.7,2.5859,M,8.309,M,01,0004*6B
$GPHPD,0,0.000,244.12,-0.34,-14.75,31.5937218,120.7764134,2.586,13629369.421,24923643.084,2.586,0.000,0.000,0.000,0.000,0.000,0.000,0.000,14,14,4*7D
$GPGGA,041103.40,3135.6232470,N,12046.5846701,E,4,14,1.7,2.5953,M,8.309,M,01,0004*6C
$GPHPD,0,0.000,243.92,-0.03,-14.73,31.5937208,120.7764112,2.595,13629370.000,24923641.794,2.595,0.000,0.000,0.000,0.000,0.000,0.000,0.000,14,14,4*7E
$GPGGA,041103.60,3135.6231878,N,12046.5845310,E,4,14,1.7,2.5934,M,8.309,M,00,0004*6E
$GPHPD,0,0.000,243.89,-0.21,-14.72,31.5937198,120.7764089,2.593,13629370.562,24923640.461,2.593,0.000,0.000,0.000,0.000,0.000,0.000,0.000,14,14,4*75
$GPGGA,041103.80,3135.6231322,N,12046.5843918,E,4,14,1.7,2.5824,M,8.309,M,00,0004*60
$GPHPD,0,0.000,243.83,-0.10,-14.65,31.5937189,120.7764065,2.582,13629371.072,24923639.107,2.582,0.000,0.000,0.000,0.000,0.000,0.000,0.000,14,14,4*77
$GPGGA,041104.00,3135.6230736,N,12046.5842507,E,4,14,1.7,2.5820,M,8.309,M,01,0004*69
$GPHPD,0,0.000,243.58,0.05,-14.56,31.5937179,120.7764042,2.582,13629371.621,24923637.747,2.582,0.000,0.000,0.000,0.000,0.000,0.000,0.000,14,14,4*5E
$GPGGA,041104.20,3135.6230147,N,12046.5841106,E,4,14,1.7,2.5823,M,8.309,M,01,0004*6E
$GPHPD,0,0.000,243.59,-0.25,-14.47,31.5937169,120.7764018,2.582,13629372.176,24923636.400,2.582,0.000,0.000,0.000,0.000,0.000,0.000,0.000,14,14,4*79
$GPGGA,041104.40,3135.6229552,N,12046.5839724,E,4,14,1.7,2.5885,M,8.309,M,01,0004*65
$GPHPD,0,0.000,243.14,0.06,-14.39,31.5937159,120.7763995,2.589,13629372.744,24923635.081,2.589,0.000,0.000,0.000,0.000,0.000,0.000,0.000,14,14,4*54
$GPGGA,041104.60,3135.6229005,N,12046.5838366,E,4,14,1.7,2.5887,M,8.309,M,00,0004*60
$GPHPD,0,0.000,243.41,-0.29,-14.33,31.5937150,120.7763973,2.589,13629373.248,24923633.762,2.589,0.000,0.000,0.000,0.000,0.000,0.000,0.000,14,14,4*7B
$GPGGA,041104.80,3135.6228446,N,12046.5837035,E,4,14,1.7,2.5870,M,8.309,M,00,0004*6E
$GPHPD,0,0.000,243.13,0.39,-14.25,31.5937141,120.7763951,2.587,13629373.775,24923632.482,2.587,0.000,0.000,0.000,0.000,0.000,0.000,0.000,14,14,4*50
$GPGGA,041105.00,3135.6227851,N,12046.5835672,E,4,14,1.7,2.5876,M,8.309,M,01,0004*62
$GPHPD,0,0.000,242.56,-0.15,-14.15,31.5937131,120.7763928,2.588,13629374.346,24923631.185,2.588,0.000,0.000,0.000,0.000,0.000,0.000,0.000,14,14,4*7B
$GPGGA,041105.20,3135.6227274,N,12046.5834324,E,4,14,1.7,2.5862,M,8.309,M,01,0004*6F
$GPHPD,0,0.000,242.74,-0.31,-14.12,31.5937121,120.7763905,2.586,13629374.895,24923629.896,2.586,0.000,0.000,0.000,0.000,0.000,0.000,0.000,14,14,4*73
$GPGGA,041105.40,3135.6226720,N,12046.5833033,E,4,14,1.7,2.5883,M,8.309,M,01,0004*61
$GPHPD,0,0.000,242.80,-0.47,-14.07,31.5937112,120.7763884,2.588,13629375.423,24923628.662,2.588,0.000,0.000,0.000,0.000,0.000,0.000,0.000,14,14,4*71
$GPGGA,041105.60,3135.6226194,N,12046.5831767,E,4,14,1.7,2.5925,M,8.309,M,00,0004*62
$GPHPD,0,0.000,242.49,0.14,-14.04,31.5937103,120.7763863,2.593,13629375.916,24923627.442,2.593,0.000,0.000,0.000,0.000,0.000,0.000,0.000,14,14,4*51
$GPGGA,041105.80,3135.6225693,N,12046.5830512,E,4,14,1.7,2.5870,M,8.309,M,00,0004*6F
$GPHPD,0,0.000,242.53,-0.15,-14.00,31.5937095,120.7763842,2.587,13629376.376,24923626.220,2.587,0.000,0.000,0.000,0.000,0.000,0.000,0.000,14,14,4*73
$GPGGA,041106.00,3135.6225148,N,12046.5829329,E,4,14,1.7,2.5896,M,8.309,M,01,0004*6A
$GPHPD,0,0.000,242.25,-0.07,-14.00,31.5937086,120.7763822,2.590,13629376.912,24923625.111,2.590,0.000,0.000,0.000,0.000,0.000,0.000,0.000,14,14,4*7F
$GPGGA,041106.20,3135.6224615,N,12046.5828155,E,4,14,1.7,2.5926,M,8.309,M,01,0004*64
$GPHPD,0,0.000,242.49,-0.39,-14.03,31.5937077,120.7763803,2.593,13629377.434,24923624.006,2.593,0.000,0.000,0.000,0.000,0.000,0.000,0.000,14,14,4*78
$GPGGA,041106.40,3135.6224151,N,12046.5826998,E,4,14,1.7,2.5897,M,8.309,M,01,0004*69
$GPHPD,0,0.000,242.50,-0.14,-14.08,31.5937069,120.7763783,2.590,13629377.860,24923622.881,2.590,0.000,0.000,0.000,0.000,0.000,0.000,0.000,14,14,4*70
$GPGGA,041106.60,3135.6223633,N,12046.5825891,E,4,14,1.7,2.5817,M,8.309,M,00,0004*6D
$GPHPD,0,0.000,242.28,0.10,-14.13,31.5937061,120.7763765,2.582,13629378.374,24923621.848,2.582,0.000,0.000,0.000,0.000,0.000,0.000,0.000,14,14,4*5B
$GPGGA,041106.80,3135.6223133,N,12046.5824797,E,4,14,1.7,2.5887,M,8.309,M,00,0004*65
$GPHPD,0,0.000,242.44,0.51,-14.16,31.5937052,120.7763747,2.589,13629378.864,24923620.820,2.589,0.000,0.000,0.000,0.000,0.000,0.000,0.000,14,14,4*54
$GPGGA,041107.00,3135.6222657,N,12046.5823679,E,4,14,1.7,2.5918,M,8.309,M,01,0004*68
$GPHPD,0,0.000,242.50,0.29,-14.17,31.5937044,120.7763728,2.592,13629379.316,24923619.749,2.592,0.000,0.000,0.000,0.000,0.000,0.000,0.000,14,14,4*54
$GPGGA,041107.20,3135.6222193,N,12046.5822593,E,4,14,1.7,2.5959,M,8.309,M,01,0004*66
$GPHPD,0,0.000,242.27,0.46,-14.20,31.5937037,120.7763710,2.596,13629379.757,24923618.710,2.596,0.000,0.000,0.000,0.000,0.000,0.000,0.000,14,14,4*5A
$GPGGA,041107.40,3135.6221684,N,12046.5821500,E,4,15,1.7,2.5938,M,8.309,M,01,0004*6D
$GPHPD,0,0.000,242.84,-0.53,-14.27,31.5937028,120.7763692,2.594,13629380.261,24923617.688,2.594,0.000,0.000,0.000,0.000,0.000,0.000,0.000,15,15,4*71
$GPGGA,041107.60,3135.6221233,N,12046.5820357,E,4,15,1.7,2.5848,M,8.309,M,00,0004*65
$GPHPD,0,0.000,242.82,0.37,-14.40,31.5937021,120.7763673,2.585,13629380.672,24923616.573,2.585,0.000,0.000,0.000,0.000,0.000,0.000,0.000,15,15,4*5F
$GPGGA,041107.80,3135.6220743,N,12046.5819276,E,4,15,1.7,2.5862,M,8.309,M,00,0004*68
$GPHPD,0,0.000,242.35,0.30,-14.44,31.5937012,120.7763655,2.586,13629381.151,24923615.555,2.586,0.000,0.000,0.000,0.000,0.000,0.000,0.000,15,15,4*54
$GPGGA,041108.00,3135.6220275,N,12046.5818266,E,4,15,1.7,2.5902,M,8.309,M,01,0004*69
$GPHPD,0,0.000,242.48,0.23,-14.46,31.5937005,120.7763638,2.590,13629381.613,24923614.610,2.590,0.000,0.000,0.000,0.000,0.000,0.000,0.000,15,15,4*51
$GPGGA,041108.20,3135.6219808,N,12046.5817238,E,4,15,1.7,2.5998,M,8.309,M,01,0004*66
$GPHPD,0,0.000,242.63,-0.18,-14.48,31.5936997,120.7763621,2.600,13629382.069,24923613.642,2.600,0.000,0.000,0.000,0.000,0.000,0.000,0.000,15,15,4*70
$GPGGA,041108.40,3135.6219350,N,12046.5816207,E,4,15,1.7,2.5897,M,8.309,M,01,0004*65
$GPHPD,0,0.000,242.45,-0.06,-14.50,31.5936989,120.7763603,2.590,13629382.513,24923612.666,2.590,0.000,0.000,0.000,0.000,0.000,0.000,0.000,15,15,4*72
$GPGGA,041108.60,3135.6218920,N,12046.5815160,E,4,14,1.7,2.5911,M,8.309,M,00,0004*65
$GPHPD,0,0.000,242.29,-0.44,-14.53,31.5936982,120.7763586,2.591,13629382.914,24923611.653,2.591,0.000,0.000,0.000,0.000,0.000,0.000,0.000,14,15,4*77
$GPGGA,041108.80,3135.6218473,N,12046.5814021,E,4,14,1.7,2.5661,M,8.309,M,00,0004*6D
$GPHPD,0,0.000,242.25,-0.09,-14.57,31.5936975,120.7763567,2.566,13629383.320,24923610.540,2.566,0.000,0.000,0.000,0.000,0.000,0.000,0.000,14,15,4*7D
$GPGGA,041109.00,3135.6217988,N,12046.5813004,E,4,15,1.7,2.5943,M,8.309,M,01,0004*6D
$GPHPD,0,0.000,242.06,0.27,-14.62,31.5936966,120.7763550,2.594,13629383.804,24923609.597,2.594,0.000,0.000,0.000,0.000,0.000,0.000,0.000,15,15,4*53
$GPGGA,041109.20,3135.6217522,N,12046.5811956,E,4,15,1.7,2.5823,M,8.309,M,01,0004*68
$GPHPD,0,0.000,241.69,0.35,-14.64,31.5936959,120.7763533,2.582,13629384.256,24923608.604,2.582,0.000,0.000,0.000,0.000,0.000,0.000,0.000,15,14,4*56
$GPGGA,041109.40,3135.6217021,N,12046.5810852,E,4,14,1.7,2.5863,M,8.309,M,01,0004*69
$GPHPD,0,0.000,241.98,0.04,-14.63,31.5936950,120.7763514,2.586,13629384.746,24923607.565,2.586,0.000,0.000,0.000,0.000,0.000,0.000,0.000,14,14,4*5F
$GPGGA,041109.60,3135.6216555,N,12046.5809726,E,4,15,1.7,2.5746,M,8.309,M,00,0004*60
$GPHPD,0,0.000,241.90,0.11,-14.65,31.5936943,120.7763495,2.575,13629385.182,24923606.479,2.575,0.000,0.000,0.000,0.000,0.000,0.000,0.000,15,14,4*5C
$GPGGA,041109.80,3135.6216038,N,12046.5808523,E,4,15,1.7,2.5589,M,8.309,M,00,0004*67
$GPHPD,0,0.000,241.72,0.60,-14.72,31.5936934,120.7763475,2.559,13629385.674,24923605.329,2.559,0.000,0.000,0.000,0.000,0.000,0.000,0.000,15,14,4*51
$GPGGA,041110.00,3135.6215529,N,12046.5807382,E,4,15,2.0,2.5549,M,8.309,M,01,0004*6A
$GPHPD,0,0.000,241.77,0.49,-14.79,31.5936925,120.7763456,2.555,13629386.168,24923604.250,2.555,0.000,0.000,0.000,0.000,0.000,0.000,0.000,15,14,4*52
$GPGGA,041110.20,3135.6214932,N,12046.5806131,E,4,15,1.7,2.5816,M,8.309,M,01,0004*67
$GPHPD,0,0.000,241.87,0.82,-14.80,31.5936916,120.7763436,2.582,13629386.765,24923603.089,2.582,0.000,0.000,0.000,0.000,0.000,0.000,0.000,15,14,4*50
$GPGGA,041110.40,3135.6214437,N,12046.5804878,E,4,15,2.0,2.5683,M,8.309,M,01,0004*69
$GPHPD,0,0.000,241.87,0.06,-14.80,31.5936907,120.7763415,2.568,13629387.217,24923601.866,2.568,0.000,0.000,0.000,0.000,0.000,0.000,0.000,15,14,4*57
$GPGGA,041110.60,3135.6213814,N,12046.5803582,E,4,15,1.7,2.5881,M,8.309,M,00,0004*67
$GPHPD,0,0.000,241.65,0.68,-14.79,31.5936897,120.7763393,2.588,13629387.841,24923600.667,2.588,0.000,0.000,0.000,0.000,0.000,0.000,0.000,15,14,4*53
$GPGGA,041110.80,3135.6213240,N,12046.5802314,E,4,15,1.7,2.5977,M,8.309,M,00,0004*62
$GPHPD,0,0.000,242.10,-0.22,-14.78,31.5936887,120.7763372,2.598,13629388.402,24923599.472,2.598,0.000,0.000,0.000,0.000,0.000,0.000,0.000,15,14,4*7F
$GPGGA,041111.00,3135.6212611,N,12046.5800992,E,4,15,1.7,2.6087,M,8.309,M,01,0004*68
$GPHPD,0,0.000,241.93,-0.02,-14.77,31.5936877,120.7763350,2.609,13629389.030,24923598.244,2.609,0.000,0.000,0.000,0.000,0.000,0.000,0.000,15,14,4*73
$GPGGA,041111.20,3135.6212045,N,12046.5799642,E,4,15,1.7,2.5917,M,8.309,M,01,0004*63
$GPHPD,0,0.000,242.19,-0.29,-14.77,31.5936867,120.7763327,2.592,13629389.563,24923596.946,2.592,0.000,0.000,0.000,0.000,0.000,0.000,0.000,15,14,4*7E
$GPGGA,041111.40,3135.6211451,N,12046.5798288,E,4,14,1.7,2.5986,M,8.308,M,01,0004*6C
$GPHPD,0,0.000,242.18,0.71,-14.70,31.5936858,120.7763305,2.599,13629390.135,24923595.659,2.599,0.000,0.000,0.000,0.000,0.000,0.000,0.000,14,14,4*58
$GPGGA,041111.60,3135.6210898,N,12046.5796992,E,4,15,1.7,2.5872,M,8.308,M,00,0004*62
$GPHPD,0,0.000,242.27,-0.02,-14.68,31.5936848,120.7763283,2.587,13629390.660,24923594.419,2.587,0.000,0.000,0.000,0.000,0.000,0.000,0.000,15,14,4*7B
$GPGGA,041111.80,3135.6210287,N,12046.5795727,E,4,15,1.7,2.6004,M,8.308,M,00,0004*61
$GPHPD,0,0.000,241.99,0.46,-14.71,31.5936838,120.7763262,2.600,13629391.274,24923593.249,2.600,0.000,0.000,0.000,0.000,0.000,0.000,0.000,15,14,4*54
$GPGGA,041112.00,3135.6209749,N,12046.5794360,E,4,15,1.7,2.5742,M,8.308,M,01,0004*64
$GPHPD,0,0.000,242.32,0.25,-14.79,31.5936829,120.7763239,2.574,13629391.764,24923591.914,2.574,0.000,0.000,0.000,0.000,0.000,0.000,0.000,15,14,4*50
$GPGGA,041112.20,3135.6209197,N,12046.5793056,E,4,15,1.7,2.5758,M,8.308,M,01,0004*69
$GPHPD,0,0.000,242.15,1.09,-14.82,31.5936820,120.7763218,2.576,13629392.286,24923590.663,2.576,0.000,0.000,0.000,0.000,0.000,0.000,0.000,15,14,4*50
$GPGGA,041112.40,3135.6208584,N,12046.5791747,E,4,14,1.7,2.5927,M,8.308,M,01,0004*6A
$GPHPD,0,0.000,242.37,0.97,-14.83,31.5936810,120.7763196,2.593,13629392.894,24923589.442,2.593,0.000,0.000,0.000,0.000,0.000,0.000,0.000,14,14,4*50
$GPGGA,041112.60,3135.6208000,N,12046.5790446,E,4,15,1.7,2.6039,M,8.308,M,00,0004*67
$GPHPD,0,0.000,242.50,0.65,-14.85,31.5936800,120.7763174,2.604,13629393.462,24923588.213,2.604,0.000,0.000,0.000,0.000,0.000,0.000,0.000,15,14,4*51
$GPGGA,041112.80,3135.6207405,N,12046.5789072,E,4,15,1.7,2.5998,M,8.308,M,00,0004*6D
$GPHPD,0,0.000,242.48,0.34,-14.82,31.5936790,120.7763151,2.600,13629394.031,24923586.903,2.600,0.000,0.000,0.000,0.000,0.000,0.000,0.000,15,14,4*5B
$GPGGA,041113.00,3135.6206802,N,12046.5787695,E,4,15,1.7,2.6032,M,8.308,M,01,0004*64
$GPHPD,0,0.000,242.52,0.64,-14.83,31.5936780,120.7763128,2.603,13629394.611,24923585.594,2.603,0.000,0.000,0.000,0.000,0.000,0.000,0.000,15,14,4*5E
$GPGGA,041113.20,3135.6206175,N,12046.5786287,E,4,15,1.7,2.6044,M,8.308,M,01,0004*68
$GPHPD,0,0.000,242.52,0.20,-14.82,31.5936770,120.7763105,2.604,13629395.219,24923584.261,2.604,0.000,0.000,0.000,0.000,0.000,0.000,0.000,15,14,4*5E
$GPGGA,041113.40,3135.6205576,N,12046.5784870,E,4,15,1.7,2.5902,M,8.308,M,01,0004*62
$GPHPD,0,0.000,242.49,-0.63,-14.82,31.5936760,120.7763081,2.590,13629395.786,24923582.901,2.590,0.000,0.000,0.000,0.000,0.000,0.000,0.000,15,14,4*7A
$GPGGA,041113.60,3135.6204986,N,12046.5783398,E,4,15,1.7,2.5891,M,8.308,M,00,0004*62
$GPHPD,0,0.000,242.52,-0.58,-14.81,31.5936750,120.7763057,2.589,13629396.328,24923581.470,2.589,0.000,0.000,0.000,0.000,0.000,0.000,0.000,15,14,4*78
$GPGGA,041113.80,3135.6204349,N,12046.5782000,E,4,15,1.7,2.6020,M,8.308,M,00,0004*67
$GPHPD,0,0.000,242.31,-0.77,-14.82,31.5936739,120.7763033,2.602,13629396.952,24923580.155,2.602,0.000,0.000,0.000,0.000,0.000,0.000,0.000,15,14,4*7A
$GPGGA,041114.00,3135.6203749,N,12046.5780517,E,4,15,1.7,2.6066,M,8.308,M,01,0004*69
$GPHPD,0,0.000,242.63,-0.47,-14.80,31.5936729,120.7763009,2.607,13629397.507,24923578.717,2.607,0.000,0.000,0.000,0.000,0.000,0.000,0.000,15,14,4*7E
$GPGGA,041114.20,3135.6203132,N,12046.5779038,E,4,15,1.7,2.5944,M,8.308,M,01,0004*65
$GPHPD,0,0.000,242.39,-0.55,-14.73,31.5936719,120.7762984,2.594,13629398.086,24923577.293,2.594,0.000,0.000,0.000,0.000,0.000,0.000,0.000,15,14,4*75
$GPGGA,041114.40,3135.6202502,N,12046.5777611,E,4,15,1.7,2.5903,M,8.308,M,01,0004*65
$GPHPD,0,0.000,242.11,-0.10,-14.65,31.5936708,120.7762960,2.590,13629398.694,24923575.939,2.590,0.000,0.000,0.000,0.000,0.000,0.000,0.000,15,14,4*7F
$GPGGA,041114.60,3135.6201846,N,12046.5776147,E,4,15,1.7,2.5924,M,8.308,M,00,0004*68
$GPHPD,0,0.000,242.21,0.46,-14.67,31.5936697,120.7762936,2.592,13629399.332,24923574.556,2.592,0.000,0.000,0.000,0.000,0.000,0.000,0.000,15,14,4*58
$GPGGA,041114.80,3135.6201193,N,12046.5774626,E,4,15,1.7,2.5920,M,8.308,M,00,0004*61
$GPHPD,0,0.000,242.58,0.40,-14.71,31.5936687,120.7762910,2.592,13629399.954,24923573.102,2.592,0.000,0.000,0.000,0.000,0.000,0.000,0.000,15,14,4*5A
$GPGGA,041115.00,3135.6200551,N,12046.5773138,E,4,15,1.7,2.6011,M,8.308,M,01,0004*65
$GPHPD,0,0.000,242.33,0.61,-14.73,31.5936676,120.7762886,2.601,13629400.567,24923571.682,2.601,0.000,0.000,0.000,0.000,0.000,0.000,0.000,15,14,4*50
$GPGGA,041115.20,3135.6199858,N,12046.5771641,E,4,15,1.7,2.6072,M,8.308,M,01,0004*6E
$GPHPD,0,0.000,242.11,0.67,-14.73,31.5936664,120.7762861,2.607,13629401.251,24923570.280,2.607,0.000,0.000,0.000,0.000,0.000,0.000,0.000,15,14,4*58
$GPGGA,041115.40,3135.6199232,N,12046.5770152,E,4,15,1.7,2.6150,M,8.308,M,01,0004*6B
$GPHPD,0,0.000,242.58,0.60,-14.75,31.5936654,120.7762836,2.615,13629401.841,24923568.849,2.615,0.000,0.000,0.000,0.000,0.000,0.000,0.000,15,14,4*58
$GPGGA,041115.60,3135.6198580,N,12046.5768634,E,4,15,1.7,2.6047,M,8.308,M,00,0004*6E
$GPHPD,0,0.000,242.77,-0.12,-14.76,31.5936643,120.7762811,2.605,13629402.463,24923567.399,2.605,0.000,0.000,0.000,0.000,0.000,0.000,0.000,15,14,4*7B
$GPGGA,041115.80,3135.6197951,N,12046.5767127,E,4,15,1.7,2.6024,M,8.308,M,00,0004*60
$GPHPD,0,0.000,242.75,0.54,-14.75,31.5936633,120.7762785,2.602,13629403.053,24923565.948,2.602,0.000,0.000,0.000,0.000,0.000,0.000,0.000,15,14,4*52
$GPGGA,041116.00,3135.6197277,N,12046.5765690,E,4,15,1.7,2.6262,M,8.308,M,01,0004*6C
$GPHPD,0,0.000,242.49,0.53,-14.72,31.5936621,120.7762762,2.626,13629403.722,24923564.608,2.626,0.000,0.000,0.000,0.000,0.000,0.000,0.000,15,14,4*5C
$GPGGA,041116.20,3135.6196613,N,12046.5764217,E,4,15,1.7,2.6212,M,8.308,M,01,0004*64
$GPHPD,0,0.000,243.04,0.26,-14.70,31.5936610,120.7762737,2.621,13629404.370,24923563.218,2.621,0.000,0.000,0.000,0.000,0.000,0.000,0.000,15,14,4*50
$GPGGA,041116.40,3135.6195933,N,12046.5762663,E,4,15,1.7,2.6276,M,8.308,M,01,0004*6F
$GPHPD,0,0.000,243.23,0.33,-14.70,31.5936599,120.7762711,2.628,13629405.024,24923561.740,2.628,0.000,0.000,0.000,0.000,0.000,0.000,0.000,15,14,4*5E
$GPGGA,041116.60,3135.6195341,N,12046.5761167,E,4,14,2.0,2.6312,M,8.308,M,00,0004*65
$GPHPD,0,0.000,243.18,-0.01,-14.69,31.5936589,120.7762686,2.631,13629405.564,24923560.281,2.631,0.000,0.000,0.000,0.000,0.000,0.000,0.000,14,14,4*75
$GPGGA,041116.80,3135.6194685,N,12046.5759629,E,4,15,2.0,2.6250,M,8.308,M,00,0004*67
$GPHPD,0,0.000,243.09,0.43,-14.67,31.5936578,120.7762660,2.625,13629406.187,24923558.809,2.625,0.000,0.000,0.000,0.000,0.000,0.000,0.000,15,14,4*5C
$GPGGA,041117.00,3135.6194023,N,12046.5758097,E,4,15,2.0,2.6322,M,8.308,M,01,0004*63
$GPHPD,0,0.000,243.08,0.60,-14.66,31.5936567,120.7762635,2.632,13629406.820,24923557.347,2.632,0.000,0.000,0.000,0.000,0.000,0.000,0.000,15,14,4*59
$GPGGA,041117.20,3135.6193408,N,12046.5756516,E,4,15,2.0,2.6086,M,8.308,M,01,0004*64
$GPHPD,0,0.000,243.20,0.26,-14.67,31.5936557,120.7762609,2.609,13629407.376,24923555.799,2.609,0.000,0.000,0.000,0.000,0.000,0.000,0.000,15,14,4*50
$GPGGA,041117.40,3135.6192732,N,12046.5754957,E,4,15,2.0,2.6150,M,8.308,M,01,0004*68
$GPHPD,0,0.000,242.97,0.31,-14.66,31.5936546,120.7762583,2.615,13629408.023,24923554.313,2.615,0.000,0.000,0.000,0.000,0.000,0.000,0.000,15,14,4*50
$GPGGA,041117.60,3135.6192103,N,12046.5753403,E,4,15,2.0,2.6054,M,8.308,M,01,0004*60
$GPHPD,0,0.000,243.10,-0.33,-14.68,31.5936535,120.7762557,2.605,13629408.604,24923552.805,2.605,0.000,0.000,0.000,0.000,0.000,0.000,0.000,15,14,4*7B
$GPGGA,041117.80,3135.6191439,N,12046.5751837,E,4,15,2.0,2.6115,M,8.308,M,01,0004*6C
$GPHPD,0,0.000,242.99,-1.16,-14.69,31.5936524,120.7762531,2.612,13629409.233,24923551.304,2.612,0.000,0.000,0.000,0.000,0.000,0.000,0.000,15,14,4*74
$GPGGA,041118.00,3135.6190777,N,12046.5750284,E,4,15,2.0,2.6189,M,8.308,M,02,0004*66
$GPHPD,0,0.000,242.74,-1.36,-14.68,31.5936513,120.7762505,2.619,13629409.861,24923549.817,2.619,0.000,0.000,0.000,0.000,0.000,0.000,0.000,15,14,4*7A
$GPGGA,041118.20,3135.6190109,N,12046.5748730,E,4,15,2.0,2.6085,M,8.308,M,02,0004*65
$GPHPD,0,0.000,242.66,-0.99,-14.66,31.5936502,120.7762479,2.609,13629410.498,24923548.332,2.609,0.000,0.000,0.000,0.000,0.000,0.000,0.000,15,14,4*76
$GPGGA,041118.40,3135.6189405,N,12046.5747131,E,4,15,1.7,2.6053,M,8.308,M,02,0004*65
$GPHPD,0,0.000,242.37,-0.36,-14.67,31.5936490,120.7762452,2.605,13629411.177,24923546.814,2.605,0.000,0.000,0.000,0.000,0.000,0.000,0.000,15,14,4*71
$GPGGA,041118.60,3135.6188705,N,12046.5745492,E,4,15,1.7,2.5946,M,8.308,M,00,0004*67
$GPHPD,0,0.000,241.90,0.22,-14.71,31.5936478,120.7762425,2.595,13629411.842,24923545.245,2.595,0.000,0.000,0.000,0.000,0.000,0.000,0.000,15,14,4*54
$GPGGA,041118.80,3135.6187988,N,12046.5743901,E,4,15,1.7,2.5919,M,8.308,M,00,0004*66
$GPHPD,0,0.000,241.81,0.43,-14.71,31.5936466,120.7762398,2.592,13629412.541,24923543.744,2.592,0.000,0.000,0.000,0.000,0.000,0.000,0.000,15,14,4*52
$GPGGA,041119.00,3135.6187290,N,12046.5742241,E,4,15,1.7,2.6007,M,8.308,M,01,0004*67
$GPHPD,0,0.000,242.22,0.35,-14.68,31.5936455,120.7762371,2.601,13629413.199,24923542.149,2.601,0.000,0.000,0.000,0.000,0.000,0.000,0.000,15,14,4*5C
$GPGGA,041119.20,3135.6186565,N,12046.5740619,E,4,15,1.7,2.5932,M,8.308,M,01,0004*6E
$GPHPD,0,0.000,242.36,-0.17,-14.66,31.5936443,120.7762344,2.593,13629413.903,24923540.616,2.593,0.000,0.000,0.000,0.000,0.000,0.000,0.000,15,14,4*7F
$GPGGA,041119.40,3135.6185828,N,12046.5739009,E,4,15,1.7,2.6104,M,8.308,M,01,0004*68
$GPHPD,0,0.000,242.37,0.89,-14.64,31.5936430,120.7762317,2.610,13629414.627,24923539.104,2.610,0.000,0.000,0.000,0.000,0.000,0.000,0.000,15,14,4*50
$GPGGA,041119.60,3135.6185143,N,12046.5737355,E,4,16,1.7,2.6128,M,8.308,M,00,0004*66
$GPHPD,0,0.000,242.37,0.37,-14.61,31.5936419,120.7762289,2.613,13629415.268,24923537.508,2.613,0.000,0.000,0.000,0.000,0.000,0.000,0.000,16,14,4*56
$GPGGA,041119.80,3135.6184397,N,12046.5735748,E,4,16,1.7,2.6302,M,8.308,M,00,0004*62
$GPHPD,0,0.000,242.53,0.22,-14.59,31.5936407,120.7762262,2.630,13629416.005,24923536.005,2.630,0.000,0.000,0.000,0.000,0.000,0.000,0.000,16,14,4*52
$GPGGA,041120.00,3135.6183746,N,12046.5734058,E,4,15,1.7,2.6093,M,8.308,M,01,0004*61
$GPHPD,0,0.000,242.72,0.03,-14.62,31.5936396,120.7762234,2.609,13629416.590,24923534.346,2.609,0.000,0.000,0.000,0.000,0.000,0.000,0.000,15,14,4*5A
$GPGGA,041120.20,3135.6183012,N,12046.5732366,E,4,15,1.7,2.6026,M,8.308,M,01,0004*63
$GPHPD,0,0.000,242.47,-0.42,-14.64,31.5936384,120.7762206,2.603,13629417.293,24923532.734,2.603,0.000,0.000,0.000,0.000,0.000,0.000,0.000,15,14,4*72
$GPGGA,041120.40,3135.6182289,N,12046.5730719,E,4,15,1.7,2.6199,M,8.308,M,01,0004*6F
$GPHPD,0,0.000,242.56,0.21,-14.67,31.5936371,120.7762179,2.620,13629417.989,24923531.169,2.620,0.000,0.000,0.000,0.000,0.000,0.000,0.000,15,14,4*55
$GPGGA,041120.60,3135.6181550,N,12046.5729061,E,4,15,1.7,2.6194,M,8.308,M,00,0004*61
$GPHPD,0,0.000,242.50,0.03,-14.67,31.5936359,120.7762151,2.619,13629418.706,24923529.600,2.619,0.000,0.000,0.000,0.000,0.000,0.000,0.000,15,14,4*54
$GPGGA,041120.80,3135.6180823,N,12046.5727418,E,4,15,1.7,2.6252,M,8.308,M,00,0004*6A
$GPHPD,0,0.000,242.76,0.01,-14.67,31.5936347,120.7762124,2.625,13629419.409,24923528.042,2.625,0.000,0.000,0.000,0.000,0.000,0.000,0.000,15,14,4*53
$GPGGA,041121.00,3135.6180161,N,12046.5725705,E,4,14,2.0,2.6015,M,8.308,M,01,0004*64
$GPHPD,0,0.000,243.48,-1.01,-14.68,31.5936336,120.7762095,2.602,13629420.005,24923526.362,2.602,0.000,0.000,0.000,0.000,0.000,0.000,0.000,14,13,4*7A
$GPGGA,041121.20,3135.6179418,N,12046.5724018,E,4,14,2.0,2.6034,M,8.308,M,01,0004*62
$GPHPD,0,0.000,242.68,0.65,-14.68,31.5936324,120.7762067,2.603,13629420.722,24923524.761,2.603,0.000,0.000,0.000,0.000,0.000,0.000,0.000,14,13,4*5E
$GPGGA,041121.40,3135.6178711,N,12046.5722378,E,4,14,2.0,2.5889,M,8.308,M,01,0004*61
$GPHPD,0,0.000,242.86,0.24,-14.69,31.5936312,120.7762040,2.589,13629421.397,24923523.195,2.589,0.000,0.000,0.000,0.000,0.000,0.000,0.000,14,13,4*5B
$GPGGA,041121.60,3135.6177957,N,12046.5720751,E,4,14,2.0,2.5906,M,8.308,M,00,0004*6A
$GPHPD,0,0.000,242.80,-0.04,-14.71,31.5936299,120.7762013,2.591,13629422.141,24923521.672,2.591,0.000,0.000,0.000,0.000,0.000,0.000,0.000,14,13,4*79
$GPGGA,041121.80,3135.6177274,N,12046.5719107,E,4,14,2.0,2.5953,M,8.308,M,00,0004*61
$GPHPD,0,0.000,242.52,-0.72,-14.68,31.5936288,120.7761985,2.595,13629422.781,24923520.088,2.595,0.000,0.000,0.000,0.000,0.000,0.000,0.000,14,13,4*72
$GPGGA,041122.00,3135.6176530,N,12046.5717430,E,4,14,2.0,2.6043,M,8.308,M,01,0004*69
$GPHPD,0,0.000,242.11,-0.05,-14.62,31.5936276,120.7761957,2.604,13629423.501,24923518.499,2.604,0.000,0.000,0.000,0.000,0.000,0.000,0.000,14,13,4*75
$GPGGA,041122.20,3135.6175848,N,12046.5715745,E,4,14,2.0,2.6006,M,8.308,M,01,0004*68
$GPHPD,0,0.000,242.25,-0.70,-14.63,31.5936264,120.7761929,2.601,13629424.131,24923516.864,2.601,0.000,0.000,0.000,0.000,0.000,0.000,0.000,14,13,4*7B
$GPGGA,041122.40,3135.6175106,N,12046.5714097,E,4,14,2.0,2.5926,M,8.308,M,01,0004*6C
$GPHPD,0,0.000,241.71,0.05,-14.61,31.5936252,120.7761902,2.593,13629424.854,24923515.309,2.593,0.000,0.000,0.000,0.000,0.000,0.000,0.000,14,13,4*51
$GPGGA,041122.60,3135.6174402,N,12046.5712434,E,4,14,2.0,2.5938,M,8.308,M,00,0004*6B
$GPHPD,0,0.000,241.74,0.67,-14.60,31.5936240,120.7761874,2.594,13629425.520,24923513.714,2.594,0.000,0.000,0.000,0.000,0.000,0.000,0.000,14,13,4*53
$GPGGA,041122.80,3135.6173689,N,12046.5710774,E,4,14,2.0,2.5924,M,8.308,M,00,0004*6B
$GPHPD,0,0.000,242.21,0.46,-14.60,31.5936228,120.7761846,2.592,13629426.200,24923512.128,2.592,0.000,0.000,0.000,0.000,0.000,0.000,0.000,14,13,4*52
$GPGGA,041123.00,3135.6172960,N,12046.5709091,E,4,14,2.0,2.5886,M,8.308,M,01,0004*67
$GPHPD,0,0.000,242.12,0.72,-14.57,31.5936216,120.7761818,2.589,13629426.897,24923510.523,2.589,0.000,0.000,0.000,0.000,0.000,0.000,0.000,14,13,4*5E
$GPGGA,041123.20,3135.6172228,N,12046.5707525,E,4,15,2.0,2.6191,M,8.308,M,01,0004*6B
$GPHPD,0,0.000,242.32,0.37,-14.56,31.5936204,120.7761792,2.619,13629427.623,24923509.061,2.619,0.000,0.000,0.000,0.000,0.000,0.000,0.000,15,14,4*5F
$GPGGA,041123.40,3135.6171504,N,12046.5705859,E,4,15,2.0,2.6228,M,8.308,M,01,0004*62
$GPHPD,0,0.000,242.54,0.20,-14.51,31.5936192,120.7761764,2.623,13629428.316,24923507.474,2.623,0.000,0.000,0.000,0.000,0.000,0.000,0.000,15,14,4*59
$GPGGA,041123.60,3135.6170807,N,12046.5704202,E,4,15,2.0,2.6228,M,8.308,M,01,0004*6A
$GPHPD,0,0.000,242.74,-0.21,-14.49,31.5936180,120.7761737,2.623,13629428.974,24923505.882,2.623,0.000,0.000,0.000,0.000,0.000,0.000,0.000,15,14,4*72
$GPGGA,041123.80,3135.6170144,N,12046.5702555,E,4,15,2.0,2.6089,M,8.308,M,00,0004*61
$GPHPD,0,0.000,243.10,-0.87,-14.50,31.5936169,120.7761709,2.609,13629429.585,24923504.282,2.609,0.000,0.000,0.000,0.000,0.000,0.000,0.000,15,14,4*77
$GPGGA,041124.00,3135.6169382,N,12046.5700984,E,4,15,1.7,2.6357,M,8.308,M,01,0004*69
$GPHPD,0,0.000,242.78,-0.56,-14.52,31.5936156,120.7761683,2.636,13629430.352,24923502.831,2.636,0.000,0.000,0.000,0.000,0.000,0.000,0.000,15,14,4*79
$GPGGA,041124.20,3135.6168714,N,12046.5699348,E,4,15,1.7,2.6252,M,8.308,M,01,0004*6E
$GPHPD,0,0.000,243.27,-0.74,-14.51,31.5936145,120.7761656,2.625,13629430.972,24923501.248,2.625,0.000,0.000,0.000,0.000,0.000,0.000,0.000,15,14,4*74
$GPGGA,041124.40,3135.6167981,N,12046.5697748,E,4,14,1.7,2.6200,M,8.308,M,01,0004*69
$GPHPD,0,0.000,243.09,-0.22,-14.52,31.5936133,120.7761629,2.620,13629431.692,24923499.745,2.620,0.000,0.000,0.000,0.000,0.000,0.000,0.000,14,14,4*78
$GPGGA,041124.60,3135.6167324,N,12046.5696109,E,4,15,1.7,2.6038,M,8.308,M,00,0004*65
$GPHPD,0,0.000,243.42,-0.51,-14.53,31.5936122,120.7761602,2.604,13629432.296,24923498.152,2.604,0.000,0.000,0.000,0.000,0.000,0.000,0.000,15,14,4*78
$GPGGA,041124.80,3135.6166638,N,12046.5694490,E,4,14,2.0,2.5999,M,8.308,M,00,0004*61
$GPHPD,0,0.000,243.33,-0.08,-14.55,31.5936111,120.7761575,2.600,13629432.945,24923496.599,2.600,0.000,0.000,0.000,0.000,0.000,0.000,0.000,14,14,4*7E
$GPGGA,041125.00,3135.6165990,N,12046.5692823,E,4,14,2.0,2.5675,M,8.308,M,01,0004*68
$GPHPD,0,0.000,243.36,-0.25,-14.55,31.5936100,120.7761547,2.568,13629433.531,24923494.966,2.568,0.000,0.000,0.000,0.000,0.000,0.000,0.000,14,14,4*75
$GPGGA,041125.20,3135.6165312,N,12046.5691161,E,4,14,2.0,2.5537,M,8.308,M,01,0004*63
$GPHPD,0,0.000,243.13,0.80,-14.56,31.5936089,120.7761519,2.554,13629434.160,24923493.357,2.554,0.000,0.000,0.000,0.000,0.000,0.000,0.000,14,14,4*50
$GPGGA,041125.40,3135.6164649,N,12046.5689560,E,4,14,2.0,2.5715,M,8.308,M,01,0004*61
$GPHPD,0,0.000,243.13,1.06,-14.57,31.5936077,120.7761493,2.572,13629434.780,24923491.813,2.572,0.000,0.000,0.000,0.000,0.000,0.000,0.000,14,14,4*5D
$GPGGA,041125.60,3135.6163948,N,12046.5687896,E,4,14,2.0,2.5810,M,8.308,M,00,0004*6B
$GPHPD,0,0.000,242.65,0.95,-14.58,31.5936066,120.7761465,2.581,13629435.442,24923490.215,2.581,0.000,0.000,0.000,0.000,0.000,0.000,0.000,14,14,4*51
$GPGGA,041125.80,3135.6163244,N,12046.5686323,E,4,14,2.0,2.5915,M,8.308,M,00,0004*62
$GPHPD,0,0.000,242.80,0.95,-14.58,31.5936054,120.7761439,2.592,13629436.126,24923488.728,2.592,0.000,0.000,0.000,0.000,0.000,0.000,0.000,14,14,4*54
$GPGGA,041126.00,3135.6162521,N,12046.5684627,E,4,14,1.7,2.5961,M,8.308,M,01,0004*69
$GPHPD,0,0.000,242.32,0.95,-14.58,31.5936042,120.7761410,2.596,13629436.812,24923487.104,2.596,0.000,0.000,0.000,0.000,0.000,0.000,0.000,14,14,4*58
$GPGGA,041126.20,3135.6161839,N,12046.5683006,E,4,14,1.7,2.5954,M,8.308,M,01,0004*68
$GPHPD,0,0.000,242.15,0.78,-14.57,31.5936031,120.7761383,2.595,13629437.456,24923485.547,2.595,0.000,0.000,0.000,0.000,0.000,0.000,0.000,14,14,4*54
$GPGGA,041126.40,3135.6161086,N,12046.5681320,E,4,14,1.7,2.5995,M,8.308,M,01,0004*6A
$GPHPD,0,0.000,241.58,0.63,-14.53,31.5936018,120.7761355,2.600,13629438.187,24923483.952,2.600,0.000,0.000,0.000,0.000,0.000,0.000,0.000,14,14,4*58
$GPGGA,041126.60,3135.6160343,N,12046.5679699,E,4,14,1.7,2.6162,M,8.308,M,00,0004*61
$GPHPD,0,0.000,241.53,0.29,-14.52,31.5936006,120.7761328,2.616,13629438.917,24923482.430,2.616,0.000,0.000,0.000,0.000,0.000,0.000,0.000,14,13,4*57
$GPGGA,041126.80,3135.6159609,N,12046.5678098,E,4,14,1.7,2.6307,M,8.308,M,00,0004*69
$GPHPD,0,0.000,242.12,-0.34,-14.50,31.5935993,120.7761302,2.631,13629439.638,24923480.927,2.631,0.000,0.000,0.000,0.000,0.000,0.000,0.000,14,13,4*76
$GPGGA,041127.00,3135.6158872,N,12046.5676494,E,4,14,1.7,2.6381,M,8.308,M,01,0004*6A
$GPHPD,0,0.000,241.96,-0.60,-14.48,31.5935981,120.7761275,2.638,13629440.362,24923479.422,2.638,0.000,0.000,0.000,0.000,0.000,0.000,0.000,14,13,4*79
$GPGGA,041127.20,3135.6158111,N,12046.5674945,E,4,14,1.7,2.6613,M,8.308,M,01,0004*69
$GPHPD,0,0.000,242.12,-1.05,-14.47,31.5935969,120.7761249,2.661,13629441.132,24923477.998,2.661,0.000,0.000,0.000,0.000,0.000,0.000,0.000,14,13,4*76
$GPGGA,041127.40,3135.6157279,N,12046.5673379,E,4,14,1.7,2.7002,M,8.308,M,01,0004*68
$GPHPD,0,0.000,242.28,-0.57,-14.46,31.5935955,120.7761223,2.700,13629442.000,24923476.594,2.700,0.000,0.000,0.000,0.000,0.000,0.000,0.000,14,13,4*79
$GPGGA,041127.60,3135.6156770,N,12046.5671624,E,4,14,2.0,2.6044,M,8.308,M,00,0004*6E
$GPHPD,0,0.000,242.71,-1.11,-14.45,31.5935946,120.7761194,2.604,13629442.370,24923474.774,2.604,0.000,0.000,0.000,0.000,0.000,0.000,0.000,14,13,4*72
$GPGGA,041127.80,3135.6156061,N,12046.5670014,E,4,13,2.0,2.5847,M,8.308,M,00,0004*6C
$GPHPD,0,0.000,242.12,-0.28,-14.43,31.5935934,120.7761167,2.585,13629443.054,24923473.246,2.585,0.000,0.000,0.000,0.000,0.000,0.000,0.000,13,13,4*73
$GPGGA,041128.00,3135.6155388,N,12046.5668438,E,4,13,2.0,2.5818,M,8.308,M,01,0004*64
$GPHPD,0,0.000,241.72,0.23,-14.41,31.5935923,120.7761141,2.582,13629443.694,24923471.738,2.582,0.000,0.000,0.000,0.000,0.000,0.000,0.000,13,13,4*54
$GPGGA,041128.20,3135.6154696,N,12046.5666783,E,4,13,2.0,2.5719,M,8.308,M,01,0004*6E
$GPHPD,0,0.000,241.93,0.19,-14.41,31.5935912,120.7761113,2.572,13629444.344,24923470.145,2.572,0.000,0.000,0.000,0.000,0.000,0.000,0.000,13,13,4*55
$GPGGA,041128.40,3135.6153934,N,12046.5665151,E,4,13,2.0,2.5827,M,8.308,M,01,0004*60
$GPHPD,0,0.000,241.99,0.25,-14.42,31.5935899,120.7761086,2.583,13629445.099,24923468.621,2.583,0.000,0.000,0.000,0.000,0.000,0.000,0.000,13,13,4*52
$GPGGA,041128.60,3135.6153271,N,12046.5663607,E,4,13,2.0,2.5916,M,8.308,M,00,0004*68
$GPHPD,0,0.000,242.31,-0.17,-14.42,31.5935888,120.7761060,2.592,13629445.730,24923467.145,2.592,0.000,0.000,0.000,0.000,0.000,0.000,0.000,13,13,4*79
$GPGGA,041128.80,3135.6152551,N,12046.5662025,E,4,14,2.0,2.5868,M,8.308,M,00,0004*6A
$GPHPD,0,0.000,242.21,0.28,-14.40,31.5935876,120.7761034,2.587,13629446.436,24923465.657,2.587,0.000,0.000,0.000,0.000,0.000,0.000,0.000,14,13,4*5C
$GPGGA,041129.00,3135.6151874,N,12046.5660469,E,4,14,2.0,2.5778,M,8.308,M,01,0004*6B
$GPHPD,0,0.000,241.95,0.95,-14.39,31.5935865,120.7761008,2.578,13629447.085,24923464.175,2.578,0.000,0.000,0.000,0.000,0.000,0.000,0.000,14,13,4*5E
$GPGGA,041129.20,3135.6151181,N,12046.5658883,E,4,14,2.0,2.5732,M,8.308,M,01,0004*67
$GPHPD,0,0.000,242.08,1.16,-14.41,31.5935853,120.7760981,2.573,13629447.751,24923462.666,2.573,0.000,0.000,0.000,0.000,0.000,0.000,0.000,14,13,4*5D
$GPGGA,041129.40,3135.6150476,N,12046.5657285,E,4,14,2.0,2.5762,M,8.308,M,01,0004*6B
$GPHPD,0,0.000,242.15,1.17,-14.43,31.5935841,120.7760955,2.576,13629448.431,24923461.150,2.576,0.000,0.000,0.000,0.000,0.000,0.000,0.000,14,13,4*53
$GPGGA,041129.60,3135.6149797,N,12046.5655710,E,4,14,2.0,2.5803,M,8.308,M,00,0004*6F
$GPHPD,0,0.000,242.30,1.17,-14.47,31.5935830,120.7760929,2.580,13629449.079,24923459.646,2.580,0.000,0.000,0.000,0.000,0.000,0.000,0.000,14,13,4*5F
$GPGGA,041129.80,3135.6149090,N,12046.5654146,E,4,14,2.0,2.6018,M,8.308,M,00,0004*64
$GPHPD,0,0.000,242.05,0.46,-14.49,31.5935818,120.7760902,2.602,13629449.769,24923458.172,2.602,0.000,0.000,0.000,0.000,0.000,0.000,0.000,14,13,4*56
$GPGGA,041130.00,3135.6148390,N,12046.5652559,E,4,14,2.0,2.5945,M,8.308,M,01,0004*69
$GPHPD,0,0.000,242.06,-0.23,-14.50,31.5935807,120.7760876,2.595,13629450.445,24923456.666,2.595,0.000,0.000,0.000,0.000,0.000,0.000,0.000,14,13,4*76
$GPGGA,041130.20,3135.6147700,N,12046.5650939,E,4,14,2.0,2.6002,M,8.308,M,01,0004*68
$GPHPD,0,0.000,242.40,-0.33,-14.52,31.5935795,120.7760849,2.600,13629451.100,24923455.115,2.600,0.000,0.000,0.000,0.000,0.000,0.000,0.000,14,13,4*7A
$GPGGA,041130.40,3135.6146987,N,12046.5649298,E,4,14,2.0,2.5990,M,8.308,M,01,0004*67
$GPHPD,0,0.000,242.11,-0.75,-14.51,31.5935783,120.7760822,2.599,13629451.783,24923453.551,2.599,0.000,0.000,0.000,0.000,0.000,0.000,0.000,14,13,4*7A
$GPGGA,041130.60,3135.6146297,N,12046.5647675,E,4,14,2.0,2.5828,M,8.308,M,00,0004*65
$GPHPD,0,0.000,242.06,-0.70,-14.50,31.5935772,120.7760795,2.583,13629452.437,24923451.996,2.583,0.000,0.000,0.000,0.000,0.000,0.000,0.000,14,13,4*7F
$GPGGA,041130.80,3135.6145581,N,12046.5646075,E,4,13,2.0,2.5940,M,8.308,M,00,0004*67
$GPHPD,0,0.000,242.24,-0.37,-14.53,31.5935760,120.7760768,2.594,13629453.133,24923450.484,2.594,0.000,0.000,0.000,0.000,0.000,0.000,0.000,13,13,4*76
$GPGGA,041131.00,3135.6144851,N,12046.5644420,E,4,13,2.0,2.5960,M,8.308,M,01,0004*6A
$GPHPD,0,0.000,242.25,-0.20,-14.55,31.5935748,120.7760740,2.596,13629453.838,24923448.913,2.596,0.000,0.000,0.000,0.000,0.000,0.000,0.000,13,13,4*7F
$GPGGA,041131.20,3135.6144148,N,12046.5642749,E,4,13,2.0,2.5759,M,8.308,M,01,0004*67
$GPHPD,0,0.000,242.13,-0.36,-14.55,31.5935736,120.7760712,2.576,13629454.501,24923447.308,2.576,0.000,0.000,0.000,0.000,0.000,0.000,0.000,13,13,4*7C
$GPGGA,041131.40,3135.6143393,N,12046.5641071,E,4,13,2.0,2.5839,M,8.308,M,01,0004*64
$GPHPD,0,0.000,242.22,0.01,-14.57,31.5935723,120.7760685,2.584,13629455.236,24923445.724,2.584,0.000,0.000,0.000,0.000,0.000,0.000,0.000,13,13,4*54
$GPGGA,041131.60,3135.6142671,N,12046.5639427,E,4,13,2.0,2.5828,M,8.308,M,00,0004*67
$GPHPD,0,0.000,242.14,0.33,-14.58,31.5935711,120.7760657,2.583,13629455.932,24923444.162,2.583,0.000,0.000,0.000,0.000,0.000,0.000,0.000,13,13,4*5B
$GPGGA,041131.80,3135.6141972,N,12046.5637761,E,4,13,2.0,2.5757,M,8.308,M,00,0004*6E
$GPHPD,0,0.000,242.40,0.21,-14.58,31.5935700,120.7760629,2.576,13629456.590,24923442.561,2.576,0.000,0.000,0.000,0.000,0.000,0.000,0.000,13,13,4*56
$GPGGA,041132.00,3135.6141212,N,12046.5636020,E,4,14,2.0,2.5832,M,8.308,M,01,0004*61
$GPHPD,0,0.000,242.02,0.26,-14.62,31.5935687,120.7760600,2.583,13629457.320,24923440.904,2.583,0.000,0.000,0.000,0.000,0.000,0.000,0.000,14,14,4*5A
$GPGGA,041132.20,3135.6140439,N,12046.5634316,E,4,14,2.0,2.5882,M,8.308,M,01,0004*62
$GPHPD,0,0.000,241.99,0.20,-14.59,31.5935674,120.7760572,2.588,13629458.076,24923439.300,2.588,0.000,0.000,0.000,0.000,0.000,0.000,0.000,14,14,4*50
$GPGGA,041132.40,3135.6139696,N,12046.5632590,E,4,14,2.0,2.5798,M,8.308,M,01,0004*67
$GPHPD,0,0.000,241.98,0.38,-14.62,31.5935662,120.7760543,2.580,13629458.784,24923437.651,2.580,0.000,0.000,0.000,0.000,0.000,0.000,0.000,14,14,4*50
$GPGGA,041132.60,3135.6138959,N,12046.5630842,E,4,14,2.0,2.5765,M,8.307,M,00,0004*64
$GPHPD,0,0.000,241.80,0.86,-14.64,31.5935649,120.7760514,2.577,13629459.480,24923435.973,2.577,0.000,0.000,0.000,0.000,0.000,0.000,0.000,14,14,4*5A
$GPGGA,041132.80,3135.6138139,N,12046.5629151,E,4,14,2.0,2.5813,M,8.307,M,00,0004*69
$GPHPD,0,0.000,241.56,0.28,-14.67,31.5935636,120.7760486,2.581,13629460.305,24923434.411,2.581,0.000,0.000,0.000,0.000,0.000,0.000,0.000,14,14,4*5C
$GPGGA,041133.00,3135.6137365,N,12046.5627430,E,4,14,1.7,2.5855,M,8.307,M,01,0004*6F
$GPHPD,0,0.000,242.13,-0.32,-14.65,31.5935623,120.7760457,2.586,13629461.059,24923432.787,2.586,0.000,0.000,0.000,0.000,0.000,0.000,0.000,14,14,4*73
$GPGGA,041133.20,3135.6136577,N,12046.5625655,E,4,14,1.7,2.5973,M,8.307,M,01,0004*6F
$GPHPD,0,0.000,242.43,0.28,-14.65,31.5935610,120.7760428,2.597,13629461.822,24923431.105,2.597,0.000,0.000,0.000,0.000,0.000,0.000,0.000,14,14,4*53
$GPGGA,041133.40,3135.6135766,N,12046.5623863,E,4,14,1.7,2.6146,M,8.307,M,01,0004*68
$GPHPD,0,0.000,242.47,0.18,-14.63,31.5935596,120.7760398,2.615,13629462.614,24923429.417,2.615,0.000,0.000,0.000,0.000,0.000,0.000,0.000,14,14,4*54
$GPGGA,041133.60,3135.6135010,N,12046.5622127,E,4,14,1.7,2.6160,M,8.307,M,00,0004*61
$GPHPD,0,0.000,242.69,0.05,-14.62,31.5935584,120.7760369,2.616,13629463.340,24923427.764,2.616,0.000,0.000,0.000,0.000,0.000,0.000,0.000,14,14,4*54
$GPGGA,041133.80,3135.6134283,N,12046.5620280,E,4,14,2.0,2.5844,M,8.307,M,00,0004*62
$GPHPD,0,0.000,242.37,1.10,-14.60,31.5935571,120.7760338,2.584,13629464.001,24923425.960,2.584,0.000,0.000,0.000,0.000,0.000,0.000,0.000,14,14,4*5F
$GPGGA,041134.00,3135.6133519,N,12046.5618475,E,4,13,2.0,2.5966,M,8.307,M,01,0004*6E
$GPHPD,0,0.000,242.32,1.40,-14.60,31.5935559,120.7760308,2.597,13629464.724,24923424.229,2.597,0.000,0.000,0.000,0.000,0.000,0.000,0.000,13,14,4*56
$GPGGA,041134.20,3135.6132737,N,12046.5616648,E,4,14,2.0,2.5875,M,8.307,M,01,0004*65
$GPHPD,0,0.000,241.86,1.52,-14.59,31.5935546,120.7760277,2.588,13629465.468,24923422.481,2.588,0.000,0.000,0.000,0.000,0.000,0.000,0.000,14,14,4*5B
$GPGGA,041134.40,3135.6131971,N,12046.5614866,E,4,14,2.0,2.5929,M,8.307,M,01,0004*64
$GPHPD,0,0.000,241.66,1.46,-14.54,31.5935533,120.7760248,2.593,13629466.198,24923420.778,2.593,0.000,0.000,0.000,0.000,0.000,0.000,0.000,14,14,4*5D
$GPGGA,041134.60,3135.6131123,N,12046.5613076,E,4,14,2.0,2.6097,M,8.307,M,00,0004*69
$GPHPD,0,0.000,241.39,1.52,-14.53,31.5935519,120.7760218,2.610,13629467.043,24923419.114,2.610,0.000,0.000,0.000,0.000,0.000,0.000,0.000,14,14,4*58
$GPGGA,041134.80,3135.6130341,N,12046.5611329,E,4,14,2.0,2.6269,M,8.307,M,00,0004*68
$GPHPD,0,0.000,241.70,0.81,-14.58,31.5935506,120.7760189,2.627,13629467.803,24923417.463,2.627,0.000,0.000,0.000,0.000,0.000,0.000,0.000,14,14,4*53
$GPGGA,041135.00,3135.6129543,N,12046.5609641,E,4,14,2.0,2.6399,M,8.307,M,01,0004*60
$GPHPD,0,0.000,242.09,-0.67,-14.59,31.5935492,120.7760161,2.640,13629468.598,24923415.892,2.640,0.000,0.000,0.000,0.000,0.000,0.000,0.000,14,13,4*77
$GPGGA,041135.20,3135.6128743,N,12046.5607851,E,4,13,2.0,2.6523,M,8.307,M,01,0004*60
$GPHPD,0,0.000,242.70,-0.79,-14.62,31.5935479,120.7760131,2.652,13629469.375,24923414.200,2.652,0.000,0.000,0.000,0.000,0.000,0.000,0.000,13,13,4*7D
$GPGGA,041135.40,3135.6127996,N,12046.5606066,E,4,13,2.0,2.6406,M,8.307,M,01,0004*64
$GPHPD,0,0.000,243.04,-1.11,-14.64,31.5935467,120.7760101,2.641,13629470.077,24923412.482,2.641,0.000,0.000,0.000,0.000,0.000,0.000,0.000,13,13,4*79
$GPGGA,041135.60,3135.6127229,N,12046.5604259,E,4,13,2.0,2.6425,M,8.307,M,00,0004*65
$GPHPD,0,0.000,242.88,-0.59,-14.63,31.5935454,120.7760071,2.643,13629470.804,24923410.750,2.643,0.000,0.000,0.000,0.000,0.000,0.000,0.000,13,13,4*72
$GPGGA,041135.80,3135.6126460,N,12046.5602447,E,4,13,2.0,2.6321,M,8.307,M,00,0004*6D
$GPHPD,0,0.000,243.15,-0.85,-14.64,31.5935441,120.7760041,2.632,13629471.532,24923409.013,2.632,0.000,0.000,0.000,0.000,0.000,0.000,0.000,13,13,4*77
$GPGGA,041136.00,3135.6125686,N,12046.5600588,E,4,13,2.0,2.6147,M,8.307,M,01,0004*6C
$GPHPD,0,0.000,242.94,0.15,-14.62,31.5935428,120.7760010,2.615,13629472.258,24923407.222,2.615,0.000,0.000,0.000,0.000,0.000,0.000,0.000,13,13,4*50
$GPGGA,041136.20,3135.6124931,N,12046.5598736,E,4,13,2.0,2.6054,M,8.307,M,01,0004*6A
$GPHPD,0,0.000,242.54,0.24,-14.61,31.5935416,120.7759979,2.605,13629472.959,24923405.429,2.605,0.000,0.000,0.000,0.000,0.000,0.000,0.000,13,13,4*59
$GPGGA,041136.40,3135.6124158,N,12046.5596941,E,4,13,2.0,2.6150,M,8.307,M,01,0004*6E
$GPHPD,0,0.000,242.55,0.03,-14.61,31.5935403,120.7759949,2.615,13629473.696,24923403.715,2.615,0.000,0.000,0.000,0.000,0.000,0.000,0.000,13,13,4*5D
$GPGGA,041136.60,3135.6123424,N,12046.5595108,E,4,14,2.0,2.5967,M,8.307,M,00,0004*6A
$GPHPD,0,0.000,242.80,-0.24,-14.62,31.5935390,120.7759918,2.597,13629474.371,24923401.932,2.597,0.000,0.000,0.000,0.000,0.000,0.000,0.000,14,13,4*72
$GPGGA,041136.80,3135.6122657,N,12046.5593331,E,4,13,2.0,2.5921,M,8.307,M,00,0004*68
$GPHPD,0,0.000,242.71,-0.03,-14.67,31.5935378,120.7759889,2.592,13629475.103,24923400.236,2.592,0.000,0.000,0.000,0.000,0.000,0.000,0.000,13,13,4*7C
$GPGGA,041137.00,3135.6121869,N,12046.5591549,E,4,13,2.0,2.5995,M,8.307,M,01,0004*64
$GPHPD,0,0.000,242.69,0.64,-14.67,31.5935364,120.7759859,2.600,13629475.865,24923398.546,2.600,0.000,0.000,0.000,0.000,0.000,0.000,0.000,13,13,4*56
$GPGGA,041137.20,3135.6121088,N,12046.5589761,E,4,13,2.0,2.6003,M,8.307,M,01,0004*65
$GPHPD,0,0.000,242.84,0.79,-14.67,31.5935351,120.7759829,2.600,13629476.615,24923396.845,2.600,0.000,0.000,0.000,0.000,0.000,0.000,0.000,13,13,4*52
$GPGGA,041137.40,3135.6120369,N,12046.5587962,E,4,13,2.0,2.5904,M,8.307,M,01,0004*60
$GPHPD,0,0.000,242.85,1.12,-14.69,31.5935339,120.7759799,2.590,13629477.275,24923395.095,2.590,0.000,0.000,0.000,0.000,0.000,0.000,0.000,13,13,4*5E
$GPGGA,041137.60,3135.6119587,N,12046.5586200,E,4,13,2.0,2.5968,M,8.307,M,00,0004*6B
$GPHPD,0,0.000,242.50,1.84,-14.67,31.5935326,120.7759770,2.597,13629478.032,24923393.425,2.597,0.000,0.000,0.000,0.000,0.000,0.000,0.000,13,13,4*59
$GPGGA,041137.80,3135.6118819,N,12046.5584422,E,4,13,2.0,2.6023,M,8.307,M,00,0004*6F
$GPHPD,0,0.000,242.40,1.46,-14.65,31.5935314,120.7759740,2.602,13629478.766,24923391.729,2.602,0.000,0.000,0.000,0.000,0.000,0.000,0.000,13,13,4*5D
$GPGGA,041138.00,3135.6118079,N,12046.5582644,E,4,14,2.0,2.6116,M,8.307,M,01,0004*63
$GPHPD,0,0.000,242.02,1.37,-14.67,31.5935301,120.7759711,2.612,13629479.460,24923390.016,2.612,0.000,0.000,0.000,0.000,0.000,0.000,0.000,14,14,4*51
$GPGGA,041138.20,3135.6117283,N,12046.5580878,E,4,14,2.0,2.6328,M,8.307,M,01,0004*65
$GPHPD,0,0.000,242.04,0.96,-14.64,31.5935288,120.7759681,2.633,13629480.236,24923388.350,2.633,0.000,0.000,0.000,0.000,0.000,0.000,0.000,14,14,4*5D
$GPGGA,041138.40,3135.6116496,N,12046.5579071,E,4,14,2.0,2.6426,M,8.307,M,01,0004*6E
$GPHPD,0,0.000,242.51,-0.44,-14.62,31.5935275,120.7759651,2.643,13629480.991,24923386.630,2.643,0.000,0.000,0.000,0.000,0.000,0.000,0.000,14,14,4*7D
$GPGGA,041138.60,3135.6115701,N,12046.5577295,E,4,14,2.0,2.6397,M,8.307,M,00,0004*68
$GPHPD,0,0.000,242.51,-0.71,-14.54,31.5935262,120.7759622,2.640,13629481.764,24923384.951,2.640,0.000,0.000,0.000,0.000,0.000,0.000,0.000,14,14,4*73
$GPGGA,041138.80,3135.6114894,N,12046.5575524,E,4,14,2.0,2.6662,M,8.307,M,00,0004*64
$GPHPD,0,0.000,243.05,-0.85,-14.47,31.5935248,120.7759592,2.666,13629482.554,24923383.286,2.666,0.000,0.000,0.000,0.000,0.000,0.000,0.000,14,14,4*7E
$GPGGA,041139.00,3135.6114136,N,12046.5573698,E,4,14,2.0,2.6540,M,8.307,M,01,0004*6C
$GPHPD,0,0.000,243.44,-1.34,-14.43,31.5935236,120.7759562,2.654,13629483.264,24923381.525,2.654,0.000,0.000,0.000,0.000,0.000,0.000,0.000,14,14,4*7B
$GPGGA,041139.20,3135.6113344,N,12046.5571784,E,4,14,2.0,2.6313,M,8.307,M,01,0004*60
$GPHPD,0,0.000,243.42,-0.80,-14.39,31.5935222,120.7759530,2.631,13629484.005,24923379.679,2.631,0.000,0.000,0.000,0.000,0.000,0.000,0.000,14,14,4*73
$GPGGA,041139.40,3135.6112614,N,12046.5569918,E,4,14,2.0,2.6139,M,8.307,M,01,0004*6F
$GPHPD,0,0.000,243.50,-0.56,-14.38,31.5935210,120.7759499,2.614,13629484.667,24923377.854,2.614,0.000,0.000,0.000,0.000,0.000,0.000,0.000,14,14,4*74
$GPGGA,041139.60,3135.6111832,N,12046.5568077,E,4,14,2.0,2.6105,M,8.307,M,00,0004*6B
$GPHPD,0,0.000,243.05,0.03,-14.41,31.5935197,120.7759468,2.611,13629485.408,24923376.089,2.611,0.000,0.000,0.000,0.000,0.000,0.000,0.000,14,14,4*56
$GPGGA,041139.80,3135.6111068,N,12046.5566233,E,4,14,2.0,2.6120,M,8.307,M,00,0004*69
$GPHPD,0,0.000,243.03,-0.47,-14.37,31.5935184,120.7759437,2.612,13629486.123,24923374.311,2.612,0.000,0.000,0.000,0.000,0.000,0.000,0.000,14,14,4*7B
$GPGGA,041140.00,3135.6110270,N,12046.5564396,E,4,14,2.0,2.6083,M,8.307,M,01,0004*60
$GPHPD,0,0.000,242.78,-0.07,-14.38,31.5935171,120.7759407,2.608,13629486.888,24923372.560,2.608,0.000,0.000,0.000,0.000,0.000,0.000,0.000,14,14,4*7A
$GPGGA,041140.20,3135.6109430,N,12046.5562598,E,4,14,1.7,2.6343,M,8.307,M,01,0004*6D
$GPHPD,0,0.000,242.53,0.12,-14.41,31.5935157,120.7759377,2.634,13629487.720,24923370.882,2.634,0.000,0.000,0.000,0.000,0.000,0.000,0.000,14,14,4*5F
$GPGGA,041140.40,3135.6108672,N,12046.5560763,E,4,14,1.7,2.6186,M,8.307,M,01,0004*61
$GPHPD,0,0.000,242.96,-0.08,-14.48,31.5935145,120.7759346,2.619,13629488.428,24923369.110,2.619,0.000,0.000,0.000,0.000,0.000,0.000,0.000,14,14,4*76
$GPGGA,041140.60,3135.6107912,N,12046.5558923,E,4,14,1.7,2.6135,M,8.307,M,00,0004*6D
$GPHPD,0,0.000,242.75,-0.05,-14.51,31.5935132,120.7759315,2.614,13629489.138,24923367.334,2.614,0.000,0.000,0.000,0.000,0.000,0.000,0.000,14,14,4*77
$GPGGA,041140.80,3135.6107120,N,12046.5557131,E,4,14,1.7,2.6101,M,8.307,M,00,0004*69
$GPHPD,0,0.000,242.32,1.27,-14.54,31.5935119,120.7759286,2.610,13629489.903,24923365.635,2.610,0.000,0.000,0.000,0.000,0.000,0.000,0.000,14,14,4*59
$GPGGA,041141.00,3135.6106384,N,12046.5555320,E,4,14,1.7,2.5966,M,8.307,M,01,0004*66
$GPHPD,0,0.000,242.56,0.71,-14.56,31.5935106,120.7759255,2.597,13629490.585,24923363.880,2.597,0.000,0.000,0.000,0.000,0.000,0.000,0.000,14,14,4*57
$GPGGA,041141.20,3135.6105573,N,12046.5553499,E,4,14,1.7,2.6020,M,8.307,M,01,0004*62
$GPHPD,0,0.000,242.77,0.59,-14.57,31.5935093,120.7759225,2.602,13629491.371,24923362.156,2.602,0.000,0.000,0.000,0.000,0.000,0.000,0.000,14,14,4*5A
$GPGGA,041141.40,3135.6104806,N,12046.5551748,E,4,14,1.7,2.6139,M,8.307,M,01,0004*6E
$GPHPD,0,0.000,242.76,0.74,-14.56,31.5935080,120.7759196,2.614,13629492.109,24923360.492,2.614,0.000,0.000,0.000,0.000,0.000,0.000,0.000,14,14,4*5D
$GPGGA,041141.60,3135.6104036,N,12046.5549926,E,4,14,1.7,2.6138,M,8.307,M,00,0004*68
$GPHPD,0,0.000,242.44,1.18,-14.57,31.5935067,120.7759165,2.614,13629492.837,24923358.743,2.614,0.000,0.000,0.000,0.000,0.000,0.000,0.000,14,14,4*53
$GPGGA,041141.80,3135.6103236,N,12046.5548099,E,4,14,1.7,2.6176,M,8.307,M,00,0004*65
$GPHPD,0,0.000,242.68,-0.08,-14.56,31.5935054,120.7759135,2.618,13629493.606,24923357.006,2.618,0.000,0.000,0.000,0.000,0.000,0.000,0.000,14,14,4*70
$GPGGA,041142.00,3135.6102460,N,12046.5546238,E,4,14,1.7,2.6207,M,8.307,M,01,0004*69
$GPHPD,0,0.000,242.94,-0.36,-14.54,31.5935041,120.7759104,2.621,13629494.335,24923355.214,2.621,0.000,0.000,0.000,0.000,0.000,0.000,0.000,14,14,4*7B
$GPGGA,041142.20,3135.6101689,N,12046.5544453,E,4,14,1.7,2.6331,M,8.307,M,01,0004*60
$GPHPD,0,0.000,242.83,-1.14,-14.51,31.5935028,120.7759074,2.633,13629495.071,24923353.511,2.633,0.000,0.000,0.000,0.000,0.000,0.000,0.000,14,14,4*76
$GPGGA,041142.40,3135.6100883,N,12046.5542673,E,4,14,1.7,2.6421,M,8.307,M,01,0004*63
$GPHPD,0,0.000,242.83,-0.65,-14.48,31.5935015,120.7759045,2.642,13629495.859,24923351.834,2.642,0.000,0.000,0.000,0.000,0.000,0.000,0.000,14,14,4*7F
$GPGGA,041142.60,3135.6100099,N,12046.5540872,E,4,14,2.0,2.6316,M,8.307,M,00,0004*69
$GPHPD,0,0.000,243.12,-0.93,-14.44,31.5935002,120.7759015,2.632,13629496.611,24923350.119,2.632,0.000,0.000,0.000,0.000,0.000,0.000,0.000,14,14,4*76
$GPGGA,041142.80,3135.6099350,N,12046.5539002,E,4,14,2.0,2.6018,M,8.307,M,00,0004*6C
$GPHPD,0,0.000,242.67,0.08,-14.43,31.5934989,120.7758983,2.602,13629497.299,24923348.300,2.602,0.000,0.000,0.000,0.000,0.000,0.000,0.000,14,14,4*57
$GPGGA,041143.00,3135.6098547,N,12046.5537239,E,4,14,2.0,2.6072,M,8.307,M,01,0004*6D
$GPHPD,0,0.000,242.74,0.33,-14.44,31.5934976,120.7758954,2.607,13629498.086,24923346.642,2.607,0.000,0.000,0.000,0.000,0.000,0.000,0.000,14,14,4*5E
$GPGGA,041143.20,3135.6097791,N,12046.5535445,E,4,14,2.0,2.6061,M,8.307,M,01,0004*64
$GPHPD,0,0.000,242.99,0.10,-14.45,31.5934963,120.7758924,2.606,13629498.799,24923344.919,2.606,0.000,0.000,0.000,0.000,0.000,0.000,0.000,14,14,4*54
$GPGGA,041143.40,3135.6097057,N,12046.5533653,E,4,15,2.0,2.6115,M,8.307,M,01,0004*6F
$GPHPD,0,0.000,242.64,0.42,-14.47,31.5934951,120.7758894,2.612,13629499.482,24923343.186,2.612,0.000,0.000,0.000,0.000,0.000,0.000,0.000,15,14,4*58
$GPGGA,041143.60,3135.6096296,N,12046.5531930,E,4,14,2.0,2.6322,M,8.307,M,01,0004*6C
$GPHPD,0,0.000,242.61,-0.15,-14.50,31.5934938,120.7758866,2.632,13629500.217,24923341.551,2.632,0.000,0.000,0.000,0.000,0.000,0.000,0.000,14,14,4*70
$GPGGA,041143.80,3135.6095520,N,12046.5530151,E,4,15,2.0,2.6423,M,8.307,M,00,0004*63
$GPHPD,0,0.000,242.44,-0.26,-14.50,31.5934925,120.7758836,2.642,13629500.962,24923339.858,2.642,0.000,0.000,0.000,0.000,0.000,0.000,0.000,15,14,4*7D
$GPGGA,041144.00,3135.6094740,N,12046.5528355,E,4,15,2.0,2.6264,M,8.307,M,01,0004*62
$GPHPD,0,0.000,242.56,-0.41,-14.52,31.5934912,120.7758806,2.626,13629501.709,24923338.147,2.626,0.000,0.000,0.000,0.000,0.000,0.000,0.000,15,14,4*7E
$GPGGA,041144.20,3135.6093964,N,12046.5526610,E,4,15,2.0,2.6337,M,8.307,M,01,0004*62
$GPHPD,0,0.000,242.69,-0.19,-14.51,31.5934899,120.7758777,2.634,13629502.461,24923336.495,2.634,0.000,0.000,0.000,0.000,0.000,0.000,0.000,15,14,4*7D
$GPGGA,041144.40,3135.6093169,N,12046.5524895,E,4,15,2.0,2.6519,M,8.307,M,01,0004*6A
$GPHPD,0,0.000,242.36,0.53,-14.52,31.5934886,120.7758748,2.652,13629503.246,24923334.890,2.652,0.000,0.000,0.000,0.000,0.000,0.000,0.000,15,14,4*5C
$GPGGA,041144.60,3135.6092420,N,12046.5522986,E,4,15,2.0,2.6151,M,8.307,M,00,0004*6D
$GPHPD,0,0.000,242.59,0.10,-14.50,31.5934874,120.7758716,2.615,13629503.926,24923333.024,2.615,0.000,0.000,0.000,0.000,0.000,0.000,0.000,15,14,4*5B
$GPGGA,041144.80,3135.6091655,N,12046.5521277,E,4,15,2.0,2.6319,M,8.307,M,00,0004*68
$GPHPD,0,0.000,242.17,0.99,-14.47,31.5934861,120.7758688,2.632,13629504.670,24923331.409,2.632,0.000,0.000,0.000,0.000,0.000,0.000,0.000,15,14,4*56
$GPGGA,041145.00,3135.6090856,N,12046.5519416,E,4,15,2.0,2.6155,M,8.307,M,01,0004*6C
$GPHPD,0,0.000,242.10,1.16,-14.44,31.5934848,120.7758657,2.616,13629505.431,24923329.630,2.616,0.000,0.000,0.000,0.000,0.000,0.000,0.000,15,14,4*5A
$GPGGA,041145.20,3135.6090025,N,12046.5517597,E,4,15,1.7,2.6362,M,8.307,M,01,0004*66
$GPHPD,0,0.000,242.38,0.91,-14.41,31.5934834,120.7758627,2.636,13629506.246,24923327.921,2.636,0.000,0.000,0.000,0.000,0.000,0.000,0.000,15,14,4*53
$GPGGA,041145.40,3135.6089248,N,12046.5515820,E,4,14,1.7,2.6491,M,8.307,M,01,0004*68
$GPHPD,0,0.000,242.50,-0.04,-14.41,31.5934821,120.7758597,2.649,13629506.993,24923326.231,2.649,0.000,0.000,0.000,0.000,0.000,0.000,0.000,14,14,4*79
$GPGGA,041145.60,3135.6088424,N,12046.5514004,E,4,15,1.7,2.6613,M,8.307,M,01,0004*61
$GPHPD,0,0.000,242.26,-0.50,-14.42,31.5934807,120.7758567,2.661,13629507.799,24923324.521,2.661,0.000,0.000,0.000,0.000,0.000,0.000,0.000,15,14,4*71
$GPGGA,041145.80,3135.6087630,N,12046.5512176,E,4,15,1.7,2.6716,M,8.307,M,01,0004*61
$GPHPD,0,0.000,242.51,-0.81,-14.43,31.5934794,120.7758536,2.672,13629508.559,24923322.779,2.672,0.000,0.000,0.000,0.000,0.000,0.000,0.000,15,14,4*75
$GPGGA,041146.00,3135.6086887,N,12046.5510334,E,4,15,2.0,2.6274,M,8.307,M,02,0004*69
$GPHPD,0,0.000,242.42,-1.26,-14.41,31.5934781,120.7758506,2.627,13629509.245,24923320.991,2.627,0.000,0.000,0.000,0.000,0.000,0.000,0.000,15,14,4*7F
$GPGGA,041146.20,3135.6086087,N,12046.5508474,E,4,15,2.0,2.6192,M,8.307,M,02,0004*62
$GPHPD,0,0.000,242.16,-0.75,-14.41,31.5934768,120.7758475,2.619,13629510.008,24923319.214,2.619,0.000,0.000,0.000,0.000,0.000,0.000,0.000,15,14,4*74
$GPGGA,041146.40,3135.6085298,N,12046.5506701,E,4,15,2.0,2.6130,M,8.307,M,02,0004*6C
$GPHPD,0,0.000,242.14,-0.62,-14.39,31.5934755,120.7758445,2.613,13629510.772,24923317.535,2.613,0.000,0.000,0.000,0.000,0.000,0.000,0.000,15,14,4*72
$GPGGA,041146.60,3135.6084507,N,12046.5504876,E,4,15,2.0,2.5992,M,8.307,M,02,0004*60
$GPHPD,0,0.000,242.41,-0.60,-14.41,31.5934742,120.7758415,2.599,13629511.529,24923315.795,2.599,0.000,0.000,0.000,0.000,0.000,0.000,0.000,15,14,4*7B
$GPGGA,041146.80,3135.6083719,N,12046.5503117,E,4,15,2.0,2.6090,M,8.307,M,02,0004*65
$GPHPD,0,0.000,241.93,-0.06,-14.44,31.5934729,120.7758385,2.609,13629512.295,24923314.133,2.609,0.000,0.000,0.000,0.000,0.000,0.000,0.000,15,14,4*79
$GPGGA,041147.00,3135.6082905,N,12046.5501312,E,4,15,2.0,2.6147,M,8.307,M,03,0004*61
$GPHPD,0,0.000,241.86,0.02,-14.46,31.5934715,120.7758355,2.615,13629513.089,24923312.431,2.615,0.000,0.000,0.000,0.000,0.000,0.000,0.000,15,14,4*5B
$GPGGA,041147.20,3135.6082096,N,12046.5499536,E,4,15,2.0,2.6225,M,8.307,M,03,0004*67
$GPHPD,0,0.000,241.61,0.18,-14.49,31.5934702,120.7758326,2.623,13629513.882,24923310.761,2.623,0.000,0.000,0.000,0.000,0.000,0.000,0.000,15,14,4*53
$GPGGA,041147.40,3135.6081323,N,12046.5497749,E,4,15,2.0,2.5968,M,8.307,M,03,0004*6A
$GPHPD,0,0.000,241.91,-0.36,-14.49,31.5934689,120.7758296,2.597,13629514.621,24923309.056,2.597,0.000,0.000,0.000,0.000,0.000,0.000,0.000,15,14,4*7E
$GPGGA,041147.60,3135.6080500,N,12046.5495985,E,4,15,2.0,2.6156,M,8.307,M,03,0004*64
$GPHPD,0,0.000,241.76,1.00,-14.51,31.5934675,120.7758266,2.616,13629515.436,24923307.408,2.616,0.000,0.000,0.000,0.000,0.000,0.000,0.000,15,14,4*5F
$GPGGA,041147.80,3135.6079738,N,12046.5494209,E,4,15,2.0,2.6114,M,8.307,M,00,0004*6E
$GPHPD,0,0.000,242.25,0.06,-14.53,31.5934662,120.7758237,2.611,13629516.161,24923305.711,2.611,0.000,0.000,0.000,0.000,0.000,0.000,0.000,15,14,4*50
$GPGGA,041148.00,3135.6078987,N,12046.5492415,E,4,15,1.7,2.5964,M,8.307,M,01,0004*66
$GPHPD,0,0.000,242.06,0.75,-14.52,31.5934650,120.7758207,2.596,13629516.868,24923303.985,2.596,0.000,0.000,0.000,0.000,0.000,0.000,0.000,15,14,4*53
$GPGGA,041148.20,3135.6078209,N,12046.5490591,E,4,15,1.7,2.5839,M,8.307,M,01,0004*6F
$GPHPD,0,0.000,242.77,0.34,-14.53,31.5934637,120.7758177,2.584,13629517.607,24923302.238,2.584,0.000,0.000,0.000,0.000,0.000,0.000,0.000,15,14,4*5E
$GPGGA,041148.40,3135.6077403,N,12046.5488772,E,4,15,1.7,2.6063,M,8.307,M,01,0004*68
$GPHPD,0,0.000,242.68,0.33,-14.49,31.5934623,120.7758146,2.606,13629518.386,24923300.515,2.606,0.000,0.000,0.000,0.000,0.000,0.000,0.000,15,14,4*52
$GPGGA,041148.60,3135.6076612,N,12046.5486995,E,4,15,1.7,2.5995,M,8.307,M,00,0004*62
