GA,063027.40,3135.4847967,N,12046.5490021,E,4,17,1.5,2.8315,M,8.308,M,01,0004*6D
$GPHPD,0,0.000,140.00,-0.30,-12.79,31.5914133,120.7758167,2.832,13631266.007,24924017.743,2.832,0.000,0.000,0.000,0.000,0.000,0.000,0.000,17,18,4*71
$GPGGA,063027.60,3135.4847483,N,12046.5490487,E,4,17,1.5,2.8262,M,8.308,M,00,0004*60
$GPHPD,0,0.000,139.95,-0.94,-12.82,31.5914125,120.7758175,2.826,13631266.789,24924018.587,2.826,0.000,0.000,0.000,0.000,0.000,0.000,0.000,17,18,4*79
$GPGGA,063027.80,3135.4846962,N,12046.5491001,E,4,17,1.5,2.8178,M,8.308,M,00,0004*6E
$GPHPD,0,0.000,139.63,-1.04,-12.83,31.5914116,120.7758183,2.818,13631267.633,24924019.510,2.818,0.000,0.000,0.000,0.000,0.000,0.000,0.000,17,18,4*7E
$GPGGA,063028.00,3135.4846385,N,12046.5491554,E,4,17,1.5,2.8301,M,8.308,M,01,0004*62
$GPHPD,0,0.000,139.49,-0.87,-12.79,31.5914106,120.7758193,2.830,13631268.564,24924020.512,2.830,0.000,0.000,0.000,0.000,0.000,0.000,0.000,17,18,4*7F
$GPGGA,063028.20,3135.4845817,N,12046.5492132,E,4,17,1.5,2.8301,M,8.308,M,01,0004*64
$GPHPD,0,0.000,139.35,-1.25,-12.72,31.5914097,120.7758202,2.830,13631269.488,24924021.540,2.830,0.000,0.000,0.000,0.000,0.000,0.000,0.000,17,18,4*70
$GPGGA,063028.40,3135.4845270,N,12046.5492671,E,4,17,1.5,2.8175,M,8.308,M,01,0004*68
$GPHPD,0,0.000,139.37,-0.64,-12.67,31.5914088,120.7758211,2.818,13631270.374,24924022.508,2.818,0.000,0.000,0.000,0.000,0.000,0.000,0.000,17,18,4*7D
$GPGGA,063028.60,3135.4844707,N,12046.5493229,E,4,17,1.5,2.8235,M,8.308,M,00,0004*60
$GPHPD,0,0.000,139.31,-0.53,-12.64,31.5914078,120.7758220,2.824,13631271.286,24924023.509,2.824,0.000,0.000,0.000,0.000,0.000,0.000,0.000,17,18,4*7C
$GPGGA,063028.80,3135.4844150,N,12046.5493745,E,4,17,1.5,2.8287,M,8.308,M,00,0004*6C
$GPHPD,0,0.000,139.42,-0.93,-12.60,31.5914069,120.7758229,2.829,13631272.182,24924024.455,2.829,0.000,0.000,0.000,0.000,0.000,0.000,0.000,17,18,4*72
$GPGGA,063029.00,3135.4843640,N,12046.5494258,E,4,17,1.5,2.8153,M,8.308,M,01,0004*61
$GPHPD,0,0.000,139.31,-0.93,-12.59,31.5914061,120.7758238,2.815,13631273.010,24924025.371,2.815,0.000,0.000,0.000,0.000,0.000,0.000,0.000,17,18,4*7F
$GPGGA,063029.20,3135.4843156,N,12046.5494749,E,4,17,1.5,2.8029,M,8.308,M,01,0004*6A
$GPHPD,0,0.000,139.47,-0.62,-12.59,31.5914053,120.7758246,2.803,13631273.796,24924026.245,2.803,0.000,0.000,0.000,0.000,0.000,0.000,0.000,17,18,4*74
$GPGGA,063029.40,3135.4842641,N,12046.5495219,E,4,17,1.5,2.8170,M,8.308,M,01,0004*60
$GPHPD,0,0.000,139.54,-0.65,-12.58,31.5914044,120.7758254,2.817,13631274.623,24924027.111,2.817,0.000,0.000,0.000,0.000,0.000,0.000,0.000,17,18,4*7E
$GPGGA,063029.60,3135.4842189,N,12046.5495659,E,4,17,1.5,2.8148,M,8.308,M,00,0004*6B
$GPHPD,0,0.000,139.68,-0.42,-12.59,31.5914036,120.7758261,2.815,13631275.354,24924027.905,2.815,0.000,0.000,0.000,0.000,0.000,0.000,0.000,17,18,4*7F
$GPGGA,063029.80,3135.4841708,N,12046.5496121,E,4,17,1.5,2.8156,M,8.308,M,00,0004*6D
$GPHPD,0,0.000,139.61,-0.43,-12.61,31.5914028,120.7758269,2.816,13631276.131,24924028.742,2.816,0.000,0.000,0.000,0.000,0.000,0.000,0.000,17,18,4*7B
$GPGGA,063030.00,3135.4841248,N,12046.5496566,E,4,17,1.5,2.8095,M,8.308,M,01,0004*64
$GPHPD,0,0.000,139.42,-0.01,-12.62,31.5914021,120.7758276,2.810,13631276.874,24924029.546,2.810,0.000,0.000,0.000,0.000,0.000,0.000,0.000,17,18,4*77
$GPGGA,063030.20,3135.4840818,N,12046.5497018,E,4,17,1.5,2.8083,M,8.308,M,01,0004*62
$GPHPD,0,0.000,139.66,-0.20,-12.64,31.5914014,120.7758284,2.808,13631277.576,24924030.341,2.808,0.000,0.000,0.000,0.000,0.000,0.000,0.000,17,18,4*78
$GPGGA,063030.40,3135.4840362,N,12046.5497443,E,4,17,1.5,2.8042,M,8.308,M,01,0004*65
$GPHPD,0,0.000,139.84,-0.30,-12.67,31.5914006,120.7758291,2.804,13631278.310,24924031.119,2.804,0.000,0.000,0.000,0.000,0.000,0.000,0.000,17,18,4*76
$GPGGA,063030.60,3135.4839951,N,12046.5497839,E,4,17,1.5,2.8030,M,8.308,M,00,0004*66
$GPHPD,0,0.000,139.62,-0.02,-12.72,31.5913999,120.7758297,2.803,13631278.974,24924031.836,2.803,0.000,0.000,0.000,0.000,0.000,0.000,0.000,17,18,4*79
$GPGGA,063030.80,3135.4839466,N,12046.5498266,E,4,17,1.5,2.8101,M,8.308,M,00,0004*6D
$GPHPD,0,0.000,139.64,-0.14,-12.77,31.5913991,120.7758304,2.810,13631279.749,24924032.633,2.810,0.000,0.000,0.000,0.000,0.000,0.000,0.000,17,18,4*77
$GPGGA,063031.00,3135.4838978,N,12046.5498765,E,4,17,1.5,2.8114,M,8.308,M,01,0004*64
$GPHPD,0,0.000,139.58,-0.12,-12.84,31.5913983,120.7758313,2.811,13631280.543,24924033.519,2.811,0.000,0.000,0.000,0.000,0.000,0.000,0.000,17,18,4*73
$GPGGA,063031.20,3135.4838465,N,12046.5499245,E,4,17,1.5,2.8092,M,8.308,M,01,0004*6E
$GPHPD,0,0.000,140.02,-0.99,-12.94,31.5913974,120.7758321,2.809,13631281.369,24924034.396,2.809,0.000,0.000,0.000,0.000,0.000,0.000,0.000,17,18,4*70
$GPGGA,063031.40,3135.4837888,N,12046.5499785,E,4,17,1.5,2.7999,M,8.308,M,01,0004*6C
$GPHPD,0,0.000,140.12,-0.70,-13.09,31.5913965,120.7758330,2.800,13631282.298,24924035.383,2.800,0.000,0.000,0.000,0.000,0.000,0.000,0.000,17,18,4*7A
$GPGGA,063031.60,3135.4837254,N,12046.5500350,E,4,17,1.5,2.7901,M,8.308,M,00,0004*68
$GPHPD,0,0.000,140.07,-0.32,-13.22,31.5913954,120.7758339,2.790,13631283.312,24924036.434,2.790,0.000,0.000,0.000,0.000,0.000,0.000,0.000,17,18,4*70
$GPGGA,063031.80,3135.4836550,N,12046.5500969,E,4,17,1.5,2.7970,M,8.308,M,00,0004*62
$GPHPD,0,0.000,140.24,-0.04,-13.32,31.5913943,120.7758349,2.797,13631284.438,24924037.590,2.797,0.000,0.000,0.000,0.000,0.000,0.000,0.000,17,18,4*72
$GPGGA,063032.00,3135.4835763,N,12046.5501697,E,4,17,1.5,2.8024,M,8.308,M,01,0004*61
$GPHPD,0,0.000,140.27,-0.27,-13.43,31.5913929,120.7758362,2.802,13631285.703,24924038.926,2.802,0.000,0.000,0.000,0.000,0.000,0.000,0.000,17,18,4*77
$GPGGA,063032.20,3135.4835030,N,12046.5502399,E,4,17,1.5,2.8051,M,8.308,M,01,0004*68
$GPHPD,0,0.000,140.41,0.01,-13.47,31.5913917,120.7758373,2.805,13631286.886,24924040.199,2.805,0.000,0.000,0.000,0.000,0.000,0.000,0.000,17,18,4*55
$GPGGA,063032.40,3135.4834251,N,12046.5503085,E,4,17,1.5,2.8028,M,8.308,M,01,0004*6B
$GPHPD,0,0.000,140.56,-0.47,-13.50,31.5913904,120.7758385,2.803,13631288.131,24924041.480,2.803,0.000,0.000,0.000,0.000,0.000,0.000,0.000,17,18,4*76
$GPGGA,063032.60,3135.4833497,N,12046.5503788,E,4,17,1.5,2.7940,M,8.308,M,01,0004*60
$GPHPD,0,0.000,140.55,0.08,-13.48,31.5913892,120.7758396,2.794,13631289.344,24924042.766,2.794,0.000,0.000,0.000,0.000,0.000,0.000,0.000,17,18,4*5F
$GPGGA,063032.80,3135.4832797,N,12046.5504484,E,4,17,1.5,2.7811,M,8.308,M,00,0004*60
$GPHPD,0,0.000,140.58,0.25,-13.42,31.5913880,120.7758408,2.781,13631290.479,24924044.013,2.781,0.000,0.000,0.000,0.000,0.000,0.000,0.000,17,18,4*56
$GPGGA,063033.00,3135.4832040,N,12046.5505146,E,4,17,1.5,2.7765,M,8.308,M,01,0004*63
$GPHPD,0,0.000,141.03,0.86,-13.33,31.5913867,120.7758419,2.777,13631291.688,24924045.252,2.777,0.000,0.000,0.000,0.000,0.000,0.000,0.000,17,18,4*54
$GPGGA,063033.20,3135.4831372,N,12046.5505838,E,4,17,1.5,2.7853,M,8.308,M,01,0004*6A
$GPHPD,0,0.000,140.89,1.01,-13.23,31.5913856,120.7758431,2.785,13631292.777,24924046.475,2.785,0.000,0.000,0.000,0.000,0.000,0.000,0.000,17,18,4*52
$GPGGA,063033.40,3135.4830643,N,12046.5506407,E,4,17,1.5,2.7856,M,8.308,M,01,0004*6C
$GPHPD,0,0.000,141.11,-0.31,-13.17,31.5913844,120.7758440,2.786,13631293.928,24924047.585,2.786,0.000,0.000,0.000,0.000,0.000,0.000,0.000,17,18,4*75
$GPGGA,063033.60,3135.4829984,N,12046.5507015,E,4,17,1.5,2.7893,M,8.308,M,00,0004*6C
$GPHPD,0,0.000,141.20,-0.28,-13.14,31.5913833,120.7758450,2.789,13631294.987,24924048.702,2.789,0.000,0.000,0.000,0.000,0.000,0.000,0.000,17,18,4*7D
$GPGGA,063033.80,3135.4829344,N,12046.5507595,E,4,17,1.5,2.7845,M,8.308,M,00,0004*62
$GPHPD,0,0.000,141.18,-0.90,-13.07,31.5913822,120.7758460,2.785,13631296.013,24924049.774,2.785,0.000,0.000,0.000,0.000,0.000,0.000,0.000,17,18,4*72
$GPGGA,063034.00,3135.4828695,N,12046.5508156,E,4,17,1.5,2.7817,M,8.308,M,01,0004*67
$GPHPD,0,0.000,141.28,-0.30,-12.98,31.5913812,120.7758469,2.782,13631297.048,24924050.828,2.782,0.000,0.000,0.000,0.000,0.000,0.000,0.000,17,18,4*77
$GPGGA,063034.20,3135.4828060,N,12046.5508671,E,4,17,1.6,2.7921,M,8.308,M,01,0004*6C
$GPHPD,0,0.000,141.85,0.84,-12.93,31.5913801,120.7758478,2.792,13631298.055,24924051.819,2.792,0.000,0.000,0.000,0.000,0.000,0.000,0.000,17,17,4*54
$GPGGA,063034.40,3135.4827500,N,12046.5509198,E,4,17,1.6,2.8013,M,8.308,M,01,0004*60
$GPHPD,0,0.000,141.70,0.25,-12.88,31.5913792,120.7758487,2.801,13631298.957,24924052.780,2.801,0.000,0.000,0.000,0.000,0.000,0.000,0.000,17,17,4*5D
$GPGGA,063034.60,3135.4826942,N,12046.5509705,E,4,17,1.6,2.7968,M,8.308,M,00,0004*60
$GPHPD,0,0.000,142.13,-0.39,-12.85,31.5913782,120.7758495,2.797,13631299.852,24924053.717,2.797,0.000,0.000,0.000,0.000,0.000,0.000,0.000,17,17,4*7E
$GPGGA,063034.80,3135.4826319,N,12046.5510253,E,4,16,1.6,2.8176,M,8.308,M,00,0004*6D
$GPHPD,0,0.000,142.08,-0.21,-12.87,31.5913772,120.7758504,2.818,13631300.848,24924054.740,2.818,0.000,0.000,0.000,0.000,0.000,0.000,0.000,16,17,4*77
$GPGGA,063035.00,3135.4825676,N,12046.5510777,E,4,16,1.6,2.8136,M,8.308,M,01,0004*6D
$GPHPD,0,0.000,142.10,-0.83,-12.90,31.5913761,120.7758513,2.814,13631301.867,24924055.746,2.814,0.000,0.000,0.000,0.000,0.000,0.000,0.000,16,17,4*7F
$GPGGA,063035.20,3135.4825052,N,12046.5511377,E,4,16,1.6,2.8112,M,8.308,M,01,0004*6C
$GPHPD,0,0.000,142.23,-0.66,-12.94,31.5913751,120.7758523,2.811,13631302.875,24924056.833,2.811,0.000,0.000,0.000,0.000,0.000,0.000,0.000,16,17,4*7E
$GPGGA,063035.40,3135.4824358,N,12046.5511941,E,4,16,1.6,2.7944,M,8.308,M,01,0004*69
$GPHPD,0,0.000,142.39,-0.52,-13.01,31.5913739,120.7758532,2.794,13631303.974,24924057.917,2.794,0.000,0.000,0.000,0.000,0.000,0.000,0.000,16,17,4*76
$GPGGA,063035.60,3135.4823640,N,12046.5512611,E,4,16,1.6,2.8023,M,8.308,M,00,0004*6F
$GPHPD,0,0.000,142.28,-0.21,-13.06,31.5913727,120.7758544,2.802,13631305.130,24924059.143,2.802,0.000,0.000,0.000,0.000,0.000,0.000,0.000,16,17,4*72
$GPGGA,063035.80,3135.4822859,N,12046.5513317,E,4,16,1.6,2.8180,M,8.308,M,00,0004*6C
$GPHPD,0,0.000,142.63,-0.41,-13.07,31.5913714,120.7758555,2.818,13631306.382,24924060.449,2.818,0.000,0.000,0.000,0.000,0.000,0.000,0.000,16,17,4*77
$GPGGA,063036.00,3135.4822007,N,12046.5513984,E,4,16,1.6,2.8256,M,8.308,M,01,0004*6D
$GPHPD,0,0.000,142.80,-0.88,-13.09,31.5913700,120.7758566,2.826,13631307.727,24924061.749,2.826,0.000,0.000,0.000,0.000,0.000,0.000,0.000,16,17,4*7C
$GPGGA,063036.20,3135.4821113,N,12046.5514772,E,4,16,1.6,2.8144,M,8.308,M,01,0004*68
$GPHPD,0,0.000,142.36,-1.00,-13.10,31.5913685,120.7758580,2.814,13631309.156,24924063.219,2.814,0.000,0.000,0.000,0.000,0.000,0.000,0.000,16,17,4*70
$GPGGA,063036.40,3135.4820181,N,12046.5515581,E,4,16,1.6,2.7998,M,8.308,M,01,0004*6D
$GPHPD,0,0.000,142.43,-0.43,-13.12,31.5913670,120.7758593,2.800,13631310.644,24924064.737,2.800,0.000,0.000,0.000,0.000,0.000,0.000,0.000,16,17,4*7C
$GPGGA,063036.60,3135.4819175,N,12046.5516414,E,4,16,1.6,2.7948,M,8.308,M,00,0004*6C
$GPHPD,0,0.000,142.63,0.08,-13.14,31.5913653,120.7758607,2.795,13631312.241,24924066.327,2.795,0.000,0.000,0.000,0.000,0.000,0.000,0.000,16,17,4*51
$GPGGA,063036.80,3135.4818190,N,12046.5517279,E,4,16,1.6,2.8052,M,8.308,M,00,0004*69
$GPHPD,0,0.000,142.78,-0.06,-13.13,31.5913637,120.7758621,2.805,13631313.815,24924067.944,2.805,0.000,0.000,0.000,0.000,0.000,0.000,0.000,16,17,4*7D
$GPGGA,063037.00,3135.4817126,N,12046.5518153,E,4,16,1.6,2.7973,M,8.308,M,01,0004*62
$GPHPD,0,0.000,143.23,-0.51,-13.09,31.5913619,120.7758636,2.797,13631315.504,24924069.617,2.797,0.000,0.000,0.000,0.000,0.000,0.000,0.000,16,17,4*7D
$GPGGA,063037.20,3135.4816066,N,12046.5519035,E,4,16,1.6,2.8027,M,8.308,M,01,0004*63
$GPHPD,0,0.000,143.47,-0.25,-13.04,31.5913601,120.7758651,2.803,13631317.188,24924071.297,2.803,0.000,0.000,0.000,0.000,0.000,0.000,0.000,16,16,4*7F
$GPGGA,063037.40,3135.4814997,N,12046.5519943,E,4,16,1.6,2.7951,M,8.308,M,01,0004*6F
$GPHPD,0,0.000,143.67,-0.39,-12.99,31.5913583,120.7758666,2.795,13631318.890,24924073.015,2.795,0.000,0.000,0.000,0.000,0.000,0.000,0.000,16,17,4*7C
$GPGGA,063037.60,3135.4813870,N,12046.5520865,E,4,16,1.6,2.8065,M,8.308,M,00,0004*6D
$GPHPD,0,0.000,144.24,-0.77,-12.92,31.5913565,120.7758681,2.807,13631320.677,24924074.782,2.807,0.000,0.000,0.000,0.000,0.000,0.000,0.000,16,16,4*7F
$GPGGA,063037.80,3135.4812772,N,12046.5521749,E,4,16,1.6,2.7979,M,8.308,M,00,0004*64
$GPHPD,0,0.000,144.23,-0.81,-12.86,31.5913546,120.7758696,2.798,13631322.416,24924076.487,2.798,0.000,0.000,0.000,0.000,0.000,0.000,0.000,16,16,4*70
$GPGGA,063038.00,3135.4811631,N,12046.5522639,E,4,16,1.6,2.7783,M,8.308,M,01,0004*69
$GPHPD,0,0.000,144.48,-1.31,-12.84,31.5913527,120.7758711,2.778,13631324.217,24924078.225,2.778,0.000,0.000,0.000,0.000,0.000,0.000,0.000,16,16,4*7D
$GPGGA,063038.20,3135.4810480,N,12046.5523530,E,4,16,1.6,2.7850,M,8.308,M,01,0004*68
$GPHPD,0,0.000,144.31,-0.64,-12.83,31.5913508,120.7758726,2.785,13631326.032,24924079.969,2.785,0.000,0.000,0.000,0.000,0.000,0.000,0.000,16,16,4*79
$GPGGA,063038.40,3135.4809350,N,12046.5524459,E,4,16,1.6,2.7924,M,8.308,M,01,0004*67
$GPHPD,0,0.000,143.96,-0.20,-12.82,31.5913489,120.7758741,2.792,13631327.825,24924081.747,2.792,0.000,0.000,0.000,0.000,0.000,0.000,0.000,16,16,4*71
$GPGGA,063038.60,3135.4808225,N,12046.5525396,E,4,16,1.6,2.7903,M,8.308,M,00,0004*66
$GPHPD,0,0.000,144.00,-0.66,-12.81,31.5913470,120.7758757,2.790,13631329.613,24924083.532,2.790,0.000,0.000,0.000,0.000,0.000,0.000,0.000,16,16,4*7E
$GPGGA,063038.80,3135.4807084,N,12046.5526345,E,4,16,1.6,2.7798,M,8.308,M,00,0004*6F
$GPHPD,0,0.000,144.17,-0.37,-12.80,31.5913451,120.7758772,2.780,13631331.425,24924085.340,2.780,0.000,0.000,0.000,0.000,0.000,0.000,0.000,16,16,4*72
$GPGGA,063039.00,3135.4805946,N,12046.5527262,E,4,16,1.6,2.7802,M,8.308,M,01,0004*6B
$GPHPD,0,0.000,144.15,-0.05,-12.78,31.5913432,120.7758788,2.780,13631333.227,24924087.108,2.780,0.000,0.000,0.000,0.000,0.000,0.000,0.000,16,16,4*7C
$GPGGA,063039.20,3135.4804785,N,12046.5528201,E,4,16,1.6,2.7772,M,8.308,M,01,0004*6B
$GPHPD,0,0.000,144.21,-0.42,-12.76,31.5913413,120.7758803,2.777,13631335.066,24924088.916,2.777,0.000,0.000,0.000,0.000,0.000,0.000,0.000,16,16,4*70
$GPGGA,063039.40,3135.4803629,N,12046.5529162,E,4,16,1.6,2.7829,M,8.308,M,01,0004*6B
$GPHPD,0,0.000,144.00,-0.16,-12.77,31.5913394,120.7758819,2.783,13631336.903,24924090.748,2.783,0.000,0.000,0.000,0.000,0.000,0.000,0.000,16,16,4*75
$GPGGA,063039.60,3135.4802478,N,12046.5530109,E,4,16,1.6,2.7802,M,8.308,M,00,0004*63
$GPHPD,0,0.000,144.14,0.31,-12.78,31.5913375,120.7758835,2.780,13631338.729,24924092.560,2.780,0.000,0.000,0.000,0.000,0.000,0.000,0.000,16,16,4*54
$GPGGA,063039.80,3135.4801325,N,12046.5531045,E,4,16,1.6,2.7881,M,8.308,M,00,0004*62
$GPHPD,0,0.000,144.04,-0.04,-12.77,31.5913355,120.7758851,2.788,13631340.557,24924094.360,2.788,0.000,0.000,0.000,0.000,0.000,0.000,0.000,16,16,4*75
$GPGGA,063040.00,3135.4800165,N,12046.5531971,E,4,16,1.6,2.7849,M,8.308,M,01,0004*68
$GPHPD,0,0.000,144.15,-0.39,-12.76,31.5913336,120.7758866,2.785,13631342.392,24924096.151,2.785,0.000,0.000,0.000,0.000,0.000,0.000,0.000,16,16,4*74
$GPGGA,063040.20,3135.4798968,N,12046.5532891,E,4,16,1.6,2.7816,M,8.308,M,01,0004*67
$GPHPD,0,0.000,144.43,-0.29,-12.74,31.5913316,120.7758882,2.782,13631344.278,24924097.958,2.782,0.000,0.000,0.000,0.000,0.000,0.000,0.000,16,16,4*7F
$GPGGA,063040.40,3135.4797791,N,12046.5533831,E,4,16,1.6,2.7849,M,8.308,M,01,0004*67
$GPHPD,0,0.000,144.87,-0.15,-12.74,31.5913297,120.7758897,2.785,13631346.140,24924099.776,2.785,0.000,0.000,0.000,0.000,0.000,0.000,0.000,16,16,4*72
$GPGGA,063040.60,3135.4796596,N,12046.5534756,E,4,16,1.6,2.7877,M,8.308,M,00,0004*64
$GPHPD,0,0.000,145.44,-0.77,-12.74,31.5913277,120.7758913,2.788,13631348.025,24924101.587,2.788,0.000,0.000,0.000,0.000,0.000,0.000,0.000,16,16,4*7B
$GPGGA,063040.80,3135.4795415,N,12046.5535683,E,4,16,1.6,2.7813,M,8.308,M,00,0004*69
$GPHPD,0,0.000,145.69,-0.90,-12.74,31.5913257,120.7758928,2.781,13631349.890,24924103.392,2.781,0.000,0.000,0.000,0.000,0.000,0.000,0.000,16,16,4*70
$GPGGA,063041.00,3135.4794201,N,12046.5536584,E,4,17,1.5,2.7831,M,8.308,M,01,0004*66
$GPHPD,0,0.000,145.81,-0.45,-12.75,31.5913237,120.7758943,2.783,13631351.797,24924105.185,2.783,0.000,0.000,0.000,0.000,0.000,0.000,0.000,17,17,4*77
$GPGGA,063041.20,3135.4793014,N,12046.5537506,E,4,17,1.5,2.7830,M,8.308,M,01,0004*6F
$GPHPD,0,0.000,146.28,-1.12,-12.74,31.5913217,120.7758958,2.783,13631353.670,24924106.988,2.783,0.000,0.000,0.000,0.000,0.000,0.000,0.000,17,17,4*71
$GPGGA,063041.40,3135.4791828,N,12046.5538437,E,4,17,1.5,2.7793,M,8.308,M,01,0004*66
$GPHPD,0,0.000,146.12,-1.00,-12.72,31.5913197,120.7758974,2.779,13631355.543,24924108.801,2.779,0.000,0.000,0.000,0.000,0.000,0.000,0.000,17,17,4*73
$GPGGA,063041.60,3135.4790595,N,12046.5539311,E,4,17,1.5,2.7777,M,8.308,M,00,0004*67
$GPHPD,0,0.000,146.23,-0.64,-12.71,31.5913177,120.7758989,2.778,13631357.471,24924110.573,2.778,0.000,0.000,0.000,0.000,0.000,0.000,0.000,17,17,4*7E
$GPGGA,063041.80,3135.4789412,N,12046.5540241,E,4,17,1.5,2.7741,M,8.308,M,00,0004*60
$GPHPD,0,0.000,146.20,-1.12,-12.73,31.5913157,120.7759004,2.774,13631359.340,24924112.383,2.774,0.000,0.000,0.000,0.000,0.000,0.000,0.000,17,17,4*70
$GPGGA,063042.00,3135.4788242,N,12046.5541134,E,4,17,1.5,2.7704,M,8.308,M,01,0004*69
$GPHPD,0,0.000,146.67,-1.31,-12.72,31.5913137,120.7759019,2.770,13631361.182,24924114.140,2.770,0.000,0.000,0.000,0.000,0.000,0.000,0.000,17,17,4*75
$GPGGA,063042.20,3135.4787039,N,12046.5542031,E,4,17,1.5,2.7650,M,8.308,M,01,0004*6D
$GPHPD,0,0.000,146.53,-0.88,-12.72,31.5913117,120.7759034,2.765,13631363.073,24924115.922,2.765,0.000,0.000,0.000,0.000,0.000,0.000,0.000,17,17,4*7C
$GPGGA,063042.40,3135.4785867,N,12046.5542940,E,4,17,1.5,2.7643,M,8.308,M,01,0004*67
$GPHPD,0,0.000,146.31,-0.51,-12.73,31.5913098,120.7759049,2.764,13631364.921,24924117.701,2.764,0.000,0.000,0.000,0.000,0.000,0.000,0.000,17,17,4*75
$GPGGA,063042.60,3135.4784662,N,12046.5543858,E,4,17,1.5,2.7634,M,8.308,M,00,0004*67
$GPHPD,0,0.000,146.32,-1.10,-12.73,31.5913078,120.7759064,2.763,13631366.819,24924119.509,2.763,0.000,0.000,0.000,0.000,0.000,0.000,0.000,17,17,4*7F
$GPGGA,063042.80,3135.4783477,N,12046.5544777,E,4,17,1.5,2.7521,M,8.308,M,00,0004*6A
$GPHPD,0,0.000,146.07,-0.61,-12.69,31.5913058,120.7759080,2.752,13631368.688,24924121.307,2.752,0.000,0.000,0.000,0.000,0.000,0.000,0.000,17,17,4*76
$GPGGA,063043.00,3135.4782319,N,12046.5545661,E,4,17,1.5,2.7594,M,8.308,M,01,0004*65
$GPHPD,0,0.000,145.72,-0.24,-12.69,31.5913039,120.7759094,2.759,13631370.512,24924123.047,2.759,0.000,0.000,0.000,0.000,0.000,0.000,0.000,17,17,4*78
$GPGGA,063043.20,3135.4781141,N,12046.5546597,E,4,17,1.5,2.7633,M,8.308,M,01,0004*6C
$GPHPD,0,0.000,145.42,-0.11,-12.71,31.5913019,120.7759110,2.763,13631372.375,24924124.861,2.763,0.000,0.000,0.000,0.000,0.000,0.000,0.000,17,17,4*75
$GPGGA,063043.40,3135.4780000,N,12046.5547458,E,4,17,1.5,2.7550,M,8.308,M,01,0004*6A
$GPHPD,0,0.000,145.62,-0.83,-12.72,31.5913000,120.7759124,2.755,13631374.170,24924126.563,2.755,0.000,0.000,0.000,0.000,0.000,0.000,0.000,17,17,4*7C
$GPGGA,063043.60,3135.4778787,N,12046.5548363,E,4,17,1.5,2.7490,M,8.308,M,00,0004*6B
$GPHPD,0,0.000,145.49,-0.43,-12.71,31.5912980,120.7759139,2.749,13631376.076,24924128.361,2.749,0.000,0.000,0.000,0.000,0.000,0.000,0.000,17,17,4*79
$GPGGA,063043.80,3135.4777594,N,12046.5549243,E,4,17,1.5,2.7482,M,8.308,M,00,0004*6B
$GPHPD,0,0.000,145.34,0.10,-12.66,31.5912960,120.7759154,2.748,13631377.949,24924130.116,2.748,0.000,0.000,0.000,0.000,0.000,0.000,0.000,17,17,4*54
$GPGGA,063044.00,3135.4776399,N,12046.5550120,E,4,17,1.5,2.7514,M,8.308,M,01,0004*6F
$GPHPD,0,0.000,145.31,-0.21,-12.58,31.5912940,120.7759169,2.751,13631379.824,24924131.869,2.751,0.000,0.000,0.000,0.000,0.000,0.000,0.000,17,17,4*7B
$GPGGA,063044.20,3135.4775255,N,12046.5551076,E,4,17,1.5,2.7547,M,8.308,M,01,0004*6A
$GPHPD,0,0.000,145.10,0.04,-12.64,31.5912921,120.7759185,2.755,13631381.642,24924133.688,2.755,0.000,0.000,0.000,0.000,0.000,0.000,0.000,17,17,4*52
$GPGGA,063044.40,3135.4774173,N,12046.5552026,E,4,17,1.5,2.7468,M,8.308,M,01,0004*60
$GPHPD,0,0.000,144.77,-0.08,-12.76,31.5912903,120.7759200,2.747,13631383.371,24924135.463,2.747,0.000,0.000,0.000,0.000,0.000,0.000,0.000,17,17,4*78
$GPGGA,063044.60,3135.4773075,N,12046.5552921,E,4,17,1.5,2.7477,M,8.308,M,00,0004*63
$GPHPD,0,0.000,144.51,0.54,-12.77,31.5912885,120.7759215,2.748,13631385.112,24924137.182,2.748,0.000,0.000,0.000,0.000,0.000,0.000,0.000,17,17,4*5B
$GPGGA,063044.80,3135.4771939,N,12046.5553799,E,4,17,1.5,2.7507,M,8.308,M,00,0004*64
$GPHPD,0,0.000,144.61,-0.29,-12.75,31.5912866,120.7759230,2.751,13631386.903,24924138.902,2.751,0.000,0.000,0.000,0.000,0.000,0.000,0.000,17,17,4*73
$GPGGA,063045.00,3135.4770834,N,12046.5554746,E,4,17,1.5,2.7447,M,8.308,M,01,0004*61
$GPHPD,0,0.000,144.47,0.62,-12.76,31.5912847,120.7759246,2.745,13631388.664,24924140.687,2.745,0.000,0.000,0.000,0.000,0.000,0.000,0.000,17,17,4*59
$GPGGA,063045.20,3135.4769698,N,12046.5555612,E,4,17,1.5,2.7535,M,8.308,M,01,0004*66
$GPHPD,0,0.000,144.27,0.57,-12.76,31.5912828,120.7759260,2.754,13631390.453,24924142.392,2.754,0.000,0.000,0.000,0.000,0.000,0.000,0.000,17,17,4*58
$GPGGA,063045.40,3135.4768593,N,12046.5556527,E,4,17,1.5,2.7584,M,8.308,M,01,0004*65
$GPHPD,0,0.000,144.49,-0.83,-12.75,31.5912810,120.7759275,2.758,13631392.208,24924144.139,2.758,0.000,0.000,0.000,0.000,0.000,0.000,0.000,17,17,4*77
$GPGGA,063045.60,3135.4767480,N,12046.5557449,E,4,17,1.5,2.7640,M,8.308,M,00,0004*69
$GPHPD,0,0.000,144.48,-0.83,-12.72,31.5912791,120.7759291,2.764,13631393.975,24924145.898,2.764,0.000,0.000,0.000,0.000,0.000,0.000,0.000,17,17,4*7E
$GPGGA,063045.80,3135.4766345,N,12046.5558340,E,4,17,1.5,2.7510,M,8.308,M,00,0004*6F
$GPHPD,0,0.000,144.21,-1.14,-12.74,31.5912772,120.7759306,2.751,13631395.768,24924147.633,2.751,0.000,0.000,0.000,0.000,0.000,0.000,0.000,17,17,4*73
$GPGGA,063046.00,3135.4765187,N,12046.5559238,E,4,17,1.5,2.7551,M,8.308,M,01,0004*60
$GPHPD,0,0.000,144.01,-0.52,-12.87,31.5912753,120.7759321,2.755,13631397.595,24924149.390,2.755,0.000,0.000,0.000,0.000,0.000,0.000,0.000,17,17,4*78
$GPGGA,063046.20,3135.4764030,N,12046.5560128,E,4,17,1.5,2.7330,M,8.308,M,01,0004*67
$GPHPD,0,0.000,144.02,-1.85,-12.95,31.5912734,120.7759335,2.733,13631399.418,24924151.137,2.733,0.000,0.000,0.000,0.000,0.000,0.000,0.000,17,17,4*7B
$GPGGA,063046.40,3135.4762881,N,12046.5561083,E,4,17,1.5,2.7316,M,8.308,M,01,0004*60
$GPHPD,0,0.000,143.81,-1.60,-12.84,31.5912715,120.7759351,2.732,13631401.244,24924152.957,2.732,0.000,0.000,0.000,0.000,0.000,0.000,0.000,17,17,4*79
$GPGGA,063046.60,3135.4761770,N,12046.5562080,E,4,17,1.5,2.7525,M,8.308,M,00,0004*67
$GPHPD,0,0.000,143.90,-0.86,-12.66,31.5912696,120.7759368,2.753,13631403.023,24924154.806,2.753,0.000,0.000,0.000,0.000,0.000,0.000,0.000,17,17,4*7E
$GPGGA,063046.80,3135.4760679,N,12046.5563014,E,4,17,1.5,2.7328,M,8.308,M,00,0004*67
$GPHPD,0,0.000,143.97,-1.68,-12.67,31.5912678,120.7759384,2.733,13631404.762,24924156.567,2.733,0.000,0.000,0.000,0.000,0.000,0.000,0.000,17,17,4*76
$GPGGA,063047.00,3135.4759557,N,12046.5563923,E,4,17,1.5,2.7286,M,8.308,M,01,0004*62
$GPHPD,0,0.000,144.34,-2.92,-12.70,31.5912659,120.7759399,2.729,13631406.540,24924158.317,2.729,0.000,0.000,0.000,0.000,0.000,0.000,0.000,17,16,4*79
$GPGGA,063047.20,3135.4758472,N,12046.5564869,E,4,17,1.5,2.7195,M,8.308,M,01,0004*6E
$GPHPD,0,0.000,144.18,-0.75,-12.68,31.5912641,120.7759414,2.720,13631408.272,24924160.089,2.720,0.000,0.000,0.000,0.000,0.000,0.000,0.000,17,16,4*79
$GPGGA,063047.40,3135.4757265,N,12046.5565782,E,4,17,1.5,2.6967,M,8.308,M,01,0004*68
$GPHPD,0,0.000,144.97,-0.82,-12.62,31.5912621,120.7759430,2.697,13631410.171,24924161.892,2.697,0.000,0.000,0.000,0.000,0.000,0.000,0.000,17,16,4*76
$GPGGA,063047.60,3135.4756132,N,12046.5566726,E,4,17,1.5,2.6930,M,8.308,M,00,0004*64
$GPHPD,0,0.000,145.11,-0.28,-12.62,31.5912602,120.7759445,2.693,13631411.972,24924163.690,2.693,0.000,0.000,0.000,0.000,0.000,0.000,0.000,17,16,4*7E
$GPGGA,063047.80,3135.4754969,N,12046.5567669,E,4,17,1.5,2.7186,M,8.308,M,00,0004*61
$GPHPD,0,0.000,145.13,-0.01,-12.62,31.5912583,120.7759461,2.719,13631413.815,24924165.504,2.719,0.000,0.000,0.000,0.000,0.000,0.000,0.000,17,16,4*71
$GPGGA,063048.00,3135.4753806,N,12046.5568643,E,4,17,1.5,2.6855,M,8.308,M,01,0004*69
$GPHPD,0,0.000,145.08,-0.32,-12.61,31.5912563,120.7759477,2.686,13631415.664,24924167.355,2.686,0.000,0.000,0.000,0.000,0.000,0.000,0.000,17,16,4*7F
$GPGGA,063048.20,3135.4752610,N,12046.5569578,E,4,17,1.5,2.6806,M,8.308,M,01,0004*6F
$GPHPD,0,0.000,145.08,0.69,-12.60,31.5912544,120.7759493,2.681,13631417.552,24924169.179,2.681,0.000,0.000,0.000,0.000,0.000,0.000,0.000,17,16,4*54
$GPGGA,063048.40,3135.4751389,N,12046.5570478,E,4,17,1.5,2.7048,M,8.308,M,01,0004*65
$GPHPD,0,0.000,145.22,0.45,-12.56,31.5912523,120.7759508,2.705,13631419.468,24924170.975,2.705,0.000,0.000,0.000,0.000,0.000,0.000,0.000,17,16,4*5F
$GPGGA,063048.60,3135.4750202,N,12046.5571409,E,4,17,1.5,2.7101,M,8.308,M,00,0004*6E
$GPHPD,0,0.000,144.72,-0.05,-12.54,31.5912503,120.7759523,2.710,13631421.343,24924172.789,2.710,0.000,0.000,0.000,0.000,0.000,0.000,0.000,17,16,4*71
$GPGGA,063048.80,3135.4749012,N,12046.5572362,E,4,17,1.5,2.7207,M,8.308,M,00,0004*67
$GPHPD,0,0.000,144.68,0.24,-12.50,31.5912484,120.7759539,2.721,13631423.226,24924174.630,2.721,0.000,0.000,0.000,0.000,0.000,0.000,0.000,17,16,4*50
$GPGGA,063049.00,3135.4747830,N,12046.5573307,E,4,17,1.5,2.7329,M,8.308,M,01,0004*66
$GPHPD,0,0.000,144.31,0.57,-12.45,31.5912464,120.7759555,2.733,13631425.096,24924176.458,2.733,0.000,0.000,0.000,0.000,0.000,0.000,0.000,17,16,4*59
$GPGGA,063049.20,3135.4746683,N,12046.5574256,E,4,17,1.5,2.7336,M,8.308,M,01,0004*6F
$GPHPD,0,0.000,144.63,-0.45,-12.45,31.5912445,120.7759571,2.734,13631426.917,24924178.270,2.734,0.000,0.000,0.000,0.000,0.000,0.000,0.000,17,16,4*74
$GPGGA,063049.40,3135.4745487,N,12046.5575158,E,4,17,1.5,2.7314,M,8.308,M,01,0004*60
$GPHPD,0,0.000,144.61,-0.27,-12.46,31.5912425,120.7759586,2.731,13631428.799,24924180.054,2.731,0.000,0.000,0.000,0.000,0.000,0.000,0.000,17,17,4*7B
$GPGGA,063049.60,3135.4744306,N,12046.5576126,E,4,17,1.5,2.7249,M,8.308,M,00,0004*6F
$GPHPD,0,0.000,144.50,-0.52,-12.46,31.5912405,120.7759602,2.725,13631430.672,24924181.908,2.725,0.000,0.000,0.000,0.000,0.000,0.000,0.000,17,17,4*7A
$GPGGA,063049.80,3135.4743124,N,12046.5577060,E,4,17,1.5,2.7312,M,8.308,M,00,0004*69
$GPHPD,0,0.000,144.50,-0.27,-12.47,31.5912385,120.7759618,2.731,13631432.540,24924183.723,2.731,0.000,0.000,0.000,0.000,0.000,0.000,0.000,17,17,4*78
$GPGGA,063050.00,3135.4741962,N,12046.5578007,E,4,17,1.5,2.7387,M,8.308,M,01,0004*62
$GPHPD,0,0.000,144.27,-0.19,-12.46,31.5912366,120.7759633,2.739,13631434.382,24924185.541,2.739,0.000,0.000,0.000,0.000,0.000,0.000,0.000,17,17,4*7E
$GPGGA,063050.20,3135.4740799,N,12046.5578952,E,4,17,1.5,2.7400,M,8.308,M,01,0004*6A
$GPHPD,0,0.000,144.33,-0.74,-12.45,31.5912347,120.7759649,2.740,13631436.226,24924187.357,2.740,0.000,0.000,0.000,0.000,0.000,0.000,0.000,17,17,4*73
$GPGGA,063050.40,3135.4739648,N,12046.5579892,E,4,17,1.5,2.7422,M,8.308,M,01,0004*63
$GPHPD,0,0.000,144.46,-0.50,-12.44,31.5912327,120.7759665,2.742,13631438.051,24924189.161,2.742,0.000,0.000,0.000,0.000,0.000,0.000,0.000,17,17,4*7B
$GPGGA,063050.60,3135.4738474,N,12046.5580846,E,4,17,1.5,2.7338,M,8.308,M,00,0004*6F
$GPHPD,0,0.000,144.61,-0.93,-12.44,31.5912308,120.7759681,2.734,13631439.911,24924190.994,2.734,0.000,0.000,0.000,0.000,0.000,0.000,0.000,17,17,4*70
$GPGGA,063050.80,3135.4737304,N,12046.5581744,E,4,17,1.5,2.7228,M,8.308,M,00,0004*62
$GPHPD,0,0.000,144.75,-0.93,-12.43,31.5912288,120.7759696,2.723,13631441.755,24924192.758,2.723,0.000,0.000,0.000,0.000,0.000,0.000,0.000,17,17,4*70
$GPGGA,063051.00,3135.4736135,N,12046.5582676,E,4,17,1.5,2.7102,M,8.308,M,01,0004*63
$GPHPD,0,0.000,144.71,-0.95,-12.42,31.5912269,120.7759711,2.710,13631443.604,24924194.563,2.710,0.000,0.000,0.000,0.000,0.000,0.000,0.000,17,17,4*79
$GPGGA,063051.20,3135.4734975,N,12046.5583635,E,4,17,1.5,2.7197,M,8.308,M,01,0004*65
$GPHPD,0,0.000,144.76,-0.29,-12.42,31.5912250,120.7759727,2.720,13631445.446,24924196.394,2.720,0.000,0.000,0.000,0.000,0.000,0.000,0.000,17,17,4*78
$GPGGA,063051.40,3135.4733789,N,12046.5584562,E,4,17,1.5,2.7165,M,8.308,M,01,0004*62
$GPHPD,0,0.000,145.00,-0.77,-12.43,31.5912230,120.7759743,2.717,13631447.318,24924198.202,2.717,0.000,0.000,0.000,0.000,0.000,0.000,0.000,17,17,4*78
$GPGGA,063051.60,3135.4732622,N,12046.5585495,E,4,17,1.5,2.7230,M,8.308,M,00,0004*6B
$GPHPD,0,0.000,144.94,-0.63,-12.41,31.5912210,120.7759758,2.723,13631449.165,24924200.007,2.723,0.000,0.000,0.000,0.000,0.000,0.000,0.000,17,17,4*78
$GPGGA,063051.80,3135.4731437,N,12046.5586455,E,4,17,1.5,2.7261,M,8.308,M,00,0004*6B
$GPHPD,0,0.000,144.79,-0.25,-12.40,31.5912191,120.7759774,2.726,13631451.042,24924201.854,2.726,0.000,0.000,0.000,0.000,0.000,0.000,0.000,17,17,4*7E
$GPGGA,063052.00,3135.4730256,N,12046.5587384,E,4,17,1.5,2.7286,M,8.308,M,01,0004*62
$GPHPD,0,0.000,144.88,-0.51,-12.37,31.5912171,120.7759790,2.729,13631452.908,24924203.662,2.729,0.000,0.000,0.000,0.000,0.000,0.000,0.000,17,17,4*7A
$GPGGA,063052.20,3135.4729096,N,12046.5588314,E,4,17,1.5,2.7357,M,8.308,M,01,0004*6D
$GPHPD,0,0.000,144.87,-0.32,-12.35,31.5912152,120.7759805,2.736,13631454.744,24924205.458,2.736,0.000,0.000,0.000,0.000,0.000,0.000,0.000,17,17,4*7D
$GPGGA,063052.40,3135.4727924,N,12046.5589254,E,4,17,1.5,2.7345,M,8.308,M,01,0004*62
$GPHPD,0,0.000,145.04,-0.58,-12.32,31.5912132,120.7759821,2.735,13631456.599,24924207.274,2.735,0.000,0.000,0.000,0.000,0.000,0.000,0.000,17,17,4*76
$GPGGA,063052.60,3135.4726757,N,12046.5590152,E,4,17,1.5,2.7352,M,8.308,M,00,0004*61
$GPHPD,0,0.000,145.28,-0.82,-12.32,31.5912113,120.7759836,2.735,13631458.438,24924209.036,2.735,0.000,0.000,0.000,0.000,0.000,0.000,0.000,17,17,4*74
$GPGGA,063052.80,3135.4725586,N,12046.5591090,E,4,17,1.5,2.7239,M,8.308,M,00,0004*60
$GPHPD,0,0.000,145.22,-0.90,-12.33,31.5912093,120.7759852,2.724,13631460.291,24924210.849,2.724,0.000,0.000,0.000,0.000,0.000,0.000,0.000,17,17,4*71
$GPGGA,063053.00,3135.4724414,N,12046.5592005,E,4,17,1.5,2.7089,M,8.308,M,01,0004*65
$GPHPD,0,0.000,145.49,-0.65,-12.33,31.5912074,120.7759867,2.709,13631462.141,24924212.634,2.709,0.000,0.000,0.000,0.000,0.000,0.000,0.000,17,17,4*73
$GPGGA,063053.20,3135.4723235,N,12046.5592929,E,4,17,1.5,2.7128,M,8.308,M,01,0004*68
$GPHPD,0,0.000,145.56,-0.16,-12.33,31.5912054,120.7759882,2.713,13631464.003,24924214.435,2.713,0.000,0.000,0.000,0.000,0.000,0.000,0.000,17,17,4*74
$GPGGA,063053.40,3135.4722037,N,12046.5593789,E,4,17,1.5,2.7160,M,8.308,M,01,0004*66
$GPHPD,0,0.000,145.42,-0.30,-12.34,31.5912034,120.7759896,2.716,13631465.879,24924216.169,2.716,0.000,0.000,0.000,0.000,0.000,0.000,0.000,17,17,4*7B
$GPGGA,063053.60,3135.4720881,N,12046.5594717,E,4,17,1.5,2.7089,M,8.308,M,00,0004*64
$GPHPD,0,0.000,145.42,-0.76,-12.35,31.5912015,120.7759912,2.709,13631467.709,24924217.961,2.709,0.000,0.000,0.000,0.000,0.000,0.000,0.000,17,17,4*7D
$GPGGA,063053.80,3135.4719718,N,12046.5595582,E,4,17,1.5,2.6941,M,8.309,M,00,0004*6D
$GPHPD,0,0.000,145.11,-0.30,-12.36,31.5911995,120.7759926,2.694,13631469.536,24924219.681,2.694,0.000,0.000,0.000,0.000,0.000,0.000,0.000,17,17,4*70
$GPGGA,063054.00,3135.4718545,N,12046.5596565,E,4,17,1.5,2.7038,M,8.309,M,01,0004*64
$GPHPD,0,0.000,144.95,0.18,-12.37,31.5911976,120.7759943,2.704,13631471.401,24924221.549,2.704,0.000,0.000,0.000,0.000,0.000,0.000,0.000,17,17,4*55
$GPGGA,063054.20,3135.4717414,N,12046.5597452,E,4,17,1.5,2.7029,M,8.309,M,01,0004*68
$GPHPD,0,0.000,145.11,-0.18,-12.37,31.5911957,120.7759958,2.703,13631473.187,24924223.277,2.703,0.000,0.000,0.000,0.000,0.000,0.000,0.000,17,17,4*7D
$GPGGA,063054.40,3135.4716268,N,12046.5598387,E,4,17,1.5,2.7081,M,8.309,M,01,0004*60
$GPHPD,0,0.000,144.92,-0.19,-12.39,31.5911938,120.7759973,2.708,13631475.004,24924225.071,2.708,0.000,0.000,0.000,0.000,0.000,0.000,0.000,17,17,4*76
$GPGGA,063054.60,3135.4715108,N,12046.5599280,E,4,17,1.5,2.7012,M,8.309,M,00,0004*68
$GPHPD,0,0.000,144.97,-0.45,-12.39,31.5911918,120.7759988,2.701,13631476.832,24924226.823,2.701,0.000,0.000,0.000,0.000,0.000,0.000,0.000,17,17,4*7E
$GPGGA,063054.80,3135.4713971,N,12046.5600228,E,4,17,1.5,2.7041,M,8.309,M,00,0004*61
$GPHPD,0,0.000,144.54,0.08,-12.39,31.5911900,120.7760004,2.704,13631478.639,24924228.628,2.704,0.000,0.000,0.000,0.000,0.000,0.000,0.000,17,17,4*5B
$GPGGA,063055.00,3135.4712837,N,12046.5601141,E,4,17,1.5,2.7108,M,8.309,M,01,0004*6A
$GPHPD,0,0.000,144.62,0.37,-12.39,31.5911881,120.7760019,2.711,13631480.435,24924230.389,2.711,0.000,0.000,0.000,0.000,0.000,0.000,0.000,17,17,4*58
$GPGGA,063055.20,3135.4711649,N,12046.5602050,E,4,17,1.5,2.7008,M,8.309,M,01,0004*6F
$GPHPD,0,0.000,144.59,-0.35,-12.40,31.5911861,120.7760034,2.701,13631482.306,24924232.177,2.701,0.000,0.000,0.000,0.000,0.000,0.000,0.000,17,17,4*74
$GPGGA,063055.40,3135.4710525,N,12046.5602980,E,4,17,1.5,2.7030,M,8.309,M,01,0004*6E
$GPHPD,0,0.000,144.45,0.33,-12.38,31.5911842,120.7760050,2.703,13631484.091,24924233.952,2.703,0.000,0.000,0.000,0.000,0.000,0.000,0.000,17,17,4*5B
$GPGGA,063055.60,3135.4709374,N,12046.5603907,E,4,17,1.5,2.7193,M,8.309,M,00,0004*61
$GPHPD,0,0.000,144.36,0.25,-12.36,31.5911823,120.7760065,2.719,13631485.914,24924235.740,2.719,0.000,0.000,0.000,0.000,0.000,0.000,0.000,17,17,4*59
$GPGGA,063055.80,3135.4708267,N,12046.5604847,E,4,17,1.5,2.7115,M,8.309,M,00,0004*61
$GPHPD,0,0.000,144.32,0.08,-12.36,31.5911804,120.7760081,2.712,13631487.676,24924237.518,2.712,0.000,0.000,0.000,0.000,0.000,0.000,0.000,17,17,4*59
$GPGGA,063056.00,3135.4707083,N,12046.5605777,E,4,17,1.5,2.7085,M,8.309,M,01,0004*69
$GPHPD,0,0.000,144.17,0.50,-12.33,31.5911785,120.7760096,2.709,13631489.546,24924239.329,2.709,0.000,0.000,0.000,0.000,0.000,0.000,0.000,17,17,4*52
$GPGGA,063056.20,3135.4705934,N,12046.5606719,E,4,17,1.5,2.7174,M,8.309,M,01,0004*68
$GPHPD,0,0.000,144.40,-0.12,-12.31,31.5911766,120.7760112,2.717,13631491.369,24924241.133,2.717,0.000,0.000,0.000,0.000,0.000,0.000,0.000,17,17,4*7D
$GPGGA,063056.40,3135.4704817,N,12046.5607656,E,4,17,1.5,2.7217,M,8.309,M,01,0004*62
$GPHPD,0,0.000,144.51,-0.48,-12.30,31.5911747,120.7760128,2.722,13631493.145,24924242.913,2.722,0.000,0.000,0.000,0.000,0.000,0.000,0.000,17,17,4*7E
$GPGGA,063056.60,3135.4703639,N,12046.5608604,E,4,17,1.5,2.7236,M,8.309,M,00,0004*6F
$GPHPD,0,0.000,144.39,-0.67,-12.26,31.5911727,120.7760143,2.724,13631495.010,24924244.742,2.724,0.000,0.000,0.000,0.000,0.000,0.000,0.000,17,17,4*7A
$GPGGA,063056.80,3135.4702483,N,12046.5609517,E,4,17,1.5,2.7355,M,8.309,M,00,0004*67
$GPHPD,0,0.000,144.40,-1.30,-12.26,31.5911708,120.7760159,2.736,13631496.837,24924246.516,2.736,0.000,0.000,0.000,0.000,0.000,0.000,0.000,17,17,4*7E
$GPGGA,063057.00,3135.4701309,N,12046.5610473,E,4,17,1.5,2.7247,M,8.309,M,01,0004*60
$GPHPD,0,0.000,144.33,-1.18,-12.21,31.5911688,120.7760175,2.725,13631498.698,24924248.352,2.725,0.000,0.000,0.000,0.000,0.000,0.000,0.000,17,17,4*7D
$GPGGA,063057.20,3135.4700127,N,12046.5611419,E,4,17,1.5,2.7120,M,8.309,M,01,0004*62
$GPHPD,0,0.000,144.51,-1.55,-12.21,31.5911669,120.7760190,2.712,13631500.569,24924250.181,2.712,0.000,0.000,0.000,0.000,0.000,0.000,0.000,17,17,4*7C
$GPGGA,063057.40,3135.4698980,N,12046.5612366,E,4,17,1.5,2.6929,M,8.309,M,01,0004*6D
$GPHPD,0,0.000,144.71,-1.22,-12.21,31.5911650,120.7760206,2.693,13631502.389,24924251.990,2.693,0.000,0.000,0.000,0.000,0.000,0.000,0.000,17,17,4*7B
$GPGGA,063057.60,3135.4697812,N,12046.5613305,E,4,17,1.5,2.7008,M,8.309,M,00,0004*64
$GPHPD,0,0.000,144.64,-0.10,-12.21,31.5911630,120.7760222,2.701,13631504.239,24924253.802,2.701,0.000,0.000,0.000,0.000,0.000,0.000,0.000,17,17,4*7B
$GPGGA,063057.80,3135.4696643,N,12046.5614209,E,4,17,1.5,2.6901,M,8.309,M,00,0004*6A
$GPHPD,0,0.000,144.39,-0.49,-12.21,31.5911611,120.7760237,2.690,13631506.082,24924255.573,2.690,0.000,0.000,0.000,0.000,0.000,0.000,0.000,17,17,4*75
$GPGGA,063058.00,3135.4695445,N,12046.5615174,E,4,17,1.5,2.7088,M,8.309,M,01,0004*6A
$GPHPD,0,0.000,144.42,-0.59,-12.23,31.5911591,120.7760253,2.709,13631507.979,24924257.434,2.709,0.000,0.000,0.000,0.000,0.000,0.000,0.000,17,16,4*7E
$GPGGA,063058.20,3135.4694306,N,12046.5616106,E,4,17,1.5,2.6936,M,8.309,M,01,0004*62
$GPHPD,0,0.000,144.58,-0.59,-12.24,31.5911572,120.7760268,2.694,13631509.785,24924259.221,2.694,0.000,0.000,0.000,0.000,0.000,0.000,0.000,17,16,4*78
$GPGGA,063058.40,3135.4693129,N,12046.5617053,E,4,17,1.5,2.6830,M,8.309,M,01,0004*6B
$GPHPD,0,0.000,144.85,-0.33,-12.24,31.5911552,120.7760284,2.683,13631511.649,24924261.048,2.683,0.000,0.000,0.000,0.000,0.000,0.000,0.000,17,16,4*7A
$GPGGA,063058.60,3135.4691941,N,12046.5618009,E,4,17,1.5,2.7083,M,8.309,M,00,0004*6D
$GPHPD,0,0.000,144.43,0.56,-12.24,31.5911532,120.7760300,2.708,13631513.530,24924262.892,2.708,0.000,0.000,0.000,0.000,0.000,0.000,0.000,17,16,4*56
$GPGGA,063058.80,3135.4690761,N,12046.5618989,E,4,17,1.5,2.6996,M,8.309,M,00,0004*63
$GPHPD,0,0.000,144.38,-0.44,-12.24,31.5911513,120.7760316,2.700,13631515.404,24924264.760,2.700,0.000,0.000,0.000,0.000,0.000,0.000,0.000,17,16,4*74
$GPGGA,063059.00,3135.4689573,N,12046.5619912,E,4,17,1.5,2.6804,M,8.309,M,01,0004*6B
$GPHPD,0,0.000,144.50,-0.41,-12.28,31.5911493,120.7760332,2.680,13631517.279,24924266.565,2.680,0.000,0.000,0.000,0.000,0.000,0.000,0.000,17,17,4*76
$GPGGA,063059.20,3135.4688326,N,12046.5620878,E,4,17,1.5,2.6955,M,8.309,M,01,0004*6C
$GPHPD,0,0.000,144.41,-0.53,-12.30,31.5911472,120.7760348,2.696,13631519.246,24924268.456,2.696,0.000,0.000,0.000,0.000,0.000,0.000,0.000,17,17,4*73
$GPGGA,063059.40,3135.4687150,N,12046.5621804,E,4,17,1.5,2.7043,M,8.309,M,01,0004*63
$GPHPD,0,0.000,144.03,-0.90,-12.30,31.5911453,120.7760363,2.704,13631521.103,24924270.257,2.704,0.000,0.000,0.000,0.000,0.000,0.000,0.000,17,17,4*77
$GPGGA,063059.60,3135.4685975,N,12046.5622774,E,4,17,1.5,2.7077,M,8.309,M,00,0004*61
$GPHPD,0,0.000,143.69,-0.33,-12.29,31.5911433,120.7760380,2.708,13631522.969,24924272.110,2.708,0.000,0.000,0.000,0.000,0.000,0.000,0.000,17,16,4*72
$GPGGA,063059.80,3135.4684813,N,12046.5623735,E,4,17,1.5,2.6831,M,8.309,M,00,0004*60
$GPHPD,0,0.000,144.33,-1.44,-12.26,31.5911414,120.7760396,2.683,13631524.814,24924273.945,2.683,0.000,0.000,0.000,0.000,0.000,0.000,0.000,17,16,4*72
$GPGGA,063100.00,3135.4683655,N,12046.5624652,E,4,17,1.5,2.6768,M,8.309,M,01,0004*6B
$GPHPD,0,0.000,144.66,-0.72,-12.25,31.5911394,120.7760411,2.677,13631526.644,24924275.725,2.677,0.000,0.000,0.000,0.000,0.000,0.000,0.000,17,16,4*75
$GPGGA,063100.20,3135.4682486,N,12046.5625589,E,4,17,1.5,2.6620,M,8.309,M,01,0004*6D
$GPHPD,0,0.000,144.65,-0.73,-12.24,31.5911375,120.7760426,2.662,13631528.494,24924277.535,2.662,0.000,0.000,0.000,0.000,0.000,0.000,0.000,17,16,4*7D
$GPGGA,063100.40,3135.4681300,N,12046.5626576,E,4,17,1.5,2.6668,M,8.309,M,01,0004*6E
$GPHPD,0,0.000,144.53,-0.47,-12.26,31.5911355,120.7760443,2.667,13631530.379,24924279.416,2.667,0.000,0.000,0.000,0.000,0.000,0.000,0.000,17,16,4*7F
$GPGGA,063100.60,3135.4680169,N,12046.5627508,E,4,17,1.5,2.6725,M,8.309,M,00,0004*61
$GPHPD,0,0.000,144.33,-0.69,-12.27,31.5911336,120.7760458,2.673,13631532.174,24924281.198,2.673,0.000,0.000,0.000,0.000,0.000,0.000,0.000,17,16,4*72
$GPGGA,063100.80,3135.4678937,N,12046.5628438,E,4,17,1.5,2.6744,M,8.309,M,00,0004*61
$GPHPD,0,0.000,144.49,-0.40,-12.28,31.5911316,120.7760474,2.674,13631534.112,24924283.037,2.674,0.000,0.000,0.000,0.000,0.000,0.000,0.000,17,16,4*77
$GPGGA,063101.00,3135.4677796,N,12046.5629363,E,4,16,1.5,2.6827,M,8.309,M,01,0004*60
$GPHPD,0,0.000,144.28,-0.65,-12.28,31.5911297,120.7760489,2.683,13631535.920,24924284.816,2.683,0.000,0.000,0.000,0.000,0.000,0.000,0.000,16,15,4*7B
$GPGGA,063101.20,3135.4676633,N,12046.5630278,E,4,16,1.5,2.6843,M,8.309,M,01,0004*6C
$GPHPD,0,0.000,144.45,-0.38,-12.28,31.5911277,120.7760505,2.684,13631537.757,24924286.596,2.684,0.000,0.000,0.000,0.000,0.000,0.000,0.000,16,15,4*78
$GPGGA,063101.40,3135.4675457,N,12046.5631228,E,4,15,1.5,2.6653,M,8.309,M,01,0004*61
$GPHPD,0,0.000,144.34,-0.61,-12.29,31.5911258,120.7760520,2.665,13631539.620,24924288.426,2.665,0.000,0.000,0.000,0.000,0.000,0.000,0.000,15,15,4*71
$GPGGA,063101.60,3135.4674362,N,12046.5632168,E,4,15,1.5,2.6494,M,8.309,M,00,0004*6F
$GPHPD,0,0.000,144.35,0.31,-12.27,31.5911239,120.7760536,2.649,13631541.365,24924290.197,2.649,0.000,0.000,0.000,0.000,0.000,0.000,0.000,15,15,4*5B
$GPGGA,063101.80,3135.4673173,N,12046.5633119,E,4,15,1.5,2.6830,M,8.309,M,00,0004*61
$GPHPD,0,0.000,144.79,0.02,-12.30,31.5911220,120.7760552,2.683,13631543.247,24924292.036,2.683,0.000,0.000,0.000,0.000,0.000,0.000,0.000,15,15,4*54
$GPGGA,063102.00,3135.4672044,N,12046.5634031,E,4,15,1.5,2.6619,M,8.309,M,01,0004*66
$GPHPD,0,0.000,144.27,0.46,-12.32,31.5911201,120.7760567,2.662,13631545.035,24924293.793,2.662,0.000,0.000,0.000,0.000,0.000,0.000,0.000,15,15,4*50
$GPGGA,063102.20,3135.4670840,N,12046.5634945,E,4,15,1.5,2.6738,M,8.309,M,01,0004*62
$GPHPD,0,0.000,144.71,0.30,-12.32,31.5911181,120.7760582,2.674,13631546.930,24924295.596,2.674,0.000,0.000,0.000,0.000,0.000,0.000,0.000,15,15,4*5C
$GPGGA,063102.40,3135.4669685,N,12046.5635900,E,4,15,1.5,2.6705,M,8.309,M,01,0004*65
$GPHPD,0,0.000,144.67,-0.56,-12.33,31.5911161,120.7760598,2.671,13631548.764,24924297.420,2.671,0.000,0.000,0.000,0.000,0.000,0.000,0.000,15,15,4*7D
$GPGGA,063102.60,3135.4668537,N,12046.5636820,E,4,15,1.5,2.6812,M,8.309,M,00,0004*64
$GPHPD,0,0.000,144.83,-0.62,-12.33,31.5911142,120.7760614,2.681,13631550.581,24924299.197,2.681,0.000,0.000,0.000,0.000,0.000,0.000,0.000,15,15,4*71
$GPGGA,063102.80,3135.4667397,N,12046.5637729,E,4,15,1.5,2.6671,M,8.309,M,00,0004*65
$GPHPD,0,0.000,144.68,-0.36,-12.33,31.5911123,120.7760629,2.667,13631552.384,24924300.957,2.667,0.000,0.000,0.000,0.000,0.000,0.000,0.000,15,15,4*78
$GPGGA,063103.00,3135.4666264,N,12046.5638662,E,4,15,1.5,2.6794,M,8.309,M,01,0004*6A
$GPHPD,0,0.000,144.83,0.62,-12.33,31.5911104,120.7760644,2.679,13631554.182,24924302.742,2.679,0.000,0.000,0.000,0.000,0.000,0.000,0.000,15,15,4*55
$GPGGA,063103.20,3135.4665097,N,12046.5639611,E,4,15,1.5,2.6701,M,8.309,M,01,0004*6C
$GPHPD,0,0.000,144.73,-1.09,-12.33,31.5911085,120.7760660,2.670,13631556.032,24924304.565,2.670,0.000,0.000,0.000,0.000,0.000,0.000,0.000,15,15,4*7C
$GPGGA,063103.40,3135.4663945,N,12046.5640471,E,4,16,1.5,2.6670,M,8.309,M,01,0004*64
$GPHPD,0,0.000,144.86,-0.69,-12.32,31.5911066,120.7760675,2.667,13631557.843,24924306.273,2.667,0.000,0.000,0.000,0.000,0.000,0.000,0.000,16,16,4*74
$GPGGA,063103.60,3135.4662841,N,12046.5641409,E,4,16,1.5,2.6612,M,8.309,M,00,0004*69
$GPHPD,0,0.000,144.41,-0.41,-12.32,31.5911047,120.7760690,2.661,13631559.601,24924308.046,2.661,0.000,0.000,0.000,0.000,0.000,0.000,0.000,16,16,4*71
$GPGGA,063103.80,3135.4661658,N,12046.5642345,E,4,16,1.5,2.6686,M,8.309,M,00,0004*63
$GPHPD,0,0.000,144.52,-0.01,-12.31,31.5911028,120.7760706,2.669,13631561.470,24924309.864,2.669,0.000,0.000,0.000,0.000,0.000,0.000,0.000,16,16,4*75
$GPGGA,063104.00,3135.4660484,N,12046.5643284,E,4,16,1.5,2.6733,M,8.309,M,01,0004*6D
$GPHPD,0,0.000,144.69,-0.76,-12.34,31.5911008,120.7760721,2.673,13631563.328,24924311.679,2.673,0.000,0.000,0.000,0.000,0.000,0.000,0.000,16,16,4*7C
$GPGGA,063104.20,3135.4659372,N,12046.5644215,E,4,16,1.5,2.6720,M,8.309,M,01,0004*66
$GPHPD,0,0.000,144.70,-0.53,-12.33,31.5910990,120.7760737,2.672,13631565.096,24924313.449,2.672,0.000,0.000,0.000,0.000,0.000,0.000,0.000,16,16,4*79
$GPGGA,063104.40,3135.4658219,N,12046.5645112,E,4,16,1.5,2.6675,M,8.309,M,01,0004*69
$GPHPD,0,0.000,144.79,-0.65,-12.34,31.5910970,120.7760752,2.668,13631566.915,24924315.202,2.668,0.000,0.000,0.000,0.000,0.000,0.000,0.000,16,16,4*71
$GPGGA,063104.60,3135.4657064,N,12046.5646058,E,4,16,1.5,2.6649,M,8.309,M,00,0004*6E
$GPHPD,0,0.000,144.57,-0.92,-12.32,31.5910951,120.7760768,2.665,13631568.747,24924317.015,2.665,0.000,0.000,0.000,0.000,0.000,0.000,0.000,16,16,4*78
$GPGGA,063104.80,3135.4655901,N,12046.5646976,E,4,16,1.5,2.6757,M,8.309,M,00,0004*63
$GPHPD,0,0.000,144.92,-1.04,-12.31,31.5910932,120.7760783,2.676,13631570.585,24924318.799,2.676,0.000,0.000,0.000,0.000,0.000,0.000,0.000,16,16,4*75
$GPGGA,063105.00,3135.4654734,N,12046.5647891,E,4,16,1.5,2.6749,M,8.309,M,01,0004*64
$GPHPD,0,0.000,144.78,-0.93,-12.31,31.5910912,120.7760798,2.675,13631572.428,24924320.581,2.675,0.000,0.000,0.000,0.000,0.000,0.000,0.000,16,16,4*72
$GPGGA,063105.20,3135.4653560,N,12046.5648826,E,4,16,1.5,2.6729,M,8.309,M,01,0004*67
$GPHPD,0,0.000,144.61,-0.59,-12.30,31.5910893,120.7760814,2.673,13631574.285,24924322.392,2.673,0.000,0.000,0.000,0.000,0.000,0.000,0.000,16,16,4*7F
$GPGGA,063105.40,3135.4652420,N,12046.5649753,E,4,16,1.5,2.6595,M,8.309,M,01,0004*6C
$GPHPD,0,0.000,144.69,-0.64,-12.31,31.5910874,120.7760829,2.660,13631576.092,24924324.174,2.660,0.000,0.000,0.000,0.000,0.000,0.000,0.000,16,16,4*75
$GPGGA,063105.60,3135.4651259,N,12046.5650674,E,4,16,1.5,2.6597,M,8.309,M,00,0004*6A
$GPHPD,0,0.000,144.54,-0.37,-12.32,31.5910854,120.7760845,2.660,13631577.927,24924325.960,2.660,0.000,0.000,0.000,0.000,0.000,0.000,0.000,16,16,4*7C
$GPGGA,063105.80,3135.4650099,N,12046.5651585,E,4,16,1.5,2.6512,M,8.309,M,00,0004*6A
$GPHPD,0,0.000,144.49,-0.02,-12.33,31.5910835,120.7760860,2.651,13631579.759,24924327.734,2.651,0.000,0.000,0.000,0.000,0.000,0.000,0.000,16,16,4*73
$GPGGA,063106.00,3135.4648911,N,12046.5652531,E,4,16,1.5,2.6589,M,8.309,M,01,0004*6E
$GPHPD,0,0.000,144.25,0.10,-12.33,31.5910815,120.7760876,2.659,13631581.638,24924329.566,2.659,0.000,0.000,0.000,0.000,0.000,0.000,0.000,16,16,4*58
$GPGGA,063106.20,3135.4647711,N,12046.5653436,E,4,16,1.5,2.6569,M,8.309,M,01,0004*64
$GPHPD,0,0.000,144.64,-0.26,-12.27,31.5910795,120.7760891,2.657,13631583.526,24924331.356,2.657,0.000,0.000,0.000,0.000,0.000,0.000,0.000,16,16,4*7C
$GPGGA,063106.40,3135.4646514,N,12046.5654367,E,4,16,1.5,2.6580,M,8.309,M,01,0004*67
$GPHPD,0,0.000,144.65,-0.22,-12.22,31.5910775,120.7760906,2.658,13631585.415,24924333.175,2.658,0.000,0.000,0.000,0.000,0.000,0.000,0.000,16,16,4*7B
$GPGGA,063106.60,3135.4645412,N,12046.5655381,E,4,16,1.5,2.6542,M,8.309,M,00,0004*67
$GPHPD,0,0.000,144.76,-0.48,-12.29,31.5910757,120.7760923,2.654,13631587.185,24924335.039,2.654,0.000,0.000,0.000,0.000,0.000,0.000,0.000,16,16,4*78
$GPGGA,063106.80,3135.4644297,N,12046.5656332,E,4,16,1.5,2.6579,M,8.309,M,00,0004*60
$GPHPD,0,0.000,144.79,-0.35,-12.35,31.5910738,120.7760939,2.658,13631588.961,24924336.835,2.658,0.000,0.000,0.000,0.000,0.000,0.000,0.000,16,16,4*78
$GPGGA,063107.00,3135.4643110,N,12046.5657241,E,4,16,1.5,2.6626,M,8.309,M,01,0004*6E
$GPHPD,0,0.000,144.89,-0.51,-12.32,31.5910719,120.7760954,2.663,13631590.832,24924338.622,2.663,0.000,0.000,0.000,0.000,0.000,0.000,0.000,16,16,4*72
$GPGGA,063107.20,3135.4641965,N,12046.5658151,E,4,16,1.5,2.6583,M,8.309,M,01,0004*65
$GPHPD,0,0.000,144.83,-0.56,-12.35,31.5910699,120.7760969,2.658,13631592.642,24924340.386,2.658,0.000,0.000,0.000,0.000,0.000,0.000,0.000,16,16,4*70
$GPGGA,063107.40,3135.4640798,N,12046.5659058,E,4,17,1.5,2.6579,M,8.309,M,01,0004*63
$GPHPD,0,0.000,144.77,-0.39,-12.35,31.5910680,120.7760984,2.658,13631594.483,24924342.159,2.658,0.000,0.000,0.000,0.000,0.000,0.000,0.000,17,17,4*72
$GPGGA,063107.60,3135.4639622,N,12046.5659986,E,4,17,1.5,2.6603,M,8.309,M,00,0004*6A
$GPHPD,0,0.000,144.47,-0.32,-12.32,31.5910660,120.7761000,2.660,13631596.342,24924343.962,2.660,0.000,0.000,0.000,0.000,0.000,0.000,0.000,17,17,4*7E
$GPGGA,063107.80,3135.4638489,N,12046.5660915,E,4,17,1.5,2.6554,M,8.309,M,00,0004*67
$GPHPD,0,0.000,144.60,-0.56,-12.32,31.5910641,120.7761015,2.655,13631598.139,24924345.742,2.655,0.000,0.000,0.000,0.000,0.000,0.000,0.000,17,17,4*74
$GPGGA,063108.00,3135.4637326,N,12046.5661834,E,4,17,1.5,2.6428,M,8.309,M,01,0004*65
$GPHPD,0,0.000,144.47,-0.93,-12.32,31.5910622,120.7761031,2.643,13631599.977,24924347.527,2.643,0.000,0.000,0.000,0.000,0.000,0.000,0.000,17,17,4*7B
$GPGGA,063108.20,3135.4636171,N,12046.5662761,E,4,17,1.5,2.6440,M,8.309,M,01,0004*64
$GPHPD,0,0.000,144.77,-0.31,-12.37,31.5910603,120.7761046,2.644,13631601.805,24924349.317,2.644,0.000,0.000,0.000,0.000,0.000,0.000,0.000,17,17,4*7B
$GPGGA,063108.40,3135.4634977,N,12046.5663659,E,4,17,1.5,2.6352,M,8.309,M,01,0004*61
$GPHPD,0,0.000,144.36,-0.44,-12.52,31.5910583,120.7761061,2.635,13631603.683,24924351.095,2.635,0.000,0.000,0.000,0.000,0.000,0.000,0.000,17,17,4*73
$GPGGA,063108.60,3135.4633863,N,12046.5664597,E,4,17,1.5,2.6394,M,8.309,M,00,0004*6D
$GPHPD,0,0.000,144.33,0.05,-12.47,31.5910564,120.7761077,2.639,13631605.455,24924352.874,2.639,0.000,0.000,0.000,0.000,0.000,0.000,0.000,17,17,4*5F
$GPGGA,063108.80,3135.4632696,N,12046.5665568,E,4,17,1.5,2.6492,M,8.309,M,00,0004*66
$GPHPD,0,0.000,144.28,-0.19,-12.31,31.5910545,120.7761093,2.649,13631607.309,24924354.724,2.649,0.000,0.000,0.000,0.000,0.000,0.000,0.000,17,17,4*7D
$GPGGA,063109.00,3135.4631564,N,12046.5666493,E,4,17,1.5,2.6404,M,8.309,M,01,0004*6A
$GPHPD,0,0.000,144.21,-0.42,-12.30,31.5910526,120.7761108,2.640,13631609.104,24924356.499,2.640,0.000,0.000,0.000,0.000,0.000,0.000,0.000,17,17,4*7B
$GPGGA,063109.20,3135.4630406,N,12046.5667407,E,4,17,1.5,2.6440,M,8.309,M,01,0004*60
$GPHPD,0,0.000,144.25,0.03,-12.30,31.5910507,120.7761123,2.644,13631610.934,24924358.275,2.644,0.000,0.000,0.000,0.000,0.000,0.000,0.000,17,17,4*54
$GPGGA,063109.40,3135.4629283,N,12046.5668384,E,4,17,1.5,2.6412,M,8.309,M,01,0004*61
$GPHPD,0,0.000,144.25,0.24,-12.30,31.5910488,120.7761140,2.641,13631612.727,24924360.107,2.641,0.000,0.000,0.000,0.000,0.000,0.000,0.000,17,17,4*51
$GPGGA,063109.60,3135.4628123,N,12046.5669301,E,4,17,1.5,2.6508,M,8.309,M,00,0004*6C
$GPHPD,0,0.000,144.19,-0.40,-12.30,31.5910469,120.7761155,2.651,13631614.561,24924361.888,2.651,0.000,0.000,0.000,0.000,0.000,0.000,0.000,17,17,4*73
$GPGGA,063109.80,3135.4626939,N,12046.5670240,E,4,17,1.5,2.6488,M,8.309,M,00,0004*6A
$GPHPD,0,0.000,144.26,-0.77,-12.32,31.5910449,120.7761171,2.649,13631616.432,24924363.709,2.649,0.000,0.000,0.000,0.000,0.000,0.000,0.000,17,17,4*7C
$GPGGA,063110.00,3135.4625808,N,12046.5671193,E,4,17,1.5,2.6509,M,8.309,M,01,0004*6F
$GPHPD,0,0.000,144.16,-0.05,-12.32,31.5910430,120.7761187,2.651,13631618.232,24924365.516,2.651,0.000,0.000,0.000,0.000,0.000,0.000,0.000,17,17,4*7F
$GPGGA,063110.20,3135.4624617,N,12046.5672121,E,4,17,1.5,2.6471,M,8.309,M,01,0004*68
$GPHPD,0,0.000,144.15,0.29,-12.32,31.5910410,120.7761202,2.647,13631620.111,24924367.329,2.647,0.000,0.000,0.000,0.000,0.000,0.000,0.000,17,17,4*52
$GPGGA,063110.40,3135.4623460,N,12046.5673080,E,4,17,1.5,2.6462,M,8.309,M,01,0004*62
$GPHPD,0,0.000,144.51,-0.38,-12.31,31.5910391,120.7761218,2.646,13631621.949,24924369.159,2.646,0.000,0.000,0.000,0.000,0.000,0.000,0.000,17,17,4*76
$GPGGA,063110.60,3135.4622351,N,12046.5674006,E,4,17,1.5,2.6375,M,8.309,M,00,0004*6D
$GPHPD,0,0.000,144.52,-0.30,-12.30,31.5910373,120.7761233,2.638,13631623.711,24924370.921,2.638,0.000,0.000,0.000,0.000,0.000,0.000,0.000,17,17,4*77
$GPGGA,063110.80,3135.4621192,N,12046.5674932,E,4,17,1.5,2.6393,M,8.309,M,00,0004*6B
$GPHPD,0,0.000,144.81,-0.64,-12.30,31.5910353,120.7761249,2.639,13631625.545,24924372.712,2.639,0.000,0.000,0.000,0.000,0.000,0.000,0.000,17,17,4*7E
$GPGGA,063111.00,3135.4620010,N,12046.5675878,E,4,17,1.5,2.6248,M,8.309,M,01,0004*60
$GPHPD,0,0.000,144.52,-0.14,-12.31,31.5910334,120.7761265,2.625,13631627.416,24924374.541,2.625,0.000,0.000,0.000,0.000,0.000,0.000,0.000,17,17,4*7E
$GPGGA,063111.20,3135.4618787,N,12046.5676825,E,4,17,1.5,2.6330,M,8.309,M,01,0004*65
$GPHPD,0,0.000,145.02,-0.15,-12.31,31.5910313,120.7761280,2.633,13631629.345,24924376.394,2.633,0.000,0.000,0.000,0.000,0.000,0.000,0.000,17,17,4*76
$GPGGA,063111.40,3135.4617640,N,12046.5677752,E,4,17,1.5,2.6440,M,8.309,M,01,0004*68
$GPHPD,0,0.000,145.12,-0.05,-12.31,31.5910294,120.7761296,2.644,13631631.161,24924378.180,2.644,0.000,0.000,0.000,0.000,0.000,0.000,0.000,17,17,4*7B
$GPGGA,063111.60,3135.4616485,N,12046.5678695,E,4,17,1.5,2.6462,M,8.309,M,00,0004*64
$GPHPD,0,0.000,144.60,-0.45,-12.30,31.5910275,120.7761312,2.646,13631632.993,24924379.989,2.646,0.000,0.000,0.000,0.000,0.000,0.000,0.000,17,17,4*7E
$GPGGA,063111.80,3135.4615293,N,12046.5679614,E,4,17,1.5,2.6174,M,8.309,M,00,0004*62
$GPHPD,0,0.000,144.89,-0.62,-12.29,31.5910255,120.7761327,2.617,13631634.872,24924381.791,2.617,0.000,0.000,0.000,0.000,0.000,0.000,0.000,17,17,4*78
$GPGGA,063112.00,3135.4614106,N,12046.5680600,E,4,17,1.5,2.6310,M,8.309,M,01,0004*65
$GPHPD,0,0.000,144.65,0.43,-12.25,31.5910235,120.7761343,2.631,13631636.758,24924383.671,2.631,0.000,0.000,0.000,0.000,0.000,0.000,0.000,17,17,4*54
$GPGGA,063112.20,3135.4612912,N,12046.5681560,E,4,17,1.5,2.6400,M,8.309,M,01,0004*6E
$GPHPD,0,0.000,145.40,-0.08,-12.25,31.5910215,120.7761359,2.640,13631638.648,24924385.524,2.640,0.000,0.000,0.000,0.000,0.000,0.000,0.000,17,17,4*72
$GPGGA,063112.40,3135.4611732,N,12046.5682485,E,4,17,1.5,2.6423,M,8.309,M,01,0004*6F
$GPHPD,0,0.000,144.90,-0.49,-12.24,31.5910196,120.7761375,2.642,13631640.511,24924387.326,2.642,0.000,0.000,0.000,0.000,0.000,0.000,0.000,17,17,4*7A
$GPGGA,063112.60,3135.4610568,N,12046.5683417,E,4,17,1.5,2.6255,M,8.309,M,00,0004*6D
$GPHPD,0,0.000,144.76,-0.55,-12.23,31.5910176,120.7761390,2.626,13631642.353,24924389.127,2.626,0.000,0.000,0.000,0.000,0.000,0.000,0.000,17,17,4*72
$GPGGA,063112.80,3135.4609398,N,12046.5684412,E,4,17,1.5,2.6213,M,8.309,M,00,0004*62
$GPHPD,0,0.000,144.40,0.14,-12.23,31.5910157,120.7761407,2.621,13631644.217,24924391.008,2.621,0.000,0.000,0.000,0.000,0.000,0.000,0.000,17,17,4*57
$GPGGA,063113.00,3135.4608211,N,12046.5685346,E,4,17,1.5,2.6409,M,8.309,M,01,0004*61
$GPHPD,0,0.000,144.48,0.26,-12.25,31.5910137,120.7761422,2.641,13631646.092,24924392.825,2.641,0.000,0.000,0.000,0.000,0.000,0.000,0.000,17,17,4*50
$GPGGA,063113.20,3135.4607033,N,12046.5686287,E,4,17,1.5,2.6360,M,8.309,M,01,0004*69
$GPHPD,0,0.000,144.36,-0.48,-12.24,31.5910117,120.7761438,2.636,13631647.955,24924394.646,2.636,0.000,0.000,0.000,0.000,0.000,0.000,0.000,17,17,4*7A
$GPGGA,063113.40,3135.4605884,N,12046.5687232,E,4,17,1.5,2.6431,M,8.309,M,01,0004*65
$GPHPD,0,0.000,144.00,-0.16,-12.23,31.5910098,120.7761454,2.643,13631649.779,24924396.454,2.643,0.000,0.000,0.000,0.000,0.000,0.000,0.000,17,17,4*72
$GPGGA,063113.60,3135.4604677,N,12046.5688225,E,4,17,1.5,2.6369,M,8.309,M,00,0004*66
$GPHPD,0,0.000,144.20,-0.60,-12.22,31.5910078,120.7761470,2.637,13631651.694,24924398.354,2.637,0.000,0.000,0.000,0.000,0.000,0.000,0.000,17,16,4*7B
$GPGGA,063113.80,3135.4603525,N,12046.5689159,E,4,17,1.5,2.6328,M,8.309,M,00,0004*67
$GPHPD,0,0.000,144.32,-0.35,-12.22,31.5910059,120.7761486,2.633,13631653.520,24924400.151,2.633,0.000,0.000,0.000,0.000,0.000,0.000,0.000,17,16,4*7D
$GPGGA,063114.00,3135.4602360,N,12046.5690118,E,4,17,1.5,2.6397,M,8.309,M,01,0004*66
$GPHPD,0,0.000,144.22,-0.39,-12.24,31.5910039,120.7761502,2.640,13631655.369,24924401.985,2.640,0.000,0.000,0.000,0.000,0.000,0.000,0.000,17,16,4*70
$GPGGA,063114.20,3135.4601164,N,12046.5691066,E,4,17,1.5,2.6325,M,8.309,M,01,0004*61
$GPHPD,0,0.000,144.05,-0.19,-12.24,31.5910019,120.7761518,2.633,13631657.259,24924403.824,2.633,0.000,0.000,0.000,0.000,0.000,0.000,0.000,17,16,4*76
$GPGGA,063114.40,3135.4599988,N,12046.5692037,E,4,17,1.5,2.6322,M,8.309,M,01,0004*6F
$GPHPD,0,0.000,144.21,-0.11,-12.25,31.5910000,120.7761534,2.632,13631659.126,24924405.680,2.632,0.000,0.000,0.000,0.000,0.000,0.000,0.000,17,16,4*7C
$GPGGA,063114.60,3135.4598828,N,12046.5692939,E,4,17,1.5,2.6261,M,8.309,M,00,0004*67
$GPHPD,0,0.000,143.95,-0.06,-12.24,31.5909980,120.7761549,2.626,13631660.956,24924407.443,2.626,0.000,0.000,0.000,0.000,0.000,0.000,0.000,17,16,4*7A
$GPGGA,063114.80,3135.4597659,N,12046.5693901,E,4,16,1.5,2.6315,M,8.309,M,00,0004*67
$GPHPD,0,0.000,144.20,-0.42,-12.22,31.5909961,120.7761565,2.632,13631662.812,24924409.283,2.632,0.000,0.000,0.000,0.000,0.000,0.000,0.000,16,16,4*72
$GPGGA,063115.00,3135.4596503,N,12046.5694833,E,4,16,1.5,2.6256,M,8.309,M,01,0004*63
$GPHPD,0,0.000,144.17,-0.27,-12.22,31.5909942,120.7761581,2.626,13631664.642,24924411.080,2.626,0.000,0.000,0.000,0.000,0.000,0.000,0.000,16,16,4*7B
$GPGGA,063115.20,3135.4595311,N,12046.5695800,E,4,17,1.5,2.6371,M,8.309,M,01,0004*63
$GPHPD,0,0.000,144.41,-0.48,-12.20,31.5909922,120.7761597,2.637,13631666.531,24924412.940,2.637,0.000,0.000,0.000,0.000,0.000,0.000,0.000,17,16,4*70
$GPGGA,063115.40,3135.4594124,N,12046.5696746,E,4,17,1.5,2.6232,M,8.309,M,01,0004*68
$GPHPD,0,0.000,144.71,-0.73,-12.21,31.5909902,120.7761612,2.623,13631668.409,24924414.771,2.623,0.000,0.000,0.000,0.000,0.000,0.000,0.000,17,16,4*78
$GPGGA,063115.60,3135.4592963,N,12046.5697686,E,4,17,1.5,2.6190,M,8.309,M,01,0004*60
$GPHPD,0,0.000,144.92,-0.20,-12.22,31.5909883,120.7761628,2.619,13631670.248,24924416.580,2.619,0.000,0.000,0.000,0.000,0.000,0.000,0.000,17,16,4*75
$GPGGA,063115.80,3135.4591765,N,12046.5698628,E,4,17,1.5,2.6287,M,8.309,M,01,0004*6B
$GPHPD,0,0.000,145.17,-0.25,-12.20,31.5909863,120.7761644,2.629,13631672.141,24924418.414,2.629,0.000,0.000,0.000,0.000,0.000,0.000,0.000,17,16,4*70
$GPGGA,063116.00,3135.4590570,N,12046.5699585,E,4,17,1.5,2.6292,M,8.309,M,02,0004*65
$GPHPD,0,0.000,145.66,-0.77,-12.19,31.5909843,120.7761660,2.629,13631674.032,24924420.263,2.629,0.000,0.000,0.000,0.000,0.000,0.000,0.000,17,16,4*71
$GPGGA,063116.20,3135.4589408,N,12046.5700501,E,4,17,1.5,2.6231,M,8.309,M,02,0004*65
$GPHPD,0,0.000,145.52,-0.77,-12.20,31.5909823,120.7761675,2.623,13631675.868,24924422.044,2.623,0.000,0.000,0.000,0.000,0.000,0.000,0.000,17,16,4*7D
$GPGGA,063116.40,3135.4588187,N,12046.5701456,E,4,17,1.5,2.6303,M,8.309,M,02,0004*62
$GPHPD,0,0.000,145.70,-1.12,-12.19,31.5909803,120.7761691,2.630,13631677.795,24924423.906,2.630,0.000,0.000,0.000,0.000,0.000,0.000,0.000,17,16,4*7C
$GPGGA,063116.60,3135.4587012,N,12046.5702349,E,4,17,1.5,2.6248,M,8.309,M,02,0004*66
$GPHPD,0,0.000,145.52,-1.25,-12.18,31.5909784,120.7761706,2.625,13631679.645,24924425.667,2.625,0.000,0.000,0.000,0.000,0.000,0.000,0.000,17,16,4*7A
$GPGGA,063116.80,3135.4585824,N,12046.5703283,E,4,17,1.5,2.6198,M,8.309,M,00,0004*6D
$GPHPD,0,0.000,145.27,-0.67,-12.17,31.5909764,120.7761721,2.620,13631681.522,24924427.485,2.620,0.000,0.000,0.000,0.000,0.000,0.000,0.000,17,16,4*72
$GPGGA,063117.00,3135.4584620,N,12046.5704169,E,4,17,1.5,2.6182,M,8.309,M,01,0004*65
$GPHPD,0,0.000,145.46,-1.02,-12.17,31.5909744,120.7761736,2.618,13631683.411,24924429.254,2.618,0.000,0.000,0.000,0.000,0.000,0.000,0.000,17,16,4*74
$GPGGA,063117.20,3135.4583466,N,12046.5705107,E,4,17,1.5,2.6184,M,8.309,M,01,0004*6F
$GPHPD,0,0.000,145.17,-1.17,-12.18,31.5909724,120.7761752,2.618,13631685.240,24924431.057,2.618,0.000,0.000,0.000,0.000,0.000,0.000,0.000,17,16,4*73
$GPGGA,063117.40,3135.4582293,N,12046.5706019,E,4,17,1.5,2.6172,M,8.309,M,01,0004*60
$GPHPD,0,0.000,145.28,-1.06,-12.20,31.5909705,120.7761767,2.617,13631687.091,24924432.839,2.617,0.000,0.000,0.000,0.000,0.000,0.000,0.000,17,16,4*7E
$GPGGA,063117.60,3135.4581128,N,12046.5706952,E,4,17,1.5,2.6191,M,8.309,M,01,0004*69
$GPHPD,0,0.000,145.13,-0.91,-12.22,31.5909685,120.7761783,2.619,13631688.935,24924434.642,2.619,0.000,0.000,0.000,0.000,0.000,0.000,0.000,17,16,4*74
$GPGGA,063117.80,3135.4579940,N,12046.5707869,E,4,17,1.5,2.6166,M,8.309,M,01,0004*66
$GPHPD,0,0.000,145.15,-1.08,-12.23,31.5909666,120.7761798,2.617,13631690.808,24924436.440,2.617,0.000,0.000,0.000,0.000,0.000,0.000,0.000,17,16,4*71
$GPGGA,063118.00,3135.4578787,N,12046.5708812,E,4,17,1.5,2.6090,M,8.309,M,02,0004*6D
$GPHPD,0,0.000,145.20,-1.27,-12.23,31.5909646,120.7761814,2.609,13631692.637,24924438.248,2.609,0.000,0.000,0.000,0.000,0.000,0.000,0.000,17,16,4*73
$GPGGA,063118.20,3135.4577613,N,12046.5709702,E,4,17,1.5,2.6082,M,8.309,M,02,0004*60
