$GPGGA,063537.40,3135.4074400,N,12046.6170391,E,4,17,1.4,2.7868,M,8.313,M,01,0004*68
$GPHPD,0,0.000,323.38,-1.26,-12.50,31.5901240,120.7769507,2.787,13632502.475,24925288.426,2.787,0.000,0.000,0.000,0.000,0.000,0.000,0.000,17,17,4*7E
$GPGGA,063537.60,3135.4075003,N,12046.6169918,E,4,17,1.4,2.7890,M,8.313,M,00,0004*69
$GPHPD,0,0.000,323.56,-0.73,-12.46,31.5901250,120.7769499,2.789,13632501.523,24925287.505,2.789,0.000,0.000,0.000,0.000,0.000,0.000,0.000,17,16,4*78
$GPGGA,063537.80,3135.4075612,N,12046.6169380,E,4,17,1.4,2.7837,M,8.313,M,00,0004*67
$GPHPD,0,0.000,323.40,-1.38,-12.44,31.5901260,120.7769490,2.784,13632500.549,24925286.502,2.784,0.000,0.000,0.000,0.000,0.000,0.000,0.000,17,16,4*72
$GPGGA,063538.00,3135.4076261,N,12046.6168891,E,4,17,1.4,2.7725,M,8.313,M,01,0004*64
$GPHPD,0,0.000,323.47,-0.74,-12.41,31.5901271,120.7769482,2.773,13632499.528,24925285.534,2.773,0.000,0.000,0.000,0.000,0.000,0.000,0.000,17,16,4*7A
$GPGGA,063538.20,3135.4076901,N,12046.6168399,E,4,17,1.4,2.7823,M,8.313,M,01,0004*61
$GPHPD,0,0.000,323.31,-0.55,-12.38,31.5901282,120.7769473,2.782,13632498.519,24925284.569,2.782,0.000,0.000,0.000,0.000,0.000,0.000,0.000,17,16,4*7E
$GPGGA,063538.40,3135.4077538,N,12046.6167840,E,4,17,1.4,2.7892,M,8.313,M,01,0004*6A
$GPHPD,0,0.000,323.24,-0.87,-12.38,31.5901292,120.7769464,2.789,13632497.501,24925283.524,2.789,0.000,0.000,0.000,0.000,0.000,0.000,0.000,17,16,4*7A
$GPGGA,063538.60,3135.4078165,N,12046.6167330,E,4,17,1.4,2.7762,M,8.313,M,00,0004*66
$GPHPD,0,0.000,323.62,-1.16,-12.40,31.5901303,120.7769456,2.776,13632496.507,24925282.544,2.776,0.000,0.000,0.000,0.000,0.000,0.000,0.000,17,16,4*76
$GPGGA,063538.80,3135.4078861,N,12046.6166791,E,4,17,1.4,2.7799,M,8.313,M,00,0004*6F
$GPHPD,0,0.000,323.28,-1.36,-12.45,31.5901314,120.7769447,2.780,13632495.410,24925281.489,2.780,0.000,0.000,0.000,0.000,0.000,0.000,0.000,17,16,4*7E
$GPGGA,063539.00,3135.4079562,N,12046.6166159,E,4,17,1.4,2.7713,M,8.313,M,01,0004*68
$GPHPD,0,0.000,323.39,-0.73,-12.51,31.5901326,120.7769436,2.771,13632494.286,24925280.319,2.771,0.000,0.000,0.000,0.000,0.000,0.000,0.000,17,16,4*7B
$GPGGA,063539.20,3135.4080286,N,12046.6165563,E,4,17,1.6,2.7612,M,8.313,M,01,0004*6D
$GPHPD,0,0.000,323.48,-0.73,-12.57,31.5901338,120.7769426,2.761,13632493.137,24925279.179,2.761,0.000,0.000,0.000,0.000,0.000,0.000,0.000,17,16,4*79
$GPGGA,063539.40,3135.4081066,N,12046.6164906,E,4,17,1.6,2.7630,M,8.313,M,01,0004*68
$GPHPD,0,0.000,323.16,-1.14,-12.63,31.5901351,120.7769415,2.763,13632491.896,24925277.932,2.763,0.000,0.000,0.000,0.000,0.000,0.000,0.000,17,17,4*72
$GPGGA,063539.60,3135.4081852,N,12046.6164222,E,4,17,1.6,2.7668,M,8.313,M,00,0004*64
$GPHPD,0,0.000,323.42,-0.98,-12.69,31.5901364,120.7769404,2.767,13632490.641,24925276.650,2.767,0.000,0.000,0.000,0.000,0.000,0.000,0.000,17,17,4*75
$GPGGA,063539.80,3135.4082690,N,12046.6163518,E,4,17,1.6,2.7723,M,8.313,M,00,0004*6E
$GPHPD,0,0.000,323.49,-0.04,-12.77,31.5901378,120.7769392,2.772,13632489.308,24925275.313,2.772,0.000,0.000,0.000,0.000,0.000,0.000,0.000,17,17,4*70
$GPGGA,063540.00,3135.4083533,N,12046.6162810,E,4,17,1.6,2.7748,M,8.313,M,01,0004*6B
$GPHPD,0,0.000,323.45,-0.42,-12.89,31.5901392,120.7769380,2.775,13632487.967,24925273.969,2.775,0.000,0.000,0.000,0.000,0.000,0.000,0.000,17,17,4*74
$GPGGA,063540.20,3135.4084497,N,12046.6162042,E,4,17,1.6,2.7655,M,8.313,M,01,0004*63
$GPHPD,0,0.000,323.28,-0.68,-12.96,31.5901408,120.7769367,2.766,13632486.443,24925272.482,2.766,0.000,0.000,0.000,0.000,0.000,0.000,0.000,17,17,4*77
$GPGGA,063540.40,3135.4085445,N,12046.6161245,E,4,17,1.6,2.7677,M,8.313,M,01,0004*6D
$GPHPD,0,0.000,323.20,-0.05,-13.01,31.5901424,120.7769354,2.768,13632484.935,24925270.969,2.768,0.000,0.000,0.000,0.000,0.000,0.000,0.000,17,17,4*71
$GPGGA,063540.60,3135.4086438,N,12046.6160429,E,4,17,1.6,2.7570,M,8.313,M,00,0004*6E
$GPHPD,0,0.000,323.41,-0.37,-13.07,31.5901441,120.7769340,2.757,13632483.359,24925269.407,2.757,0.000,0.000,0.000,0.000,0.000,0.000,0.000,17,17,4*7D
$GPGGA,063540.80,3135.4087500,N,12046.6159543,E,4,17,1.6,2.7562,M,8.313,M,00,0004*6F
$GPHPD,0,0.000,323.50,-0.58,-13.18,31.5901458,120.7769326,2.756,13632481.671,24925267.720,2.756,0.000,0.000,0.000,0.000,0.000,0.000,0.000,17,17,4*77
$GPGGA,063541.00,3135.4088587,N,12046.6158672,E,4,17,1.6,2.7474,M,8.313,M,01,0004*61
$GPHPD,0,0.000,323.57,-0.20,-13.22,31.5901476,120.7769311,2.747,13632479.951,24925266.037,2.747,0.000,0.000,0.000,0.000,0.000,0.000,0.000,17,17,4*74
$GPGGA,063541.20,3135.4089661,N,12046.6157793,E,4,17,1.6,2.7529,M,8.313,M,01,0004*61
$GPHPD,0,0.000,323.44,-1.21,-13.26,31.5901494,120.7769297,2.753,13632478.247,24925264.352,2.753,0.000,0.000,0.000,0.000,0.000,0.000,0.000,17,17,4*7E
$GPGGA,063541.40,3135.4090781,N,12046.6156856,E,4,17,1.6,2.7542,M,8.313,M,01,0004*6A
$GPHPD,0,0.000,323.33,-2.46,-13.26,31.5901513,120.7769281,2.754,13632476.466,24925262.570,2.754,0.000,0.000,0.000,0.000,0.000,0.000,0.000,17,17,4*7E
$GPGGA,063541.60,3135.4091862,N,12046.6155916,E,4,17,1.6,2.7377,M,8.313,M,00,0004*6C
$GPHPD,0,0.000,323.54,-2.05,-13.20,31.5901531,120.7769265,2.738,13632474.741,24925260.808,2.738,0.000,0.000,0.000,0.000,0.000,0.000,0.000,17,17,4*70
$GPGGA,063541.80,3135.4092981,N,12046.6155029,E,4,17,1.6,2.7431,M,8.313,M,00,0004*6D
$GPHPD,0,0.000,323.49,-1.27,-13.13,31.5901550,120.7769250,2.743,13632472.972,24925259.087,2.743,0.000,0.000,0.000,0.000,0.000,0.000,0.000,17,17,4*73
$GPGGA,063542.00,3135.4094070,N,12046.6154071,E,4,17,1.6,2.7536,M,8.313,M,01,0004*6C
$GPHPD,0,0.000,323.74,-1.28,-13.07,31.5901568,120.7769235,2.754,13632471.231,24925257.298,2.754,0.000,0.000,0.000,0.000,0.000,0.000,0.000,17,17,4*72
$GPGGA,063542.20,3135.4095155,N,12046.6153143,E,4,17,1.6,2.7501,M,8.313,M,01,0004*6A
$GPHPD,0,0.000,323.81,-1.42,-13.05,31.5901586,120.7769219,2.750,13632469.502,24925255.547,2.750,0.000,0.000,0.000,0.000,0.000,0.000,0.000,17,17,4*71
$GPGGA,063542.40,3135.4096291,N,12046.6152260,E,4,17,1.6,2.7325,M,8.313,M,01,0004*67
$GPHPD,0,0.000,324.36,-0.07,-13.04,31.5901605,120.7769204,2.733,13632467.709,24925253.821,2.733,0.000,0.000,0.000,0.000,0.000,0.000,0.000,17,17,4*73
$GPGGA,063542.60,3135.4097425,N,12046.6151388,E,4,17,1.6,2.7360,M,8.313,M,00,0004*69
$GPHPD,0,0.000,324.30,0.64,-13.03,31.5901624,120.7769190,2.736,13632465.922,24925252.110,2.736,0.000,0.000,0.000,0.000,0.000,0.000,0.000,17,17,4*58
$GPGGA,063542.80,3135.4098521,N,12046.6150462,E,4,17,1.6,2.7388,M,8.313,M,00,0004*69
$GPHPD,0,0.000,324.24,1.16,-13.01,31.5901642,120.7769174,2.739,13632464.178,24925250.355,2.739,0.000,0.000,0.000,0.000,0.000,0.000,0.000,17,17,4*56
$GPGGA,063543.00,3135.4099606,N,12046.6149557,E,4,17,1.6,2.7406,M,8.313,M,01,0004*68
$GPHPD,0,0.000,324.49,0.39,-12.99,31.5901660,120.7769159,2.741,13632462.453,24925248.632,2.741,0.000,0.000,0.000,0.000,0.000,0.000,0.000,17,17,4*59
$GPGGA,063543.20,3135.4100738,N,12046.6148690,E,4,17,1.6,2.7402,M,8.313,M,01,0004*6A
$GPHPD,0,0.000,324.70,-0.16,-12.99,31.5901679,120.7769145,2.740,13632460.670,24925246.928,2.740,0.000,0.000,0.000,0.000,0.000,0.000,0.000,17,17,4*7D
$GPGGA,063543.40,3135.4101855,N,12046.6147788,E,4,17,1.6,2.7232,M,8.313,M,01,0004*6B
$GPHPD,0,0.000,324.89,-0.13,-13.01,31.5901698,120.7769130,2.723,13632458.900,24925245.190,2.723,0.000,0.000,0.000,0.000,0.000,0.000,0.000,17,17,4*78
$GPGGA,063543.60,3135.4103061,N,12046.6146896,E,4,17,1.6,2.7263,M,8.313,M,00,0004*60
$GPHPD,0,0.000,325.02,0.01,-13.01,31.5901718,120.7769115,2.726,13632457.007,24925243.412,2.726,0.000,0.000,0.000,0.000,0.000,0.000,0.000,17,17,4*52
$GPGGA,063543.80,3135.4104191,N,12046.6145960,E,4,17,1.6,2.7292,M,8.313,M,00,0004*62
$GPHPD,0,0.000,324.77,-0.56,-12.99,31.5901737,120.7769099,2.729,13632455.212,24925241.626,2.729,0.000,0.000,0.000,0.000,0.000,0.000,0.000,17,17,4*75
$GPGGA,063544.00,3135.4105365,N,12046.6145050,E,4,17,1.6,2.7292,M,8.313,M,01,0004*6E
$GPHPD,0,0.000,324.83,-0.89,-13.01,31.5901756,120.7769084,2.729,13632453.360,24925239.845,2.729,0.000,0.000,0.000,0.000,0.000,0.000,0.000,17,17,4*71
$GPGGA,063544.20,3135.4106517,N,12046.6144108,E,4,17,1.6,2.7354,M,8.313,M,01,0004*6A
$GPHPD,0,0.000,324.70,-0.45,-13.01,31.5901775,120.7769068,2.735,13632451.533,24925238.039,2.735,0.000,0.000,0.000,0.000,0.000,0.000,0.000,17,17,4*7E
$GPGGA,063544.40,3135.4107676,N,12046.6143184,E,4,17,1.6,2.7304,M,8.313,M,01,0004*6F
$GPHPD,0,0.000,324.75,-0.94,-12.97,31.5901795,120.7769053,2.730,13632449.699,24925236.250,2.730,0.000,0.000,0.000,0.000,0.000,0.000,0.000,17,17,4*76
$GPGGA,063544.60,3135.4108840,N,12046.6142285,E,4,16,1.6,2.7232,M,8.313,M,00,0004*6E
$GPHPD,0,0.000,324.75,-0.43,-12.94,31.5901814,120.7769038,2.723,13632447.864,24925234.489,2.723,0.000,0.000,0.000,0.000,0.000,0.000,0.000,16,16,4*76
$GPGGA,063544.80,3135.4110041,N,12046.6141342,E,4,16,1.6,2.7309,M,8.312,M,00,0004*61
$GPHPD,0,0.000,324.76,-0.45,-12.89,31.5901834,120.7769022,2.731,13632445.967,24925232.652,2.731,0.000,0.000,0.000,0.000,0.000,0.000,0.000,16,16,4*74
$GPGGA,063545.00,3135.4111225,N,12046.6140426,E,4,16,1.6,2.7341,M,8.312,M,01,0004*60
$GPHPD,0,0.000,324.65,-0.50,-12.85,31.5901854,120.7769007,2.734,13632444.100,24925230.859,2.734,0.000,0.000,0.000,0.000,0.000,0.000,0.000,16,16,4*70
$GPGGA,063545.20,3135.4112396,N,12046.6139477,E,4,16,1.6,2.7262,M,8.312,M,01,0004*62
$GPHPD,0,0.000,324.91,-0.75,-12.83,31.5901873,120.7768991,2.726,13632442.244,24925229.033,2.726,0.000,0.000,0.000,0.000,0.000,0.000,0.000,16,16,4*71
$GPGGA,063545.40,3135.4113555,N,12046.6138524,E,4,16,1.6,2.7194,M,8.312,M,01,0004*60
$GPHPD,0,0.000,324.72,-0.77,-12.83,31.5901893,120.7768975,2.719,13632440.405,24925227.209,2.719,0.000,0.000,0.000,0.000,0.000,0.000,0.000,16,16,4*7E
$GPGGA,063545.60,3135.4114753,N,12046.6137597,E,4,16,1.6,2.7174,M,8.312,M,00,0004*69
$GPHPD,0,0.000,324.62,-0.97,-12.80,31.5901913,120.7768960,2.717,13632438.515,24925225.394,2.717,0.000,0.000,0.000,0.000,0.000,0.000,0.000,16,16,4*77
$GPGGA,063545.80,3135.4115926,N,12046.6136669,E,4,16,1.8,2.7174,M,8.312,M,00,0004*67
$GPHPD,0,0.000,324.61,-0.66,-12.77,31.5901932,120.7768944,2.717,13632436.661,24925223.592,2.717,0.000,0.000,0.000,0.000,0.000,0.000,0.000,16,16,4*7F
$GPGGA,063546.00,3135.4117103,N,12046.6135716,E,4,16,1.8,2.7296,M,8.312,M,01,0004*65
$GPHPD,0,0.000,324.45,-1.18,-12.77,31.5901952,120.7768929,2.730,13632434.796,24925221.758,2.730,0.000,0.000,0.000,0.000,0.000,0.000,0.000,16,16,4*71
$GPGGA,063546.20,3135.4118308,N,12046.6134775,E,4,16,1.8,2.7148,M,8.312,M,01,0004*65
$GPHPD,0,0.000,324.40,-2.22,-12.76,31.5901972,120.7768913,2.715,13632432.894,24925219.922,2.715,0.000,0.000,0.000,0.000,0.000,0.000,0.000,16,16,4*77
$GPGGA,063546.40,3135.4119469,N,12046.6133841,E,4,15,1.8,2.7276,M,8.312,M,01,0004*60
$GPHPD,0,0.000,324.41,-1.57,-12.72,31.5901991,120.7768897,2.728,13632431.056,24925218.120,2.728,0.000,0.000,0.000,0.000,0.000,0.000,0.000,15,16,4*7E
$GPGGA,063546.60,3135.4120629,N,12046.6132862,E,4,15,1.8,2.7208,M,8.312,M,00,0004*66
$GPHPD,0,0.000,324.61,-0.85,-12.70,31.5902010,120.7768881,2.721,13632429.210,24925216.264,2.721,0.000,0.000,0.000,0.000,0.000,0.000,0.000,15,16,4*70
$GPGGA,063546.80,3135.4121809,N,12046.6131946,E,4,15,1.8,2.7224,M,8.312,M,00,0004*6F
$GPHPD,0,0.000,324.86,-0.70,-12.73,31.5902030,120.7768866,2.722,13632427.348,24925214.473,2.722,0.000,0.000,0.000,0.000,0.000,0.000,0.000,15,16,4*7B
$GPGGA,063547.00,3135.4123010,N,12046.6131005,E,4,15,1.8,2.7090,M,8.312,M,01,0004*66
$GPHPD,0,0.000,324.64,-1.31,-12.79,31.5902050,120.7768850,2.709,13632425.452,24925212.639,2.709,0.000,0.000,0.000,0.000,0.000,0.000,0.000,15,16,4*7E
$GPGGA,063547.20,3135.4124177,N,12046.6130061,E,4,15,1.8,2.7062,M,8.312,M,01,0004*6D
$GPHPD,0,0.000,324.68,-1.05,-12.81,31.5902070,120.7768834,2.706,13632423.603,24925210.821,2.706,0.000,0.000,0.000,0.000,0.000,0.000,0.000,15,16,4*77
$GPGGA,063547.40,3135.4125329,N,12046.6129112,E,4,15,1.8,2.7057,M,8.312,M,01,0004*68
$GPHPD,0,0.000,324.95,-0.31,-12.79,31.5902089,120.7768819,2.706,13632421.775,24925209.006,2.706,0.000,0.000,0.000,0.000,0.000,0.000,0.000,15,16,4*7A
$GPGGA,063547.60,3135.4126513,N,12046.6128213,E,4,15,1.8,2.7150,M,8.312,M,00,0004*62
$GPHPD,0,0.000,324.80,-0.44,-12.79,31.5902109,120.7768804,2.715,13632419.911,24925207.233,2.715,0.000,0.000,0.000,0.000,0.000,0.000,0.000,15,16,4*74
$GPGGA,063547.80,3135.4127652,N,12046.6127296,E,4,15,1.8,2.6983,M,8.312,M,00,0004*6E
$GPHPD,0,0.000,324.76,-0.36,-12.81,31.5902128,120.7768788,2.698,13632418.107,24925205.464,2.698,0.000,0.000,0.000,0.000,0.000,0.000,0.000,15,16,4*7F
$GPGGA,063548.00,3135.4128828,N,12046.6126345,E,4,15,1.8,2.6988,M,8.312,M,01,0004*61
$GPHPD,0,0.000,324.88,-0.85,-12.79,31.5902147,120.7768772,2.699,13632416.244,24925203.633,2.699,0.000,0.000,0.000,0.000,0.000,0.000,0.000,15,16,4*71
$GPGGA,063548.20,3135.4130008,N,12046.6125365,E,4,15,1.8,2.7062,M,8.312,M,01,0004*6D
$GPHPD,0,0.000,325.08,-0.36,-12.79,31.5902167,120.7768756,2.706,13632414.369,24925201.764,2.706,0.000,0.000,0.000,0.000,0.000,0.000,0.000,15,16,4*79
$GPGGA,063548.40,3135.4131214,N,12046.6124481,E,4,15,1.8,2.7032,M,8.312,M,01,0004*6C
$GPHPD,0,0.000,325.29,-0.47,-12.77,31.5902187,120.7768741,2.703,13632412.477,24925199.997,2.703,0.000,0.000,0.000,0.000,0.000,0.000,0.000,15,16,4*74
$GPGGA,063548.60,3135.4132370,N,12046.6123546,E,4,15,1.8,2.6990,M,8.312,M,00,0004*62
$GPHPD,0,0.000,324.97,0.15,-12.78,31.5902206,120.7768726,2.699,13632410.646,24925198.196,2.699,0.000,0.000,0.000,0.000,0.000,0.000,0.000,15,16,4*54
$GPGGA,063548.80,3135.4133543,N,12046.6122630,E,4,15,1.8,2.7008,M,8.312,M,00,0004*61
$GPHPD,0,0.000,324.88,-0.20,-12.77,31.5902226,120.7768711,2.701,13632408.794,24925196.409,2.701,0.000,0.000,0.000,0.000,0.000,0.000,0.000,15,16,4*72
$GPGGA,063549.00,3135.4134706,N,12046.6121713,E,4,15,1.8,2.7130,M,8.312,M,01,0004*64
$GPHPD,0,0.000,324.89,-0.27,-12.73,31.5902245,120.7768695,2.713,13632406.957,24925194.626,2.713,0.000,0.000,0.000,0.000,0.000,0.000,0.000,15,16,4*7A
$GPGGA,063549.20,3135.4135850,N,12046.6120838,E,4,15,1.8,2.7059,M,8.312,M,01,0004*62
$GPHPD,0,0.000,324.86,-0.83,-12.69,31.5902264,120.7768681,2.706,13632405.154,24925192.905,2.706,0.000,0.000,0.000,0.000,0.000,0.000,0.000,15,16,4*76
$GPGGA,063549.40,3135.4137024,N,12046.6119889,E,4,16,1.8,2.6972,M,8.312,M,01,0004*6F
$GPHPD,0,0.000,324.86,0.22,-12.67,31.5902284,120.7768665,2.697,13632403.295,24925191.078,2.697,0.000,0.000,0.000,0.000,0.000,0.000,0.000,16,17,4*50
$GPGGA,063549.60,3135.4138191,N,12046.6118969,E,4,16,1.6,2.7083,M,8.312,M,00,0004*6A
$GPHPD,0,0.000,324.98,0.21,-12.66,31.5902303,120.7768649,2.708,13632401.451,24925189.289,2.708,0.000,0.000,0.000,0.000,0.000,0.000,0.000,16,17,4*54
$GPGGA,063549.80,3135.4139366,N,12046.6118046,E,4,16,1.6,2.6964,M,8.312,M,00,0004*6A
$GPHPD,0,0.000,325.08,-0.44,-12.65,31.5902323,120.7768634,2.696,13632399.595,24925187.492,2.696,0.000,0.000,0.000,0.000,0.000,0.000,0.000,16,17,4*74
$GPGGA,063550.00,3135.4140512,N,12046.6117146,E,4,16,1.6,2.7043,M,8.312,M,01,0004*63
$GPHPD,0,0.000,324.90,-0.37,-12.62,31.5902342,120.7768619,2.704,13632397.785,24925185.740,2.704,0.000,0.000,0.000,0.000,0.000,0.000,0.000,16,17,4*7C
$GPGGA,063550.20,3135.4141703,N,12046.6116201,E,4,16,1.6,2.7029,M,8.312,M,01,0004*6F
$GPHPD,0,0.000,324.91,-0.78,-12.62,31.5902362,120.7768603,2.703,13632395.901,24925183.907,2.703,0.000,0.000,0.000,0.000,0.000,0.000,0.000,16,17,4*74
$GPGGA,063550.40,3135.4142863,N,12046.6115275,E,4,16,1.8,2.7119,M,8.312,M,01,0004*6F
$GPHPD,0,0.000,324.81,-0.63,-12.62,31.5902381,120.7768588,2.712,13632394.066,24925182.115,2.712,0.000,0.000,0.000,0.000,0.000,0.000,0.000,16,17,4*71
$GPGGA,063550.60,3135.4144054,N,12046.6114394,E,4,16,1.6,2.7074,M,8.312,M,00,0004*6D
$GPHPD,0,0.000,324.95,-1.60,-12.63,31.5902401,120.7768573,2.707,13632392.196,24925180.359,2.707,0.000,0.000,0.000,0.000,0.000,0.000,0.000,16,17,4*7C
$GPGGA,063550.80,3135.4145218,N,12046.6113479,E,4,16,1.6,2.7004,M,8.312,M,00,0004*6C
$GPHPD,0,0.000,324.62,-1.19,-12.62,31.5902420,120.7768558,2.700,13632390.357,24925178.579,2.700,0.000,0.000,0.000,0.000,0.000,0.000,0.000,16,17,4*7F
$GPGGA,063551.00,3135.4146368,N,12046.6112495,E,4,16,1.6,2.7025,M,8.312,M,01,0004*61
$GPHPD,0,0.000,324.78,-1.54,-12.63,31.5902439,120.7768542,2.703,13632388.524,24925176.723,2.703,0.000,0.000,0.000,0.000,0.000,0.000,0.000,16,17,4*77
$GPGGA,063551.20,3135.4147542,N,12046.6111598,E,4,16,1.6,2.6970,M,8.312,M,01,0004*6B
$GPHPD,0,0.000,325.27,-0.99,-12.61,31.5902459,120.7768527,2.697,13632386.675,24925174.958,2.697,0.000,0.000,0.000,0.000,0.000,0.000,0.000,16,17,4*72
$GPGGA,063551.40,3135.4148660,N,12046.6110619,E,4,16,1.6,2.6962,M,8.312,M,01,0004*69
$GPHPD,0,0.000,325.28,-1.08,-12.62,31.5902478,120.7768510,2.696,13632384.889,24925173.126,2.696,0.000,0.000,0.000,0.000,0.000,0.000,0.000,16,17,4*79
$GPGGA,063551.60,3135.4149897,N,12046.6109747,E,4,16,1.6,2.6892,M,8.312,M,00,0004*61
$GPHPD,0,0.000,325.83,0.25,-12.60,31.5902498,120.7768496,2.689,13632382.955,24925171.355,2.689,0.000,0.000,0.000,0.000,0.000,0.000,0.000,16,17,4*5A
$GPGGA,063551.80,3135.4151054,N,12046.6108773,E,4,16,1.6,2.7043,M,8.312,M,00,0004*62
$GPHPD,0,0.000,324.90,-1.18,-12.57,31.5902518,120.7768480,2.704,13632381.115,24925169.507,2.704,0.000,0.000,0.000,0.000,0.000,0.000,0.000,16,17,4*76
$GPGGA,063552.00,3135.4152237,N,12046.6107884,E,4,16,1.6,2.6900,M,8.312,M,01,0004*6B
$GPHPD,0,0.000,325.49,-0.91,-12.57,31.5902537,120.7768465,2.690,13632379.254,24925167.746,2.690,0.000,0.000,0.000,0.000,0.000,0.000,0.000,16,17,4*7D
$GPGGA,063552.20,3135.4153410,N,12046.6106982,E,4,16,1.6,2.6797,M,8.312,M,01,0004*6D
$GPHPD,0,0.000,325.07,-0.91,-12.56,31.5902557,120.7768450,2.680,13632377.405,24925165.976,2.680,0.000,0.000,0.000,0.000,0.000,0.000,0.000,16,17,4*75
$GPGGA,063552.40,3135.4154561,N,12046.6106057,E,4,16,1.6,2.6881,M,8.312,M,01,0004*62
$GPHPD,0,0.000,325.11,-0.40,-12.56,31.5902576,120.7768434,2.688,13632375.583,24925164.191,2.688,0.000,0.000,0.000,0.000,0.000,0.000,0.000,16,17,4*72
$GPGGA,063552.60,3135.4155786,N,12046.6105151,E,4,16,1.6,2.6839,M,8.312,M,00,0004*6C
$GPHPD,0,0.000,324.98,-0.63,-12.54,31.5902596,120.7768419,2.684,13632373.659,24925162.385,2.684,0.000,0.000,0.000,0.000,0.000,0.000,0.000,16,17,4*73
$GPGGA,063552.80,3135.4156959,N,12046.6104132,E,4,16,1.6,2.6828,M,8.312,M,00,0004*69
$GPHPD,0,0.000,325.11,-0.41,-12.53,31.5902616,120.7768402,2.683,13632371.787,24925160.474,2.683,0.000,0.000,0.000,0.000,0.000,0.000,0.000,16,17,4*7E
$GPGGA,063553.00,3135.4158130,N,12046.6103250,E,4,16,1.6,2.6776,M,8.312,M,01,0004*6C
$GPHPD,0,0.000,325.65,1.66,-12.52,31.5902636,120.7768388,2.678,13632369.945,24925158.728,2.678,0.000,0.000,0.000,0.000,0.000,0.000,0.000,16,17,4*5A
$GPGGA,063553.20,3135.4159305,N,12046.6102329,E,4,16,1.6,2.6844,M,8.312,M,01,0004*6B
$GPHPD,0,0.000,325.56,0.18,-12.52,31.5902655,120.7768372,2.684,13632368.089,24925156.934,2.684,0.000,0.000,0.000,0.000,0.000,0.000,0.000,16,17,4*57
$GPGGA,063553.40,3135.4160478,N,12046.6101424,E,4,16,1.6,2.6790,M,8.312,M,01,0004*65
$GPHPD,0,0.000,325.30,0.12,-12.51,31.5902675,120.7768357,2.679,13632366.240,24925155.160,2.679,0.000,0.000,0.000,0.000,0.000,0.000,0.000,16,17,4*58
$GPGGA,063553.60,3135.4161654,N,12046.6100474,E,4,16,1.6,2.6816,M,8.312,M,00,0004*6E
$GPHPD,0,0.000,324.91,-0.80,-12.49,31.5902694,120.7768341,2.682,13632364.377,24925153.330,2.682,0.000,0.000,0.000,0.000,0.000,0.000,0.000,16,17,4*73
$GPGGA,063553.80,3135.4162830,N,12046.6099582,E,4,16,1.6,2.6783,M,8.312,M,00,0004*65
$GPHPD,0,0.000,324.13,-3.14,-12.50,31.5902714,120.7768326,2.678,13632362.526,24925151.570,2.678,0.000,0.000,0.000,0.000,0.000,0.000,0.000,16,17,4*73
$GPGGA,063554.00,3135.4163993,N,12046.6098649,E,4,16,1.6,2.6831,M,8.312,M,01,0004*61
$GPHPD,0,0.000,323.96,-3.81,-12.50,31.5902733,120.7768311,2.683,13632360.685,24925149.768,2.683,0.000,0.000,0.000,0.000,0.000,0.000,0.000,16,17,4*7E
$GPGGA,063554.20,3135.4165202,N,12046.6097689,E,4,16,1.6,2.6645,M,8.312,M,01,0004*68
$GPHPD,0,0.000,323.79,-4.13,-12.49,31.5902753,120.7768295,2.665,13632358.773,24925147.906,2.665,0.000,0.000,0.000,0.000,0.000,0.000,0.000,16,16,4*7A
$GPGGA,063554.40,3135.4166365,N,12046.6096718,E,4,16,1.6,2.6630,M,8.312,M,01,0004*67
$GPHPD,0,0.000,324.83,-0.20,-12.50,31.5902773,120.7768279,2.663,13632356.925,24925146.059,2.663,0.000,0.000,0.000,0.000,0.000,0.000,0.000,16,16,4*75
$GPGGA,063554.60,3135.4167565,N,12046.6095780,E,4,16,1.6,2.6717,M,8.312,M,00,0004*65
$GPHPD,0,0.000,325.01,-0.30,-12.53,31.5902793,120.7768263,2.672,13632355.030,24925144.229,2.672,0.000,0.000,0.000,0.000,0.000,0.000,0.000,16,16,4*70
$GPGGA,063554.80,3135.4168754,N,12046.6094855,E,4,15,1.8,2.6658,M,8.312,M,00,0004*65
$GPHPD,0,0.000,324.66,-0.63,-12.54,31.5902813,120.7768248,2.666,13632353.154,24925142.421,2.666,0.000,0.000,0.000,0.000,0.000,0.000,0.000,15,16,4*71
$GPGGA,063555.00,3135.4169895,N,12046.6093943,E,4,15,1.8,2.6534,M,8.312,M,01,0004*66
$GPHPD,0,0.000,324.78,-0.02,-12.56,31.5902832,120.7768232,2.653,13632351.349,24925140.658,2.653,0.000,0.000,0.000,0.000,0.000,0.000,0.000,15,16,4*77
$GPGGA,063555.20,3135.4171108,N,12046.6092934,E,4,15,1.8,2.6553,M,8.312,M,01,0004*60
$GPHPD,0,0.000,324.24,-0.27,-12.56,31.5902852,120.7768216,2.655,13632349.421,24925138.735,2.655,0.000,0.000,0.000,0.000,0.000,0.000,0.000,15,16,4*7C
$GPGGA,063555.40,3135.4172233,N,12046.6092016,E,4,15,1.8,2.6600,M,8.312,M,01,0004*62
$GPHPD,0,0.000,324.34,-0.96,-12.59,31.5902871,120.7768200,2.660,13632347.637,24925136.973,2.660,0.000,0.000,0.000,0.000,0.000,0.000,0.000,15,16,4*77
$GPGGA,063555.60,3135.4173383,N,12046.6091069,E,4,15,1.8,2.6664,M,8.312,M,00,0004*63
$GPHPD,0,0.000,324.53,-0.60,-12.60,31.5902890,120.7768184,2.666,13632345.812,24925135.162,2.666,0.000,0.000,0.000,0.000,0.000,0.000,0.000,15,16,4*75
$GPGGA,063555.80,3135.4174524,N,12046.6090123,E,4,15,1.8,2.6758,M,8.312,M,00,0004*61
$GPHPD,0,0.000,323.60,-2.26,-12.62,31.5902909,120.7768169,2.676,13632344.000,24925133.357,2.676,0.000,0.000,0.000,0.000,0.000,0.000,0.000,15,16,4*7A
$GPGGA,063556.00,3135.4175668,N,12046.6089237,E,4,15,1.8,2.6640,M,8.312,M,01,0004*67
$GPHPD,0,0.000,324.32,-0.95,-12.62,31.5902928,120.7768154,2.664,13632342.195,24925131.623,2.664,0.000,0.000,0.000,0.000,0.000,0.000,0.000,15,15,4*71
$GPGGA,063556.20,3135.4176815,N,12046.6088236,E,4,15,1.8,2.6812,M,8.312,M,01,0004*6B
$GPHPD,0,0.000,324.69,-1.15,-12.62,31.5902947,120.7768137,2.681,13632340.364,24925129.748,2.681,0.000,0.000,0.000,0.000,0.000,0.000,0.000,15,15,4*71
$GPGGA,063556.40,3135.4177988,N,12046.6087342,E,4,15,1.8,2.6583,M,8.312,M,01,0004*61
$GPHPD,0,0.000,324.47,-0.98,-12.63,31.5902966,120.7768122,2.658,13632338.516,24925127.987,2.658,0.000,0.000,0.000,0.000,0.000,0.000,0.000,15,15,4*70
$GPGGA,063556.60,3135.4179121,N,12046.6086461,E,4,15,1.8,2.6573,M,8.312,M,00,0004*6F
$GPHPD,0,0.000,324.41,-0.57,-12.62,31.5902985,120.7768108,2.657,13632336.729,24925126.265,2.657,0.000,0.000,0.000,0.000,0.000,0.000,0.000,15,15,4*77
$GPGGA,063556.80,3135.4180275,N,12046.6085619,E,4,16,1.8,2.6597,M,8.312,M,00,0004*62
$GPHPD,0,0.000,324.44,-0.46,-12.63,31.5903005,120.7768094,2.660,13632334.919,24925124.578,2.660,0.000,0.000,0.000,0.000,0.000,0.000,0.000,16,15,4*72
$GPGGA,063557.00,3135.4181406,N,12046.6084712,E,4,16,1.8,2.6563,M,8.312,M,01,0004*69
$GPHPD,0,0.000,324.34,-0.83,-12.63,31.5903023,120.7768079,2.656,13632333.129,24925122.826,2.656,0.000,0.000,0.000,0.000,0.000,0.000,0.000,16,15,4*77
$GPGGA,063557.20,3135.4182545,N,12046.6083753,E,4,15,1.9,2.6626,M,8.312,M,01,0004*6C
$GPHPD,0,0.000,324.43,-0.80,-12.63,31.5903042,120.7768063,2.663,13632331.317,24925121.007,2.663,0.000,0.000,0.000,0.000,0.000,0.000,0.000,15,14,4*7F
$GPGGA,063557.40,3135.4183688,N,12046.6082801,E,4,15,1.9,2.6546,M,8.312,M,01,0004*65
$GPHPD,0,0.000,324.44,-0.74,-12.64,31.5903061,120.7768047,2.655,13632329.500,24925119.194,2.655,0.000,0.000,0.000,0.000,0.000,0.000,0.000,15,14,4*7A
$GPGGA,063557.60,3135.4184840,N,12046.6081899,E,4,15,1.9,2.6553,M,8.312,M,00,0004*6D
$GPHPD,0,0.000,324.42,-0.57,-12.62,31.5903081,120.7768032,2.655,13632327.681,24925117.435,2.655,0.000,0.000,0.000,0.000,0.000,0.000,0.000,15,14,4*73
$GPGGA,063557.80,3135.4185976,N,12046.6080969,E,4,15,1.9,2.6645,M,8.312,M,00,0004*6D
$GPHPD,0,0.000,324.48,-0.59,-12.61,31.5903100,120.7768016,2.665,13632325.879,24925115.653,2.665,0.000,0.000,0.000,0.000,0.000,0.000,0.000,15,14,4*71
$GPGGA,063558.00,3135.4187119,N,12046.6080054,E,4,15,1.9,2.6584,M,8.312,M,01,0004*61
$GPHPD,0,0.000,324.53,-0.96,-12.60,31.5903119,120.7768001,2.658,13632324.070,24925113.884,2.658,0.000,0.000,0.000,0.000,0.000,0.000,0.000,15,14,4*75
$GPGGA,063558.20,3135.4188274,N,12046.6079124,E,4,15,1.9,2.6479,M,8.312,M,01,0004*67
$GPHPD,0,0.000,324.33,-0.25,-12.57,31.5903138,120.7767985,2.648,13632322.242,24925112.090,2.648,0.000,0.000,0.000,0.000,0.000,0.000,0.000,15,14,4*7F
$GPGGA,063558.40,3135.4189424,N,12046.6078169,E,4,15,1.9,2.6461,M,8.312,M,01,0004*62
$GPHPD,0,0.000,324.17,0.11,-12.56,31.5903157,120.7767969,2.646,13632320.415,24925110.269,2.646,0.000,0.000,0.000,0.000,0.000,0.000,0.000,15,14,4*59
$GPGGA,063558.60,3135.4190593,N,12046.6077269,E,4,15,1.9,2.6520,M,8.312,M,00,0004*6C
$GPHPD,0,0.000,324.07,0.23,-12.54,31.5903177,120.7767954,2.652,13632318.572,24925108.504,2.652,0.000,0.000,0.000,0.000,0.000,0.000,0.000,15,14,4*59
$GPGGA,063558.80,3135.4191732,N,12046.6076334,E,4,15,1.9,2.6538,M,8.312,M,00,0004*6B
$GPHPD,0,0.000,323.85,0.08,-12.54,31.5903196,120.7767939,2.654,13632316.765,24925106.713,2.654,0.000,0.000,0.000,0.000,0.000,0.000,0.000,15,14,4*59
$GPGGA,063559.00,3135.4192915,N,12046.6075381,E,4,15,1.9,2.6550,M,8.312,M,01,0004*68
$GPHPD,0,0.000,323.72,0.21,-12.52,31.5903215,120.7767923,2.655,13632314.891,24925104.876,2.655,0.000,0.000,0.000,0.000,0.000,0.000,0.000,15,14,4*57
$GPGGA,063559.20,3135.4194071,N,12046.6074413,E,4,15,1.9,2.6586,M,8.312,M,01,0004*61
$GPHPD,0,0.000,323.84,-0.53,-12.51,31.5903235,120.7767907,2.659,13632313.053,24925103.035,2.659,0.000,0.000,0.000,0.000,0.000,0.000,0.000,15,14,4*78
$GPGGA,063559.40,3135.4195215,N,12046.6073473,E,4,15,1.9,2.6582,M,8.312,M,01,0004*63
$GPHPD,0,0.000,324.04,-0.16,-12.50,31.5903254,120.7767891,2.658,13632311.238,24925101.236,2.658,0.000,0.000,0.000,0.000,0.000,0.000,0.000,15,14,4*70
$GPGGA,063559.60,3135.4196392,N,12046.6072508,E,4,15,1.9,2.6651,M,8.312,M,00,0004*6C
$GPHPD,0,0.000,324.11,-0.83,-12.50,31.5903273,120.7767875,2.665,13632309.371,24925099.387,2.665,0.000,0.000,0.000,0.000,0.000,0.000,0.000,15,14,4*79
$GPGGA,063559.80,3135.4197551,N,12046.6071540,E,4,15,1.9,2.6644,M,8.312,M,00,0004*61
$GPHPD,0,0.000,324.28,-1.55,-12.50,31.5903293,120.7767859,2.664,13632307.529,24925097.545,2.664,0.000,0.000,0.000,0.000,0.000,0.000,0.000,15,13,4*7D
$GPGGA,063600.00,3135.4198724,N,12046.6070533,E,4,15,1.9,2.6753,M,8.312,M,01,0004*6A
$GPHPD,0,0.000,324.59,-1.40,-12.50,31.5903312,120.7767842,2.675,13632305.659,24925095.648,2.675,0.000,0.000,0.000,0.000,0.000,0.000,0.000,15,13,4*77
$GPGGA,063600.20,3135.4199886,N,12046.6069648,E,4,15,1.9,2.6615,M,8.312,M,01,0004*6A
$GPHPD,0,0.000,325.12,-1.85,-12.54,31.5903331,120.7767827,2.662,13632303.829,24925093.905,2.662,0.000,0.000,0.000,0.000,0.000,0.000,0.000,15,13,4*79
$GPGGA,063600.40,3135.4201058,N,12046.6068705,E,4,15,1.9,2.6579,M,8.312,M,01,0004*65
$GPHPD,0,0.000,325.00,-1.05,-12.57,31.5903351,120.7767812,2.658,13632301.973,24925092.086,2.658,0.000,0.000,0.000,0.000,0.000,0.000,0.000,15,13,4*7E
$GPGGA,063600.60,3135.4202214,N,12046.6067793,E,4,15,1.9,2.6466,M,8.312,M,00,0004*60
$GPHPD,0,0.000,325.10,-1.12,-12.58,31.5903370,120.7767797,2.647,13632300.146,24925090.313,2.647,0.000,0.000,0.000,0.000,0.000,0.000,0.000,15,13,4*75
$GPGGA,063600.80,3135.4203415,N,12046.6066881,E,4,15,1.9,2.6395,M,8.312,M,00,0004*6E
$GPHPD,0,0.000,324.79,-1.45,-12.60,31.5903390,120.7767781,2.640,13632298.256,24925088.514,2.640,0.000,0.000,0.000,0.000,0.000,0.000,0.000,15,13,4*71
$GPGGA,063601.00,3135.4204592,N,12046.6065939,E,4,15,1.9,2.6402,M,8.312,M,01,0004*67
$GPHPD,0,0.000,324.44,-1.14,-12.60,31.5903410,120.7767766,2.640,13632296.393,24925086.693,2.640,0.000,0.000,0.000,0.000,0.000,0.000,0.000,15,13,4*79
$GPGGA,063601.20,3135.4205791,N,12046.6065045,E,4,15,1.9,2.6376,M,8.312,M,01,0004*63
$GPHPD,0,0.000,324.36,-1.14,-12.62,31.5903430,120.7767751,2.638,13632294.509,24925084.917,2.638,0.000,0.000,0.000,0.000,0.000,0.000,0.000,15,13,4*7E
$GPGGA,063601.40,3135.4206957,N,12046.6064072,E,4,17,1.6,2.6462,M,8.312,M,01,0004*68
$GPHPD,0,0.000,323.87,-1.02,-12.63,31.5903449,120.7767735,2.646,13632292.656,24925083.065,2.646,0.000,0.000,0.000,0.000,0.000,0.000,0.000,17,16,4*7A
$GPGGA,063601.60,3135.4208137,N,12046.6063100,E,4,17,1.6,2.6454,M,8.312,M,00,0004*6D
$GPHPD,0,0.000,323.92,-1.06,-12.62,31.5903469,120.7767718,2.645,13632290.783,24925081.206,2.645,0.000,0.000,0.000,0.000,0.000,0.000,0.000,17,16,4*78
$GPGGA,063601.80,3135.4209277,N,12046.6062163,E,4,17,1.6,2.6333,M,8.312,M,00,0004*67
$GPHPD,0,0.000,324.11,-0.17,-12.62,31.5903488,120.7767703,2.633,13632288.974,24925079.413,2.633,0.000,0.000,0.000,0.000,0.000,0.000,0.000,17,16,4*7A
$GPGGA,063602.00,3135.4210428,N,12046.6061196,E,4,17,1.4,2.6204,M,8.312,M,01,0004*67
$GPHPD,0,0.000,323.90,0.01,-12.60,31.5903507,120.7767687,2.620,13632287.143,24925077.577,2.620,0.000,0.000,0.000,0.000,0.000,0.000,0.000,17,16,4*59
$GPGGA,063602.20,3135.4211555,N,12046.6060290,E,4,17,1.6,2.6307,M,8.312,M,01,0004*6B
$GPHPD,0,0.000,323.97,0.40,-12.60,31.5903526,120.7767672,2.631,13632285.359,24925075.828,2.631,0.000,0.000,0.000,0.000,0.000,0.000,0.000,17,16,4*5C
$GPGGA,063602.40,3135.4212737,N,12046.6059350,E,4,17,1.6,2.6289,M,8.312,M,01,0004*68
$GPHPD,0,0.000,324.30,0.67,-12.61,31.5903546,120.7767656,2.629,13632283.489,24925074.007,2.629,0.000,0.000,0.000,0.000,0.000,0.000,0.000,17,16,4*5A
$GPGGA,063602.60,3135.4213865,N,12046.6058405,E,4,17,1.6,2.6415,M,8.312,M,00,0004*67
$GPHPD,0,0.000,324.18,-0.14,-12.62,31.5903564,120.7767640,2.642,13632281.696,24925072.211,2.642,0.000,0.000,0.000,0.000,0.000,0.000,0.000,17,16,4*70
$GPGGA,063602.80,3135.4215083,N,12046.6057455,E,4,17,1.6,2.6392,M,8.312,M,00,0004*6D
$GPHPD,0,0.000,324.17,-0.03,-12.62,31.5903585,120.7767624,2.639,13632279.773,24925070.356,2.639,0.000,0.000,0.000,0.000,0.000,0.000,0.000,17,16,4*79
$GPGGA,063603.00,3135.4216224,N,12046.6056473,E,4,17,1.6,2.6463,M,8.312,M,01,0004*65
$GPHPD,0,0.000,323.68,-0.68,-12.64,31.5903604,120.7767608,2.646,13632277.954,24925068.508,2.646,0.000,0.000,0.000,0.000,0.000,0.000,0.000,17,16,4*78
$GPGGA,063603.20,3135.4217410,N,12046.6055534,E,4,17,1.6,2.6530,M,8.312,M,01,0004*61
$GPHPD,0,0.000,324.19,-0.30,-12.62,31.5903624,120.7767592,2.653,13632276.079,24925066.685,2.653,0.000,0.000,0.000,0.000,0.000,0.000,0.000,17,16,4*7F
$GPGGA,063603.40,3135.4218544,N,12046.6054648,E,4,17,1.6,2.6504,M,8.312,M,01,0004*66
$GPHPD,0,0.000,324.22,-0.32,-12.62,31.5903642,120.7767577,2.650,13632274.289,24925064.957,2.650,0.000,0.000,0.000,0.000,0.000,0.000,0.000,17,16,4*73
$GPGGA,063603.60,3135.4219703,N,12046.6053700,E,4,17,1.6,2.6370,M,8.312,M,01,0004*6B
$GPHPD,0,0.000,324.20,-0.34,-12.61,31.5903662,120.7767562,2.637,13632272.451,24925063.139,2.637,0.000,0.000,0.000,0.000,0.000,0.000,0.000,17,16,4*70
$GPGGA,063603.80,3135.4220833,N,12046.6052765,E,4,17,1.6,2.6349,M,8.312,M,00,0004*6A
$GPHPD,0,0.000,324.37,-0.32,-12.60,31.5903681,120.7767546,2.635,13632270.656,24925061.354,2.635,0.000,0.000,0.000,0.000,0.000,0.000,0.000,17,16,4*76
$GPGGA,063604.00,3135.4221958,N,12046.6051829,E,4,17,1.6,2.6409,M,8.312,M,01,0004*6E
$GPHPD,0,0.000,324.06,-0.19,-12.61,31.5903699,120.7767530,2.641,13632268.869,24925059.571,2.641,0.000,0.000,0.000,0.000,0.000,0.000,0.000,17,16,4*75
$GPGGA,063604.20,3135.4223130,N,12046.6050869,E,4,17,1.6,2.6403,M,8.312,M,01,0004*67
$GPHPD,0,0.000,324.48,-0.28,-12.62,31.5903719,120.7767514,2.640,13632267.010,24925057.731,2.640,0.000,0.000,0.000,0.000,0.000,0.000,0.000,17,16,4*70
$GPGGA,063604.40,3135.4224292,N,12046.6049929,E,4,17,1.6,2.6571,M,8.312,M,01,0004*64
$GPHPD,0,0.000,324.20,-0.04,-12.61,31.5903738,120.7767499,2.657,13632265.169,24925055.921,2.657,0.000,0.000,0.000,0.000,0.000,0.000,0.000,17,16,4*74
$GPGGA,063604.60,3135.4225408,N,12046.6049010,E,4,17,1.6,2.6453,M,8.312,M,00,0004*61
$GPHPD,0,0.000,324.61,-1.13,-12.60,31.5903757,120.7767484,2.645,13632263.397,24925054.163,2.645,0.000,0.000,0.000,0.000,0.000,0.000,0.000,17,16,4*78
$GPGGA,063604.80,3135.4226566,N,12046.6048091,E,4,17,1.6,2.6409,M,8.312,M,00,0004*62
$GPHPD,0,0.000,324.27,-0.88,-12.60,31.5903776,120.7767468,2.641,13632261.566,24925052.381,2.641,0.000,0.000,0.000,0.000,0.000,0.000,0.000,17,16,4*7A
$GPGGA,063605.00,3135.4227698,N,12046.6047117,E,4,17,1.6,2.6312,M,8.312,M,01,0004*64
$GPHPD,0,0.000,324.28,-0.70,-12.59,31.5903795,120.7767452,2.631,13632259.761,24925050.548,2.631,0.000,0.000,0.000,0.000,0.000,0.000,0.000,17,16,4*73
$GPGGA,063605.20,3135.4228868,N,12046.6046219,E,4,17,1.6,2.6321,M,8.312,M,01,0004*64
$GPHPD,0,0.000,324.22,-0.89,-12.59,31.5903814,120.7767437,2.632,13632257.918,24925048.784,2.632,0.000,0.000,0.000,0.000,0.000,0.000,0.000,17,16,4*7F
$GPGGA,063605.40,3135.4229981,N,12046.6045245,E,4,17,1.6,2.6361,M,8.312,M,01,0004*6B
$GPHPD,0,0.000,324.00,-1.01,-12.60,31.5903833,120.7767421,2.636,13632256.139,24925046.961,2.636,0.000,0.000,0.000,0.000,0.000,0.000,0.000,17,16,4*77
$GPGGA,063605.60,3135.4231210,N,12046.6044374,E,4,17,1.6,2.6313,M,8.312,M,00,0004*65
$GPHPD,0,0.000,324.28,-1.43,-12.61,31.5903854,120.7767406,2.631,13632254.217,24925045.196,2.631,0.000,0.000,0.000,0.000,0.000,0.000,0.000,17,16,4*70
$GPGGA,063605.80,3135.4232275,N,12046.6043435,E,4,17,1.6,2.6293,M,8.312,M,00,0004*67
$GPHPD,0,0.000,323.84,-1.31,-12.62,31.5903871,120.7767391,2.629,13632252.514,24925043.444,2.629,0.000,0.000,0.000,0.000,0.000,0.000,0.000,17,16,4*77
$GPGGA,063606.00,3135.4233505,N,12046.6042468,E,4,17,1.6,2.6307,M,8.312,M,01,0004*69
$GPHPD,0,0.000,324.11,-1.62,-12.62,31.5903892,120.7767374,2.631,13632250.571,24925041.562,2.631,0.000,0.000,0.000,0.000,0.000,0.000,0.000,17,16,4*7A
$GPGGA,063606.20,3135.4234623,N,12046.6041533,E,4,17,1.6,2.6180,M,8.312,M,01,0004*6A
$GPHPD,0,0.000,323.96,-1.42,-12.63,31.5903910,120.7767359,2.618,13632248.794,24925039.783,2.618,0.000,0.000,0.000,0.000,0.000,0.000,0.000,17,15,4*74
$GPGGA,063606.40,3135.4235741,N,12046.6040643,E,4,17,1.6,2.6136,M,8.312,M,01,0004*60
$GPHPD,0,0.000,324.03,-1.16,-12.62,31.5903929,120.7767344,2.614,13632247.026,24925038.059,2.614,0.000,0.000,0.000,0.000,0.000,0.000,0.000,17,15,4*79
$GPGGA,063606.60,3135.4236932,N,12046.6039701,E,4,17,1.6,2.6105,M,8.312,M,00,0004*63
$GPHPD,0,0.000,324.52,-0.42,-12.64,31.5903949,120.7767328,2.611,13632245.143,24925036.230,2.611,0.000,0.000,0.000,0.000,0.000,0.000,0.000,17,15,4*74
$GPGGA,063606.80,3135.4238082,N,12046.6038770,E,4,17,1.6,2.6016,M,8.312,M,00,0004*65
$GPHPD,0,0.000,324.17,0.00,-12.65,31.5903968,120.7767313,2.602,13632243.321,24925034.438,2.602,0.000,0.000,0.000,0.000,0.000,0.000,0.000,17,15,4*58
$GPGGA,063607.00,3135.4239236,N,12046.6037849,E,4,17,1.6,2.5998,M,8.312,M,01,0004*67
$GPHPD,0,0.000,324.36,0.63,-12.65,31.5903987,120.7767297,2.600,13632241.496,24925032.656,2.600,0.000,0.000,0.000,0.000,0.000,0.000,0.000,17,15,4*57
$GPGGA,063607.20,3135.4240426,N,12046.6036849,E,4,17,1.6,2.6126,M,8.312,M,01,0004*63
$GPHPD,0,0.000,324.40,-0.08,-12.66,31.5904007,120.7767281,2.613,13632239.603,24925030.757,2.613,0.000,0.000,0.000,0.000,0.000,0.000,0.000,17,15,4*77
$GPGGA,063607.40,3135.4241620,N,12046.6035941,E,4,17,1.6,2.6204,M,8.312,M,01,0004*69
$GPHPD,0,0.000,324.78,0.25,-12.66,31.5904027,120.7767266,2.620,13632237.723,24925028.968,2.620,0.000,0.000,0.000,0.000,0.000,0.000,0.000,17,16,4*50
$GPGGA,063607.60,3135.4242833,N,12046.6035006,E,4,17,1.6,2.6218,M,8.312,M,00,0004*62
$GPHPD,0,0.000,324.46,0.24,-12.65,31.5904047,120.7767250,2.622,13632235.811,24925027.134,2.622,0.000,0.000,0.000,0.000,0.000,0.000,0.000,17,16,4*5E
$GPGGA,063607.80,3135.4244017,N,12046.6034085,E,4,17,1.6,2.6378,M,8.312,M,00,0004*69
$GPHPD,0,0.000,324.92,-0.22,-12.64,31.5904067,120.7767235,2.638,13632233.942,24925025.334,2.638,0.000,0.000,0.000,0.000,0.000,0.000,0.000,17,16,4*7D
$GPGGA,063608.00,3135.4245197,N,12046.6033180,E,4,17,1.6,2.6433,M,8.312,M,01,0004*6C
$GPHPD,0,0.000,324.76,-0.50,-12.63,31.5904087,120.7767220,2.643,13632232.083,24925023.556,2.643,0.000,0.000,0.000,0.000,0.000,0.000,0.000,17,16,4*7E
$GPGGA,063608.20,3135.4246336,N,12046.6032249,E,4,17,1.6,2.6290,M,8.312,M,01,0004*6C
$GPHPD,0,0.000,325.10,-1.25,-12.67,31.5904106,120.7767204,2.629,13632230.277,24925021.771,2.629,0.000,0.000,0.000,0.000,0.000,0.000,0.000,17,16,4*78
$GPGGA,063608.40,3135.4247500,N,12046.6031287,E,4,17,1.6,2.6250,M,8.312,M,01,0004*65
$GPHPD,0,0.000,325.35,-0.47,-12.70,31.5904125,120.7767188,2.625,13632228.428,24925019.933,2.625,0.000,0.000,0.000,0.000,0.000,0.000,0.000,17,16,4*7C
$GPGGA,063608.60,3135.4248663,N,12046.6030301,E,4,17,1.6,2.6428,M,8.312,M,00,0004*68
$GPHPD,0,0.000,325.12,-0.85,-12.71,31.5904144,120.7767172,2.643,13632226.577,24925018.067,2.643,0.000,0.000,0.000,0.000,0.000,0.000,0.000,17,16,4*78
$GPGGA,063608.80,3135.4249835,N,12046.6029408,E,4,17,1.6,2.6217,M,8.312,M,00,0004*66
$GPHPD,0,0.000,325.43,-1.00,-12.72,31.5904164,120.7767157,2.622,13632224.731,24925016.308,2.622,0.000,0.000,0.000,0.000,0.000,0.000,0.000,17,16,4*70
$GPGGA,063609.00,3135.4250991,N,12046.6028521,E,4,17,1.6,2.6212,M,8.312,M,01,0004*67
$GPHPD,0,0.000,324.90,-0.79,-12.74,31.5904183,120.7767142,2.621,13632222.909,24925014.566,2.621,0.000,0.000,0.000,0.000,0.000,0.000,0.000,17,16,4*74
$GPGGA,063609.20,3135.4252139,N,12046.6027645,E,4,17,1.6,2.6257,M,8.312,M,01,0004*62
$GPHPD,0,0.000,325.01,-0.51,-12.73,31.5904202,120.7767127,2.626,13632221.101,24925012.841,2.626,0.000,0.000,0.000,0.000,0.000,0.000,0.000,17,16,4*74
$GPGGA,063609.40,3135.4253301,N,12046.6026761,E,4,17,1.6,2.6209,M,8.312,M,01,0004*61
$GPHPD,0,0.000,325.05,-0.67,-12.75,31.5904222,120.7767113,2.621,13632219.272,24925011.099,2.621,0.000,0.000,0.000,0.000,0.000,0.000,0.000,17,16,4*74
$GPGGA,063609.60,3135.4254455,N,12046.6025823,E,4,17,1.6,2.6079,M,8.312,M,00,0004*6C
$GPHPD,0,0.000,324.62,-0.17,-12.79,31.5904241,120.7767097,2.608,13632217.443,24925009.296,2.608,0.000,0.000,0.000,0.000,0.000,0.000,0.000,17,16,4*79
$GPGGA,063609.80,3135.4255582,N,12046.6024917,E,4,17,1.6,2.6235,M,8.312,M,00,0004*65
$GPHPD,0,0.000,324.65,0.38,-12.84,31.5904260,120.7767082,2.624,13632215.658,24925007.548,2.624,0.000,0.000,0.000,0.000,0.000,0.000,0.000,17,16,4*5B
$GPGGA,063610.00,3135.4256808,N,12046.6023954,E,4,17,1.6,2.6138,M,8.312,M,01,0004*66
$GPHPD,0,0.000,324.78,-0.88,-12.91,31.5904280,120.7767066,2.614,13632213.722,24925005.673,2.614,0.000,0.000,0.000,0.000,0.000,0.000,0.000,17,16,4*72
$GPGGA,063610.20,3135.4257983,N,12046.6023030,E,4,17,1.6,2.6135,M,8.312,M,01,0004*61
$GPHPD,0,0.000,324.69,-0.25,-12.89,31.5904300,120.7767051,2.614,13632211.866,24925003.875,2.614,0.000,0.000,0.000,0.000,0.000,0.000,0.000,17,16,4*72
$GPGGA,063610.40,3135.4259131,N,12046.6022105,E,4,17,1.6,2.6156,M,8.312,M,01,0004*6B
$GPHPD,0,0.000,324.77,-0.49,-12.82,31.5904319,120.7767035,2.616,13632210.048,24925002.091,2.616,0.000,0.000,0.000,0.000,0.000,0.000,0.000,17,16,4*70
$GPGGA,063610.60,3135.4260275,N,12046.6021119,E,4,17,1.6,2.6192,M,8.312,M,00,0004*67
$GPHPD,0,0.000,324.91,0.19,-12.81,31.5904338,120.7767019,2.619,13632208.223,24925000.236,2.619,0.000,0.000,0.000,0.000,0.000,0.000,0.000,17,16,4*55
$GPGGA,063610.80,3135.4261442,N,12046.6020168,E,4,17,1.6,2.6292,M,8.312,M,00,0004*6E
$GPHPD,0,0.000,324.94,-0.16,-12.78,31.5904357,120.7767003,2.629,13632206.373,24924998.410,2.629,0.000,0.000,0.000,0.000,0.000,0.000,0.000,17,16,4*77
$GPGGA,063611.00,3135.4262607,N,12046.6019292,E,4,16,1.6,2.6186,M,8.312,M,01,0004*6D
$GPHPD,0,0.000,324.85,-0.31,-12.79,31.5904377,120.7766988,2.619,13632204.541,24924996.676,2.619,0.000,0.000,0.000,0.000,0.000,0.000,0.000,16,16,4*72
$GPGGA,063611.20,3135.4263801,N,12046.6018398,E,4,16,1.6,2.6221,M,8.312,M,01,0004*62
$GPHPD,0,0.000,324.65,0.26,-12.79,31.5904397,120.7766973,2.622,13632202.664,24924994.903,2.622,0.000,0.000,0.000,0.000,0.000,0.000,0.000,16,16,4*50
$GPGGA,063611.40,3135.4264935,N,12046.6017466,E,4,16,1.6,2.6223,M,8.312,M,01,0004*6E
$GPHPD,0,0.000,324.47,0.45,-12.79,31.5904416,120.7766958,2.622,13632200.864,24924993.119,2.622,0.000,0.000,0.000,0.000,0.000,0.000,0.000,16,16,4*5A
$GPGGA,063611.60,3135.4266077,N,12046.6016586,E,4,16,1.6,2.6308,M,8.312,M,01,0004*67
$GPHPD,0,0.000,324.59,-0.04,-12.80,31.5904435,120.7766943,2.631,13632199.064,24924991.393,2.631,0.000,0.000,0.000,0.000,0.000,0.000,0.000,16,16,4*79
$GPGGA,063611.80,3135.4267238,N,12046.6015640,E,4,16,1.6,2.6260,M,8.312,M,01,0004*64
$GPHPD,0,0.000,324.43,-0.11,-12.79,31.5904454,120.7766927,2.626,13632197.223,24924989.576,2.626,0.000,0.000,0.000,0.000,0.000,0.000,0.000,16,15,4*7D
$GPGGA,063612.00,3135.4268409,N,12046.6014701,E,4,16,1.6,2.6296,M,8.312,M,02,0004*6B
$GPHPD,0,0.000,324.17,0.36,-12.77,31.5904473,120.7766912,2.630,13632195.370,24924987.762,2.630,0.000,0.000,0.000,0.000,0.000,0.000,0.000,16,15,4*55
$GPGGA,063612.20,3135.4269601,N,12046.6013766,E,4,16,1.6,2.6294,M,8.312,M,02,0004*66
$GPHPD,0,0.000,324.27,-0.13,-12.78,31.5904493,120.7766896,2.629,13632193.487,24924985.941,2.629,0.000,0.000,0.000,0.000,0.000,0.000,0.000,16,15,4*74
$GPGGA,063612.40,3135.4270776,N,12046.6012815,E,4,16,1.6,2.6368,M,8.312,M,02,0004*61
$GPHPD,0,0.000,323.83,0.02,-12.76,31.5904513,120.7766880,2.637,13632191.626,24924984.111,2.637,0.000,0.000,0.000,0.000,0.000,0.000,0.000,16,15,4*57
$GPGGA,063612.60,3135.4271933,N,12046.6011870,E,4,16,1.6,2.6286,M,8.312,M,02,0004*6C
$GPHPD,0,0.000,324.22,-0.49,-12.73,31.5904532,120.7766865,2.629,13632189.791,24924982.298,2.629,0.000,0.000,0.000,0.000,0.000,0.000,0.000,16,15,4*74
$GPGGA,063612.80,3135.4273138,N,12046.6010911,E,4,16,1.6,2.6311,M,8.312,M,00,0004*69
$GPHPD,0,0.000,324.16,-0.44,-12.70,31.5904552,120.7766849,2.631,13632187.885,24924980.440,2.631,0.000,0.000,0.000,0.000,0.000,0.000,0.000,16,15,4*70
$GPGGA,063613.00,3135.4274306,N,12046.6009922,E,4,15,1.6,2.6483,M,8.312,M,01,0004*6E
$GPHPD,0,0.000,324.29,-0.83,-12.69,31.5904572,120.7766832,2.648,13632186.026,24924978.567,2.648,0.000,0.000,0.000,0.000,0.000,0.000,0.000,15,15,4*71
$GPGGA,063613.20,3135.4275537,N,12046.6008964,E,4,15,1.6,2.6396,M,8.312,M,01,0004*69
$GPHPD,0,0.000,324.68,-1.47,-12.69,31.5904592,120.7766816,2.640,13632184.083,24924976.696,2.640,0.000,0.000,0.000,0.000,0.000,0.000,0.000,15,15,4*7B
$GPGGA,063613.40,3135.4276710,N,12046.6007981,E,4,15,1.6,2.6492,M,8.312,M,01,0004*6C
$GPHPD,0,0.000,324.64,-1.06,-12.67,31.5904612,120.7766800,2.649,13632182.218,24924974.827,2.649,0.000,0.000,0.000,0.000,0.000,0.000,0.000,15,15,4*70
$GPGGA,063613.60,3135.4277886,N,12046.6007026,E,4,15,1.6,2.6394,M,8.312,M,00,0004*6B
$GPHPD,0,0.000,324.99,-1.39,-12.64,31.5904631,120.7766784,2.639,13632180.354,24924972.991,2.639,0.000,0.000,0.000,0.000,0.000,0.000,0.000,15,15,4*7E
$GPGGA,063613.80,3135.4279081,N,12046.6006078,E,4,15,1.6,2.6275,M,8.311,M,00,0004*63
$GPHPD,0,0.000,324.86,-1.23,-12.64,31.5904651,120.7766768,2.628,13632178.465,24924971.153,2.628,0.000,0.000,0.000,0.000,0.000,0.000,0.000,15,15,4*78
$GPGGA,063614.00,3135.4280259,N,12046.6005170,E,4,15,1.6,2.6114,M,8.311,M,01,0004*62
$GPHPD,0,0.000,324.98,-1.17,-12.65,31.5904671,120.7766753,2.611,13632176.608,24924969.372,2.611,0.000,0.000,0.000,0.000,0.000,0.000,0.000,15,15,4*74
$GPGGA,063614.20,3135.4281439,N,12046.6004269,E,4,15,1.6,2.6153,M,8.311,M,01,0004*68
$GPHPD,0,0.000,324.85,-0.72,-12.66,31.5904691,120.7766738,2.615,13632174.749,24924967.599,2.615,0.000,0.000,0.000,0.000,0.000,0.000,0.000,15,15,4*71
$GPGGA,063614.40,3135.4282604,N,12046.6003329,E,4,16,1.6,2.6162,M,8.311,M,01,0004*62
$GPHPD,0,0.000,324.73,-0.96,-12.68,31.5904710,120.7766722,2.616,13632172.904,24924965.787,2.616,0.000,0.000,0.000,0.000,0.000,0.000,0.000,16,15,4*72
$GPGGA,063614.60,3135.4283789,N,12046.6002393,E,4,16,1.6,2.6148,M,8.311,M,00,0004*6C
$GPHPD,0,0.000,324.70,-0.68,-12.74,31.5904730,120.7766707,2.615,13632171.031,24924963.969,2.615,0.000,0.000,0.000,0.000,0.000,0.000,0.000,16,15,4*7C
$GPGGA,063614.80,3135.4284939,N,12046.6001455,E,4,16,1.6,2.6117,M,8.311,M,00,0004*64
$GPHPD,0,0.000,324.75,-0.63,-12.76,31.5904749,120.7766691,2.612,13632169.208,24924962.168,2.612,0.000,0.000,0.000,0.000,0.000,0.000,0.000,16,15,4*79
$GPGGA,063615.00,3135.4286125,N,12046.6000553,E,4,16,1.6,2.6098,M,8.311,M,01,0004*6B
$GPHPD,0,0.000,324.74,-0.65,-12.78,31.5904769,120.7766676,2.610,13632167.341,24924960.390,2.610,0.000,0.000,0.000,0.000,0.000,0.000,0.000,16,15,4*7E
$GPGGA,063615.20,3135.4287290,N,12046.5999625,E,4,16,1.6,2.6015,M,8.311,M,01,0004*68
$GPHPD,0,0.000,324.53,-0.31,-12.80,31.5904788,120.7766660,2.602,13632165.498,24924958.593,2.602,0.000,0.000,0.000,0.000,0.000,0.000,0.000,16,15,4*7A
$GPGGA,063615.40,3135.4288469,N,12046.5998697,E,4,16,1.6,2.5963,M,8.311,M,01,0004*62
$GPHPD,0,0.000,324.69,-0.30,-12.82,31.5904808,120.7766645,2.596,13632163.635,24924956.788,2.596,0.000,0.000,0.000,0.000,0.000,0.000,0.000,16,15,4*75
$GPGGA,063615.60,3135.4289615,N,12046.5997759,E,4,16,1.6,2.6057,M,8.311,M,00,0004*68
$GPHPD,0,0.000,324.63,-0.14,-12.81,31.5904827,120.7766629,2.606,13632161.817,24924954.990,2.606,0.000,0.000,0.000,0.000,0.000,0.000,0.000,16,15,4*74
$GPGGA,063615.80,3135.4290778,N,12046.5996809,E,4,16,1.6,2.6078,M,8.311,M,00,0004*62
$GPHPD,0,0.000,324.63,-0.10,-12.80,31.5904846,120.7766613,2.608,13632159.973,24924953.167,2.608,0.000,0.000,0.000,0.000,0.000,0.000,0.000,16,15,4*70
$GPGGA,063616.00,3135.4291960,N,12046.5995907,E,4,16,1.6,2.6079,M,8.311,M,01,0004*63
$GPHPD,0,0.000,324.59,-0.58,-12.78,31.5904866,120.7766598,2.608,13632158.112,24924951.392,2.608,0.000,0.000,0.000,0.000,0.000,0.000,0.000,16,15,4*74
$GPGGA,063616.20,3135.4293118,N,12046.5994961,E,4,16,1.6,2.6102,M,8.311,M,01,0004*68
$GPHPD,0,0.000,324.43,-0.20,-12.78,31.5904885,120.7766583,2.610,13632156.275,24924949.577,2.610,0.000,0.000,0.000,0.000,0.000,0.000,0.000,16,15,4*7F
$GPGGA,063616.40,3135.4294290,N,12046.5994015,E,4,16,1.6,2.6103,M,8.311,M,01,0004*61
$GPHPD,0,0.000,324.53,-0.13,-12.76,31.5904905,120.7766567,2.610,13632154.419,24924947.754,2.610,0.000,0.000,0.000,0.000,0.000,0.000,0.000,16,15,4*70
$GPGGA,063616.60,3135.4295456,N,12046.5993079,E,4,16,1.6,2.6135,M,8.311,M,00,0004*67
$GPHPD,0,0.000,324.78,-0.37,-12.73,31.5904924,120.7766551,2.614,13632152.573,24924945.947,2.614,0.000,0.000,0.000,0.000,0.000,0.000,0.000,16,16,4*7A
$GPGGA,063616.80,3135.4296622,N,12046.5992155,E,4,16,1.6,2.6156,M,8.311,M,00,0004*60
$GPHPD,0,0.000,324.39,0.27,-12.71,31.5904944,120.7766536,2.616,13632150.730,24924944.154,2.616,0.000,0.000,0.000,0.000,0.000,0.000,0.000,16,16,4*5A
$GPGGA,063617.00,3135.4297777,N,12046.5991233,E,4,16,1.6,2.6101,M,8.311,M,01,0004*6A
$GPHPD,0,0.000,324.48,-0.41,-12.69,31.5904963,120.7766521,2.610,13632148.902,24924942.370,2.610,0.000,0.000,0.000,0.000,0.000,0.000,0.000,16,16,4*7F
$GPGGA,063617.20,3135.4298928,N,12046.5990261,E,4,16,1.6,2.6102,M,8.311,M,01,0004*66
$GPHPD,0,0.000,324.56,-0.47,-12.69,31.5904982,120.7766504,2.610,13632147.071,24924940.528,2.610,0.000,0.000,0.000,0.000,0.000,0.000,0.000,16,16,4*75
$GPGGA,063617.40,3135.4300084,N,12046.5989350,E,4,16,1.6,2.6133,M,8.311,M,01,0004*66
$GPHPD,0,0.000,324.58,-0.20,-12.69,31.5905001,120.7766489,2.613,13632145.244,24924938.756,2.613,0.000,0.000,0.000,0.000,0.000,0.000,0.000,16,16,4*7F
$GPGGA,063617.60,3135.4301262,N,12046.5988439,E,4,16,1.6,2.6119,M,8.311,M,00,0004*6F
$GPHPD,0,0.000,324.92,-0.52,-12.67,31.5905021,120.7766474,2.612,13632143.386,24924936.972,2.612,0.000,0.000,0.000,0.000,0.000,0.000,0.000,16,16,4*7D
$GPGGA,063617.80,3135.4302413,N,12046.5987476,E,4,16,1.6,2.6286,M,8.311,M,00,0004*63
$GPHPD,0,0.000,324.75,-0.67,-12.68,31.5905040,120.7766458,2.629,13632141.557,24924935.141,2.629,0.000,0.000,0.000,0.000,0.000,0.000,0.000,16,16,4*77
$GPGGA,063618.00,3135.4303574,N,12046.5986556,E,4,16,1.6,2.6180,M,8.311,M,01,0004*63
$GPHPD,0,0.000,325.04,-1.21,-12.71,31.5905060,120.7766443,2.618,13632139.721,24924933.356,2.618,0.000,0.000,0.000,0.000,0.000,0.000,0.000,16,16,4*7D
$GPGGA,063618.20,3135.4304763,N,12046.5985647,E,4,16,1.6,2.6069,M,8.311,M,01,0004*64
$GPHPD,0,0.000,324.74,-0.92,-12.71,31.5905079,120.7766427,2.607,13632137.848,24924931.568,2.607,0.000,0.000,0.000,0.000,0.000,0.000,0.000,16,16,4*7F
$GPGGA,063618.40,3135.4305949,N,12046.5984747,E,4,16,1.6,2.6129,M,8.311,M,01,0004*60
$GPHPD,0,0.000,324.60,-0.93,-12.72,31.5905099,120.7766412,2.613,13632135.981,24924929.792,2.613,0.000,0.000,0.000,0.000,0.000,0.000,0.000,16,16,4*78
$GPGGA,063618.60,3135.4307131,N,12046.5983751,E,4,17,1.6,2.6028,M,8.311,M,00,0004*67
$GPHPD,0,0.000,324.63,-0.71,-12.71,31.5905119,120.7766396,2.603,13632134.101,24924927.903,2.603,0.000,0.000,0.000,0.000,0.000,0.000,0.000,17,16,4*7E
$GPGGA,063618.80,3135.4308286,N,12046.5982793,E,4,17,1.6,2.6110,M,8.311,M,00,0004*6C
$GPHPD,0,0.000,324.50,-0.48,-12.73,31.5905138,120.7766380,2.611,13632132.266,24924926.075,2.611,0.000,0.000,0.000,0.000,0.000,0.000,0.000,17,16,4*7F
$GPGGA,063619.00,3135.4309478,N,12046.5981887,E,4,17,1.6,2.6067,M,8.311,M,01,0004*6A
$GPHPD,0,0.000,324.58,-0.72,-12.71,31.5905158,120.7766365,2.607,13632130.390,24924924.289,2.607,0.000,0.000,0.000,0.000,0.000,0.000,0.000,17,16,4*78
$GPGGA,063619.20,3135.4310671,N,12046.5980942,E,4,17,1.6,2.6043,M,8.311,M,01,0004*64
$GPHPD,0,0.000,324.43,-0.66,-12.69,31.5905178,120.7766349,2.604,13632128.504,24924922.455,2.604,0.000,0.000,0.000,0.000,0.000,0.000,0.000,17,16,4*71
$GPGGA,063619.40,3135.4311818,N,12046.5979971,E,4,17,1.6,2.6029,M,8.311,M,01,0004*68
$GPHPD,0,0.000,324.47,-0.58,-12.69,31.5905197,120.7766333,2.603,13632126.678,24924920.617,2.603,0.000,0.000,0.000,0.000,0.000,0.000,0.000,17,16,4*74
$GPGGA,063619.60,3135.4312980,N,12046.5979025,E,4,17,1.6,2.5997,M,8.311,M,00,0004*6F
$GPHPD,0,0.000,324.52,-0.47,-12.70,31.5905216,120.7766317,2.600,13632124.836,24924918.800,2.600,0.000,0.000,0.000,0.000,0.000,0.000,0.000,17,16,4*7F
$GPGGA,063619.80,3135.4314166,N,12046.5978088,E,4,17,1.6,2.6020,M,8.311,M,00,0004*67
$GPHPD,0,0.000,324.49,-0.55,-12.69,31.5905236,120.7766301,2.602,13632122.961,24924916.979,2.602,0.000,0.000,0.000,0.000,0.000,0.000,0.000,17,16,4*7F
$GPGGA,063620.00,3135.4315341,N,12046.5977143,E,4,17,1.6,2.6094,M,8.311,M,01,0004*64
$GPHPD,0,0.000,324.37,-0.83,-12.65,31.5905256,120.7766286,2.609,13632121.101,24924915.156,2.609,0.000,0.000,0.000,0.000,0.000,0.000,0.000,17,16,4*72
$GPGGA,063620.20,3135.4316522,N,12046.5976208,E,4,17,1.6,2.5951,M,8.311,M,01,0004*68
$GPHPD,0,0.000,324.62,-0.65,-12.66,31.5905275,120.7766270,2.595,13632119.234,24924913.341,2.595,0.000,0.000,0.000,0.000,0.000,0.000,0.000,17,16,4*7D
$GPGGA,063620.40,3135.4317720,N,12046.5975231,E,4,17,1.6,2.5981,M,8.311,M,01,0004*6B
$GPHPD,0,0.000,324.55,-0.26,-12.69,31.5905295,120.7766254,2.598,13632117.335,24924911.466,2.598,0.000,0.000,0.000,0.000,0.000,0.000,0.000,17,16,4*77
$GPGGA,063620.60,3135.4318872,N,12046.5974313,E,4,17,1.6,2.6034,M,8.311,M,00,0004*6B
$GPHPD,0,0.000,324.60,-0.09,-12.69,31.5905315,120.7766239,2.603,13632115.512,24924909.688,2.603,0.000,0.000,0.000,0.000,0.000,0.000,0.000,17,16,4*74
$GPGGA,063620.80,3135.4320081,N,12046.5973337,E,4,17,1.6,2.5915,M,8.311,M,00,0004*62
$GPHPD,0,0.000,324.56,-0.33,-12.67,31.5905335,120.7766222,2.592,13632113.598,24924907.807,2.592,0.000,0.000,0.000,0.000,0.000,0.000,0.000,17,16,4*7D
$GPGGA,063621.00,3135.4321235,N,12046.5972391,E,4,17,1.6,2.5959,M,8.311,M,01,0004*63
$GPHPD,0,0.000,324.57,0.13,-12.65,31.5905354,120.7766207,2.596,13632111.767,24924905.995,2.596,0.000,0.000,0.000,0.000,0.000,0.000,0.000,17,16,4*59
$GPGGA,063621.20,3135.4322420,N,12046.5971457,E,4,17,1.6,2.5926,M,8.311,M,01,0004*66
$GPHPD,0,0.000,324.64,-0.44,-12.65,31.5905374,120.7766191,2.593,13632109.894,24924904.179,2.593,0.000,0.000,0.000,0.000,0.000,0.000,0.000,17,16,4*79
$GPGGA,063621.40,3135.4323600,N,12046.5970528,E,4,17,1.6,2.5994,M,8.311,M,01,0004*60
$GPHPD,0,0.000,324.48,-0.55,-12.65,31.5905393,120.7766175,2.599,13632108.030,24924902.372,2.599,0.000,0.000,0.000,0.000,0.000,0.000,0.000,17,16,4*7C
$GPGGA,063621.60,3135.4324792,N,12046.5969548,E,4,17,1.6,2.5995,M,8.311,M,00,0004*61
$GPHPD,0,0.000,324.37,-0.73,-12.64,31.5905413,120.7766159,2.600,13632106.139,24924900.496,2.600,0.000,0.000,0.000,0.000,0.000,0.000,0.000,17,16,4*79
$GPGGA,063621.80,3135.4325962,N,12046.5968607,E,4,17,1.6,2.6090,M,8.311,M,00,0004*69
$GPHPD,0,0.000,324.51,-1.12,-12.62,31.5905433,120.7766143,2.609,13632104.286,24924898.681,2.609,0.000,0.000,0.000,0.000,0.000,0.000,0.000,17,16,4*71
$GPGGA,063622.00,3135.4327154,N,12046.5967668,E,4,17,1.6,2.6066,M,8.311,M,01,0004*63
$GPHPD,0,0.000,324.35,-1.07,-12.64,31.5905453,120.7766128,2.607,13632102.403,24924896.855,2.607,0.000,0.000,0.000,0.000,0.000,0.000,0.000,17,16,4*7E
$GPGGA,063622.20,3135.4328322,N,12046.5966718,E,4,17,1.6,2.5937,M,8.311,M,01,0004*64
$GPHPD,0,0.000,324.60,-1.26,-12.64,31.5905472,120.7766112,2.594,13632100.552,24924895.029,2.594,0.000,0.000,0.000,0.000,0.000,0.000,0.000,17,16,4*70
$GPGGA,063622.40,3135.4329503,N,12046.5965748,E,4,17,1.6,2.5948,M,8.311,M,01,0004*68
$GPHPD,0,0.000,324.49,-0.93,-12.64,31.5905492,120.7766096,2.595,13632098.678,24924893.172,2.595,0.000,0.000,0.000,0.000,0.000,0.000,0.000,17,16,4*75
$GPGGA,063622.60,3135.4330656,N,12046.5964819,E,4,17,1.6,2.5929,M,8.311,M,00,0004*6D
$GPHPD,0,0.000,324.63,-0.74,-12.64,31.5905511,120.7766080,2.593,13632096.852,24924891.381,2.593,0.000,0.000,0.000,0.000,0.000,0.000,0.000,17,16,4*7D
$GPGGA,063622.80,3135.4331859,N,12046.5963902,E,4,17,1.6,2.5985,M,8.311,M,00,0004*69
$GPHPD,0,0.000,324.70,-0.50,-12.64,31.5905531,120.7766065,2.599,13632094.957,24924889.575,2.599,0.000,0.000,0.000,0.000,0.000,0.000,0.000,17,16,4*72
$GPGGA,063623.00,3135.4333032,N,12046.5962930,E,4,17,1.6,2.5988,M,8.311,M,01,0004*6B
$GPHPD,0,0.000,324.63,-0.79,-12.63,31.5905551,120.7766049,2.599,13632093.094,24924887.720,2.599,0.000,0.000,0.000,0.000,0.000,0.000,0.000,17,16,4*79
$GPGGA,063623.20,3135.4334226,N,12046.5962008,E,4,17,1.6,2.5934,M,8.311,M,01,0004*6C
$GPHPD,0,0.000,324.61,-1.11,-12.62,31.5905570,120.7766033,2.593,13632091.212,24924885.913,2.593,0.000,0.000,0.000,0.000,0.000,0.000,0.000,17,16,4*79
$GPGGA,063623.40,3135.4335377,N,12046.5961065,E,4,17,1.6,2.5848,M,8.311,M,01,0004*6C
$GPHPD,0,0.000,324.65,-0.73,-12.62,31.5905590,120.7766018,2.585,13632089.386,24924884.106,2.585,0.000,0.000,0.000,0.000,0.000,0.000,0.000,17,16,4*77
$GPGGA,063623.60,3135.4336552,N,12046.5960095,E,4,17,1.6,2.5897,M,8.311,M,00,0004*61
$GPHPD,0,0.000,324.78,-0.49,-12.63,31.5905609,120.7766002,2.590,13632087.520,24924882.253,2.590,0.000,0.000,0.000,0.000,0.000,0.000,0.000,17,16,4*7A
$GPGGA,063623.80,3135.4337736,N,12046.5959202,E,4,17,1.6,2.5950,M,8.311,M,00,0004*62
$GPHPD,0,0.000,324.75,-0.53,-12.63,31.5905629,120.7765987,2.595,13632085.658,24924880.487,2.595,0.000,0.000,0.000,0.000,0.000,0.000,0.000,17,16,4*7A
$GPGGA,063624.00,3135.4338911,N,12046.5958265,E,4,17,1.6,2.5847,M,8.311,M,01,0004*6F
$GPHPD,0,0.000,324.66,-0.99,-12.62,31.5905649,120.7765971,2.585,13632083.799,24924878.673,2.585,0.000,0.000,0.000,0.000,0.000,0.000,0.000,17,16,4*74
$GPGGA,063624.20,3135.4340086,N,12046.5957332,E,4,17,1.6,2.5816,M,8.311,M,01,0004*6D
$GPHPD,0,0.000,324.74,-0.58,-12.63,31.5905668,120.7765956,2.582,13632081.941,24924876.864,2.582,0.000,0.000,0.000,0.000,0.000,0.000,0.000,17,16,4*72
$GPGGA,063624.40,3135.4341263,N,12046.5956417,E,4,17,1.6,2.5812,M,8.311,M,01,0004*66
$GPHPD,0,0.000,324.77,0.20,-12.64,31.5905688,120.7765940,2.581,13632080.084,24924875.075,2.581,0.000,0.000,0.000,0.000,0.000,0.000,0.000,17,16,4*57
$GPGGA,063624.60,3135.4342418,N,12046.5955468,E,4,17,1.6,2.5891,M,8.311,M,00,0004*6C
$GPHPD,0,0.000,324.81,-0.24,-12.63,31.5905707,120.7765924,2.589,13632078.251,24924873.259,2.589,0.000,0.000,0.000,0.000,0.000,0.000,0.000,17,16,4*73
$GPGGA,063624.80,3135.4343575,N,12046.5954527,E,4,17,1.6,2.5804,M,8.311,M,00,0004*6E
$GPHPD,0,0.000,325.01,-0.38,-12.64,31.5905726,120.7765909,2.580,13632076.417,24924871.451,2.580,0.000,0.000,0.000,0.000,0.000,0.000,0.000,17,16,4*7A
$GPGGA,063625.00,3135.4344760,N,12046.5953634,E,4,17,1.6,2.5835,M,8.311,M,01,0004*63
$GPHPD,0,0.000,324.89,-0.26,-12.63,31.5905746,120.7765894,2.584,13632074.553,24924869.684,2.584,0.000,0.000,0.000,0.000,0.000,0.000,0.000,17,16,4*70
$GPGGA,063625.20,3135.4345925,N,12046.5952645,E,4,17,1.6,2.5806,M,8.311,M,01,0004*68
$GPHPD,0,0.000,324.73,-0.05,-12.63,31.5905765,120.7765877,2.581,13632072.698,24924867.813,2.581,0.000,0.000,0.000,0.000,0.000,0.000,0.000,17,16,4*74
$GPGGA,063625.40,3135.4347086,N,12046.5951750,E,4,17,1.6,2.6024,M,8.311,M,01,0004*61
$GPHPD,0,0.000,324.96,0.51,-12.65,31.5905785,120.7765863,2.602,13632070.868,24924866.058,2.602,0.000,0.000,0.000,0.000,0.000,0.000,0.000,17,16,4*5B
$GPGGA,063625.60,3135.4348261,N,12046.5950826,E,4,17,1.6,2.5872,M,8.311,M,00,0004*61
$GPHPD,0,0.000,324.93,-1.06,-12.64,31.5905804,120.7765847,2.587,13632069.012,24924864.260,2.587,0.000,0.000,0.000,0.000,0.000,0.000,0.000,17,16,4*77
$GPGGA,063625.80,3135.4349446,N,12046.5949927,E,4,17,1.6,2.5953,M,8.311,M,00,0004*67
$GPHPD,0,0.000,324.94,-0.30,-12.66,31.5905824,120.7765832,2.595,13632067.146,24924862.486,2.595,0.000,0.000,0.000,0.000,0.000,0.000,0.000,17,16,4*70
$GPGGA,063626.00,3135.4350590,N,12046.5948985,E,4,17,1.6,2.5913,M,8.311,M,01,0004*62
$GPHPD,0,0.000,324.49,-0.79,-12.66,31.5905843,120.7765816,2.591,13632065.331,24924860.685,2.591,0.000,0.000,0.000,0.000,0.000,0.000,0.000,17,16,4*79
$GPGGA,063626.20,3135.4351726,N,12046.5948055,E,4,17,1.6,2.5910,M,8.311,M,01,0004*69
$GPHPD,0,0.000,324.79,-0.84,-12.67,31.5905862,120.7765801,2.591,13632063.529,24924858.902,2.591,0.000,0.000,0.000,0.000,0.000,0.000,0.000,17,16,4*7E
$GPGGA,063626.40,3135.4352908,N,12046.5947106,E,4,17,1.6,2.6029,M,8.311,M,01,0004*66
$GPHPD,0,0.000,324.74,-0.80,-12.65,31.5905882,120.7765785,2.603,13632061.658,24924857.070,2.603,0.000,0.000,0.000,0.000,0.000,0.000,0.000,17,16,4*7C
$GPGGA,063626.60,3135.4354084,N,12046.5946214,E,4,17,1.6,2.5862,M,8.311,M,01,0004*6A
$GPHPD,0,0.000,324.55,-1.41,-12.64,31.5905901,120.7765770,2.586,13632059.807,24924855.309,2.586,0.000,0.000,0.000,0.000,0.000,0.000,0.000,17,16,4*72
$GPGGA,063626.80,3135.4355237,N,12046.5945284,E,4,17,1.6,2.5851,M,8.311,M,01,0004*65
$GPHPD,0,0.000,324.51,-0.68,-12.66,31.5905921,120.7765755,2.585,13632057.981,24924853.517,2.585,0.000,0.000,0.000,0.000,0.000,0.000,0.000,17,16,4*75
$GPGGA,063627.00,3135.4356385,N,12046.5944319,E,4,17,1.6,2.5902,M,8.311,M,02,0004*67
$GPHPD,0,0.000,324.37,-0.44,-12.65,31.5905940,120.7765739,2.590,13632056.155,24924851.685,2.590,0.000,0.000,0.000,0.000,0.000,0.000,0.000,17,16,4*7F
$GPGGA,063627.20,3135.4357544,N,12046.5943442,E,4,17,1.6,2.5873,M,8.311,M,02,0004*66
$GPHPD,0,0.000,324.56,-1.07,-12.68,31.5905959,120.7765724,2.587,13632054.331,24924849.953,2.587,0.000,0.000,0.000,0.000,0.000,0.000,0.000,17,16,4*78
$GPGGA,063627.40,3135.4358713,N,12046.5942481,E,4,17,1.6,2.5823,M,8.311,M,02,0004*64
$GPHPD,0,0.000,324.37,-0.50,-12.67,31.5905979,120.7765708,2.582,13632052.476,24924848.114,2.582,0.000,0.000,0.000,0.000,0.000,0.000,0.000,17,16,4*77
$GPGGA,063627.60,3135.4359841,N,12046.5941515,E,4,17,1.6,2.5809,M,8.311,M,02,0004*68
$GPHPD,0,0.000,324.47,-0.72,-12.65,31.5905997,120.7765692,2.581,13632050.678,24924846.292,2.581,0.000,0.000,0.000,0.000,0.000,0.000,0.000,17,16,4*7D
$GPGGA,063627.80,3135.4361015,N,12046.5940628,E,4,17,1.6,2.5789,M,8.311,M,00,0004*6D
$GPHPD,0,0.000,324.80,-0.45,-12.64,31.5906017,120.7765677,2.579,13632048.831,24924844.539,2.579,0.000,0.000,0.000,0.000,0.000,0.000,0.000,17,16,4*74
$GPGGA,063628.00,3135.4362163,N,12046.5939704,E,4,17,1.6,2.5733,M,8.311,M,01,0004*68
$GPHPD,0,0.000,324.50,-0.74,-12.63,31.5906036,120.7765662,2.573,13632047.013,24924842.757,2.573,0.000,0.000,0.000,0.000,0.000,0.000,0.000,17,16,4*70
$GPGGA,063628.20,3135.4363329,N,12046.5938726,E,4,17,1.4,2.5647,M,8.311,M,01,0004*66
