2.746,0.000,0.000,0.000,0.000,0.000,0.000,0.000,17,17,4*5F
$GPGGA,064217.00,3135.3922564,N,12046.6289106,E,4,17,1.4,2.7526,M,8.314,M,01,0004*69
$GPHPD,0,0.000,329.17,0.64,-14.58,31.5898709,120.7771485,2.753,13632742.197,24925519.957,2.753,0.000,0.000,0.000,0.000,0.000,0.000,0.000,17,17,4*5D
$GPGGA,064217.20,3135.3922479,N,12046.6289182,E,4,17,1.4,2.7501,M,8.314,M,01,0004*6F
$GPHPD,0,0.000,329.08,0.48,-14.59,31.5898708,120.7771486,2.750,13632742.334,24925520.098,2.750,0.000,0.000,0.000,0.000,0.000,0.000,0.000,17,17,4*55
$GPGGA,064217.40,3135.3922399,N,12046.6289224,E,4,17,1.4,2.7501,M,8.314,M,01,0004*6F
$GPHPD,0,0.000,329.26,0.56,-14.55,31.5898707,120.7771487,2.750,13632742.456,24925520.195,2.750,0.000,0.000,0.000,0.000,0.000,0.000,0.000,17,17,4*5B
$GPGGA,064217.60,3135.3922348,N,12046.6289247,E,4,17,1.4,2.7505,M,8.314,M,00,0004*61
$GPHPD,0,0.000,329.08,0.26,-14.52,31.5898706,120.7771487,2.751,13632742.533,24925520.253,2.751,0.000,0.000,0.000,0.000,0.000,0.000,0.000,17,17,4*5D
$GPGGA,064217.80,3135.3922353,N,12046.6289266,E,4,17,1.4,2.7485,M,8.314,M,00,0004*6F
$GPHPD,0,0.000,329.39,0.21,-14.49,31.5898706,120.7771488,2.749,13632742.530,24925520.273,2.749,0.000,0.000,0.000,0.000,0.000,0.000,0.000,17,17,4*5C
$GPGGA,064218.00,3135.3922356,N,12046.6289257,E,4,17,1.4,2.7516,M,8.314,M,01,0004*65
$GPHPD,0,0.000,329.20,0.29,-14.44,31.5898706,120.7771488,2.752,13632742.523,24925520.260,2.752,0.000,0.000,0.000,0.000,0.000,0.000,0.000,17,17,4*51
$GPGGA,064218.20,3135.3922345,N,12046.6289267,E,4,17,1.4,2.7483,M,8.314,M,01,0004*6B
$GPHPD,0,0.000,329.24,0.07,-14.37,31.5898706,120.7771488,2.748,13632742.541,24925520.278,2.748,0.000,0.000,0.000,0.000,0.000,0.000,0.000,17,17,4*50
$GPGGA,064218.40,3135.3922331,N,12046.6289274,E,4,17,1.4,2.7477,M,8.314,M,01,0004*67
$GPHPD,0,0.000,329.21,0.26,-14.31,31.5898706,120.7771488,2.748,13632742.562,24925520.295,2.748,0.000,0.000,0.000,0.000,0.000,0.000,0.000,17,17,4*52
$GPGGA,064218.60,3135.3922288,N,12046.6289306,E,4,17,1.4,2.7483,M,8.314,M,00,0004*68
$GPHPD,0,0.000,329.27,0.41,-14.26,31.5898705,120.7771488,2.748,13632742.630,24925520.359,2.748,0.000,0.000,0.000,0.000,0.000,0.000,0.000,17,17,4*55
$GPGGA,064218.80,3135.3922276,N,12046.6289306,E,4,17,1.4,2.7504,M,8.314,M,00,0004*69
$GPHPD,0,0.000,329.12,0.03,-14.21,31.5898705,120.7771488,2.750,13632742.647,24925520.366,2.750,0.000,0.000,0.000,0.000,0.000,0.000,0.000,17,17,4*5E
$GPGGA,064219.00,3135.3922242,N,12046.6289328,E,4,17,1.4,2.7500,M,8.314,M,01,0004*6E
$GPHPD,0,0.000,329.23,0.04,-14.16,31.5898704,120.7771489,2.750,13632742.700,24925520.412,2.750,0.000,0.000,0.000,0.000,0.000,0.000,0.000,17,17,4*59
$GPGGA,064219.20,3135.3922233,N,12046.6289347,E,4,17,1.4,2.7492,M,8.314,M,01,0004*69
$GPHPD,0,0.000,329.23,0.11,-14.12,31.5898704,120.7771489,2.749,13632742.716,24925520.440,2.749,0.000,0.000,0.000,0.000,0.000,0.000,0.000,17,17,4*59
$GPGGA,064219.40,3135.3922213,N,12046.6289341,E,4,17,1.4,2.7510,M,8.314,M,01,0004*60
$GPHPD,0,0.000,329.14,0.44,-14.12,31.5898704,120.7771489,2.751,13632742.744,24925520.445,2.751,0.000,0.000,0.000,0.000,0.000,0.000,0.000,17,17,4*5F
$GPGGA,064219.60,3135.3922229,N,12046.6289339,E,4,17,1.4,2.7500,M,8.314,M,00,0004*64
$GPHPD,0,0.000,329.28,0.31,-14.14,31.5898704,120.7771489,2.750,13632742.721,24925520.433,2.750,0.000,0.000,0.000,0.000,0.000,0.000,0.000,17,17,4*56
$GPGGA,064219.80,3135.3922295,N,12046.6289296,E,4,17,1.4,2.7421,M,8.314,M,00,0004*6B
$GPHPD,0,0.000,329.26,0.23,-14.23,31.5898705,120.7771488,2.742,13632742.618,24925520.343,2.742,0.000,0.000,0.000,0.000,0.000,0.000,0.000,17,17,4*54
$GPGGA,064220.00,3135.3922424,N,12046.6289210,E,4,17,1.4,2.7488,M,8.314,M,01,0004*69
$GPHPD,0,0.000,329.21,0.26,-14.35,31.5898707,120.7771487,2.749,13632742.417,24925520.164,2.749,0.000,0.000,0.000,0.000,0.000,0.000,0.000,17,17,4*56
$GPGGA,064220.20,3135.3922702,N,12046.6289006,E,4,17,1.4,2.7414,M,8.314,M,01,0004*6C
$GPHPD,0,0.000,329.04,0.51,-14.47,31.5898712,120.7771483,2.741,13632741.981,24925519.756,2.741,0.000,0.000,0.000,0.000,0.000,0.000,0.000,17,17,4*58
$GPGGA,064220.40,3135.3923080,N,12046.6288739,E,4,17,1.4,2.7503,M,8.314,M,01,0004*6B
$GPHPD,0,0.000,329.25,0.78,-14.52,31.5898718,120.7771479,2.750,13632741.390,24925519.214,2.750,0.000,0.000,0.000,0.000,0.000,0.000,0.000,17,17,4*52
$GPGGA,064220.60,3135.3923606,N,12046.6288368,E,4,17,1.4,2.7574,M,8.314,M,00,0004*60
$GPHPD,0,0.000,329.25,0.48,-14.57,31.5898727,120.7771473,2.757,13632740.568,24925518.460,2.757,0.000,0.000,0.000,0.000,0.000,0.000,0.000,17,17,4*56
$GPGGA,064220.80,3135.3924249,N,12046.6287935,E,4,17,1.4,2.7543,M,8.314,M,00,0004*6F
$GPHPD,0,0.000,329.05,0.17,-14.61,31.5898737,120.7771466,2.754,13632739.567,24925517.564,2.754,0.000,0.000,0.000,0.000,0.000,0.000,0.000,17,17,4*55
$GPGGA,064221.00,3135.3924943,N,12046.6287454,E,4,17,1.4,2.7561,M,8.314,M,01,0004*6C
$GPHPD,0,0.000,329.03,0.17,-14.59,31.5898749,120.7771458,2.756,13632738.483,24925516.580,2.756,0.000,0.000,0.000,0.000,0.000,0.000,0.000,17,17,4*5D
$GPGGA,064221.20,3135.3925738,N,12046.6286948,E,4,17,1.4,2.7601,M,8.314,M,01,0004*69
$GPHPD,0,0.000,329.10,0.09,-14.56,31.5898762,120.7771449,2.760,13632737.251,24925515.507,2.760,0.000,0.000,0.000,0.000,0.000,0.000,0.000,17,17,4*5C
$GPGGA,064221.40,3135.3926463,N,12046.6286459,E,4,17,1.4,2.7517,M,8.314,M,01,0004*68
$GPHPD,0,0.000,329.01,0.01,-14.51,31.5898774,120.7771441,2.752,13632736.122,24925514.496,2.752,0.000,0.000,0.000,0.000,0.000,0.000,0.000,17,17,4*52
$GPGGA,064221.60,3135.3927188,N,12046.6285965,E,4,17,1.4,2.7503,M,8.314,M,00,0004*6E
$GPHPD,0,0.000,328.81,0.33,-14.45,31.5898786,120.7771433,2.750,13632734.992,24925513.478,2.750,0.000,0.000,0.000,0.000,0.000,0.000,0.000,17,17,4*51
$GPGGA,064221.80,3135.3927924,N,12046.6285474,E,4,17,1.4,2.7563,M,8.314,M,00,0004*65
$GPHPD,0,0.000,328.96,0.12,-14.47,31.5898799,120.7771425,2.756,13632733.847,24925512.457,2.756,0.000,0.000,0.000,0.000,0.000,0.000,0.000,17,17,4*5D
$GPGGA,064222.00,3135.3928696,N,12046.6284961,E,4,17,1.4,2.7569,M,8.314,M,01,0004*64
$GPHPD,0,0.000,328.94,0.62,-14.54,31.5898812,120.7771416,2.757,13632732.647,24925511.389,2.757,0.000,0.000,0.000,0.000,0.000,0.000,0.000,17,17,4*5E
$GPGGA,064222.20,3135.3929500,N,12046.6284413,E,4,17,1.4,2.7604,M,8.314,M,01,0004*6B
$GPHPD,0,0.000,329.12,0.51,-14.62,31.5898825,120.7771407,2.760,13632731.394,24925510.261,2.760,0.000,0.000,0.000,0.000,0.000,0.000,0.000,17,17,4*5E
$GPGGA,064222.40,3135.3930409,N,12046.6283808,E,4,17,1.4,2.7593,M,8.314,M,01,0004*61
$GPHPD,0,0.000,329.10,0.53,-14.72,31.5898840,120.7771397,2.759,13632729.980,24925509.002,2.759,0.000,0.000,0.000,0.000,0.000,0.000,0.000,17,17,4*5B
$GPGGA,064222.60,3135.3931337,N,12046.6283167,E,4,17,1.4,2.7631,M,8.314,M,00,0004*62
$GPHPD,0,0.000,329.36,0.56,-14.71,31.5898856,120.7771386,2.763,13632728.532,24925507.689,2.763,0.000,0.000,0.000,0.000,0.000,0.000,0.000,17,17,4*51
$GPGGA,064222.80,3135.3932330,N,12046.6282525,E,4,17,1.4,2.7595,M,8.314,M,00,0004*66
$GPHPD,0,0.000,329.75,0.55,-14.71,31.5898872,120.7771375,2.760,13632726.991,24925506.337,2.760,0.000,0.000,0.000,0.000,0.000,0.000,0.000,17,17,4*55
$GPGGA,064223.00,3135.3933363,N,12046.6281875,E,4,17,1.4,2.7564,M,8.314,M,01,0004*6C
$GPHPD,0,0.000,330.29,0.79,-14.70,31.5898889,120.7771365,2.756,13632725.392,24925504.952,2.756,0.000,0.000,0.000,0.000,0.000,0.000,0.000,17,17,4*5F
$GPGGA,064223.20,3135.3934366,N,12046.6281250,E,4,17,1.4,2.7603,M,8.314,M,01,0004*63
$GPHPD,0,0.000,330.74,0.94,-14.61,31.5898906,120.7771354,2.760,13632723.840,24925503.614,2.760,0.000,0.000,0.000,0.000,0.000,0.000,0.000,17,17,4*58
$GPGGA,064223.40,3135.3935363,N,12046.6280650,E,4,17,1.4,2.7700,M,8.314,M,01,0004*66
$GPHPD,0,0.000,331.31,0.78,-14.53,31.5898923,120.7771344,2.770,13632722.302,24925502.310,2.770,0.000,0.000,0.000,0.000,0.000,0.000,0.000,17,17,4*51
$GPGGA,064223.60,3135.3936299,N,12046.6280116,E,4,17,1.4,2.7657,M,8.314,M,00,0004*64
$GPHPD,0,0.000,332.04,0.60,-14.42,31.5898938,120.7771335,2.766,13632720.864,24925501.122,2.766,0.000,0.000,0.000,0.000,0.000,0.000,0.000,17,17,4*58
$GPGGA,064223.80,3135.3937232,N,12046.6279608,E,4,17,1.4,2.7722,M,8.314,M,00,0004*67
$GPHPD,0,0.000,332.63,0.71,-14.29,31.5898954,120.7771327,2.772,13632719.436,24925499.966,2.772,0.000,0.000,0.000,0.000,0.000,0.000,0.000,17,17,4*54
$GPGGA,064224.00,3135.3938096,N,12046.6279161,E,4,17,1.4,2.7748,M,8.314,M,01,0004*6E
$GPHPD,0,0.000,333.25,0.42,-14.17,31.5898968,120.7771319,2.775,13632718.118,24925498.924,2.775,0.000,0.000,0.000,0.000,0.000,0.000,0.000,17,17,4*57
$GPGGA,064224.20,3135.3938856,N,12046.6278755,E,4,17,1.4,2.7757,M,8.314,M,01,0004*66
$GPHPD,0,0.000,333.95,0.44,-14.06,31.5898981,120.7771313,2.776,13632716.956,24925497.992,2.776,0.000,0.000,0.000,0.000,0.000,0.000,0.000,17,17,4*59
$GPGGA,064224.40,3135.3939577,N,12046.6278376,E,4,17,1.4,2.7823,M,8.314,M,01,0004*66
$GPHPD,0,0.000,334.27,0.69,-13.97,31.5898993,120.7771306,2.782,13632715.854,24925497.116,2.782,0.000,0.000,0.000,0.000,0.000,0.000,0.000,17,17,4*54
$GPGGA,064224.60,3135.3940235,N,12046.6278042,E,4,17,1.4,2.7811,M,8.314,M,00,0004*6F
$GPHPD,0,0.000,335.16,0.52,-13.90,31.5899004,120.7771301,2.781,13632714.852,24925496.330,2.781,0.000,0.000,0.000,0.000,0.000,0.000,0.000,17,17,4*59
$GPGGA,064224.80,3135.3940890,N,12046.6277728,E,4,17,1.4,2.7797,M,8.314,M,00,0004*61
$GPHPD,0,0.000,335.45,0.30,-13.81,31.5899015,120.7771295,2.780,13632713.858,24925495.570,2.780,0.000,0.000,0.000,0.000,0.000,0.000,0.000,17,17,4*5B
$GPGGA,064225.00,3135.3941498,N,12046.6277423,E,4,17,1.4,2.7829,M,8.314,M,01,0004*6E
$GPHPD,0,0.000,335.89,0.36,-13.72,31.5899025,120.7771290,2.783,13632712.932,24925494.848,2.783,0.000,0.000,0.000,0.000,0.000,0.000,0.000,17,17,4*5C
$GPGGA,064225.20,3135.3942043,N,12046.6277165,E,4,17,1.4,2.7839,M,8.314,M,01,0004*6B
$GPHPD,0,0.000,336.28,0.01,-13.68,31.5899034,120.7771286,2.784,13632712.105,24925494.220,2.784,0.000,0.000,0.000,0.000,0.000,0.000,0.000,17,17,4*54
$GPGGA,064225.40,3135.3942651,N,12046.6276886,E,4,17,1.4,2.7941,M,8.314,M,01,0004*63
$GPHPD,0,0.000,336.81,0.31,-13.64,31.5899044,120.7771281,2.794,13632711.185,24925493.530,2.794,0.000,0.000,0.000,0.000,0.000,0.000,0.000,17,17,4*52
$GPGGA,064225.60,3135.3943216,N,12046.6276607,E,4,17,1.4,2.7892,M,8.314,M,00,0004*6E
$GPHPD,0,0.000,337.12,0.10,-13.65,31.5899054,120.7771277,2.789,13632710.326,24925492.864,2.789,0.000,0.000,0.000,0.000,0.000,0.000,0.000,17,17,4*54
$GPGGA,064225.80,3135.3943869,N,12046.6276318,E,4,17,1.4,2.7830,M,8.314,M,00,0004*61
$GPHPD,0,0.000,337.60,0.17,-13.69,31.5899064,120.7771272,2.783,13632709.339,24925492.136,2.783,0.000,0.000,0.000,0.000,0.000,0.000,0.000,17,17,4*54
$GPGGA,064226.00,3135.3944510,N,12046.6276043,E,4,17,1.4,2.7862,M,8.313,M,01,0004*62
$GPHPD,0,0.000,337.76,-0.08,-13.72,31.5899075,120.7771267,2.786,13632708.373,24925491.431,2.786,0.000,0.000,0.000,0.000,0.000,0.000,0.000,17,17,4*70
$GPGGA,064226.20,3135.3945196,N,12046.6275742,E,4,17,1.4,2.7846,M,8.313,M,01,0004*68
$GPHPD,0,0.000,338.39,0.03,-13.73,31.5899087,120.7771262,2.785,13632707.337,24925490.669,2.785,0.000,0.000,0.000,0.000,0.000,0.000,0.000,17,17,4*5A
$GPGGA,064226.40,3135.3945902,N,12046.6275471,E,4,17,1.4,2.7824,M,8.313,M,01,0004*6C
$GPHPD,0,0.000,338.83,0.28,-13.71,31.5899098,120.7771258,2.782,13632706.279,24925489.931,2.782,0.000,0.000,0.000,0.000,0.000,0.000,0.000,17,17,4*57
$GPGGA,064226.60,3135.3946618,N,12046.6275181,E,4,17,1.4,2.7905,M,8.313,M,00,0004*60
$GPHPD,0,0.000,339.15,0.05,-13.66,31.5899110,120.7771253,2.791,13632705.203,24925489.165,2.791,0.000,0.000,0.000,0.000,0.000,0.000,0.000,17,17,4*5D
$GPGGA,064226.80,3135.3947335,N,12046.6274894,E,4,17,1.4,2.7901,M,8.313,M,00,0004*6D
$GPHPD,0,0.000,339.32,-0.31,-13.60,31.5899122,120.7771248,2.790,13632704.126,24925488.401,2.790,0.000,0.000,0.000,0.000,0.000,0.000,0.000,17,17,4*7C
$GPGGA,064227.00,3135.3948020,N,12046.6274599,E,4,17,1.4,2.7953,M,8.313,M,01,0004*6A
$GPHPD,0,0.000,339.75,-0.39,-13.52,31.5899134,120.7771243,2.795,13632703.093,24925487.647,2.795,0.000,0.000,0.000,0.000,0.000,0.000,0.000,17,17,4*7D
$GPGGA,064227.20,3135.3948697,N,12046.6274335,E,4,17,1.4,2.7934,M,8.313,M,01,0004*63
$GPHPD,0,0.000,340.23,-0.11,-13.46,31.5899145,120.7771239,2.793,13632702.078,24925486.935,2.793,0.000,0.000,0.000,0.000,0.000,0.000,0.000,17,17,4*7B
$GPGGA,064227.40,3135.3949385,N,12046.6274098,E,4,17,1.4,2.7937,M,8.313,M,01,0004*65
$GPHPD,0,0.000,340.57,0.04,-13.42,31.5899156,120.7771235,2.794,13632701.052,24925486.248,2.794,0.000,0.000,0.000,0.000,0.000,0.000,0.000,17,17,4*51
$GPGGA,064227.60,3135.3950016,N,12046.6273887,E,4,17,1.4,2.7933,M,8.313,M,00,0004*62
$GPHPD,0,0.000,341.12,-0.32,-13.39,31.5899167,120.7771231,2.793,13632700.113,24925485.627,2.793,0.000,0.000,0.000,0.000,0.000,0.000,0.000,17,17,4*78
$GPGGA,064227.80,3135.3950681,N,12046.6273687,E,4,17,1.4,2.7916,M,8.313,M,00,0004*6D
$GPHPD,0,0.000,341.72,-0.16,-13.35,31.5899178,120.7771228,2.792,13632699.127,24925484.999,2.792,0.000,0.000,0.000,0.000,0.000,0.000,0.000,17,17,4*7F
$GPGGA,064228.00,3135.3951328,N,12046.6273486,E,4,17,1.4,2.7924,M,8.313,M,01,0004*6E
$GPHPD,0,0.000,342.16,-0.03,-13.29,31.5899189,120.7771225,2.792,13632698.167,24925484.380,2.792,0.000,0.000,0.000,0.000,0.000,0.000,0.000,17,17,4*73
$GPGGA,064228.20,3135.3951979,N,12046.6273284,E,4,17,1.4,2.7879,M,8.313,M,01,0004*6F
$GPHPD,0,0.000,342.78,-0.19,-13.25,31.5899200,120.7771221,2.788,13632697.201,24925483.757,2.788,0.000,0.000,0.000,0.000,0.000,0.000,0.000,17,17,4*7F
$GPGGA,064228.40,3135.3952616,N,12046.6273088,E,4,17,1.4,2.7933,M,8.313,M,01,0004*6D
$GPHPD,0,0.000,343.26,-0.13,-13.19,31.5899210,120.7771218,2.793,13632696.256,24925483.150,2.793,0.000,0.000,0.000,0.000,0.000,0.000,0.000,17,17,4*79
$GPGGA,064228.60,3135.3953236,N,12046.6272890,E,4,17,1.4,2.8013,M,8.313,M,00,0004*6D
$GPHPD,0,0.000,343.85,-0.32,-13.13,31.5899221,120.7771215,2.801,13632695.335,24925482.550,2.801,0.000,0.000,0.000,0.000,0.000,0.000,0.000,17,17,4*74
$GPGGA,064228.80,3135.3953868,N,12046.6272701,E,4,17,1.4,2.7971,M,8.313,M,00,0004*67
$GPHPD,0,0.000,344.17,-0.49,-13.08,31.5899231,120.7771212,2.797,13632694.398,24925481.955,2.797,0.000,0.000,0.000,0.000,0.000,0.000,0.000,17,17,4*74
$GPGGA,064229.00,3135.3954526,N,12046.6272512,E,4,17,1.4,2.7921,M,8.313,M,01,0004*6A
$GPHPD,0,0.000,344.56,-0.34,-13.06,31.5899242,120.7771209,2.792,13632693.425,24925481.344,2.792,0.000,0.000,0.000,0.000,0.000,0.000,0.000,17,17,4*77
$GPGGA,064229.20,3135.3955127,N,12046.6272342,E,4,17,1.4,2.7921,M,8.313,M,01,0004*6F
$GPHPD,0,0.000,345.03,-0.24,-13.07,31.5899252,120.7771206,2.792,13632692.537,24925480.789,2.792,0.000,0.000,0.000,0.000,0.000,0.000,0.000,17,17,4*7F
$GPGGA,064229.40,3135.3955756,N,12046.6272160,E,4,17,1.4,2.7998,M,8.313,M,01,0004*69
$GPHPD,0,0.000,345.31,-0.28,-13.07,31.5899263,120.7771203,2.800,13632691.606,24925480.203,2.800,0.000,0.000,0.000,0.000,0.000,0.000,0.000,17,17,4*70
$GPGGA,064229.60,3135.3956375,N,12046.6271986,E,4,17,1.4,2.7992,M,8.313,M,00,0004*65
$GPHPD,0,0.000,345.67,-0.35,-13.06,31.5899273,120.7771200,2.799,13632690.691,24925479.633,2.799,0.000,0.000,0.000,0.000,0.000,0.000,0.000,17,17,4*72
$GPGGA,064229.80,3135.3957027,N,12046.6271827,E,4,17,1.4,2.7927,M,8.313,M,00,0004*6A
$GPHPD,0,0.000,346.19,-0.24,-13.07,31.5899284,120.7771197,2.793,13632689.732,24925479.062,2.793,0.000,0.000,0.000,0.000,0.000,0.000,0.000,17,17,4*7E
$GPGGA,064230.00,3135.3957672,N,12046.6271681,E,4,17,1.4,2.8049,M,8.313,M,01,0004*61
$GPHPD,0,0.000,346.48,-0.41,-13.10,31.5899295,120.7771195,2.805,13632688.786,24925478.511,2.805,0.000,0.000,0.000,0.000,0.000,0.000,0.000,17,17,4*73
$GPGGA,064230.20,3135.3958316,N,12046.6271533,E,4,17,1.4,2.7984,M,8.313,M,01,0004*66
$GPHPD,0,0.000,346.93,-0.47,-13.12,31.5899305,120.7771192,2.798,13632687.841,24925477.957,2.798,0.000,0.000,0.000,0.000,0.000,0.000,0.000,17,17,4*74
$GPGGA,064230.40,3135.3958996,N,12046.6271373,E,4,17,1.4,2.7968,M,8.313,M,01,0004*62
$GPHPD,0,0.000,347.27,-0.37,-13.13,31.5899317,120.7771190,2.797,13632686.842,24925477.369,2.797,0.000,0.000,0.000,0.000,0.000,0.000,0.000,17,17,4*78
$GPGGA,064230.60,3135.3959635,N,12046.6271245,E,4,17,1.4,2.7926,M,8.313,M,00,0004*68
$GPHPD,0,0.000,347.76,-0.32,-13.14,31.5899327,120.7771187,2.793,13632685.908,24925476.842,2.793,0.000,0.000,0.000,0.000,0.000,0.000,0.000,17,17,4*74
$GPGGA,064230.80,3135.3960312,N,12046.6271096,E,4,17,1.4,2.7991,M,8.313,M,00,0004*6C
$GPHPD,0,0.000,348.05,-0.11,-13.15,31.5899339,120.7771185,2.799,13632684.916,24925476.269,2.799,0.000,0.000,0.000,0.000,0.000,0.000,0.000,17,17,4*7F
$GPGGA,064231.00,3135.3960941,N,12046.6270959,E,4,17,1.4,2.7996,M,8.313,M,01,0004*64
$GPHPD,0,0.000,348.66,-0.07,-13.14,31.5899349,120.7771183,2.800,13632683.994,24925475.737,2.800,0.000,0.000,0.000,0.000,0.000,0.000,0.000,17,17,4*7D
$GPGGA,064231.20,3135.3961596,N,12046.6270862,E,4,17,1.4,2.7968,M,8.313,M,01,0004*69
$GPHPD,0,0.000,348.97,-0.02,-13.12,31.5899360,120.7771181,2.797,13632683.043,24925475.239,2.797,0.000,0.000,0.000,0.000,0.000,0.000,0.000,17,17,4*71
$GPGGA,064231.40,3135.3962215,N,12046.6270735,E,4,17,1.4,2.8019,M,8.313,M,01,0004*6D
$GPHPD,0,0.000,349.26,-0.07,-13.07,31.5899370,120.7771179,2.802,13632682.138,24925474.726,2.802,0.000,0.000,0.000,0.000,0.000,0.000,0.000,17,17,4*7B
$GPGGA,064231.60,3135.3962773,N,12046.6270650,E,4,17,1.4,2.8018,M,8.313,M,00,0004*68
$GPHPD,0,0.000,349.74,0.04,-13.00,31.5899380,120.7771178,2.802,13632681.328,24925474.299,2.802,0.000,0.000,0.000,0.000,0.000,0.000,0.000,17,17,4*5A
$GPGGA,064231.80,3135.3963315,N,12046.6270560,E,4,17,1.4,2.7926,M,8.313,M,00,0004*68
$GPHPD,0,0.000,350.20,-0.26,-12.95,31.5899389,120.7771176,2.793,13632680.539,24925473.875,2.793,0.000,0.000,0.000,0.000,0.000,0.000,0.000,17,17,4*7C
$GPGGA,064232.00,3135.3963854,N,12046.6270491,E,4,17,1.4,2.7957,M,8.313,M,01,0004*65
$GPHPD,0,0.000,350.55,-0.08,-12.91,31.5899398,120.7771175,2.796,13632679.759,24925473.478,2.796,0.000,0.000,0.000,0.000,0.000,0.000,0.000,17,17,4*76
$GPGGA,064232.20,3135.3964354,N,12046.6270401,E,4,17,1.4,2.7930,M,8.313,M,01,0004*63
$GPHPD,0,0.000,351.15,-0.11,-12.91,31.5899406,120.7771173,2.793,13632679.030,24925473.078,2.793,0.000,0.000,0.000,0.000,0.000,0.000,0.000,17,17,4*71
$GPGGA,064232.40,3135.3964886,N,12046.6270339,E,4,17,1.4,2.7921,M,8.313,M,01,0004*6D
$GPHPD,0,0.000,351.79,0.00,-12.90,31.5899415,120.7771172,2.792,13632678.262,24925472.694,2.792,0.000,0.000,0.000,0.000,0.000,0.000,0.000,17,17,4*55
$GPGGA,064232.60,3135.3965375,N,12046.6270272,E,4,17,1.4,2.7865,M,8.313,M,00,0004*67
$GPHPD,0,0.000,352.17,-0.02,-12.90,31.5899423,120.7771171,2.787,13632677.553,24925472.328,2.787,0.000,0.000,0.000,0.000,0.000,0.000,0.000,17,17,4*7F
$GPGGA,064232.80,3135.3965902,N,12046.6270199,E,4,17,1.4,2.7920,M,8.313,M,00,0004*65
$GPHPD,0,0.000,352.88,0.08,-12.92,31.5899432,120.7771170,2.792,13632676.789,24925471.934,2.792,0.000,0.000,0.000,0.000,0.000,0.000,0.000,17,17,4*5D
$GPGGA,064233.00,3135.3966427,N,12046.6270165,E,4,17,1.4,2.7895,M,8.313,M,01,0004*68
$GPHPD,0,0.000,353.61,0.39,-12.96,31.5899440,120.7771169,2.790,13632676.036,24925471.587,2.790,0.000,0.000,0.000,0.000,0.000,0.000,0.000,17,17,4*57
$GPGGA,064233.20,3135.3966978,N,12046.6270146,E,4,17,1.4,2.7811,M,8.313,M,01,0004*60
$GPHPD,0,0.000,354.29,0.26,-13.02,31.5899450,120.7771169,2.781,13632675.249,24925471.243,2.781,0.000,0.000,0.000,0.000,0.000,0.000,0.000,17,17,4*59
$GPGGA,064233.40,3135.3967561,N,12046.6270103,E,4,17,1.4,2.7857,M,8.313,M,01,0004*60
$GPHPD,0,0.000,355.26,0.59,-13.07,31.5899459,120.7771168,2.786,13632674.412,24925470.852,2.786,0.000,0.000,0.000,0.000,0.000,0.000,0.000,17,17,4*50
$GPGGA,064233.60,3135.3968143,N,12046.6270084,E,4,17,1.4,2.7800,M,8.313,M,00,0004*64
$GPHPD,0,0.000,356.28,0.34,-13.12,31.5899469,120.7771168,2.780,13632673.581,24925470.491,2.780,0.000,0.000,0.000,0.000,0.000,0.000,0.000,17,17,4*5E
$GPGGA,064233.80,3135.3968742,N,12046.6270089,E,4,17,1.4,2.7866,M,8.313,M,00,0004*60
$GPHPD,0,0.000,357.06,0.43,-13.15,31.5899479,120.7771168,2.787,13632672.730,24925470.148,2.787,0.000,0.000,0.000,0.000,0.000,0.000,0.000,17,17,4*5D
$GPGGA,064234.00,3135.3969282,N,12046.6270106,E,4,17,1.4,2.7894,M,8.313,M,01,0004*6D
$GPHPD,0,0.000,358.31,0.20,-13.15,31.5899488,120.7771168,2.789,13632671.966,24925469.854,2.789,0.000,0.000,0.000,0.000,0.000,0.000,0.000,17,17,4*5F
$GPGGA,064234.20,3135.3969848,N,12046.6270113,E,4,17,1.4,2.7877,M,8.313,M,01,0004*6A
$GPHPD,0,0.000,359.05,0.12,-13.13,31.5899497,120.7771169,2.788,13632671.163,24925469.533,2.788,0.000,0.000,0.000,0.000,0.000,0.000,0.000,17,17,4*50
$GPGGA,064234.40,3135.3970378,N,12046.6270174,E,4,17,1.4,2.7834,M,8.313,M,01,0004*6A
$GPHPD,0,0.000,0.03,0.30,-13.15,31.5899506,120.7771170,2.783,13632670.422,24925469.298,2.783,0.000,0.000,0.000,0.000,0.000,0.000,0.000,17,17,4*59
$GPGGA,064234.60,3135.3970901,N,12046.6270217,E,4,17,1.4,2.7870,M,8.313,M,00,0004*6B
$GPHPD,0,0.000,0.94,0.26,-13.18,31.5899515,120.7771170,2.787,13632669.687,24925469.046,2.787,0.000,0.000,0.000,0.000,0.000,0.000,0.000,17,17,4*5B
$GPGGA,064234.80,3135.3971428,N,12046.6270297,E,4,17,1.4,2.7891,M,8.313,M,00,0004*65
$GPHPD,0,0.000,1.71,0.19,-13.23,31.5899524,120.7771172,2.789,13632668.954,24925468.836,2.789,0.000,0.000,0.000,0.000,0.000,0.000,0.000,17,17,4*5B
$GPGGA,064235.00,3135.3971953,N,12046.6270369,E,4,17,1.4,2.7926,M,8.313,M,01,0004*61
$GPHPD,0,0.000,2.37,0.10,-13.27,31.5899533,120.7771173,2.793,13632668.223,24925468.617,2.793,0.000,0.000,0.000,0.000,0.000,0.000,0.000,17,17,4*56
$GPGGA,064235.20,3135.3972508,N,12046.6270405,E,4,17,1.4,2.7912,M,8.313,M,01,0004*68
$GPHPD,0,0.000,3.28,0.42,-13.33,31.5899542,120.7771173,2.791,13632667.441,24925468.337,2.791,0.000,0.000,0.000,0.000,0.000,0.000,0.000,17,17,4*57
$GPGGA,064235.40,3135.3973034,N,12046.6270479,E,4,17,1.4,2.7895,M,8.313,M,01,0004*60
$GPHPD,0,0.000,3.88,0.26,-13.44,31.5899551,120.7771175,2.790,13632666.708,24925468.120,2.790,0.000,0.000,0.000,0.000,0.000,0.000,0.000,17,17,4*50
$GPGGA,064235.60,3135.3973665,N,12046.6270575,E,4,17,1.4,2.7907,M,8.313,M,00,0004*66
$GPHPD,0,0.000,4.68,0.38,-13.51,31.5899561,120.7771176,2.791,13632665.831,24925467.869,2.791,0.000,0.000,0.000,0.000,0.000,0.000,0.000,17,17,4*5F
$GPGGA,064235.80,3135.3974333,N,12046.6270689,E,4,17,1.4,2.7844,M,8.313,M,00,0004*6F
$GPHPD,0,0.000,5.46,0.48,-13.58,31.5899572,120.7771178,2.784,13632664.904,24925467.618,2.784,0.000,0.000,0.000,0.000,0.000,0.000,0.000,17,17,4*5E
$GPGGA,064236.00,3135.3975056,N,12046.6270813,E,4,17,1.4,2.7900,M,8.313,M,01,0004*68
$GPHPD,0,0.000,6.26,0.61,-13.63,31.5899584,120.7771180,2.790,13632663.901,24925467.346,2.790,0.000,0.000,0.000,0.000,0.000,0.000,0.000,17,17,4*5A
$GPGGA,064236.20,3135.3975817,N,12046.6270950,E,4,17,1.4,2.7905,M,8.313,M,01,0004*64
$GPHPD,0,0.000,7.14,0.61,-13.65,31.5899597,120.7771183,2.791,13632662.847,24925467.069,2.791,0.000,0.000,0.000,0.000,0.000,0.000,0.000,17,17,4*51
$GPGGA,064236.40,3135.3976622,N,12046.6271116,E,4,17,1.4,2.7869,M,8.313,M,01,0004*69
$GPHPD,0,0.000,8.12,0.33,-13.65,31.5899610,120.7771185,2.787,13632661.736,24925466.800,2.787,0.000,0.000,0.000,0.000,0.000,0.000,0.000,17,17,4*59
$GPGGA,064236.60,3135.3977430,N,12046.6271329,E,4,17,1.4,2.7782,M,8.313,M,00,0004*6E
$GPHPD,0,0.000,8.90,0.28,-13.62,31.5899624,120.7771189,2.778,13632660.631,24925466.587,2.778,0.000,0.000,0.000,0.000,0.000,0.000,0.000,17,17,4*50
$GPGGA,064236.80,3135.3978234,N,12046.6271516,E,4,17,1.4,2.7814,M,8.313,M,00,0004*67
$GPHPD,0,0.000,9.63,0.32,-13.53,31.5899637,120.7771192,2.781,13632659.525,24925466.345,2.781,0.000,0.000,0.000,0.000,0.000,0.000,0.000,17,17,4*58
$GPGGA,064237.00,3135.3979030,N,12046.6271697,E,4,17,1.4,2.7836,M,8.313,M,01,0004*62
$GPHPD,0,0.000,10.54,0.17,-13.44,31.5899651,120.7771195,2.784,13632658.430,24925466.100,2.784,0.000,0.000,0.000,0.000,0.000,0.000,0.000,17,17,4*65
$GPGGA,064237.20,3135.3979775,N,12046.6271902,E,4,17,1.4,2.7843,M,8.313,M,01,0004*67
$GPHPD,0,0.000,11.10,-0.07,-13.42,31.5899663,120.7771198,2.784,13632657.413,24925465.913,2.784,0.000,0.000,0.000,0.000,0.000,0.000,0.000,17,17,4*45
$GPGGA,064237.40,3135.3980521,N,12046.6272094,E,4,17,1.4,2.7814,M,8.313,M,01,0004*63
$GPHPD,0,0.000,11.68,0.03,-13.47,31.5899675,120.7771202,2.781,13632656.391,24925465.711,2.781,0.000,0.000,0.000,0.000,0.000,0.000,0.000,17,17,4*61
$GPGGA,064237.60,3135.3981231,N,12046.6272270,E,4,17,1.4,2.7754,M,8.313,M,00,0004*64
$GPHPD,0,0.000,12.51,0.17,-13.45,31.5899687,120.7771205,2.775,13632655.417,24925465.510,2.775,0.000,0.000,0.000,0.000,0.000,0.000,0.000,17,17,4*6C
$GPGGA,064237.80,3135.3981894,N,12046.6272498,E,4,17,1.4,2.7742,M,8.313,M,00,0004*68
$GPHPD,0,0.000,12.86,0.37,-13.41,31.5899698,120.7771208,2.774,13632654.521,24925465.399,2.774,0.000,0.000,0.000,0.000,0.000,0.000,0.000,17,17,4*61
$GPGGA,064238.00,3135.3982519,N,12046.6272720,E,4,17,1.4,2.7774,M,8.313,M,01,0004*60
$GPHPD,0,0.000,13.38,0.68,-13.37,31.5899709,120.7771212,2.777,13632653.677,24925465.303,2.777,0.000,0.000,0.000,0.000,0.000,0.000,0.000,17,17,4*68
$GPGGA,064238.20,3135.3983137,N,12046.6272895,E,4,17,1.4,2.7807,M,8.313,M,01,0004*61
$GPHPD,0,0.000,13.95,0.50,-13.34,31.5899719,120.7771215,2.781,13632652.834,24925465.154,2.781,0.000,0.000,0.000,0.000,0.000,0.000,0.000,17,17,4*69
$GPGGA,064238.40,3135.3983713,N,12046.6273074,E,4,17,1.4,2.7797,M,8.313,M,01,0004*67
$GPHPD,0,0.000,14.08,0.49,-13.33,31.5899729,120.7771218,2.780,13632652.051,24925465.035,2.780,0.000,0.000,0.000,0.000,0.000,0.000,0.000,17,17,4*66
$GPGGA,064238.60,3135.3984254,N,12046.6273239,E,4,17,1.4,2.7855,M,8.313,M,00,0004*6F
$GPHPD,0,0.000,14.62,0.56,-13.33,31.5899738,120.7771221,2.786,13632651.315,24925464.919,2.786,0.000,0.000,0.000,0.000,0.000,0.000,0.000,17,17,4*68
$GPGGA,064238.80,3135.3984730,N,12046.6273455,E,4,17,1.4,2.7936,M,8.313,M,00,0004*6E
$GPHPD,0,0.000,15.07,0.27,-13.31,31.5899746,120.7771224,2.794,13632650.682,24925464.902,2.794,0.000,0.000,0.000,0.000,0.000,0.000,0.000,17,17,4*62
$GPGGA,064239.00,3135.3985269,N,12046.6273630,E,4,17,1.4,2.7930,M,8.313,M,01,0004*69
$GPHPD,0,0.000,15.22,0.49,-13.32,31.5899754,120.7771227,2.793,13632649.951,24925464.800,2.793,0.000,0.000,0.000,0.000,0.000,0.000,0.000,17,17,4*64
$GPGGA,064239.20,3135.3985816,N,12046.6273830,E,4,17,1.4,2.7859,M,8.313,M,01,0004*69
$GPHPD,0,0.000,15.88,0.32,-13.39,31.5899764,120.7771231,2.786,13632649.214,24925464.722,2.786,0.000,0.000,0.000,0.000,0.000,0.000,0.000,17,17,4*62
$GPGGA,064239.40,3135.3986389,N,12046.6274055,E,4,17,1.4,2.7922,M,8.313,M,01,0004*60
$GPHPD,0,0.000,16.10,0.58,-13.45,31.5899773,120.7771234,2.792,13632648.445,24925464.660,2.792,0.000,0.000,0.000,0.000,0.000,0.000,0.000,17,17,4*60
$GPGGA,064239.60,3135.3987029,N,12046.6274311,E,4,17,1.4,2.7935,M,8.313,M,00,0004*6E
$GPHPD,0,0.000,16.65,0.62,-13.51,31.5899784,120.7771239,2.794,13632647.587,24925464.596,2.794,0.000,0.000,0.000,0.000,0.000,0.000,0.000,17,17,4*61
$GPGGA,064239.80,3135.3987675,N,12046.6274595,E,4,17,1.4,2.7914,M,8.313,M,00,0004*66
$GPHPD,0,0.000,17.23,0.42,-13.55,31.5899795,120.7771243,2.791,13632646.726,24925464.563,2.791,0.000,0.000,0.000,0.000,0.000,0.000,0.000,17,17,4*6B
$GPGGA,064240.00,3135.3988383,N,12046.6274831,E,4,17,1.4,2.7935,M,8.313,M,01,0004*62
$GPHPD,0,0.000,17.72,0.73,-13.54,31.5899806,120.7771247,2.794,13632645.767,24925464.435,2.794,0.000,0.000,0.000,0.000,0.000,0.000,0.000,17,17,4*69
$GPGGA,064240.20,3135.3989078,N,12046.6275166,E,4,17,1.4,2.7971,M,8.313,M,01,0004*6C
$GPHPD,0,0.000,18.54,0.82,-13.54,31.5899818,120.7771253,2.797,13632644.846,24925464.435,2.797,0.000,0.000,0.000,0.000,0.000,0.000,0.000,17,17,4*6B
$GPGGA,064240.40,3135.3989757,N,12046.6275478,E,4,17,1.4,2.7993,M,8.313,M,01,0004*66
$GPHPD,0,0.000,19.07,0.70,-13.55,31.5899829,120.7771258,2.799,13632643.944,24925464.416,2.799,0.000,0.000,0.000,0.000,0.000,0.000,0.000,17,17,4*6C
$GPGGA,064240.60,3135.3990438,N,12046.6275779,E,4,17,1.4,2.7999,M,8.313,M,00,0004*6F
$GPHPD,0,0.000,19.82,0.68,-13.55,31.5899841,120.7771263,2.800,13632643.037,24925464.383,2.800,0.000,0.000,0.000,0.000,0.000,0.000,0.000,17,17,4*68
$GPGGA,064240.80,3135.3991071,N,12046.6276101,E,4,17,1.4,2.8030,M,8.313,M,00,0004*66
$GPHPD,0,0.000,20.86,0.91,-13.54,31.5899851,120.7771268,2.803,13632642.202,24925464.403,2.803,0.000,0.000,0.000,0.000,0.000,0.000,0.000,17,17,4*61
$GPGGA,064241.00,3135.3991676,N,12046.6276400,E,4,17,1.4,2.7950,M,8.313,M,01,0004*6B
$GPHPD,0,0.000,21.55,0.84,-13.52,31.5899861,120.7771273,2.795,13632641.402,24925464.411,2.795,0.000,0.000,0.000,0.000,0.000,0.000,0.000,17,17,4*63
$GPGGA,064241.20,3135.3992206,N,12046.6276678,E,4,17,1.4,2.8097,M,8.313,M,01,0004*69
$GPHPD,0,0.000,22.31,0.74,-13.50,31.5899870,120.7771278,2.810,13632640.705,24925464.438,2.810,0.000,0.000,0.000,0.000,0.000,0.000,0.000,17,17,4*6A
$GPGGA,064241.40,3135.3992748,N,12046.6276965,E,4,17,1.4,2.8021,M,8.313,M,01,0004*6E
$GPHPD,0,0.000,23.07,0.47,-13.48,31.5899879,120.7771283,2.802,13632639.992,24925464.468,2.802,0.000,0.000,0.000,0.000,0.000,0.000,0.000,17,17,4*61
$GPGGA,064241.60,3135.3993241,N,12046.6277279,E,4,17,1.4,2.8000,M,8.313,M,00,0004*64
$GPHPD,0,0.000,24.10,0.59,-13.47,31.5899887,120.7771288,2.800,13632639.354,24925464.560,2.800,0.000,0.000,0.000,0.000,0.000,0.000,0.000,17,17,4*63
$GPGGA,064241.80,3135.3993721,N,12046.6277574,E,4,17,1.4,2.8012,M,8.313,M,00,0004*60
$GPHPD,0,0.000,24.82,0.43,-13.44,31.5899895,120.7771293,2.801,13632638.732,24925464.637,2.801,0.000,0.000,0.000,0.000,0.000,0.000,0.000,17,17,4*6D
$GPGGA,064242.00,3135.3994167,N,12046.6277879,E,4,17,1.4,2.8028,M,8.313,M,01,0004*60
$GPHPD,0,0.000,25.61,0.62,-13.42,31.5899903,120.7771298,2.803,13632638.159,24925464.745,2.803,0.000,0.000,0.000,0.000,0.000,0.000,0.000,17,17,4*6E
$GPGGA,064242.20,3135.3994588,N,12046.6278143,E,4,17,1.4,2.7977,M,8.313,M,01,0004*64
$GPHPD,0,0.000,26.49,0.69,-13.42,31.5899910,120.7771302,2.798,13632637.614,24925464.818,2.798,0.000,0.000,0.000,0.000,0.000,0.000,0.000,17,17,4*6A
$GPGGA,064242.40,3135.3995019,N,12046.6278408,E,4,17,1.4,2.8019,M,8.313,M,01,0004*6A
$GPHPD,0,0.000,27.02,0.62,-13.43,31.5899917,120.7771307,2.802,13632637.054,24925464.887,2.802,0.000,0.000,0.000,0.000,0.000,0.000,0.000,17,17,4*68
$GPGGA,064242.60,3135.3995419,N,12046.6278689,E,4,17,1.4,2.7909,M,8.313,M,00,0004*61
$GPHPD,0,0.000,27.79,0.27,-13.45,31.5899924,120.7771311,2.791,13632636.542,24925464.993,2.791,0.000,0.000,0.000,0.000,0.000,0.000,0.000,17,17,4*63
$GPGGA,064242.80,3135.3995828,N,12046.6278979,E,4,17,1.4,2.7914,M,8.313,M,00,0004*6D
$GPHPD,0,0.000,28.41,0.44,-13.48,31.5899930,120.7771316,2.791,13632636.019,24925465.105,2.791,0.000,0.000,0.000,0.000,0.000,0.000,0.000,17,17,4*60
$GPGGA,064243.00,3135.3996246,N,12046.6279287,E,4,17,1.4,2.7968,M,8.313,M,01,0004*64
$GPHPD,0,0.000,29.03,0.64,-13.55,31.5899937,120.7771321,2.797,13632635.487,24925465.233,2.797,0.000,0.000,0.000,0.000,0.000,0.000,0.000,17,17,4*6C
$GPGGA,064243.20,3135.3996668,N,12046.6279595,E,4,17,1.4,2.8036,M,8.313,M,01,0004*67
$GPHPD,0,0.000,29.49,0.53,-13.62,31.5899944,120.7771327,2.804,13632634.949,24925465.359,2.804,0.000,0.000,0.000,0.000,0.000,0.000,0.000,17,17,4*63
$GPGGA,064243.40,3135.3997178,N,12046.6279953,E,4,17,1.4,2.8005,M,8.313,M,01,0004*60
$GPHPD,0,0.000,29.95,0.41,-13.68,31.5899953,120.7771333,2.801,13632634.297,24925465.494,2.801,0.000,0.000,0.000,0.000,0.000,0.000,0.000,17,17,4*66
$GPGGA,064243.60,3135.3997710,N,12046.6280346,E,4,17,1.4,2.8050,M,8.313,M,00,0004*63
$GPHPD,0,0.000,30.69,0.50,-13.73,31.5899962,120.7771339,2.805,13632633.620,24925465.658,2.805,0.000,0.000,0.000,0.000,0.000,0.000,0.000,17,17,4*62
$GPGGA,064243.80,3135.3998288,N,12046.6280795,E,4,17,1.4,2.8018,M,8.313,M,00,0004*60
$GPHPD,0,0.000,31.33,0.51,-13.80,31.5899971,120.7771347,2.802,13632632.888,24925465.863,2.802,0.000,0.000,0.000,0.000,0.000,0.000,0.000,17,17,4*61
$GPGGA,064244.00,3135.3998869,N,12046.6281278,E,4,17,1.4,2.7991,M,8.313,M,01,0004*6B
$GPHPD,0,0.000,31.66,0.89,-13.84,31.5899981,120.7771355,2.799,13632632.160,24925466.107,2.799,0.000,0.000,0.000,0.000,0.000,0.000,0.000,17,17,4*6B
$GPGGA,064244.20,3135.3999522,N,12046.6281746,E,4,17,1.4,2.8038,M,8.313,M,01,0004*67
$GPHPD,0,0.000,32.27,0.76,-13.86,31.5899992,120.7771362,2.804,13632631.326,24925466.292,2.804,0.000,0.000,0.000,0.000,0.000,0.000,0.000,17,17,4*65
$GPGGA,064244.40,3135.4000165,N,12046.6282263,E,4,17,1.4,2.8077,M,8.313,M,01,0004*62
$GPHPD,0,0.000,32.68,0.61,-13.85,31.5900003,120.7771371,2.808,13632630.516,24925466.541,2.808,0.000,0.000,0.000,0.000,0.000,0.000,0.000,17,17,4*64
$GPGGA,064244.60,3135.4000820,N,12046.6282784,E,4,17,1.4,2.8066,M,8.313,M,00,0004*65
$GPHPD,0,0.000,33.28,0.66,-13.77,31.5900014,120.7771380,2.807,13632629.690,24925466.788,2.807,0.000,0.000,0.000,0.000,0.000,0.000,0.000,17,17,4*61
$GPGGA,064244.80,3135.4001454,N,12046.6283306,E,4,17,1.4,2.8126,M,8.313,M,00,0004*6F
$GPHPD,0,0.000,33.49,0.56,-13.71,31.5900024,120.7771388,2.813,13632628.894,24925467.048,2.813,0.000,0.000,0.000,0.000,0.000,0.000,0.000,17,17,4*69
$GPGGA,064245.00,3135.4002076,N,12046.6283843,E,4,17,1.4,2.8209,M,8.313,M,01,0004*64
$GPHPD,0,0.000,34.06,0.33,-13.67,31.5900035,120.7771397,2.821,13632628.118,24925467.334,2.821,0.000,0.000,0.000,0.000,0.000,0.000,0.000,17,17,4*6A
$GPGGA,064245.20,3135.4002688,N,12046.6284331,E,4,17,1.4,2.8227,M,8.313,M,01,0004*64
$GPHPD,0,0.000,34.70,0.40,-13.60,31.5900045,120.7771406,2.823,13632627.346,24925467.566,2.823,0.000,0.000,0.000,0.000,0.000,0.000,0.000,17,17,4*67
$GPGGA,064245.40,3135.4003248,N,12046.6284837,E,4,17,1.4,2.8236,M,8.314,M,01,0004*61
$GPHPD,0,0.000,35.52,0.29,-13.51,31.5900054,120.7771414,2.824,13632626.652,24925467.851,2.824,0.000,0.000,0.000,0.000,0.000,0.000,0.000,17,18,4*6F
$GPGGA,064245.60,3135.4003752,N,12046.6285307,E,4,17,1.4,2.8193,M,8.314,M,00,0004*69
$GPHPD,0,0.000,35.95,0.29,-13.47,31.5900063,120.7771422,2.819,13632626.030,24925468.124,2.819,0.000,0.000,0.000,0.000,0.000,0.000,0.000,17,18,4*64
$GPGGA,064245.80,3135.4004273,N,12046.6285808,E,4,17,1.4,2.8115,M,8.314,M,00,0004*6C
$GPHPD,0,0.000,36.69,0.59,-13.44,31.5900071,120.7771430,2.812,13632625.390,24925468.425,2.812,0.000,0.000,0.000,0.000,0.000,0.000,0.000,17,18,4*6E
$GPGGA,064246.00,3135.4004758,N,12046.6286274,E,4,17,1.4,2.8168,M,8.314,M,01,0004*62
$GPHPD,0,0.000,37.30,0.74,-13.37,31.5900079,120.7771438,2.817,13632624.795,24925468.705,2.817,0.000,0.000,0.000,0.000,0.000,0.000,0.000,17,18,4*69
$GPGGA,064246.20,3135.4005222,N,12046.6286721,E,4,17,1.4,2.8177,M,8.314,M,01,0004*62
$GPHPD,0,0.000,37.97,0.45,-13.30,31.5900087,120.7771445,2.818,13632624.225,24925468.974,2.818,0.000,0.000,0.000,0.000,0.000,0.000,0.000,17,18,4*6C
$GPGGA,064246.40,3135.4005633,N,12046.6287138,E,4,17,1.4,2.8286,M,8.314,M,01,0004*62
$GPHPD,0,0.000,38.48,0.51,-13.24,31.5900094,120.7771452,2.829,13632623.725,24925469.237,2.829,0.000,0.000,0.000,0.000,0.000,0.000,0.000,17,18,4*6A
$GPGGA,064246.60,3135.4006055,N,12046.6287533,E,4,17,1.4,2.8239,M,8.314,M,00,0004*6F
$GPHPD,0,0.000,38.99,0.28,-13.19,31.5900101,120.7771459,2.824,13632623.205,24925469.468,2.824,0.000,0.000,0.000,0.000,0.000,0.000,0.000,17,18,4*6B
$GPGGA,064246.80,3135.4006425,N,12046.6287935,E,4,17,1.4,2.8283,M,8.314,M,00,0004*69
$GPHPD,0,0.000,39.41,0.52,-13.15,31.5900107,120.7771466,2.828,13632622.760,24925469.737,2.828,0.000,0.000,0.000,0.000,0.000,0.000,0.000,17,18,4*6A
$GPGGA,064247.00,3135.4006817,N,12046.6288310,E,4,17,1.4,2.8239,M,8.314,M,01,0004*6F
$GPHPD,0,0.000,39.98,0.29,-13.09,31.5900114,120.7771472,2.824,13632622.278,24925469.962,2.824,0.000,0.000,0.000,0.000,0.000,0.000,0.000,17,18,4*6A
$GPGGA,064247.20,3135.4007187,N,12046.6288717,E,4,17,1.4,2.8258,M,8.314,M,01,0004*68
$GPHPD,0,0.000,40.51,0.41,-13.04,31.5900120,120.7771479,2.826,13632621.834,24925470.237,2.826,0.000,0.000,0.000,0.000,0.000,0.000,0.000,17,18,4*6C
$GPGGA,064247.40,3135.4007563,N,12046.6289128,E,4,17,1.4,2.8252,M,8.314,M,01,0004*61
$GPHPD,0,0.000,41.08,0.39,-13.00,31.5900126,120.7771485,2.825,13632621.382,24925470.514,2.825,0.000,0.000,0.000,0.000,0.000,0.000,0.000,17,18,4*6F
$GPGGA,064247.60,3135.4007961,N,12046.6289562,E,4,17,1.4,2.8301,M,8.314,M,00,0004*61
$GPHPD,0,0.000,41.43,-0.03,-12.96,31.5900133,120.7771493,2.830,13632620.904,24925470.806,2.830,0.000,0.000,0.000,0.000,0.000,0.000,0.000,17,18,4*42
$GPGGA,064247.80,3135.4008326,N,12046.6289961,E,4,17,1.4,2.8362,M,8.314,M,00,0004*63
$GPHPD,0,0.000,41.81,-0.20,-12.90,31.5900139,120.7771499,2.836,13632620.465,24925471.074,2.836,0.000,0.000,0.000,0.000,0.000,0.000,0.000,17,18,4*4D
$GPGGA,064248.00,3135.4008712,N,12046.6290391,E,4,17,1.4,2.8337,M,8.314,M,01,0004*6B
$GPHPD,0,0.000,41.90,-0.17,-12.84,31.5900145,120.7771507,2.834,13632620.003,24925471.368,2.834,0.000,0.000,0.000,0.000,0.000,0.000,0.000,17,18,4*4B
$GPGGA,064248.20,3135.4009116,N,12046.6290832,E,4,17,1.4,2.8323,M,8.314,M,01,0004*6D
$GPHPD,0,0.000,42.14,-0.40,-12.82,31.5900152,120.7771514,2.832,13632619.518,24925471.665,2.832,0.000,0.000,0.000,0.000,0.000,0.000,0.000,17,18,4*49
$GPGGA,064248.40,3135.4009518,N,12046.6291277,E,4,17,1.4,2.8283,M,8.314,M,01,0004*60
$GPHPD,0,0.000,42.25,-0.49,-12.78,31.5900159,120.7771521,2.828,13632619.036,24925471.967,2.828,0.000,0.000,0.000,0.000,0.000,0.000,0.000,17,18,4*4E
$GPGGA,064248.60,3135.4009900,N,12046.6291722,E,4,17,1.4,2.8299,M,8.314,M,00,0004*68
$GPHPD,0,0.000,42.35,-0.60,-12.73,31.5900165,120.7771529,2.830,13632618.583,24925472.282,2.830,0.000,0.000,0.000,0.000,0.000,0.000,0.000,17,18,4*41
$GPGGA,064248.80,3135.4010300,N,12046.6292164,E,4,17,1.4,2.8314,M,8.314,M,00,0004*67
$GPHPD,0,0.000,42.57,-0.47,-12.67,31.5900172,120.7771536,2.831,13632618.103,24925472.582,2.831,0.000,0.000,0.000,0.000,0.000,0.000,0.000,17,18,4*46
$GPGGA,064249.00,3135.4010687,N,12046.6292613,E,4,17,1.4,2.8341,M,8.314,M,01,0004*62
$GPHPD,0,0.000,42.58,-0.78,-12.60,31.5900178,120.7771544,2.834,13632617.643,24925472.898,2.834,0.000,0.000,0.000,0.000,0.000,0.000,0.000,17,18,4*47
$GPGGA,064249.20,3135.4011058,N,12046.6293035,E,4,17,1.4,2.8326,M,8.314,M,01,0004*67
$GPHPD,0,0.000,42.76,-0.68,-12.55,31.5900184,120.7771551,2.833,13632617.201,24925473.191,2.833,0.000,0.000,0.000,0.000,0.000,0.000,0.000,17,18,4*48
$GPGGA,064249.40,3135.4011387,N,12046.6293442,E,4,17,1.4,2.8362,M,8.314,M,01,0004*64
$GPHPD,0,0.000,43.18,-0.68,-12.50,31.5900190,120.7771557,2.836,13632616.815,24925473.491,2.836,0.000,0.000,0.000,0.000,0.000,0.000,0.000,17,18,4*4C
$GPGGA,064249.60,3135.4011723,N,12046.6293803,E,4,17,1.4,2.8354,M,8.314,M,00,0004*61
$GPHPD,0,0.000,43.49,-0.87,-12.45,31.5900195,120.7771563,2.835,13632616.410,24925473.730,2.835,0.000,0.000,0.000,0.000,0.000,0.000,0.000,17,18,4*4E
$GPGGA,064249.80,3135.4012046,N,12046.6294198,E,4,17,1.4,2.8319,M,8.314,M,00,0004*6D
$GPHPD,0,0.000,43.74,-0.91,-12.43,31.5900201,120.7771570,2.832,13632616.031,24925474.019,2.832,0.000,0.000,0.000,0.000,0.000,0.000,0.000,17,18,4*41
$GPGGA,064250.00,3135.4012370,N,12046.6294609,E,4,17,1.4,2.8395,M,8.314,M,01,0004*61
$GPHPD,0,0.000,44.06,-0.85,-12.42,31.5900206,120.7771577,2.840,13632615.653,24925474.326,2.840,0.000,0.000,0.000,0.000,0.000,0.000,0.000,17,18,4*49
$GPGGA,064250.20,3135.4012691,N,12046.6294988,E,4,17,1.4,2.8398,M,8.314,M,01,0004*62
$GPHPD,0,0.000,44.36,-1.17,-12.41,31.5900212,120.7771583,2.840,13632615.273,24925474.596,2.840,0.000,0.000,0.000,0.000,0.000,0.000,0.000,17,18,4*46
$GPGGA,064250.40,3135.4013031,N,12046.6295397,E,4,17,1.4,2.8392,M,8.314,M,01,0004*66
$GPHPD,0,0.000,44.51,-1.15,-12.42,31.5900217,120.7771590,2.839,13632614.872,24925474.891,2.839,0.000,0.000,0.000,0.000,0.000,0.000,0.000,17,18,4*41
$GPGGA,064250.60,3135.4013379,N,12046.6295827,E,4,17,1.4,2.8429,M,8.314,M,00,0004*6D
$GPHPD,0,0.000,44.97,-1.24,-12.43,31.5900223,120.7771597,2.843,13632614.464,24925475.207,2.843,0.000,0.000,0.000,0.000,0.000,0.000,0.000,17,18,4*47
$GPGGA,064250.80,3135.4013736,N,12046.6296292,E,4,17,1.4,2.8357,M,8.314,M,00,0004*65
$GPHPD,0,0.000,45.39,-0.94,-12.42,31.5900229,120.7771605,2.836,13632614.050,24925475.560,2.836,0.000,0.000,0.000,0.000,0.000,0.000,0.000,17,18,4*4E
$GPGGA,064251.00,3135.4014085,N,12046.6296757,E,4,17,1.4,2.8397,M,8.314,M,01,0004*65
$GPHPD,0,0.000,45.82,-0.58,-12.40,31.5900235,120.7771613,2.840,13632613.648,24925475.918,2.840,0.000,0.000,0.000,0.000,0.000,0.000,0.000,17,18,4*4D
$GPGGA,064251.20,3135.4014436,N,12046.6297218,E,4,17,1.4,2.8387,M,8.314,M,01,0004*65
$GPHPD,0,0.000,46.45,-0.86,-12.40,31.5900241,120.7771620,2.839,13632613.242,24925476.270,2.839,0.000,0.000,0.000,0.000,0.000,0.000,0.000,17,18,4*4D
$GPGGA,064251.40,3135.4014796,N,12046.6297705,E,4,17,1.4,2.8413,M,8.314,M,01,0004*69
$GPHPD,0,0.000,46.85,-1.17,-12.41,31.5900247,120.7771628,2.841,13632612.828,24925476.647,2.841,0.000,0.000,0.000,0.000,0.000,0.000,0.000,17,18,4*40
$GPGGA,064251.60,3135.4015168,N,12046.6298190,E,4,17,1.4,2.8329,M,8.314,M,00,0004*67
$GPHPD,0,0.000,47.14,-1.32,-12.41,31.5900253,120.7771637,2.833,13632612.397,24925477.016,2.833,0.000,0.000,0.000,0.000,0.000,0.000,0.000,17,18,4*49
$GPGGA,064251.80,3135.4015547,N,12046.6298684,E,4,17,1.4,2.8352,M,8.314,M,00,0004*6E
$GPHPD,0,0.000,47.64,-0.57,-12.40,31.5900259,120.7771645,2.835,13632611.957,24925477.391,2.835,0.000,0.000,0.000,0.000,0.000,0.000,0.000,17,18,4*4B
$GPGGA,064252.00,3135.4015879,N,12046.6299179,E,4,17,1.4,2.8322,M,8.314,M,01,0004*67
$GPHPD,0,0.000,47.88,-0.95,-12.37,31.5900265,120.7771653,2.832,13632611.585,24925477.795,2.832,0.000,0.000,0.000,0.000,0.000,0.000,0.000,17,18,4*4C
$GPGGA,064252.20,3135.4016247,N,12046.6299626,E,4,17,1.4,2.8347,M,8.314,M,01,0004*6F
$GPHPD,0,0.000,48.22,-0.92,-12.34,31.5900271,120.7771660,2.835,13632611.152,24925478.119,2.835,0.000,0.000,0.000,0.000,0.000,0.000,0.000,17,18,4*41
$GPGGA,064252.40,3135.4016583,N,12046.6300123,E,4,17,1.4,2.8387,M,8.314,M,01,0004*69
$GPHPD,0,0.000,48.48,-1.01,-12.33,31.5900276,120.7771669,2.839,13632610.775,24925478.523,2.839,0.000,0.000,0.000,0.000,0.000,0.000,0.000,17,18,4*40
$GPGGA,064252.60,3135.4016908,N,12046.6300601,E,4,17,1.4,2.8331,M,8.314,M,00,0004*6F
$GPHPD,0,0.000,48.61,-1.29,-12.33,31.5900282,120.7771677,2.833,13632610.409,24925478.911,2.833,0.000,0.000,0.000,0.000,0.000,0.000,0.000,17,18,4*40
$GPGGA,064252.80,3135.4017236,N,12046.6301059,E,4,17,1.4,2.8429,M,8.314,M,00,0004*62
$GPHPD,0,0.000,48.77,-0.89,-12.34,31.5900287,120.7771684,2.843,13632610.035,24925479.272,2.843,0.000,0.000,0.000,0.000,0.000,0.000,0.000,17,18,4*46
$GPGGA,064253.00,3135.4017550,N,12046.6301504,E,4,17,1.4,2.8410,M,8.314,M,01,0004*6A
$GPHPD,0,0.000,49.19,-0.86,-12.35,31.5900293,120.7771692,2.841,13632609.678,24925479.626,2.841,0.000,0.000,0.000,0.000,0.000,0.000,0.000,17,18,4*41
$GPGGA,064253.20,3135.4017858,N,12046.6301932,E,4,17,1.4,2.8338,M,8.314,M,01,0004*69
$GPHPD,0,0.000,49.48,-0.82,-12.37,31.5900298,120.7771699,2.834,13632609.326,24925479.963,2.834,0.000,0.000,0.000,0.000,0.000,0.000,0.000,17,18,4*43
$GPGGA,064253.40,3135.4018176,N,12046.6302391,E,4,17,1.4,2.8360,M,8.314,M,01,0004*68
$GPHPD,0,0.000,49.75,-1.04,-12.41,31.5900303,120.7771707,2.836,13632608.967,24925480.331,2.836,0.000,0.000,0.000,0.000,0.000,0.000,0.000,17,18,4*43
$GPGGA,064253.60,3135.4018479,N,12046.6302843,E,4,17,1.4,2.8282,M,8.314,M,00,0004*68
$GPHPD,0,0.000,50.14,-0.62,-12.47,31.5900308,120.7771714,2.828,13632608.627,24925480.700,2.828,0.000,0.000,0.000,0.000,0.000,0.000,0.000,17,18,4*4F
$GPGGA,064253.80,3135.4018796,N,12046.6303269,E,4,17,1.4,2.8299,M,8.314,M,00,0004*6D
$GPHPD,0,0.000,50.17,-0.82,-12.50,31.5900313,120.7771721,2.830,13632608.262,24925481.029,2.830,0.000,0.000,0.000,0.000,0.000,0.000,0.000,17,18,4*40
$GPGGA,064254.00,3135.4019094,N,12046.6303696,E,4,17,1.4,2.8308,M,8.314,M,01,0004*6A
$GPHPD,0,0.000,50.65,-0.48,-12.54,31.5900318,120.7771728,2.831,13632607.925,24925481.371,2.831,0.000,0.000,0.000,0.000,0.000,0.000,0.000,17,18,4*4C
$GPGGA,064254.20,3135.4019384,N,12046.6304160,E,4,17,1.4,2.8244,M,8.314,M,01,0004*6A
$GPHPD,0,0.000,50.52,-0.31,-12.56,31.5900323,120.7771736,2.824,13632607.606,24925481.761,2.824,0.000,0.000,0.000,0.000,0.000,0.000,0.000,17,18,4*48
$GPGGA,064254.40,3135.4019673,N,12046.6304626,E,4,17,1.4,2.8139,M,8.314,M,01,0004*6D
$GPHPD,0,0.000,50.60,-0.20,-12.59,31.5900328,120.7771744,2.814,13632607.289,24925482.155,2.814,0.000,0.000,0.000,0.000,0.000,0.000,0.000,17,18,4*49
$GPGGA,064254.60,3135.4019972,N,12046.6305087,E,4,17,1.4,2.8113,M,8.314,M,00,0004*64
$GPHPD,0,0.000,50.87,-0.32,-12.63,31.5900333,120.7771751,2.811,13632606.957,24925482.537,2.811,0.000,0.000,0.000,0.000,0.000,0.000,0.000,17,18,4*4D
$GPGGA,064254.80,3135.4020256,N,12046.6305505,E,4,17,1.4,2.8150,M,8.314,M,00,0004*65
$GPHPD,0,0.000,51.03,-0.30,-12.66,31.5900338,120.7771758,2.815,13632606.637,24925482.876,2.815,0.000,0.000,0.000,0.000,0.000,0.000,0.000,17,18,4*44
$GPGGA,064255.00,3135.4020546,N,12046.6305939,E,4,17,1.4,2.8272,M,8.314,M,01,0004*6B
$GPHPD,0,0.000,51.37,-0.65,-12.66,31.5900342,120.7771766,2.827,13632606.312,24925483.230,2.827,0.000,0.000,0.000,0.000,0.000,0.000,0.000,17,18,4*48
$GPGGA,064255.20,3135.4020818,N,12046.6306393,E,4,17,1.4,2.8164,M,8.314,M,01,0004*62
$GPHPD,0,0.000,51.37,-0.93,-12.67,31.5900347,120.7771773,2.816,13632606.017,24925483.620,2.816,0.000,0.000,0.000,0.000,0.000,0.000,0.000,17,18,4*42
$GPGGA,064255.40,3135.4021116,N,12046.6306825,E,4,17,1.4,2.8229,M,8.314,M,01,0004*6E
$GPHPD,0,0.000,51.60,-0.69,-12.69,31.5900352,120.7771780,2.823,13632605.681,24925483.967,2.823,0.000,0.000,0.000,0.000,0.000,0.000,0.000,17,18,4*45
$GPGGA,064255.60,3135.4021394,N,12046.6307254,E,4,17,1.4,2.8165,M,8.314,M,00,0004*63
$GPHPD,0,0.000,51.70,-1.06,-12.68,31.5900357,120.7771788,2.817,13632605.372,24925484.323,2.817,0.000,0.000,0.000,0.000,0.000,0.000,0.000,17,18,4*44
$GPGGA,064255.80,3135.4021685,N,12046.6307719,E,4,17,1.4,2.8091,M,8.314,M,00,0004*6E
$GPHPD,0,0.000,52.15,-0.36,-12.69,31.5900361,120.7771795,2.809,13632605.052,24925484.714,2.809,0.000,0.000,0.000,0.000,0.000,0.000,0.000,17,18,4*4F
$GPGGA,064256.00,3135.4021955,N,12046.6308164,E,4,17,1.4,2.8163,M,8.314,M,01,0004*69
$GPHPD,0,0.000,52.43,-0.38,-12.69,31.5900366,120.7771803,2.816,13632604.758,24925485.094,2.816,0.000,0.000,0.000,0.000,0.000,0.000,0.000,17,18,4*47
$GPGGA,064256.20,3135.4022199,N,12046.6308607,E,4,17,1.4,2.8177,M,8.314,M,01,0004*67
$GPHPD,0,0.000,52.89,-0.57,-12.69,31.5900370,120.7771810,2.818,13632604.500,24925485.486,2.818,0.000,0.000,0.000,0.000,0.000,0.000,0.000,17,18,4*45
$GPGGA,064256.40,3135.4022490,N,12046.6309060,E,4,17,1.4,2.8183,M,8.314,M,01,0004*60
$GPHPD,0,0.000,52.87,-0.69,-12.68,31.5900375,120.7771818,2.818,13632604.177,24925485.863,2.818,0.000,0.000,0.000,0.000,0.000,0.000,0.000,17,18,4*49
$GPGGA,064256.60,3135.4022737,N,12046.6309458,E,4,17,1.4,2.8136,M,8.314,M,00,0004*6C
$GPHPD,0,0.000,52.86,-0.86,-12.68,31.5900379,120.7771824,2.814,13632603.906,24925486.199,2.814,0.000,0.000,0.000,0.000,0.000,0.000,0.000,17,18,4*4C
$GPGGA,064256.80,3135.4022990,N,12046.6309883,E,4,17,1.4,2.8119,M,8.314,M,00,0004*66
$GPHPD,0,0.000,52.83,-0.96,-12.67,31.5900383,120.7771831,2.812,13632603.632,24925486.564,2.812,0.000,0.000,0.000,0.000,0.000,0.000,0.000,17,18,4*48
$GPGGA,064257.00,3135.4023233,N,12046.6310290,E,4,17,1.4,2.8100,M,8.314,M,01,0004*65
$GPHPD,0,0.000,52.95,-1.21,-12.66,31.5900387,120.7771838,2.810,13632603.369,24925486.914,2.810,0.000,0.000,0.000,0.000,0.000,0.000,0.000,17,18,4*4E
$GPGGA,064257.20,3135.4023458,N,12046.6310681,E,4,17,1.4,2.8122,M,8.314,M,01,0004*68
$GPHPD,0,0.000,53.20,-1.51,-12.64,31.5900391,120.7771845,2.812,13632603.128,24925487.254,2.812,0.000,0.000,0.000,0.000,0.000,0.000,0.000,17,18,4*40
$GPGGA,064257.40,3135.4023658,N,12046.6311045,E,4,17,1.4,2.8180,M,8.314,M,01,0004*6B
$GPHPD,0,0.000,53.56,-1.19,-12.63,31.5900394,120.7771851,2.818,13632602.917,24925487.577,2.818,0.000,0.000,0.000,0.000,0.000,0.000,0.000,17,18,4*49
$GPGGA,064257.60,3135.4023849,N,12046.6311420,E,4,17,1.4,2.8191,M,8.314,M,00,0004*61
$GPHPD,0,0.000,53.84,-1.42,-12.62,31.5900397,120.7771857,2.819,13632602.721,24925487.918,2.819,0.000,0.000,0.000,0.000,0.000,0.000,0.000,17,18,4*42
$GPGGA,064257.80,3135.4024052,N,12046.6311744,E,4,17,1.4,2.8155,M,8.314,M,00,0004*63
$GPHPD,0,0.000,53.87,-1.44,-12.61,31.5900401,120.7771862,2.816,13632602.498,24925488.190,2.816,0.000,0.000,0.000,0.000,0.000,0.000,0.000,17,18,4*4C
$GPGGA,064258.00,3135.4024248,N,12046.6312092,E,4,17,1.4,2.8264,M,8.314,M,01,0004*62
$GPHPD,0,0.000,53.89,-1.77,-12.62,31.5900404,120.7771868,2.826,13632602.289,24925488.496,2.826,0.000,0.000,0.000,0.000,0.000,0.000,0.000,17,18,4*4B
$GPGGA,064258.20,3135.4024442,N,12046.6312422,E,4,17,1.4,2.8250,M,8.314,M,01,0004*64
$GPHPD,0,0.000,53.87,-2.07,-12.63,31.5900407,120.7771874,2.825,13632602.080,24925488.781,2.825,0.000,0.000,0.000,0.000,0.000,0.000,0.000,17,18,4*40
$GPGGA,064258.40,3135.4024649,N,12046.6312783,E,4,17,1.4,2.8238,M,8.314,M,01,0004*6D
$GPHPD,0,0.000,55.40,-0.93,-12.65,31.5900411,120.7771880,2.824,13632601.858,24925489.096,2.824,0.000,0.000,0.000,0.000,0.000,0.000,0.000,17,18,4*46
$GPGGA,064258.60,3135.4024832,N,12046.6313127,E,4,17,1.4,2.8116,M,8.314,M,00,0004*6A
$GPHPD,0,0.000,55.21,-0.93,-12.68,31.5900414,120.7771885,2.812,13632601.667,24925489.404,2.812,0.000,0.000,0.000,0.000,0.000,0.000,0.000,17,18,4*41
$GPGGA,064258.80,3135.4025093,N,12046.6313539,E,4,17,1.4,2.7949,M,8.314,M,00,0004*60
$GPHPD,0,0.000,55.18,-0.79,-12.72,31.5900418,120.7771892,2.795,13632601.379,24925489.749,2.795,0.000,0.000,0.000,0.000,0.000,0.000,0.000,17,18,4*4E
$GPGGA,064259.00,3135.4025315,N,12046.6313961,E,4,17,1.4,2.7933,M,8.314,M,01,0004*69
$GPHPD,0,0.000,55.28,-0.27,-12.78,31.5900422,120.7771899,2.793,13632601.149,24925490.129,2.793,0.000,0.000,0.000,0.000,0.000,0.000,0.000,17,18,4*47
$GPGGA,064259.20,3135.4025572,N,12046.6314417,E,4,17,1.4,2.7947,M,8.314,M,01,0004*64
$GPHPD,0,0.000,55.38,0.79,-12.84,31.5900426,120.7771907,2.795,13632600.875,24925490.529,2.795,0.000,0.000,0.000,0.000,0.000,0.000,0.000,17,18,4*62
$GPGGA,064259.40,3135.4025834,N,12046.6314928,E,4,17,1.4,2.8072,M,8.314,M,01,0004*6C
$GPHPD,0,0.000,55.37,0.31,-12.90,31.5900431,120.7771915,2.807,13632600.606,24925490.993,2.807,0.000,0.000,0.000,0.000,0.000,0.000,0.000,17,18,4*66
$GPGGA,064259.60,3135.4026137,N,12046.6315476,E,4,17,1.4,2.8130,M,8.314,M,00,0004*66
$GPHPD,0,0.000,55.41,-0.05,-12.97,31.5900436,120.7771925,2.813,13632600.285,24925491.477,2.813,0.000,0.000,0.000,0.000,0.000,0.000,0.000,17,18,4*47
$GPGGA,064259.80,3135.4026495,N,12046.6316094,E,4,17,1.4,2.8178,M,8.314,M,00,0004*62
$GPHPD,0,0.000,55.90,-0.16,-13.05,31.5900442,120.7771935,2.818,13632599.901,24925492.014,2.818,0.000,0.000,0.000,0.000,0.000,0.000,0.000,17,18,4*47
$GPGGA,064300.00,3135.4026850,N,12046.6316770,E,4,17,1.4,2.8239,M,8.314,M,01,0004*68
$GPHPD,0,0.000,56.34,-0.54,-13.12,31.5900448,120.7771946,2.824,13632599.532,24925492.623,2.824,0.000,0.000,0.000,0.000,0.000,0.000,0.000,17,17,4*45
$GPGGA,064300.20,3135.4027246,N,12046.6317520,E,4,17,1.4,2.8164,M,8.314,M,01,0004*6B
$GPHPD,0,0.000,56.16,-0.91,-13.18,31.5900454,120.7771959,2.816,13632599.120,24925493.297,2.816,0.000,0.000,0.000,0.000,0.000,0.000,0.000,17,18,4*47
$GPGGA,064300.40,3135.4027694,N,12046.6318285,E,4,17,1.4,2.8158,M,8.314,M,01,0004*6E
$GPHPD,0,0.000,56.29,-0.28,-13.23,31.5900462,120.7771971,2.816,13632598.638,24925493.959,2.816,0.000,0.000,0.000,0.000,0.000,0.000,0.000,17,18,4*48
$GPGGA,064300.60,3135.4028175,N,12046.6319150,E,4,17,1.4,2.8112,M,8.314,M,00,0004*6E
$GPHPD,0,0.000,56.37,0.51,-13.26,31.5900470,120.7771986,2.811,13632598.128,24925494.722,2.811,0.000,0.000,0.000,0.000,0.000,0.000,0.000,17,18,4*69
$GPGGA,064300.80,3135.4028659,N,12046.6319965,E,4,17,1.6,2.8002,M,8.314,M,00,0004*65
$GPHPD,0,0.000,56.30,0.86,-13.27,31.5900478,120.7771999,2.800,13632597.604,24925495.423,2.800,0.000,0.000,0.000,0.000,0.000,0.000,0.000,17,18,4*66
$GPGGA,064301.00,3135.4029123,N,12046.6320788,E,4,17,1.4,2.8102,M,8.314,M,01,0004*62
$GPHPD,0,0.000,56.55,0.61,-13.25,31.5900485,120.7772013,2.810,13632597.110,24925496.145,2.810,0.000,0.000,0.000,0.000,0.000,0.000,0.000,17,18,4*60
$GPGGA,064301.20,3135.4029607,N,12046.6321623,E,4,17,1.4,2.8136,M,8.314,M,01,0004*67
$GPHPD,0,0.000,56.72,0.01,-13.19,31.5900493,120.7772027,2.814,13632596.590,24925496.871,2.814,0.000,0.000,0.000,0.000,0.000,0.000,0.000,17,18,4*6F
$GPGGA,064301.40,3135.4030050,N,12046.6322650,E,4,16,1.5,2.7938,M,8.314,M,01,0004*63
$GPHPD,0,0.000,57.07,-0.16,-13.13,31.5900501,120.7772044,2.794,13632596.167,24925497.851,2.794,0.000,0.000,0.000,0.000,0.000,0.000,0.000,16,17,4*43
$GPGGA,064301.60,3135.4030500,N,12046.6323464,E,4,16,1.5,2.7894,M,8.314,M,00,0004*63
$GPHPD,0,0.000,56.78,-0.24,-13.07,31.5900508,120.7772058,2.789,13632595.692,24925498.571,2.789,0.000,0.000,0.000,0.000,0.000,0.000,0.000,16,16,4*45
$GPGGA,064301.80,3135.4030920,N,12046.6324212,E,4,16,1.5,2.7965,M,8.314,M,00,0004*6C
$GPHPD,0,0.000,56.92,-1.08,-13.02,31.5900515,120.7772070,2.797,13632595.245,24925499.229,2.797,0.000,0.000,0.000,0.000,0.000,0.000,0.000,16,16,4*48
$GPGGA,064302.00,3135.4031311,N,12046.6324931,E,4,16,1.5,2.7945,M,8.314,M,01,0004*67
$GPHPD,0,0.000,57.29,-2.01,-12.97,31.5900522,120.7772082,2.795,13632594.834,24925499.868,2.795,0.000,0.000,0.000,0.000,0.000,0.000,0.000,16,16,4*45
$GPGGA,064302.20,3135.4031673,N,12046.6325615,E,4,16,1.5,2.8047,M,8.314,M,01,0004*68
$GPHPD,0,0.000,57.00,-1.10,-12.94,31.5900528,120.7772094,2.805,13632594.457,24925500.482,2.805,0.000,0.000,0.000,0.000,0.000,0.000,0.000,16,16,4*43
$GPGGA,064302.40,3135.4032013,N,12046.6326321,E,4,16,1.5,2.8118,M,8.314,M,01,0004*67
$GPHPD,0,0.000,57.08,-1.04,-12.92,31.5900534,120.7772105,2.812,13632594.116,24925501.136,2.812,0.000,0.000,0.000,0.000,0.000,0.000,0.000,16,16,4*47
$GPGGA,064302.60,3135.4032402,N,12046.6326989,E,4,16,1.5,2.8135,M,8.314,M,00,0004*67
$GPHPD,0,0.000,57.05,-1.32,-12.90,31.5900540,120.7772116,2.814,13632593.698,24925501.715,2.814,0.000,0.000,0.000,0.000,0.000,0.000,0.000,16,16,4*4D
$GPGGA,064302.80,3135.4032748,N,12046.6327632,E,4,16,1.5,2.8165,M,8.314,M,00,0004*6F
$GPHPD,0,0.000,56.94,-1.93,-12.90,31.5900546,120.7772127,2.817,13632593.335,24925502.289,2.817,0.000,0.000,0.000,0.000,0.000,0.000,0.000,16,16,4*4A
$GPGGA,064303.00,3135.4033118,N,12046.6328307,E,4,16,1.5,2.8114,M,8.314,M,01,0004*6F
$GPHPD,0,0.000,56.78,-2.36,-12.91,31.5900552,120.7772138,2.811,13632592.945,24925502.888,2.811,0.000,0.000,0.000,0.000,0.000,0.000,0.000,16,16,4*49
$GPGGA,064303.20,3135.4033451,N,12046.6329004,E,4,16,1.5,2.8022,M,8.314,M,01,0004*60
$GPHPD,0,0.000,56.89,-1.01,-12.94,31.5900558,120.7772150,2.802,13632592.612,24925503.534,2.802,0.000,0.000,0.000,0.000,0.000,0.000,0.000,16,16,4*47
$GPGGA,064303.40,3135.4033857,N,12046.6329715,E,4,16,1.5,2.7890,M,8.314,M,01,0004*65
$GPHPD,0,0.000,56.89,0.00,-12.99,31.5900564,120.7772162,2.789,13632592.178,24925504.155,2.789,0.000,0.000,0.000,0.000,0.000,0.000,0.000,16,16,4*66
$GPGGA,064303.60,3135.4034249,N,12046.6330437,E,4,16,1.5,2.7851,M,8.314,M,00,0004*62
$GPHPD,0,0.000,56.75,0.35,-13.03,31.5900571,120.7772174,2.785,13632591.767,24925504.798,2.785,0.000,0.000,0.000,0.000,0.000,0.000,0.000,16,16,4*6E
$GPGGA,064303.80,3135.4034714,N,12046.6331200,E,4,16,1.5,2.7680,M,8.314,M,00,0004*60
$GPHPD,0,0.000,57.17,0.71,-13.08,31.5900579,120.7772187,2.768,13632591.259,24925505.447,2.768,0.000,0.000,0.000,0.000,0.000,0.000,0.000,16,16,4*6C
$GPGGA,064304.00,3135.4035119,N,12046.6332150,E,4,16,1.5,2.7464,M,8.314,M,01,0004*69
$GPHPD,0,0.000,57.34,1.13,-13.16,31.5900585,120.7772203,2.746,13632590.875,24925506.357,2.746,0.000,0.000,0.000,0.000,0.000,0.000,0.000,16,16,4*6B
$GPGGA,064304.20,3135.4035590,N,12046.6333064,E,4,16,1.5,2.7667,M,8.314,M,01,0004*68
$GPHPD,0,0.000,57.14,1.35,-13.21,31.5900593,120.7772218,2.767,13632590.389,24925507.185,2.767,0.000,0.000,0.000,0.000,0.000,0.000,0.000,16,15,4*63
$GPGGA,064304.40,3135.4036110,N,12046.6334065,E,4,16,1.5,2.7745,M,8.314,M,01,0004*66
$GPHPD,0,0.000,57.13,1.45,-13.24,31.5900602,120.7772234,2.775,13632589.852,24925508.090,2.775,0.000,0.000,0.000,0.000,0.000,0.000,0.000,16,16,4*6F
$GPGGA,064304.60,3135.4036671,N,12046.6335110,E,4,16,1.5,2.7568,M,8.314,M,00,0004*6A
$GPHPD,0,0.000,57.36,0.93,-13.29,31.5900611,120.7772252,2.757,13632589.265,24925509.024,2.757,0.000,0.000,0.000,0.000,0.000,0.000,0.000,16,15,4*6E
$GPGGA,064304.80,3135.4037296,N,12046.6336175,E,4,16,1.5,2.7618,M,8.314,M,00,0004*6C
$GPHPD,0,0.000,57.75,1.66,-13.32,31.5900622,120.7772270,2.762,13632588.591,24925509.944,2.762,0.000,0.000,0.000,0.000,0.000,0.000,0.000,16,15,4*6A
$GPGGA,064305.00,3135.4037881,N,12046.6337359,E,4,16,1.5,2.8060,M,8.314,M,01,0004*63
$GPHPD,0,0.000,58.04,1.59,-13.34,31.5900631,120.7772289,2.806,13632587.997,24925511.032,2.806,0.000,0.000,0.000,0.000,0.000,0.000,0.000,16,15,4*69
$GPGGA,064305.20,3135.4038537,N,12046.6338581,E,4,16,1.5,2.7897,M,8.314,M,01,0004*6D
$GPHPD,0,0.000,58.02,0.28,-13.36,31.5900642,120.7772310,2.790,13632587.311,24925512.123,2.790,0.000,0.000,0.000,0.000,0.000,0.000,0.000,16,15,4*69
$GPGGA,064305.40,3135.4039217,N,12046.6339835,E,4,16,1.5,2.7943,M,8.314,M,01,0004*64
$GPHPD,0,0.000,58.19,0.59,-13.34,31.5900654,120.7772331,2.794,13632586.597,24925513.240,2.794,0.000,0.000,0.000,0.000,0.000,0.000,0.000,16,15,4*6D
$GPGGA,064305.60,3135.4039892,N,12046.6341132,E,4,16,1.5,2.7969,M,8.314,M,00,0004*69
$GPHPD,0,0.000,58.53,0.44,-13.34,31.5900665,120.7772352,2.797,13632585.899,24925514.411,2.797,0.000,0.000,0.000,0.000,0.000,0.000,0.000,16,15,4*6D
$GPGGA,064305.80,3135.4040563,N,12046.6342468,E,4,16,1.5,2.7966,M,8.314,M,00,0004*6C
$GPHPD,0,0.000,58.24,0.93,-13.32,31.5900676,120.7772374,2.797,13632585.214,24925515.632,2.797,0.000,0.000,0.000,0.000,0.000,0.000,0.000,16,14,4*6B
$GPGGA,064306.00,3135.4041213,N,12046.6343784,E,4,16,1.5,2.8128,M,8.314,M,01,0004*6A
$GPHPD,0,0.000,57.96,0.94,-13.30,31.5900687,120.7772396,2.813,13632584.555,24925516.840,2.813,0.000,0.000,0.000,0.000,0.000,0.000,0.000,16,15,4*60
$GPGGA,064306.20,3135.4041881,N,12046.6345113,E,4,16,1.5,2.8032,M,8.314,M,01,0004*6D
$GPHPD,0,0.000,57.75,-0.34,-13.29,31.5900698,120.7772419,2.803,13632583.873,24925518.054,2.803,0.000,0.000,0.000,0.000,0.000,0.000,0.000,16,14,4*40
$GPGGA,064306.40,3135.4042551,N,12046.6346465,E,4,16,1.5,2.8170,M,8.314,M,01,0004*68
$GPHPD,0,0.000,58.07,-0.25,-13.28,31.5900709,120.7772441,2.817,13632583.193,24925519.295,2.817,0.000,0.000,0.000,0.000,0.000,0.000,0.000,16,15,4*47
$GPGGA,064306.60,3135.4043252,N,12046.6347757,E,4,16,1.5,2.8046,M,8.314,M,00,0004*69
$GPHPD,0,0.000,57.89,-0.18,-13.25,31.5900721,120.7772463,2.805,13632582.456,24925520.445,2.805,0.000,0.000,0.000,0.000,0.000,0.000,0.000,16,15,4*4B
$GPGGA,064306.80,3135.4043905,N,12046.6349139,E,4,16,1.7,2.8047,M,8.314,M,00,0004*6D
$GPHPD,0,0.000,58.41,-0.25,-13.26,31.5900732,120.7772486,2.805,13632581.806,24925521.731,2.805,0.000,0.000,0.000,0.000,0.000,0.000,0.000,16,15,4*4F
$GPGGA,064307.00,3135.4044589,N,12046.6350411,E,4,16,1.5,2.8112,M,8.314,M,01,0004*6E
$GPHPD,0,0.000,58.48,-0.32,-13.24,31.5900743,120.7772507,2.811,13632581.090,24925522.867,2.811,0.000,0.000,0.000,0.000,0.000,0.000,0.000,16,15,4*44
$GPGGA,064307.20,3135.4045290,N,12046.6351721,E,4,16,1.5,2.8106,M,8.314,M,01,0004*66
$GPHPD,0,0.000,58.62,-0.25,-13.24,31.5900755,120.7772529,2.811,13632580.357,24925524.039,2.811,0.000,0.000,0.000,0.000,0.000,0.000,0.000,16,16,4*4E
$GPGGA,064307.40,3135.4045922,N,12046.6353031,E,4,17,1.5,2.8327,M,8.314,M,01,0004*66
$GPHPD,0,0.000,58.72,-0.70,-13.26,31.5900765,120.7772551,2.833,13632579.723,24925525.251,2.833,0.000,0.000,0.000,0.000,0.000,0.000,0.000,17,17,4*4D
$GPGGA,064307.60,3135.4046626,N,12046.6354401,E,4,17,1.5,2.8169,M,8.314,M,00,0004*65
$GPHPD,0,0.000,58.67,-0.66,-13.26,31.5900777,120.7772573,2.817,13632578.998,24925526.493,2.817,0.000,0.000,0.000,0.000,0.000,0.000,0.000,17,17,4*49
$GPGGA,064307.80,3135.4047297,N,12046.6355714,E,4,16,1.5,2.8314,M,8.314,M,00,0004*6B
$GPHPD,0,0.000,58.93,-0.28,-13.28,31.5900788,120.7772595,2.831,13632578.309,24925527.686,2.831,0.000,0.000,0.000,0.000,0.000,0.000,0.000,16,16,4*4B
