$GPGGA,064753.20,3135.4542940,N,12046.7548479,E,4,17,1.4,2.8217,M,8.321,M,01,0004*63
$GPHPD,0,0.000,332.90,0.73,-14.43,31.5909049,120.7792475,2.822,13632113.877,24926677.589,2.822,0.000,0.000,0.000,0.000,0.000,0.000,0.000,17,18,4*51
$GPGGA,064753.40,3135.4543834,N,12046.7547981,E,4,17,1.4,2.8289,M,8.321,M,01,0004*64
$GPHPD,0,0.000,333.53,0.93,-14.40,31.5909064,120.7792466,2.829,13632112.506,24926676.468,2.829,0.000,0.000,0.000,0.000,0.000,0.000,0.000,17,18,4*5A
$GPGGA,064753.60,3135.4544672,N,12046.7547533,E,4,17,1.4,2.8388,M,8.321,M,00,0004*69
$GPHPD,0,0.000,334.07,0.82,-14.37,31.5909078,120.7792459,2.839,13632111.225,24926675.440,2.839,0.000,0.000,0.000,0.000,0.000,0.000,0.000,17,18,4*51
$GPGGA,064753.80,3135.4545478,N,12046.7547141,E,4,17,1.4,2.8323,M,8.321,M,00,0004*6E
$GPHPD,0,0.000,334.62,0.69,-14.32,31.5909091,120.7792452,2.832,13632110.000,24926674.498,2.832,0.000,0.000,0.000,0.000,0.000,0.000,0.000,17,18,4*5E
$GPGGA,064754.00,3135.4546227,N,12046.7546750,E,4,17,1.4,2.8396,M,8.321,M,01,0004*66
$GPHPD,0,0.000,335.18,0.89,-14.28,31.5909104,120.7792446,2.840,13632108.857,24926673.591,2.840,0.000,0.000,0.000,0.000,0.000,0.000,0.000,17,18,4*53
$GPGGA,064754.20,3135.4546967,N,12046.7546397,E,4,17,1.4,2.8381,M,8.321,M,01,0004*62
$GPHPD,0,0.000,335.74,0.89,-14.25,31.5909116,120.7792440,2.838,13632107.734,24926672.734,2.838,0.000,0.000,0.000,0.000,0.000,0.000,0.000,17,18,4*58
$GPGGA,064754.40,3135.4547693,N,12046.7546076,E,4,17,1.4,2.8291,M,8.321,M,01,0004*6D
$GPHPD,0,0.000,336.27,0.97,-14.23,31.5909128,120.7792435,2.829,13632106.637,24926671.924,2.829,0.000,0.000,0.000,0.000,0.000,0.000,0.000,17,18,4*54
$GPGGA,064754.60,3135.4548366,N,12046.7545740,E,4,17,1.4,2.8487,M,8.321,M,00,0004*6E
$GPHPD,0,0.000,336.94,1.19,-14.22,31.5909139,120.7792429,2.849,13632105.613,24926671.127,2.849,0.000,0.000,0.000,0.000,0.000,0.000,0.000,17,18,4*59
$GPGGA,064754.80,3135.4548961,N,12046.7545461,E,4,17,1.4,2.8450,M,8.321,M,00,0004*67
$GPHPD,0,0.000,337.62,1.23,-14.20,31.5909149,120.7792424,2.845,13632104.711,24926670.444,2.845,0.000,0.000,0.000,0.000,0.000,0.000,0.000,17,18,4*53
$GPGGA,064755.00,3135.4549577,N,12046.7545197,E,4,17,1.4,2.8421,M,8.321,M,01,0004*6F
$GPHPD,0,0.000,338.35,1.55,-14.19,31.5909160,120.7792420,2.842,13632103.782,24926669.767,2.842,0.000,0.000,0.000,0.000,0.000,0.000,0.000,17,18,4*5D
$GPGGA,064755.20,3135.4550185,N,12046.7544970,E,4,17,1.4,2.8402,M,8.321,M,01,0004*6D
$GPHPD,0,0.000,338.82,1.62,-14.22,31.5909170,120.7792416,2.840,13632102.872,24926669.140,2.840,0.000,0.000,0.000,0.000,0.000,0.000,0.000,17,18,4*5B
$GPGGA,064755.40,3135.4550769,N,12046.7544708,E,4,17,1.4,2.8508,M,8.321,M,01,0004*65
$GPHPD,0,0.000,339.35,1.44,-14.24,31.5909179,120.7792412,2.851,13632101.990,24926668.484,2.851,0.000,0.000,0.000,0.000,0.000,0.000,0.000,17,18,4*5B
$GPGGA,064755.60,3135.4551376,N,12046.7544474,E,4,17,1.4,2.8410,M,8.321,M,00,0004*6D
$GPHPD,0,0.000,339.77,1.34,-14.29,31.5909190,120.7792408,2.841,13632101.080,24926667.848,2.841,0.000,0.000,0.000,0.000,0.000,0.000,0.000,17,18,4*50
$GPGGA,064755.80,3135.4552027,N,12046.7544218,E,4,17,1.4,2.8477,M,8.321,M,00,0004*6A
$GPHPD,0,0.000,340.19,1.54,-14.32,31.5909200,120.7792404,2.848,13632100.103,24926667.160,2.848,0.000,0.000,0.000,0.000,0.000,0.000,0.000,17,18,4*54
$GPGGA,064756.00,3135.4552713,N,12046.7543982,E,4,17,1.4,2.8454,M,8.321,M,01,0004*6E
$GPHPD,0,0.000,340.69,1.69,-14.33,31.5909212,120.7792400,2.845,13632099.080,24926666.476,2.845,0.000,0.000,0.000,0.000,0.000,0.000,0.000,17,18,4*53
$GPGGA,064756.20,3135.4553430,N,12046.7543725,E,4,17,1.4,2.8490,M,8.321,M,01,0004*64
$GPHPD,0,0.000,341.12,1.61,-14.34,31.5909224,120.7792395,2.849,13632098.009,24926665.749,2.849,0.000,0.000,0.000,0.000,0.000,0.000,0.000,17,18,4*53
$GPGGA,064756.40,3135.4554156,N,12046.7543483,E,4,17,1.4,2.8521,M,8.321,M,01,0004*64
$GPHPD,0,0.000,341.64,1.30,-14.33,31.5909236,120.7792391,2.852,13632096.928,24926665.035,2.852,0.000,0.000,0.000,0.000,0.000,0.000,0.000,17,18,4*5E
$GPGGA,064756.60,3135.4554932,N,12046.7543213,E,4,17,1.4,2.8634,M,8.321,M,00,0004*65
$GPHPD,0,0.000,342.00,1.42,-14.32,31.5909249,120.7792387,2.863,13632095.771,24926664.257,2.863,0.000,0.000,0.000,0.000,0.000,0.000,0.000,17,18,4*52
$GPGGA,064756.80,3135.4555697,N,12046.7542967,E,4,17,1.4,2.8646,M,8.321,M,00,0004*66
$GPHPD,0,0.000,342.54,1.20,-14.28,31.5909262,120.7792383,2.865,13632094.634,24926663.515,2.865,0.000,0.000,0.000,0.000,0.000,0.000,0.000,17,18,4*56
$GPGGA,064757.00,3135.4556472,N,12046.7542721,E,4,17,1.4,2.8670,M,8.321,M,01,0004*6D
$GPHPD,0,0.000,342.93,1.22,-14.19,31.5909275,120.7792379,2.867,13632093.483,24926662.767,2.867,0.000,0.000,0.000,0.000,0.000,0.000,0.000,17,18,4*51
$GPGGA,064757.20,3135.4557212,N,12046.7542452,E,4,17,1.4,2.8672,M,8.321,M,01,0004*6B
$GPHPD,0,0.000,343.26,0.92,-14.12,31.5909287,120.7792374,2.867,13632092.377,24926662.012,2.867,0.000,0.000,0.000,0.000,0.000,0.000,0.000,17,18,4*57
$GPGGA,064757.40,3135.4557958,N,12046.7542215,E,4,17,1.4,2.8696,M,8.321,M,01,0004*67
$GPHPD,0,0.000,343.45,0.60,-13.99,31.5909299,120.7792370,2.870,13632091.269,24926661.292,2.870,0.000,0.000,0.000,0.000,0.000,0.000,0.000,17,18,4*54
$GPGGA,064757.60,3135.4558644,N,12046.7542006,E,4,17,1.4,2.8734,M,8.321,M,00,0004*60
$GPHPD,0,0.000,343.79,0.65,-13.88,31.5909311,120.7792367,2.873,13632090.252,24926660.641,2.873,0.000,0.000,0.000,0.000,0.000,0.000,0.000,17,18,4*5B
$GPGGA,064757.80,3135.4559298,N,12046.7541804,E,4,17,1.4,2.8716,M,8.321,M,00,0004*63
$GPHPD,0,0.000,343.91,0.47,-13.80,31.5909322,120.7792363,2.872,13632089.281,24926660.016,2.872,0.000,0.000,0.000,0.000,0.000,0.000,0.000,17,18,4*53
$GPGGA,064758.00,3135.4559906,N,12046.7541610,E,4,17,1.4,2.8801,M,8.321,M,01,0004*6B
$GPHPD,0,0.000,343.94,0.65,-13.72,31.5909332,120.7792360,2.880,13632088.378,24926659.428,2.880,0.000,0.000,0.000,0.000,0.000,0.000,0.000,17,18,4*5C
$GPGGA,064758.20,3135.4560493,N,12046.7541438,E,4,17,1.4,2.8754,M,8.321,M,01,0004*65
$GPHPD,0,0.000,344.42,0.64,-13.64,31.5909342,120.7792357,2.875,13632087.509,24926658.879,2.875,0.000,0.000,0.000,0.000,0.000,0.000,0.000,17,18,4*53
$GPGGA,064758.40,3135.4561044,N,12046.7541259,E,4,17,1.4,2.8795,M,8.321,M,01,0004*60
$GPHPD,0,0.000,344.49,0.80,-13.58,31.5909351,120.7792354,2.880,13632086.690,24926658.342,2.880,0.000,0.000,0.000,0.000,0.000,0.000,0.000,17,18,4*5D
$GPGGA,064758.60,3135.4561614,N,12046.7541086,E,4,17,1.4,2.8883,M,8.321,M,00,0004*68
$GPHPD,0,0.000,344.68,0.65,-13.54,31.5909360,120.7792351,2.888,13632085.845,24926657.802,2.888,0.000,0.000,0.000,0.000,0.000,0.000,0.000,17,18,4*5B
$GPGGA,064758.80,3135.4562132,N,12046.7540945,E,4,17,1.4,2.8836,M,8.321,M,00,0004*6F
$GPHPD,0,0.000,344.94,0.68,-13.52,31.5909369,120.7792349,2.884,13632085.080,24926657.330,2.884,0.000,0.000,0.000,0.000,0.000,0.000,0.000,17,18,4*58
$GPGGA,064759.00,3135.4562670,N,12046.7540784,E,4,17,1.4,2.8940,M,8.321,M,01,0004*65
$GPHPD,0,0.000,344.90,0.96,-13.52,31.5909378,120.7792346,2.894,13632084.283,24926656.823,2.894,0.000,0.000,0.000,0.000,0.000,0.000,0.000,17,18,4*5A
$GPGGA,064759.20,3135.4563233,N,12046.7540609,E,4,17,1.4,2.8944,M,8.321,M,01,0004*65
$GPHPD,0,0.000,345.07,0.54,-13.49,31.5909387,120.7792343,2.894,13632083.447,24926656.284,2.894,0.000,0.000,0.000,0.000,0.000,0.000,0.000,17,18,4*5A
$GPGGA,064759.40,3135.4563816,N,12046.7540464,E,4,17,1.4,2.8921,M,8.321,M,01,0004*64
$GPHPD,0,0.000,345.36,0.56,-13.48,31.5909397,120.7792341,2.892,13632082.589,24926655.770,2.892,0.000,0.000,0.000,0.000,0.000,0.000,0.000,17,18,4*57
$GPGGA,064759.60,3135.4564416,N,12046.7540317,E,4,17,1.4,2.9003,M,8.321,M,00,0004*67
$GPHPD,0,0.000,345.79,0.53,-13.50,31.5909407,120.7792339,2.900,13632081.707,24926655.243,2.900,0.000,0.000,0.000,0.000,0.000,0.000,0.000,17,18,4*53
$GPGGA,064759.80,3135.4565080,N,12046.7540131,E,4,17,1.4,2.9027,M,8.321,M,00,0004*63
$GPHPD,0,0.000,346.14,0.34,-13.52,31.5909418,120.7792336,2.903,13632080.725,24926654.633,2.903,0.000,0.000,0.000,0.000,0.000,0.000,0.000,17,18,4*5A
$GPGGA,064800.00,3135.4565737,N,12046.7540005,E,4,17,1.4,2.9084,M,8.321,M,01,0004*6D
$GPHPD,0,0.000,346.70,0.52,-13.52,31.5909429,120.7792333,2.908,13632079.766,24926654.098,2.908,0.000,0.000,0.000,0.000,0.000,0.000,0.000,17,18,4*59
$GPGGA,064800.20,3135.4566431,N,12046.7539855,E,4,17,1.4,2.9009,M,8.321,M,01,0004*6F
$GPHPD,0,0.000,347.14,0.27,-13.51,31.5909441,120.7792331,2.901,13632078.750,24926653.513,2.901,0.000,0.000,0.000,0.000,0.000,0.000,0.000,17,18,4*52
$GPGGA,064800.40,3135.4567136,N,12046.7539703,E,4,17,1.4,2.9093,M,8.321,M,01,0004*65
$GPHPD,0,0.000,347.67,0.56,-13.51,31.5909452,120.7792328,2.909,13632077.717,24926652.919,2.909,0.000,0.000,0.000,0.000,0.000,0.000,0.000,17,18,4*51
$GPGGA,064800.60,3135.4567824,N,12046.7539602,E,4,17,1.4,2.9028,M,8.321,M,00,0004*6C
$GPHPD,0,0.000,348.22,0.24,-13.53,31.5909464,120.7792327,2.903,13632076.718,24926652.397,2.903,0.000,0.000,0.000,0.000,0.000,0.000,0.000,17,18,4*50
$GPGGA,064800.80,3135.4568534,N,12046.7539484,E,4,17,1.4,2.9084,M,8.321,M,00,0004*6B
$GPHPD,0,0.000,348.78,0.32,-13.50,31.5909476,120.7792325,2.908,13632075.685,24926651.841,2.908,0.000,0.000,0.000,0.000,0.000,0.000,0.000,17,18,4*5F
$GPGGA,064801.00,3135.4569135,N,12046.7539387,E,4,17,1.4,2.9116,M,8.321,M,01,0004*69
$GPHPD,0,0.000,349.51,0.19,-13.42,31.5909486,120.7792323,2.912,13632074.812,24926651.375,2.912,0.000,0.000,0.000,0.000,0.000,0.000,0.000,17,18,4*5B
$GPGGA,064801.20,3135.4569685,N,12046.7539292,E,4,17,1.4,2.9093,M,8.321,M,01,0004*6E
$GPHPD,0,0.000,349.77,0.38,-13.40,31.5909495,120.7792322,2.909,13632074.011,24926650.940,2.909,0.000,0.000,0.000,0.000,0.000,0.000,0.000,17,18,4*5B
$GPGGA,064801.40,3135.4570175,N,12046.7539210,E,4,17,1.4,2.9100,M,8.321,M,01,0004*69
$GPHPD,0,0.000,350.27,0.28,-13.38,31.5909503,120.7792320,2.910,13632073.298,24926650.556,2.910,0.000,0.000,0.000,0.000,0.000,0.000,0.000,17,18,4*5B
$GPGGA,064801.60,3135.4570650,N,12046.7539150,E,4,17,1.4,2.9152,M,8.321,M,00,0004*6A
$GPHPD,0,0.000,350.64,0.42,-13.36,31.5909511,120.7792319,2.915,13632072.610,24926650.207,2.915,0.000,0.000,0.000,0.000,0.000,0.000,0.000,17,18,4*51
$GPGGA,064801.80,3135.4571052,N,12046.7539076,E,4,17,1.4,2.9103,M,8.321,M,00,0004*60
$GPHPD,0,0.000,351.11,0.31,-13.34,31.5909518,120.7792318,2.910,13632072.024,24926649.883,2.910,0.000,0.000,0.000,0.000,0.000,0.000,0.000,17,18,4*53
$GPGGA,064802.00,3135.4571452,N,12046.7539034,E,4,17,1.4,2.9124,M,8.321,M,01,0004*6D
$GPHPD,0,0.000,351.35,0.53,-13.36,31.5909524,120.7792317,2.912,13632071.447,24926649.600,2.912,0.000,0.000,0.000,0.000,0.000,0.000,0.000,17,18,4*54
$GPGGA,064802.20,3135.4571825,N,12046.7538987,E,4,17,1.4,2.9125,M,8.321,M,01,0004*62
$GPHPD,0,0.000,351.79,0.39,-13.37,31.5909530,120.7792316,2.913,13632070.907,24926649.326,2.913,0.000,0.000,0.000,0.000,0.000,0.000,0.000,17,18,4*5C
$GPGGA,064802.40,3135.4572201,N,12046.7538932,E,4,17,1.4,2.9095,M,8.321,M,01,0004*6F
$GPHPD,0,0.000,352.16,0.42,-13.42,31.5909537,120.7792316,2.910,13632070.362,24926649.041,2.910,0.000,0.000,0.000,0.000,0.000,0.000,0.000,17,18,4*54
$GPGGA,064802.60,3135.4572629,N,12046.7538894,E,4,17,1.4,2.9122,M,8.321,M,00,0004*62
$GPHPD,0,0.000,352.65,0.64,-13.46,31.5909544,120.7792315,2.912,13632069.746,24926648.746,2.912,0.000,0.000,0.000,0.000,0.000,0.000,0.000,17,18,4*5C
$GPGGA,064802.80,3135.4573028,N,12046.7538864,E,4,17,1.4,2.9209,M,8.321,M,00,0004*6F
$GPHPD,0,0.000,353.05,0.80,-13.49,31.5909550,120.7792314,2.921,13632069.173,24926648.477,2.921,0.000,0.000,0.000,0.000,0.000,0.000,0.000,17,18,4*5B
$GPGGA,064803.00,3135.4573512,N,12046.7538836,E,4,17,1.4,2.9118,M,8.321,M,01,0004*6F
$GPHPD,0,0.000,353.58,0.42,-13.48,31.5909559,120.7792314,2.912,13632068.479,24926648.162,2.912,0.000,0.000,0.000,0.000,0.000,0.000,0.000,17,18,4*5A
$GPGGA,064803.20,3135.4573932,N,12046.7538803,E,4,17,1.4,2.9154,M,8.321,M,01,0004*6D
$GPHPD,0,0.000,354.07,0.51,-13.42,31.5909566,120.7792313,2.915,13632067.875,24926647.878,2.915,0.000,0.000,0.000,0.000,0.000,0.000,0.000,17,18,4*56
$GPGGA,064803.40,3135.4574380,N,12046.7538788,E,4,17,1.4,2.9143,M,8.321,M,01,0004*65
$GPHPD,0,0.000,354.74,0.36,-13.39,31.5909573,120.7792313,2.914,13632067.235,24926647.599,2.914,0.000,0.000,0.000,0.000,0.000,0.000,0.000,17,18,4*57
$GPGGA,064803.60,3135.4574745,N,12046.7538772,E,4,17,1.4,2.9159,M,8.321,M,00,0004*65
$GPHPD,0,0.000,355.17,0.59,-13.34,31.5909579,120.7792313,2.916,13632066.713,24926647.367,2.916,0.000,0.000,0.000,0.000,0.000,0.000,0.000,17,18,4*5A
$GPGGA,064803.80,3135.4575147,N,12046.7538720,E,4,17,1.4,2.9193,M,8.321,M,00,0004*6F
$GPHPD,0,0.000,355.58,0.41,-13.31,31.5909586,120.7792312,2.919,13632066.131,24926647.070,2.919,0.000,0.000,0.000,0.000,0.000,0.000,0.000,17,18,4*5F
$GPGGA,064804.00,3135.4575469,N,12046.7538695,E,4,17,1.4,2.9181,M,8.321,M,01,0004*64
$GPHPD,0,0.000,355.91,0.32,-13.30,31.5909591,120.7792312,2.918,13632065.669,24926646.853,2.918,0.000,0.000,0.000,0.000,0.000,0.000,0.000,17,18,4*58
$GPGGA,064804.20,3135.4575827,N,12046.7538690,E,4,17,1.4,2.9169,M,8.321,M,01,0004*63
$GPHPD,0,0.000,356.22,0.46,-13.32,31.5909597,120.7792312,2.917,13632065.159,24926646.638,2.917,0.000,0.000,0.000,0.000,0.000,0.000,0.000,17,18,4*53
$GPGGA,064804.40,3135.4576186,N,12046.7538645,E,4,17,1.4,2.9214,M,8.321,M,01,0004*65
$GPHPD,0,0.000,356.30,0.54,-13.37,31.5909603,120.7792311,2.921,13632064.639,24926646.375,2.921,0.000,0.000,0.000,0.000,0.000,0.000,0.000,17,18,4*57
$GPGGA,064804.60,3135.4576580,N,12046.7538631,E,4,17,1.4,2.9231,M,8.321,M,00,0004*60
$GPHPD,0,0.000,356.77,0.76,-13.43,31.5909610,120.7792311,2.923,13632064.077,24926646.129,2.923,0.000,0.000,0.000,0.000,0.000,0.000,0.000,17,18,4*52
$GPGGA,064804.80,3135.4577001,N,12046.7538604,E,4,17,1.4,2.9265,M,8.321,M,00,0004*64
$GPHPD,0,0.000,356.76,0.57,-13.52,31.5909617,120.7792310,2.927,13632063.473,24926645.851,2.927,0.000,0.000,0.000,0.000,0.000,0.000,0.000,17,18,4*54
$GPGGA,064805.00,3135.4577492,N,12046.7538601,E,4,17,1.4,2.9254,M,8.321,M,01,0004*65
$GPHPD,0,0.000,357.16,0.49,-13.63,31.5909625,120.7792310,2.925,13632062.774,24926645.561,2.925,0.000,0.000,0.000,0.000,0.000,0.000,0.000,17,18,4*54
$GPGGA,064805.20,3135.4578053,N,12046.7538606,E,4,17,1.4,2.9225,M,8.321,M,01,0004*60
$GPHPD,0,0.000,357.53,0.79,-13.72,31.5909634,120.7792310,2.923,13632061.978,24926645.241,2.923,0.000,0.000,0.000,0.000,0.000,0.000,0.000,17,18,4*52
$GPGGA,064805.40,3135.4578683,N,12046.7538593,E,4,17,1.4,2.9225,M,8.321,M,01,0004*62
$GPHPD,0,0.000,357.91,0.87,-13.81,31.5909645,120.7792310,2.923,13632061.080,24926644.858,2.923,0.000,0.000,0.000,0.000,0.000,0.000,0.000,17,18,4*5A
$GPGGA,064805.60,3135.4579352,N,12046.7538597,E,4,17,1.4,2.9261,M,8.321,M,00,0004*6D
$GPHPD,0,0.000,358.37,0.83,-13.89,31.5909656,120.7792310,2.926,13632060.129,24926644.474,2.926,0.000,0.000,0.000,0.000,0.000,0.000,0.000,17,18,4*56
$GPGGA,064805.80,3135.4580103,N,12046.7538603,E,4,17,1.4,2.9237,M,8.321,M,00,0004*6E
$GPHPD,0,0.000,358.61,0.58,-13.94,31.5909668,120.7792310,2.924,13632059.063,24926644.044,2.924,0.000,0.000,0.000,0.000,0.000,0.000,0.000,17,18,4*50
$GPGGA,064806.00,3135.4580890,N,12046.7538609,E,4,17,1.4,2.9254,M,8.321,M,01,0004*68
$GPHPD,0,0.000,359.18,0.77,-13.95,31.5909682,120.7792310,2.925,13632057.946,24926643.593,2.925,0.000,0.000,0.000,0.000,0.000,0.000,0.000,17,18,4*5F
$GPGGA,064806.20,3135.4581643,N,12046.7538613,E,4,17,1.4,2.9261,M,8.321,M,01,0004*66
$GPHPD,0,0.000,359.65,0.75,-13.97,31.5909694,120.7792310,2.926,13632056.876,24926643.159,2.926,0.000,0.000,0.000,0.000,0.000,0.000,0.000,17,18,4*53
$GPGGA,064806.40,3135.4582396,N,12046.7538626,E,4,17,1.4,2.9296,M,8.321,M,01,0004*60
$GPHPD,0,0.000,0.15,0.98,-13.98,31.5909707,120.7792310,2.930,13632055.808,24926642.737,2.930,0.000,0.000,0.000,0.000,0.000,0.000,0.000,17,18,4*59
$GPGGA,064806.60,3135.4583134,N,12046.7538655,E,4,17,1.4,2.9330,M,8.321,M,00,0004*61
$GPHPD,0,0.000,0.74,0.94,-14.02,31.5909719,120.7792311,2.933,13632054.765,24926642.342,2.933,0.000,0.000,0.000,0.000,0.000,0.000,0.000,17,18,4*5B
$GPGGA,064806.80,3135.4583857,N,12046.7538679,E,4,17,1.4,2.9370,M,8.321,M,00,0004*69
$GPHPD,0,0.000,1.03,0.86,-14.06,31.5909731,120.7792311,2.937,13632053.742,24926641.950,2.937,0.000,0.000,0.000,0.000,0.000,0.000,0.000,17,18,4*5F
$GPGGA,064807.00,3135.4584555,N,12046.7538731,E,4,17,1.4,2.9419,M,8.321,M,01,0004*6C
$GPHPD,0,0.000,1.59,0.72,-14.05,31.5909743,120.7792312,2.942,13632052.760,24926641.606,2.942,0.000,0.000,0.000,0.000,0.000,0.000,0.000,17,18,4*53
$GPGGA,064807.20,3135.4585261,N,12046.7538799,E,4,17,1.4,2.9472,M,8.321,M,01,0004*60
$GPHPD,0,0.000,2.06,0.91,-14.07,31.5909754,120.7792313,2.947,13632051.771,24926641.277,2.947,0.000,0.000,0.000,0.000,0.000,0.000,0.000,17,18,4*53
$GPGGA,064807.40,3135.4585984,N,12046.7538855,E,4,17,1.4,2.9451,M,8.321,M,01,0004*68
$GPHPD,0,0.000,2.29,0.94,-14.11,31.5909766,120.7792314,2.945,13632050.754,24926640.924,2.945,0.000,0.000,0.000,0.000,0.000,0.000,0.000,17,18,4*50
$GPGGA,064807.60,3135.4586693,N,12046.7538923,E,4,17,1.4,2.9486,M,8.321,M,00,0004*6B
$GPHPD,0,0.000,2.76,0.92,-14.15,31.5909778,120.7792315,2.949,13632049.760,24926640.593,2.949,0.000,0.000,0.000,0.000,0.000,0.000,0.000,17,18,4*59
$GPGGA,064807.80,3135.4587472,N,12046.7538993,E,4,17,1.4,2.9394,M,8.321,M,00,0004*66
$GPHPD,0,0.000,3.15,0.87,-14.20,31.5909791,120.7792317,2.939,13632048.667,24926640.224,2.939,0.000,0.000,0.000,0.000,0.000,0.000,0.000,17,18,4*56
$GPGGA,064808.00,3135.4588245,N,12046.7539064,E,4,17,1.4,2.9402,M,8.321,M,01,0004*65
$GPHPD,0,0.000,3.51,1.04,-14.36,31.5909804,120.7792318,2.940,13632047.582,24926639.860,2.940,0.000,0.000,0.000,0.000,0.000,0.000,0.000,17,18,4*54
$GPGGA,064808.20,3135.4589053,N,12046.7539102,E,4,17,1.4,2.9438,M,8.321,M,01,0004*6B
$GPHPD,0,0.000,3.67,1.17,-14.45,31.5909818,120.7792318,2.944,13632046.441,24926639.435,2.944,0.000,0.000,0.000,0.000,0.000,0.000,0.000,17,18,4*59
$GPGGA,064808.40,3135.4589816,N,12046.7539128,E,4,17,1.4,2.9525,M,8.321,M,01,0004*61
$GPHPD,0,0.000,4.18,1.31,-14.30,31.5909830,120.7792319,2.953,13632045.362,24926639.022,2.953,0.000,0.000,0.000,0.000,0.000,0.000,0.000,17,18,4*5C
$GPGGA,064808.60,3135.4590486,N,12046.7539160,E,4,17,1.4,2.9557,M,8.321,M,00,0004*66
$GPHPD,0,0.000,4.51,1.21,-14.25,31.5909841,120.7792319,2.956,13632044.416,24926638.671,2.956,0.000,0.000,0.000,0.000,0.000,0.000,0.000,17,18,4*56
$GPGGA,064808.80,3135.4591081,N,12046.7539184,E,4,17,1.4,2.9571,M,8.321,M,00,0004*64
$GPHPD,0,0.000,4.83,1.28,-14.32,31.5909851,120.7792320,2.957,13632043.575,24926638.353,2.957,0.000,0.000,0.000,0.000,0.000,0.000,0.000,17,18,4*5B
$GPGGA,064809.00,3135.4591595,N,12046.7539217,E,4,17,1.4,2.9583,M,8.321,M,01,0004*68
$GPHPD,0,0.000,5.02,1.49,-14.26,31.5909860,120.7792320,2.958,13632042.851,24926638.094,2.958,0.000,0.000,0.000,0.000,0.000,0.000,0.000,17,18,4*51
$GPGGA,064809.20,3135.4592040,N,12046.7539219,E,4,17,1.4,2.9713,M,8.321,M,01,0004*61
$GPHPD,0,0.000,5.26,1.20,-14.04,31.5909867,120.7792320,2.971,13632042.219,24926637.837,2.971,0.000,0.000,0.000,0.000,0.000,0.000,0.000,17,18,4*57
$GPGGA,064809.40,3135.4592355,N,12046.7539256,E,4,17,1.4,2.9698,M,8.321,M,01,0004*69
$GPHPD,0,0.000,5.46,1.32,-14.03,31.5909873,120.7792321,2.970,13632041.779,24926637.698,2.970,0.000,0.000,0.000,0.000,0.000,0.000,0.000,17,18,4*5A
$GPGGA,064809.60,3135.4592575,N,12046.7539272,E,4,17,1.4,2.9676,M,8.321,M,00,0004*68
$GPHPD,0,0.000,5.61,1.62,-13.96,31.5909876,120.7792321,2.968,13632041.469,24926637.590,2.968,0.000,0.000,0.000,0.000,0.000,0.000,0.000,17,18,4*5D
$GPGGA,064809.80,3135.4592710,N,12046.7539272,E,4,17,1.4,2.9686,M,8.321,M,00,0004*68
$GPHPD,0,0.000,5.71,1.47,-13.90,31.5909879,120.7792321,2.969,13632041.277,24926637.511,2.969,0.000,0.000,0.000,0.000,0.000,0.000,0.000,17,18,4*52
$GPGGA,064810.00,3135.4592780,N,12046.7539286,E,4,17,1.4,2.9677,M,8.321,M,01,0004*65
$GPHPD,0,0.000,5.77,1.73,-13.83,31.5909880,120.7792321,2.968,13632041.180,24926637.487,2.968,0.000,0.000,0.000,0.000,0.000,0.000,0.000,17,18,4*52
$GPGGA,064810.20,3135.4592736,N,12046.7539299,E,4,17,1.4,2.9645,M,8.321,M,01,0004*65
$GPHPD,0,0.000,5.83,1.48,-13.80,31.5909879,120.7792322,2.965,13632041.246,24926637.529,2.965,0.000,0.000,0.000,0.000,0.000,0.000,0.000,17,18,4*5B
$GPGGA,064810.40,3135.4592746,N,12046.7539309,E,4,17,1.4,2.9636,M,8.321,M,01,0004*68
$GPHPD,0,0.000,5.69,1.85,-13.84,31.5909879,120.7792322,2.964,13632041.233,24926637.535,2.964,0.000,0.000,0.000,0.000,0.000,0.000,0.000,17,18,4*55
$GPGGA,064810.60,3135.4592671,N,12046.7539309,E,4,17,1.4,2.9711,M,8.321,M,00,0004*6A
$GPHPD,0,0.000,5.66,1.93,-13.76,31.5909878,120.7792322,2.971,13632041.340,24926637.578,2.971,0.000,0.000,0.000,0.000,0.000,0.000,0.000,17,18,4*5D
$GPGGA,064810.80,3135.4592572,N,12046.7539320,E,4,17,1.4,2.9667,M,8.321,M,00,0004*6F
$GPHPD,0,0.000,5.70,1.61,-13.72,31.5909876,120.7792322,2.967,13632041.483,24926637.649,2.967,0.000,0.000,0.000,0.000,0.000,0.000,0.000,17,18,4*54
$GPGGA,064811.00,3135.4592495,N,12046.7539333,E,4,17,1.4,2.9698,M,8.321,M,01,0004*6D
$GPHPD,0,0.000,5.63,1.51,-13.85,31.5909875,120.7792322,2.970,13632041.595,24926637.710,2.970,0.000,0.000,0.000,0.000,0.000,0.000,0.000,17,18,4*55
$GPGGA,064811.20,3135.4592429,N,12046.7539322,E,4,17,1.4,2.9662,M,8.321,M,01,0004*6D
$GPHPD,0,0.000,5.60,1.53,-13.93,31.5909874,120.7792322,2.966,13632041.687,24926637.735,2.966,0.000,0.000,0.000,0.000,0.000,0.000,0.000,17,18,4*55
$GPGGA,064811.40,3135.4592412,N,12046.7539328,E,4,17,1.4,2.9673,M,8.321,M,01,0004*69
$GPHPD,0,0.000,5.63,1.52,-13.97,31.5909874,120.7792322,2.967,13632041.712,24926637.752,2.967,0.000,0.000,0.000,0.000,0.000,0.000,0.000,17,18,4*5F
$GPGGA,064811.60,3135.4592425,N,12046.7539318,E,4,17,1.4,2.9665,M,8.321,M,00,0004*6A
$GPHPD,0,0.000,5.51,1.43,-14.00,31.5909874,120.7792322,2.967,13632041.692,24926637.732,2.967,0.000,0.000,0.000,0.000,0.000,0.000,0.000,17,18,4*58
$GPGGA,064811.80,3135.4592407,N,12046.7539320,E,4,17,1.4,2.9649,M,8.321,M,00,0004*61
$GPHPD,0,0.000,5.69,1.73,-14.02,31.5909873,120.7792322,2.965,13632041.718,24926637.745,2.965,0.000,0.000,0.000,0.000,0.000,0.000,0.000,17,18,4*56
$GPGGA,064812.00,3135.4592416,N,12046.7539323,E,4,17,1.4,2.9669,M,8.321,M,01,0004*6A
$GPHPD,0,0.000,5.69,1.63,-14.02,31.5909874,120.7792322,2.967,13632041.705,24926637.744,2.967,0.000,0.000,0.000,0.000,0.000,0.000,0.000,17,18,4*5D
$GPGGA,064812.20,3135.4592403,N,12046.7539325,E,4,17,1.4,2.9652,M,8.321,M,01,0004*62
$GPHPD,0,0.000,5.52,1.66,-14.03,31.5909873,120.7792322,2.965,13632041.724,24926637.754,2.965,0.000,0.000,0.000,0.000,0.000,0.000,0.000,17,18,4*54
$GPGGA,064812.40,3135.4592385,N,12046.7539324,E,4,17,1.4,2.9679,M,8.321,M,01,0004*65
$GPHPD,0,0.000,5.63,1.50,-14.04,31.5909873,120.7792322,2.968,13632041.750,24926637.763,2.968,0.000,0.000,0.000,0.000,0.000,0.000,0.000,17,18,4*53
$GPGGA,064812.60,3135.4592343,N,12046.7539317,E,4,17,1.4,2.9693,M,8.321,M,00,0004*68
$GPHPD,0,0.000,5.53,1.36,-13.96,31.5909872,120.7792322,2.969,13632041.808,24926637.779,2.969,0.000,0.000,0.000,0.000,0.000,0.000,0.000,17,18,4*54
$GPGGA,064812.80,3135.4592231,N,12046.7539299,E,4,17,1.4,2.9711,M,8.321,M,00,0004*6E
$GPHPD,0,0.000,5.50,1.60,-13.88,31.5909871,120.7792322,2.971,13632041.963,24926637.823,2.971,0.000,0.000,0.000,0.000,0.000,0.000,0.000,17,18,4*54
$GPGGA,064813.00,3135.4592059,N,12046.7539270,E,4,17,1.4,2.9752,M,8.321,M,01,0004*6A
$GPHPD,0,0.000,5.51,1.26,-13.85,31.5909868,120.7792321,2.975,13632042.202,24926637.888,2.975,0.000,0.000,0.000,0.000,0.000,0.000,0.000,17,18,4*5F
$GPGGA,064813.20,3135.4591800,N,12046.7539253,E,4,17,1.4,2.9673,M,8.321,M,01,0004*6C
$GPHPD,0,0.000,5.38,1.25,-13.80,31.5909863,120.7792321,2.967,13632042.567,24926638.018,2.967,0.000,0.000,0.000,0.000,0.000,0.000,0.000,17,18,4*57
$GPGGA,064813.40,3135.4591505,N,12046.7539233,E,4,17,1.4,2.9668,M,8.321,M,01,0004*6E
$GPHPD,0,0.000,5.25,1.46,-13.71,31.5909858,120.7792321,2.967,13632042.982,24926638.166,2.967,0.000,0.000,0.000,0.000,0.000,0.000,0.000,17,18,4*57
$GPGGA,064813.60,3135.4591071,N,12046.7539176,E,4,17,1.4,2.9681,M,8.321,M,00,0004*6E
$GPHPD,0,0.000,4.93,1.28,-13.59,31.5909851,120.7792320,2.968,13632043.588,24926638.349,2.968,0.000,0.000,0.000,0.000,0.000,0.000,0.000,17,18,4*59
$GPGGA,064813.80,3135.4590557,N,12046.7539127,E,4,17,1.4,2.9611,M,8.321,M,00,0004*6D
$GPHPD,0,0.000,4.72,1.26,-13.46,31.5909843,120.7792319,2.961,13632044.308,24926638.590,2.961,0.000,0.000,0.000,0.000,0.000,0.000,0.000,17,18,4*54
$GPGGA,064814.00,3135.4589929,N,12046.7539043,E,4,17,1.4,2.9619,M,8.321,M,01,0004*65
$GPHPD,0,0.000,4.29,1.33,-13.30,31.5909832,120.7792317,2.962,13632045.184,24926638.854,2.962,0.000,0.000,0.000,0.000,0.000,0.000,0.000,17,18,4*55
$GPGGA,064814.20,3135.4589225,N,12046.7538975,E,4,17,1.4,2.9536,M,8.321,M,01,0004*63
$GPHPD,0,0.000,3.68,1.10,-13.16,31.5909820,120.7792316,2.954,13632046.171,24926639.182,2.954,0.000,0.000,0.000,0.000,0.000,0.000,0.000,17,18,4*5A
$GPGGA,064814.40,3135.4588444,N,12046.7538955,E,4,17,1.4,2.9471,M,8.321,M,01,0004*65
$GPHPD,0,0.000,3.20,1.12,-13.16,31.5909807,120.7792316,2.947,13632047.277,24926639.612,2.947,0.000,0.000,0.000,0.000,0.000,0.000,0.000,17,18,4*5B
$GPGGA,064814.60,3135.4587773,N,12046.7538880,E,4,17,1.4,2.9529,M,8.321,M,00,0004*6B
$GPHPD,0,0.000,2.76,1.05,-13.18,31.5909796,120.7792315,2.953,13632048.216,24926639.913,2.953,0.000,0.000,0.000,0.000,0.000,0.000,0.000,17,18,4*53
$GPGGA,064814.80,3135.4587114,N,12046.7538851,E,4,17,1.4,2.9487,M,8.321,M,00,0004*6B
$GPHPD,0,0.000,2.21,1.15,-13.10,31.5909785,120.7792314,2.949,13632049.147,24926640.261,2.949,0.000,0.000,0.000,0.000,0.000,0.000,0.000,17,18,4*5D
$GPGGA,064815.00,3135.4586456,N,12046.7538781,E,4,17,1.4,2.9508,M,8.321,M,01,0004*65
$GPHPD,0,0.000,1.45,1.01,-13.06,31.5909774,120.7792313,2.951,13632050.068,24926640.560,2.951,0.000,0.000,0.000,0.000,0.000,0.000,0.000,17,18,4*55
$GPGGA,064815.20,3135.4585758,N,12046.7538757,E,4,17,1.4,2.9499,M,8.321,M,01,0004*6B
$GPHPD,0,0.000,0.84,0.74,-13.09,31.5909763,120.7792313,2.950,13632051.056,24926640.937,2.950,0.000,0.000,0.000,0.000,0.000,0.000,0.000,17,18,4*51
$GPGGA,064815.40,3135.4585071,N,12046.7538733,E,4,17,1.4,2.9376,M,8.321,M,01,0004*65
$GPHPD,0,0.000,0.07,0.72,-13.10,31.5909751,120.7792312,2.938,13632052.027,24926641.308,2.938,0.000,0.000,0.000,0.000,0.000,0.000,0.000,17,18,4*56
$GPGGA,064815.60,3135.4584414,N,12046.7538697,E,4,17,1.4,2.9418,M,8.321,M,00,0004*60
$GPHPD,0,0.000,359.22,1.01,-13.13,31.5909740,120.7792312,2.942,13632052.954,24926641.647,2.942,0.000,0.000,0.000,0.000,0.000,0.000,0.000,17,18,4*5B
$GPGGA,064815.80,3135.4583794,N,12046.7538684,E,4,17,1.4,2.9358,M,8.321,M,00,0004*63
$GPHPD,0,0.000,358.39,0.87,-13.19,31.5909730,120.7792311,2.936,13632053.833,24926641.993,2.936,0.000,0.000,0.000,0.000,0.000,0.000,0.000,17,18,4*56
$GPGGA,064816.00,3135.4583216,N,12046.7538680,E,4,17,1.4,2.9364,M,8.321,M,01,0004*6D
$GPHPD,0,0.000,357.65,0.84,-13.31,31.5909720,120.7792311,2.936,13632054.654,24926642.324,2.936,0.000,0.000,0.000,0.000,0.000,0.000,0.000,17,18,4*55
$GPGGA,064816.20,3135.4582748,N,12046.7538704,E,4,17,1.4,2.9283,M,8.321,M,01,0004*65
$GPHPD,0,0.000,357.00,0.91,-13.44,31.5909712,120.7792312,2.928,13632055.324,24926642.626,2.928,0.000,0.000,0.000,0.000,0.000,0.000,0.000,17,18,4*56
$GPGGA,064816.40,3135.4582410,N,12046.7538701,E,4,17,1.4,2.9332,M,8.321,M,01,0004*63
$GPHPD,0,0.000,356.43,1.16,-13.59,31.5909707,120.7792312,2.933,13632055.803,24926642.819,2.933,0.000,0.000,0.000,0.000,0.000,0.000,0.000,17,18,4*5A
$GPGGA,064816.60,3135.4582185,N,12046.7538726,E,4,17,1.4,2.9318,M,8.321,M,00,0004*64
$GPHPD,0,0.000,356.17,0.99,-13.74,31.5909703,120.7792312,2.932,13632056.128,24926642.980,2.932,0.000,0.000,0.000,0.000,0.000,0.000,0.000,17,18,4*54
$GPGGA,064816.80,3135.4582073,N,12046.7538740,E,4,17,1.4,2.9328,M,8.321,M,00,0004*61
$GPHPD,0,0.000,356.03,1.07,-13.84,31.5909701,120.7792312,2.933,13632056.290,24926643.062,2.933,0.000,0.000,0.000,0.000,0.000,0.000,0.000,17,18,4*5E
$GPGGA,064817.00,3135.4582050,N,12046.7538740,E,4,17,1.4,2.9293,M,8.321,M,01,0004*69
$GPHPD,0,0.000,355.85,1.07,-13.92,31.5909701,120.7792312,2.929,13632056.323,24926643.076,2.929,0.000,0.000,0.000,0.000,0.000,0.000,0.000,17,18,4*58
$GPGGA,064817.20,3135.4582050,N,12046.7538734,E,4,17,1.4,2.9300,M,8.321,M,01,0004*63
$GPHPD,0,0.000,355.96,1.18,-13.92,31.5909701,120.7792312,2.930,13632056.322,24926643.068,2.930,0.000,0.000,0.000,0.000,0.000,0.000,0.000,17,18,4*5A
$GPGGA,064817.40,3135.4582064,N,12046.7538747,E,4,17,1.4,2.9286,M,8.321,M,01,0004*69
$GPHPD,0,0.000,355.87,0.99,-13.90,31.5909701,120.7792312,2.929,13632056.305,24926643.076,2.929,0.000,0.000,0.000,0.000,0.000,0.000,0.000,17,18,4*5A
$GPGGA,064817.60,3135.4582081,N,12046.7538733,E,4,17,1.4,2.9359,M,8.321,M,00,0004*61
$GPHPD,0,0.000,355.81,1.13,-13.89,31.5909701,120.7792312,2.936,13632056.278,24926643.049,2.936,0.000,0.000,0.000,0.000,0.000,0.000,0.000,17,18,4*50
$GPGGA,064817.80,3135.4582070,N,12046.7538744,E,4,17,1.4,2.9277,M,8.321,M,00,0004*6C
$GPHPD,0,0.000,355.92,0.75,-13.89,31.5909701,120.7792312,2.928,13632056.295,24926643.069,2.928,0.000,0.000,0.000,0.000,0.000,0.000,0.000,17,18,4*52
$GPGGA,064818.00,3135.4582078,N,12046.7538755,E,4,17,1.4,2.9279,M,8.321,M,01,0004*6C
$GPHPD,0,0.000,355.75,1.10,-13.88,31.5909701,120.7792313,2.928,13632056.286,24926643.077,2.928,0.000,0.000,0.000,0.000,0.000,0.000,0.000,17,18,4*54
$GPGGA,064818.20,3135.4582084,N,12046.7538751,E,4,17,1.4,2.9293,M,8.321,M,01,0004*6D
$GPHPD,0,0.000,355.85,1.07,-13.87,31.5909701,120.7792313,2.929,13632056.277,24926643.069,2.929,0.000,0.000,0.000,0.000,0.000,0.000,0.000,17,18,4*53
$GPGGA,064818.40,3135.4582072,N,12046.7538732,E,4,17,1.4,2.9347,M,8.321,M,01,0004*6F
$GPHPD,0,0.000,355.72,1.05,-13.87,31.5909701,120.7792312,2.935,13632056.290,24926643.053,2.935,0.000,0.000,0.000,0.000,0.000,0.000,0.000,17,18,4*58
$GPGGA,064818.60,3135.4582077,N,12046.7538754,E,4,17,1.4,2.9214,M,8.321,M,00,0004*6E
$GPHPD,0,0.000,355.92,0.77,-13.85,31.5909701,120.7792313,2.921,13632056.287,24926643.077,2.921,0.000,0.000,0.000,0.000,0.000,0.000,0.000,17,18,4*51
$GPGGA,064818.80,3135.4582079,N,12046.7538768,E,4,17,1.4,2.9215,M,8.321,M,00,0004*60
$GPHPD,0,0.000,355.85,0.98,-13.85,31.5909701,120.7792313,2.922,13632056.287,24926643.092,2.922,0.000,0.000,0.000,0.000,0.000,0.000,0.000,17,18,4*5D
$GPGGA,064819.00,3135.4582081,N,12046.7538765,E,4,17,1.4,2.9264,M,8.321,M,01,0004*64
$GPHPD,0,0.000,355.74,1.14,-13.85,31.5909701,120.7792313,2.926,13632056.284,24926643.088,2.926,0.000,0.000,0.000,0.000,0.000,0.000,0.000,17,18,4*5E
$GPGGA,064819.20,3135.4582075,N,12046.7538746,E,4,17,1.4,2.9277,M,8.321,M,01,0004*6E
$GPHPD,0,0.000,355.71,0.71,-13.84,31.5909701,120.7792312,2.928,13632056.289,24926643.068,2.928,0.000,0.000,0.000,0.000,0.000,0.000,0.000,17,18,4*5A
$GPGGA,064819.40,3135.4582075,N,12046.7538762,E,4,17,1.4,2.9333,M,8.321,M,01,0004*6F
$GPHPD,0,0.000,355.96,0.67,-13.83,31.5909701,120.7792313,2.933,13632056.292,24926643.087,2.933,0.000,0.000,0.000,0.000,0.000,0.000,0.000,17,18,4*59
$GPGGA,064819.60,3135.4582049,N,12046.7538768,E,4,17,1.4,2.9346,M,8.321,M,00,0004*6B
$GPHPD,0,0.000,355.70,0.89,-13.81,31.5909701,120.7792313,2.935,13632056.330,24926643.110,2.935,0.000,0.000,0.000,0.000,0.000,0.000,0.000,17,18,4*55
$GPGGA,064819.80,3135.4582016,N,12046.7538743,E,4,17,1.4,2.9354,M,8.321,M,00,0004*65
$GPHPD,0,0.000,355.79,1.04,-13.81,31.5909700,120.7792312,2.935,13632056.372,24926643.099,2.935,0.000,0.000,0.000,0.000,0.000,0.000,0.000,17,18,4*5E
$GPGGA,064820.00,3135.4582016,N,12046.7538740,E,4,17,1.4,2.9362,M,8.321,M,01,0004*60
$GPHPD,0,0.000,355.82,0.64,-13.84,31.5909700,120.7792312,2.936,13632056.371,24926643.095,2.936,0.000,0.000,0.000,0.000,0.000,0.000,0.000,17,18,4*57
$GPGGA,064820.20,3135.4582022,N,12046.7538737,E,4,17,1.4,2.9380,M,8.321,M,01,0004*69
$GPHPD,0,0.000,355.73,0.95,-13.87,31.5909700,120.7792312,2.938,13632056.362,24926643.088,2.938,0.000,0.000,0.000,0.000,0.000,0.000,0.000,17,18,4*5A
$GPGGA,064820.40,3135.4582084,N,12046.7538717,E,4,17,1.4,2.9320,M,8.321,M,01,0004*6B
$GPHPD,0,0.000,355.84,0.90,-13.94,31.5909701,120.7792312,2.932,13632056.270,24926643.028,2.932,0.000,0.000,0.000,0.000,0.000,0.000,0.000,17,18,4*5C
$GPGGA,064820.60,3135.4582186,N,12046.7538708,E,4,17,1.4,2.9374,M,8.321,M,00,0004*64
$GPHPD,0,0.000,355.64,0.89,-14.03,31.5909703,120.7792312,2.937,13632056.123,24926642.958,2.937,0.000,0.000,0.000,0.000,0.000,0.000,0.000,17,18,4*5B
$GPGGA,064820.80,3135.4582350,N,12046.7538704,E,4,17,1.4,2.9351,M,8.321,M,00,0004*68
$GPHPD,0,0.000,355.57,0.98,-14.13,31.5909706,120.7792312,2.935,13632055.889,24926642.857,2.935,0.000,0.000,0.000,0.000,0.000,0.000,0.000,17,18,4*5B
$GPGGA,064821.00,3135.4582601,N,12046.7538680,E,4,17,1.4,2.9353,M,8.321,M,01,0004*6E
$GPHPD,0,0.000,355.42,1.00,-14.22,31.5909710,120.7792311,2.935,13632055.528,24926642.682,2.935,0.000,0.000,0.000,0.000,0.000,0.000,0.000,17,18,4*59
$GPGGA,064821.20,3135.4582937,N,12046.7538654,E,4,17,1.4,2.9361,M,8.321,M,01,0004*6E
$GPHPD,0,0.000,355.45,0.96,-14.31,31.5909716,120.7792311,2.936,13632055.045,24926642.455,2.936,0.000,0.000,0.000,0.000,0.000,0.000,0.000,17,18,4*52
$GPGGA,064821.40,3135.4583332,N,12046.7538608,E,4,17,1.4,2.9421,M,8.321,M,01,0004*6C
$GPHPD,0,0.000,355.10,1.00,-14.40,31.5909722,120.7792310,2.942,13632054.474,24926642.170,2.942,0.000,0.000,0.000,0.000,0.000,0.000,0.000,17,18,4*59
$GPGGA,064821.60,3135.4583799,N,12046.7538559,E,4,17,1.4,2.9411,M,8.321,M,00,0004*6E
$GPHPD,0,0.000,354.89,0.88,-14.44,31.5909730,120.7792309,2.941,13632053.800,24926641.839,2.941,0.000,0.000,0.000,0.000,0.000,0.000,0.000,17,18,4*59
$GPGGA,064821.80,3135.4584319,N,12046.7538516,E,4,17,1.4,2.9355,M,8.321,M,00,0004*67
$GPHPD,0,0.000,354.51,1.18,-14.48,31.5909739,120.7792309,2.936,13632053.053,24926641.484,2.936,0.000,0.000,0.000,0.000,0.000,0.000,0.000,17,18,4*55
$GPGGA,064822.00,3135.4584842,N,12046.7538482,E,4,17,1.4,2.9382,M,8.321,M,01,0004*6E
$GPHPD,0,0.000,354.27,1.32,-14.53,31.5909747,120.7792308,2.938,13632052.302,24926641.139,2.938,0.000,0.000,0.000,0.000,0.000,0.000,0.000,17,18,4*5B
$GPGGA,064822.20,3135.4585427,N,12046.7538394,E,4,17,1.4,2.9457,M,8.321,M,01,0004*6D
$GPHPD,0,0.000,354.12,1.11,-14.57,31.5909757,120.7792307,2.946,13632051.453,24926640.692,2.946,0.000,0.000,0.000,0.000,0.000,0.000,0.000,17,18,4*51
$GPGGA,064822.40,3135.4585991,N,12046.7538355,E,4,17,1.4,2.9430,M,8.321,M,01,0004*67
$GPHPD,0,0.000,354.19,1.11,-14.56,31.5909767,120.7792306,2.943,13632050.643,24926640.317,2.943,0.000,0.000,0.000,0.000,0.000,0.000,0.000,17,18,4*53
$GPGGA,064822.60,3135.4586501,N,12046.7538313,E,4,17,1.4,2.9503,M,8.321,M,00,0004*61
$GPHPD,0,0.000,354.13,1.16,-14.45,31.5909775,120.7792305,2.950,13632049.910,24926639.969,2.950,0.000,0.000,0.000,0.000,0.000,0.000,0.000,17,18,4*50
$GPGGA,064822.80,3135.4586909,N,12046.7538261,E,4,17,1.4,2.9520,M,8.321,M,00,0004*6E
$GPHPD,0,0.000,354.17,0.88,-14.32,31.5909782,120.7792304,2.952,13632049.320,24926639.669,2.952,0.000,0.000,0.000,0.000,0.000,0.000,0.000,17,18,4*5D
$GPGGA,064823.00,3135.4587217,N,12046.7538234,E,4,17,1.4,2.9550,M,8.321,M,01,0004*64
$GPHPD,0,0.000,354.21,1.00,-14.31,31.5909787,120.7792304,2.955,13632048.876,24926639.457,2.955,0.000,0.000,0.000,0.000,0.000,0.000,0.000,17,18,4*59
$GPGGA,064823.20,3135.4587574,N,12046.7538202,E,4,17,1.4,2.9467,M,8.321,M,01,0004*64
$GPHPD,0,0.000,354.42,0.93,-14.40,31.5909793,120.7792303,2.947,13632048.362,24926639.211,2.947,0.000,0.000,0.000,0.000,0.000,0.000,0.000,17,18,4*59
$GPGGA,064823.40,3135.4587957,N,12046.7538188,E,4,17,1.4,2.9523,M,8.321,M,00,0004*6E
$GPHPD,0,0.000,354.53,1.21,-14.54,31.5909799,120.7792303,2.952,13632047.815,24926638.971,2.952,0.000,0.000,0.000,0.000,0.000,0.000,0.000,17,18,4*56
$GPGGA,064823.60,3135.4588376,N,12046.7538145,E,4,17,1.4,2.9535,M,8.321,M,00,0004*6C
$GPHPD,0,0.000,354.74,1.27,-14.68,31.5909806,120.7792302,2.954,13632047.211,24926638.675,2.954,0.000,0.000,0.000,0.000,0.000,0.000,0.000,17,18,4*57
$GPGGA,064823.80,3135.4588854,N,12046.7538110,E,4,17,1.4,2.9540,M,8.321,M,00,0004*6B
$GPHPD,0,0.000,355.20,1.49,-14.76,31.5909814,120.7792302,2.954,13632046.524,24926638.355,2.954,0.000,0.000,0.000,0.000,0.000,0.000,0.000,17,18,4*54
$GPGGA,064824.00,3135.4589343,N,12046.7538073,E,4,17,1.4,2.9547,M,8.321,M,01,0004*6A
$GPHPD,0,0.000,355.43,1.36,-14.86,31.5909822,120.7792301,2.955,13632045.822,24926638.025,2.955,0.000,0.000,0.000,0.000,0.000,0.000,0.000,17,18,4*5C
$GPGGA,064824.20,3135.4589929,N,12046.7538046,E,4,17,1.4,2.9581,M,8.321,M,01,0004*62
$GPHPD,0,0.000,356.00,1.49,-14.99,31.5909832,120.7792301,2.958,13632044.984,24926637.652,2.958,0.000,0.000,0.000,0.000,0.000,0.000,0.000,17,18,4*5A
$GPGGA,064824.40,3135.4590526,N,12046.7538038,E,4,17,1.4,2.9513,M,8.321,M,01,0004*6D
$GPHPD,0,0.000,356.59,1.60,-15.09,31.5909842,120.7792301,2.951,13632044.133,24926637.294,2.951,0.000,0.000,0.000,0.000,0.000,0.000,0.000,17,18,4*58
$GPGGA,064824.60,3135.4591181,N,12046.7537996,E,4,17,1.4,2.9619,M,8.321,M,00,0004*6D
$GPHPD,0,0.000,357.33,1.87,-15.16,31.5909853,120.7792300,2.962,13632043.194,24926636.862,2.962,0.000,0.000,0.000,0.000,0.000,0.000,0.000,17,18,4*5B
$GPGGA,064824.80,3135.4591867,N,12046.7537995,E,4,17,1.4,2.9588,M,8.321,M,00,0004*6A
$GPHPD,0,0.000,357.92,1.62,-15.23,31.5909864,120.7792300,2.959,13632042.218,24926636.462,2.959,0.000,0.000,0.000,0.000,0.000,0.000,0.000,17,18,4*53
$GPGGA,064825.00,3135.4592597,N,12046.7538022,E,4,17,1.4,2.9586,M,8.321,M,01,0004*67
$GPHPD,0,0.000,358.77,1.72,-15.30,31.5909877,120.7792300,2.959,13632041.186,24926636.069,2.959,0.000,0.000,0.000,0.000,0.000,0.000,0.000,17,18,4*5E
$GPGGA,064825.20,3135.4593388,N,12046.7538073,E,4,17,1.4,2.9640,M,8.321,M,01,0004*61
$GPHPD,0,0.000,359.68,2.12,-15.37,31.5909890,120.7792301,2.964,13632040.072,24926635.670,2.964,0.000,0.000,0.000,0.000,0.000,0.000,0.000,17,18,4*5D
$GPGGA,064825.40,3135.4594163,N,12046.7538102,E,4,17,1.4,2.9667,M,8.321,M,01,0004*65
$GPHPD,0,0.000,0.54,1.99,-15.44,31.5909903,120.7792302,2.967,13632038.976,24926635.254,2.967,0.000,0.000,0.000,0.000,0.000,0.000,0.000,17,18,4*51
$GPGGA,064825.60,3135.4594982,N,12046.7538165,E,4,17,1.4,2.9764,M,8.321,M,00,0004*62
$GPHPD,0,0.000,1.60,2.07,-15.48,31.5909916,120.7792303,2.976,13632037.825,24926634.853,2.976,0.000,0.000,0.000,0.000,0.000,0.000,0.000,17,18,4*5E
$GPGGA,064825.80,3135.4595817,N,12046.7538276,E,4,17,1.4,2.9699,M,8.321,M,00,0004*62
$GPHPD,0,0.000,2.53,1.96,-15.53,31.5909930,120.7792305,2.970,13632036.660,24926634.501,2.970,0.000,0.000,0.000,0.000,0.000,0.000,0.000,17,18,4*5A
$GPGGA,064826.00,3135.4596655,N,12046.7538313,E,4,17,1.4,2.9737,M,8.321,M,01,0004*64
$GPHPD,0,0.000,3.59,2.14,-15.54,31.5909944,120.7792305,2.974,13632035.476,24926634.058,2.974,0.000,0.000,0.000,0.000,0.000,0.000,0.000,17,18,4*53
$GPGGA,064826.20,3135.4597471,N,12046.7538438,E,4,17,1.4,2.9795,M,8.321,M,01,0004*65
$GPHPD,0,0.000,4.63,2.35,-15.50,31.5909958,120.7792307,2.980,13632034.342,24926633.734,2.980,0.000,0.000,0.000,0.000,0.000,0.000,0.000,17,18,4*5E
$GPGGA,064826.40,3135.4598265,N,12046.7538527,E,4,17,1.4,2.9857,M,8.321,M,01,0004*61
$GPHPD,0,0.000,5.45,2.30,-15.44,31.5909971,120.7792309,2.986,13632033.231,24926633.379,2.986,0.000,0.000,0.000,0.000,0.000,0.000,0.000,17,18,4*51
$GPGGA,064826.60,3135.4599045,N,12046.7538678,E,4,17,1.4,2.9825,M,8.321,M,00,0004*6F
$GPHPD,0,0.000,6.01,2.07,-15.44,31.5909984,120.7792311,2.983,13632032.153,24926633.107,2.983,0.000,0.000,0.000,0.000,0.000,0.000,0.000,17,18,4*58
$GPGGA,064826.80,3135.4599834,N,12046.7538812,E,4,17,1.4,2.9948,M,8.321,M,00,0004*67
$GPHPD,0,0.000,6.85,2.21,-15.44,31.5909997,120.7792314,2.995,13632031.058,24926632.809,2.995,0.000,0.000,0.000,0.000,0.000,0.000,0.000,17,18,4*58
$GPGGA,064827.00,3135.4600618,N,12046.7538938,E,4,17,1.4,3.0032,M,8.321,M,01,0004*69
$GPHPD,0,0.000,7.46,2.28,-15.44,31.5910010,120.7792316,3.003,13632029.969,24926632.504,3.003,0.000,0.000,0.000,0.000,0.000,0.000,0.000,17,18,4*51
$GPGGA,064827.20,3135.4601432,N,12046.7539118,E,4,17,1.4,2.9978,M,8.321,M,01,0004*64
$GPHPD,0,0.000,8.06,1.97,-15.46,31.5910024,120.7792319,2.998,13632028.848,24926632.248,2.998,0.000,0.000,0.000,0.000,0.000,0.000,0.000,17,18,4*5B
$GPGGA,064827.40,3135.4602256,N,12046.7539301,E,4,17,1.4,3.0099,M,8.321,M,01,0004*61
$GPHPD,0,0.000,8.83,1.97,-15.45,31.5910038,120.7792322,3.010,13632027.714,24926631.989,3.010,0.000,0.000,0.000,0.000,0.000,0.000,0.000,17,18,4*5C
$GPGGA,064827.60,3135.4603137,N,12046.7539501,E,4,17,1.4,3.0058,M,8.321,M,00,0004*6C
$GPHPD,0,0.000,9.58,1.86,-15.45,31.5910052,120.7792325,3.006,13632026.502,24926631.717,3.006,0.000,0.000,0.000,0.000,0.000,0.000,0.000,17,18,4*5D
$GPGGA,064827.80,3135.4604007,N,12046.7539705,E,4,17,1.4,3.0159,M,8.321,M,00,0004*61
$GPHPD,0,0.000,10.55,2.09,-15.38,31.5910067,120.7792328,3.016,13632025.306,24926631.456,3.016,0.000,0.000,0.000,0.000,0.000,0.000,0.000,17,18,4*6A
$GPGGA,064828.00,3135.4604927,N,12046.7539928,E,4,17,1.4,3.0200,M,8.321,M,01,0004*62
$GPHPD,0,0.000,11.34,1.82,-15.26,31.5910082,120.7792332,3.020,13632024.043,24926631.190,3.020,0.000,0.000,0.000,0.000,0.000,0.000,0.000,17,18,4*6F
$GPGGA,064828.20,3135.4605888,N,12046.7540175,E,4,17,1.4,3.0319,M,8.321,M,01,0004*62
$GPHPD,0,0.000,12.29,1.90,-15.18,31.5910098,120.7792336,3.032,13632022.727,24926630.928,3.032,0.000,0.000,0.000,0.000,0.000,0.000,0.000,17,18,4*68
$GPGGA,064828.40,3135.4606877,N,12046.7540491,E,4,17,1.4,3.0422,M,8.321,M,01,0004*67
$GPHPD,0,0.000,13.48,1.57,-15.14,31.5910115,120.7792342,3.042,13632021.384,24926630.733,3.042,0.000,0.000,0.000,0.000,0.000,0.000,0.000,17,18,4*64
$GPGGA,064828.60,3135.4607876,N,12046.7540786,E,4,17,1.4,3.0498,M,8.321,M,00,0004*60
$GPHPD,0,0.000,14.34,1.42,-15.12,31.5910131,120.7792346,3.050,13632020.024,24926630.508,3.050,0.000,0.000,0.000,0.000,0.000,0.000,0.000,17,18,4*6A
$GPGGA,064828.80,3135.4608961,N,12046.7541148,E,4,17,1.4,3.0533,M,8.321,M,00,0004*63
$GPHPD,0,0.000,15.24,1.33,-15.14,31.5910149,120.7792352,3.053,13632018.554,24926630.312,3.053,0.000,0.000,0.000,0.000,0.000,0.000,0.000,17,18,4*64
$GPGGA,064829.00,3135.4610036,N,12046.7541533,E,4,17,1.4,3.0615,M,8.321,M,01,0004*66
$GPHPD,0,0.000,15.88,1.38,-15.12,31.5910167,120.7792359,3.062,13632017.104,24926630.151,3.062,0.000,0.000,0.000,0.000,0.000,0.000,0.000,17,18,4*63
$GPGGA,064829.20,3135.4611234,N,12046.7541968,E,4,17,1.4,3.0704,M,8.321,M,01,0004*66
$GPHPD,0,0.000,16.17,1.41,-15.05,31.5910187,120.7792366,3.070,13632015.488,24926629.978,3.070,0.000,0.000,0.000,0.000,0.000,0.000,0.000,17,18,4*64
$GPGGA,064829.40,3135.4612438,N,12046.7542427,E,4,17,1.4,3.0756,M,8.321,M,01,0004*6B
$GPHPD,0,0.000,16.72,1.32,-14.98,31.5910207,120.7792374,3.076,13632013.869,24926629.831,3.076,0.000,0.000,0.000,0.000,0.000,0.000,0.000,17,18,4*67
$GPGGA,064829.60,3135.4613661,N,12046.7542896,E,4,17,1.4,3.0790,M,8.321,M,00,0004*6B
$GPHPD,0,0.000,17.12,1.04,-14.90,31.5910228,120.7792382,3.079,13632012.225,24926629.684,3.079,0.000,0.000,0.000,0.000,0.000,0.000,0.000,17,18,4*6A
$GPGGA,064829.80,3135.4614919,N,12046.7543391,E,4,17,1.4,3.0832,M,8.321,M,00,0004*68
$GPHPD,0,0.000,17.58,1.32,-14.83,31.5910249,120.7792390,3.083,13632010.537,24926629.549,3.083,0.000,0.000,0.000,0.000,0.000,0.000,0.000,17,18,4*63
$GPGGA,064830.00,3135.4616179,N,12046.7543894,E,4,17,1.4,3.0906,M,8.321,M,01,0004*6D
$GPHPD,0,0.000,17.86,1.15,-14.76,31.5910270,120.7792398,3.091,13632008.847,24926629.422,3.091,0.000,0.000,0.000,0.000,0.000,0.000,0.000,17,18,4*62
$GPGGA,064830.20,3135.4617411,N,12046.7544371,E,4,17,1.4,3.0958,M,8.321,M,01,0004*69
$GPHPD,0,0.000,18.34,1.19,-14.70,31.5910290,120.7792406,3.096,13632007.192,24926629.280,3.096,0.000,0.000,0.000,0.000,0.000,0.000,0.000,17,18,4*60
$GPGGA,064830.40,3135.4618605,N,12046.7544825,E,4,17,1.4,3.0992,M,8.321,M,01,0004*6B
$GPHPD,0,0.000,18.68,1.13,-14.67,31.5910310,120.7792414,3.099,13632005.586,24926629.132,3.099,0.000,0.000,0.000,0.000,0.000,0.000,0.000,17,18,4*66
$GPGGA,064830.60,3135.4619772,N,12046.7545305,E,4,17,1.4,3.1018,M,8.321,M,01,0004*6B
$GPHPD,0,0.000,18.87,1.55,-14.63,31.5910330,120.7792422,3.102,13632004.023,24926629.032,3.102,0.000,0.000,0.000,0.000,0.000,0.000,0.000,17,18,4*6C
$GPGGA,064830.80,3135.4620941,N,12046.7545799,E,4,17,1.4,3.1060,M,8.321,M,00,0004*6E
$GPHPD,0,0.000,19.17,1.66,-14.49,31.5910349,120.7792430,3.106,13632002.461,24926628.947,3.106,0.000,0.000,0.000,0.000,0.000,0.000,0.000,17,18,4*6F
$GPGGA,064831.00,3135.4622066,N,12046.7546290,E,4,17,1.4,3.1197,M,8.321,M,01,0004*6E
$GPHPD,0,0.000,19.39,1.69,-14.29,31.5910368,120.7792438,3.120,13632000.961,24926628.884,3.120,0.000,0.000,0.000,0.000,0.000,0.000,0.000,17,18,4*60
$GPGGA,064831.20,3135.4623138,N,12046.7546750,E,4,17,1.4,3.1219,M,8.321,M,01,0004*6B
$GPHPD,0,0.000,19.58,0.97,-14.11,31.5910386,120.7792446,3.122,13631999.530,24926628.815,3.122,0.000,0.000,0.000,0.000,0.000,0.000,0.000,17,18,4*6F
$GPGGA,064831.40,3135.4624155,N,12046.7547230,E,4,17,1.4,3.1307,M,8.321,M,01,0004*6D
$GPHPD,0,0.000,19.84,1.06,-13.98,31.5910403,120.7792454,3.131,13631998.181,24926628.801,3.131,0.000,0.000,0.000,0.000,0.000,0.000,0.000,17,18,4*62
$GPGGA,064831.60,3135.4625189,N,12046.7547681,E,4,17,1.4,3.1394,M,8.321,M,01,0004*6B
$GPHPD,0,0.000,20.21,1.17,-13.97,31.5910420,120.7792461,3.139,13631996.802,24926628.743,3.139,0.000,0.000,0.000,0.000,0.000,0.000,0.000,17,18,4*6A
$GPGGA,064831.80,3135.4626186,N,12046.7548174,E,4,17,1.4,3.1362,M,8.321,M,00,0004*63
$GPHPD,0,0.000,20.63,1.13,-13.96,31.5910436,120.7792470,3.136,13631995.484,24926628.758,3.136,0.000,0.000,0.000,0.000,0.000,0.000,0.000,17,18,4*65
$GPGGA,064832.00,3135.4627201,N,12046.7548653,E,4,17,1.4,3.1381,M,8.321,M,01,0004*6B
$GPHPD,0,0.000,20.94,0.93,-13.89,31.5910453,120.7792478,3.138,13631994.137,24926628.744,3.138,0.000,0.000,0.000,0.000,0.000,0.000,0.000,17,18,4*60
$GPGGA,064832.20,3135.4628200,N,12046.7549196,E,4,17,1.4,3.1330,M,8.321,M,01,0004*62
$GPHPD,0,0.000,21.65,1.20,-13.78,31.5910470,120.7792487,3.133,13631992.826,24926628.817,3.133,0.000,0.000,0.000,0.000,0.000,0.000,0.000,17,18,4*6F
$GPGGA,064832.40,3135.4629172,N,12046.7549766,E,4,17,1.4,3.1410,M,8.321,M,01,0004*6F
$GPHPD,0,0.000,22.59,1.18,-13.68,31.5910486,120.7792496,3.141,13631991.559,24926628.939,3.141,0.000,0.000,0.000,0.000,0.000,0.000,0.000,17,18,4*6B
$GPGGA,064832.60,3135.4630119,N,12046.7550273,E,4,17,1.4,3.1512,M,8.321,M,00,0004*63
$GPHPD,0,0.000,23.45,0.76,-13.58,31.5910502,120.7792505,3.151,13631990.315,24926628.999,3.151,0.000,0.000,0.000,0.000,0.000,0.000,0.000,17,18,4*6E
$GPGGA,064832.80,3135.4631037,N,12046.7550838,E,4,17,1.4,3.1499,M,8.321,M,00,0004*66
$GPHPD,0,0.000,24.73,0.62,-13.46,31.5910517,120.7792514,3.150,13631989.124,24926629.146,3.150,0.000,0.000,0.000,0.000,0.000,0.000,0.000,17,18,4*61
$GPGGA,064833.00,3135.4631881,N,12046.7551385,E,4,17,1.5,3.1540,M,8.321,M,01,0004*63
$GPHPD,0,0.000,25.99,0.21,-13.34,31.5910531,120.7792523,3.154,13631988.035,24926629.314,3.154,0.000,0.000,0.000,0.000,0.000,0.000,0.000,17,18,4*63
$GPGGA,064833.20,3135.4632673,N,12046.7551915,E,4,17,1.5,3.1578,M,8.321,M,01,0004*69
$GPHPD,0,0.000,27.19,0.31,-13.24,31.5910545,120.7792532,3.158,13631987.015,24926629.492,3.158,0.000,0.000,0.000,0.000,0.000,0.000,0.000,17,18,4*6E
$GPGGA,064833.40,3135.4633409,N,12046.7552403,E,4,17,1.5,3.1638,M,8.321,M,01,0004*6F
$GPHPD,0,0.000,28.30,0.05,-13.17,31.5910557,120.7792540,3.164,13631986.067,24926629.652,3.164,0.000,0.000,0.000,0.000,0.000,0.000,0.000,17,18,4*61
$GPGGA,064833.60,3135.4634106,N,12046.7552890,E,4,17,1.5,3.1614,M,8.321,M,00,0004*69
$GPHPD,0,0.000,29.64,0.17,-13.12,31.5910568,120.7792548,3.161,13631985.175,24926629.834,3.161,0.000,0.000,0.000,0.000,0.000,0.000,0.000,17,18,4*6C
$GPGGA,064833.80,3135.4634755,N,12046.7553405,E,4,17,1.5,3.1624,M,8.321,M,00,0004*65
$GPHPD,0,0.000,30.59,-0.15,-13.08,31.5910579,120.7792557,3.162,13631984.356,24926630.077,3.162,0.000,0.000,0.000,0.000,0.000,0.000,0.000,17,18,4*45
$GPGGA,064834.00,3135.4635381,N,12046.7553880,E,4,17,1.5,3.1665,M,8.321,M,01,0004*63
$GPHPD,0,0.000,31.74,-0.23,-13.05,31.5910590,120.7792565,3.167,13631983.562,24926630.286,3.167,0.000,0.000,0.000,0.000,0.000,0.000,0.000,17,18,4*4F
$GPGGA,064834.20,3135.4635964,N,12046.7554396,E,4,17,1.5,3.1638,M,8.321,M,01,0004*63
$GPHPD,0,0.000,32.47,-0.23,-13.05,31.5910599,120.7792573,3.164,13631982.837,24926630.568,3.164,0.000,0.000,0.000,0.000,0.000,0.000,0.000,17,18,4*49
$GPGGA,064834.40,3135.4636564,N,12046.7554851,E,4,17,1.5,3.1651,M,8.321,M,01,0004*65
$GPHPD,0,0.000,33.37,-0.50,-13.07,31.5910609,120.7792581,3.165,13631982.075,24926630.768,3.165,0.000,0.000,0.000,0.000,0.000,0.000,0.000,17,18,4*42
$GPGGA,064834.60,3135.4637128,N,12046.7555352,E,4,17,1.5,3.1734,M,8.321,M,01,0004*61
$GPHPD,0,0.000,34.26,-0.33,-13.05,31.5910619,120.7792589,3.173,13631981.374,24926631.044,3.173,0.000,0.000,0.000,0.000,0.000,0.000,0.000,17,18,4*42
$GPGGA,064834.80,3135.4637703,N,12046.7555843,E,4,17,1.5,3.1756,M,8.321,M,01,0004*6F
$GPHPD,0,0.000,34.93,-0.35,-13.07,31.5910628,120.7792597,3.176,13631980.656,24926631.301,3.176,0.000,0.000,0.000,0.000,0.000,0.000,0.000,17,18,4*43
$GPGGA,064835.00,3135.4638285,N,12046.7556339,E,4,17,1.5,3.1727,M,8.321,M,02,0004*62
$GPHPD,0,0.000,35.68,-0.27,-13.11,31.5910638,120.7792606,3.173,13631979.928,24926631.560,3.173,0.000,0.000,0.000,0.000,0.000,0.000,0.000,17,18,4*49
$GPGGA,064835.20,3135.4638860,N,12046.7556860,E,4,17,1.5,3.1745,M,8.321,M,02,0004*62
$GPHPD,0,0.000,36.26,0.05,-13.12,31.5910648,120.7792614,3.175,13631979.216,24926631.854,3.175,0.000,0.000,0.000,0.000,0.000,0.000,0.000,17,18,4*66
$GPGGA,064835.40,3135.4639464,N,12046.7557446,E,4,17,1.5,3.1755,M,8.321,M,02,0004*65
$GPHPD,0,0.000,37.08,-0.34,-13.12,31.5910658,120.7792624,3.176,13631978.475,24926632.209,3.176,0.000,0.000,0.000,0.000,0.000,0.000,0.000,17,18,4*45
$GPGGA,064835.60,3135.4640071,N,12046.7558094,E,4,17,1.5,3.1731,M,8.321,M,02,0004*6F
$GPHPD,0,0.000,37.86,-0.16,-13.14,31.5910668,120.7792635,3.173,13631977.743,24926632.637,3.173,0.000,0.000,0.000,0.000,0.000,0.000,0.000,17,18,4*46
$GPGGA,064835.80,3135.4640709,N,12046.7558699,E,4,17,1.5,3.1824,M,8.321,M,00,0004*6B
$GPHPD,0,0.000,38.53,-0.15,-13.19,31.5910678,120.7792645,3.182,13631976.958,24926632.995,3.182,0.000,0.000,0.000,0.000,0.000,0.000,0.000,17,18,4*4B
$GPGGA,064836.00,3135.4641344,N,12046.7559391,E,4,17,1.5,3.1759,M,8.321,M,01,0004*64
$GPHPD,0,0.000,39.34,-0.56,-13.22,31.5910689,120.7792657,3.176,13631976.194,24926633.460,3.176,0.000,0.000,0.000,0.000,0.000,0.000,0.000,17,18,4*47
$GPGGA,064836.20,3135.4641984,N,12046.7560113,E,4,17,1.5,3.1727,M,8.321,M,01,0004*6B
$GPHPD,0,0.000,40.31,-0.31,-13.21,31.5910700,120.7792669,3.173,13631975.430,24926633.958,3.173,0.000,0.000,0.000,0.000,0.000,0.000,0.000,17,18,4*4D
$GPGGA,064836.40,3135.4642613,N,12046.7560852,E,4,17,1.5,3.1840,M,8.321,M,01,0004*6D
$GPHPD,0,0.000,41.28,0.22,-13.17,31.5910710,120.7792681,3.184,13631974.685,24926634.483,3.184,0.000,0.000,0.000,0.000,0.000,0.000,0.000,17,18,4*68
$GPGGA,064836.60,3135.4643215,N,12046.7561584,E,4,17,1.5,3.1742,M,8.321,M,00,0004*67
$GPHPD,0,0.000,42.63,0.17,-13.16,31.5910720,120.7792693,3.174,13631973.976,24926635.015,3.174,0.000,0.000,0.000,0.000,0.000,0.000,0.000,17,18,4*6D
$GPGGA,064836.80,3135.4643794,N,12046.7562309,E,4,17,1.5,3.1740,M,8.321,M,00,0004*67
$GPHPD,0,0.000,43.62,-0.05,-13.16,31.5910730,120.7792705,3.174,13631973.299,24926635.553,3.174,0.000,0.000,0.000,0.000,0.000,0.000,0.000,17,18,4*41
$GPGGA,064837.00,3135.4644331,N,12046.7563020,E,4,17,1.5,3.1807,M,8.321,M,01,0004*66
$GPHPD,0,0.000,44.84,-0.50,-13.17,31.5910739,120.7792717,3.181,13631972.679,24926636.097,3.181,0.000,0.000,0.000,0.000,0.000,0.000,0.000,17,18,4*40
$GPGGA,064837.20,3135.4644853,N,12046.7563690,E,4,17,1.5,3.1757,M,8.321,M,01,0004*6C
$GPHPD,0,0.000,46.05,-0.74,-13.10,31.5910748,120.7792728,3.176,13631972.072,24926636.602,3.176,0.000,0.000,0.000,0.000,0.000,0.000,0.000,17,18,4*47
$GPGGA,064837.40,3135.4645290,N,12046.7564331,E,4,17,1.5,3.1804,M,8.321,M,01,0004*6E
$GPHPD,0,0.000,46.99,-0.18,-13.03,31.5910755,120.7792739,3.180,13631971.580,24926637.120,3.180,0.000,0.000,0.000,0.000,0.000,0.000,0.000,17,18,4*4B
$GPGGA,064837.60,3135.4645724,N,12046.7564889,E,4,17,1.5,3.1812,M,8.321,M,01,0004*69
$GPHPD,0,0.000,47.42,-0.07,-12.98,31.5910762,120.7792748,3.181,13631971.075,24926637.540,3.181,0.000,0.000,0.000,0.000,0.000,0.000,0.000,17,18,4*4E
$GPGGA,064837.80,3135.4646099,N,12046.7565398,E,4,17,1.5,3.1847,M,8.321,M,00,0004*6E
$GPHPD,0,0.000,48.00,0.11,-12.96,31.5910768,120.7792757,3.185,13631970.644,24926637.936,3.185,0.000,0.000,0.000,0.000,0.000,0.000,0.000,17,18,4*6F
$GPGGA,064838.00,3135.4646478,N,12046.7565884,E,4,17,1.5,3.1745,M,8.321,M,01,0004*68
$GPHPD,0,0.000,48.11,0.17,-12.94,31.5910775,120.7792765,3.175,13631970.203,24926638.301,3.175,0.000,0.000,0.000,0.000,0.000,0.000,0.000,17,18,4*60
$GPGGA,064838.20,3135.4646789,N,12046.7566336,E,4,17,1.5,3.1721,M,8.321,M,01,0004*64
$GPHPD,0,0.000,48.36,0.75,-12.92,31.5910780,120.7792772,3.172,13631969.852,24926638.665,3.172,0.000,0.000,0.000,0.000,0.000,0.000,0.000,17,18,4*6A
$GPGGA,064838.40,3135.4647121,N,12046.7566773,E,4,17,1.5,3.1752,M,8.321,M,01,0004*66
$GPHPD,0,0.000,48.45,0.50,-12.94,31.5910785,120.7792780,3.175,13631969.468,24926638.999,3.175,0.000,0.000,0.000,0.000,0.000,0.000,0.000,17,18,4*6E
$GPGGA,064838.60,3135.4647422,N,12046.7567216,E,4,17,1.4,3.1770,M,8.321,M,00,0004*65
$GPHPD,0,0.000,48.80,0.60,-12.99,31.5910790,120.7792787,3.177,13631969.130,24926639.358,3.177,0.000,0.000,0.000,0.000,0.000,0.000,0.000,17,18,4*64
$GPGGA,064838.80,3135.4647750,N,12046.7567672,E,4,17,1.4,3.1922,M,8.321,M,00,0004*62
$GPHPD,0,0.000,48.91,0.59,-13.04,31.5910796,120.7792795,3.192,13631968.755,24926639.717,3.192,0.000,0.000,0.000,0.000,0.000,0.000,0.000,17,18,4*65
$GPGGA,064839.00,3135.4648099,N,12046.7568197,E,4,17,1.4,3.1820,M,8.321,M,01,0004*67
$GPHPD,0,0.000,49.00,0.39,-13.14,31.5910802,120.7792803,3.182,13631968.365,24926640.147,3.182,0.000,0.000,0.000,0.000,0.000,0.000,0.000,17,18,4*63
$GPGGA,064839.20,3135.4648492,N,12046.7568752,E,4,17,1.4,3.1780,M,8.321,M,01,0004*60
$GPHPD,0,0.000,48.99,0.30,-13.23,31.5910808,120.7792813,3.178,13631967.918,24926640.588,3.178,0.000,0.000,0.000,0.000,0.000,0.000,0.000,17,18,4*6C
$GPGGA,064839.40,3135.4648900,N,12046.7569347,E,4,17,1.4,3.1717,M,8.321,M,01,0004*6F
$GPHPD,0,0.000,49.08,-0.13,-13.28,31.5910815,120.7792822,3.172,13631967.458,24926641.068,3.172,0.000,0.000,0.000,0.000,0.000,0.000,0.000,17,18,4*4F
$GPGGA,064839.60,3135.4649381,N,12046.7569959,E,4,17,1.4,3.1783,M,8.321,M,01,0004*67
$GPHPD,0,0.000,49.34,0.02,-13.35,31.5910823,120.7792833,3.178,13631966.897,24926641.526,3.178,0.000,0.000,0.000,0.000,0.000,0.000,0.000,17,18,4*65
$GPGGA,064839.80,3135.4649859,N,12046.7570698,E,4,17,1.4,3.1685,M,8.321,M,00,0004*6B
$GPHPD,0,0.000,49.65,0.29,-13.46,31.5910831,120.7792845,3.169,13631966.366,24926642.139,3.169,0.000,0.000,0.000,0.000,0.000,0.000,0.000,17,18,4*62
$GPGGA,064840.00,3135.4650396,N,12046.7571451,E,4,17,1.5,3.1764,M,8.321,M,01,0004*65
$GPHPD,0,0.000,49.63,0.38,-13.56,31.5910840,120.7792858,3.176,13631965.755,24926642.734,3.176,0.000,0.000,0.000,0.000,0.000,0.000,0.000,17,18,4*63
$GPGGA,064840.20,3135.4650933,N,12046.7572176,E,4,17,1.5,3.1908,M,8.321,M,01,0004*65
$GPHPD,0,0.000,50.01,-0.07,-13.63,31.5910849,120.7792870,3.191,13631965.137,24926643.296,3.191,0.000,0.000,0.000,0.000,0.000,0.000,0.000,17,18,4*45
$GPGGA,064840.40,3135.4651530,N,12046.7573061,E,4,17,1.5,3.1938,M,8.321,M,01,0004*68
$GPHPD,0,0.000,50.13,0.81,-13.70,31.5910859,120.7792884,3.194,13631964.467,24926644.015,3.194,0.000,0.000,0.000,0.000,0.000,0.000,0.000,17,18,4*62
$GPGGA,064840.60,3135.4652113,N,12046.7574021,E,4,17,1.6,3.1801,M,8.321,M,00,0004*66
$GPHPD,0,0.000,50.31,0.16,-13.73,31.5910869,120.7792900,3.180,13631963.831,24926644.834,3.180,0.000,0.000,0.000,0.000,0.000,0.000,0.000,17,18,4*62
$GPGGA,064840.80,3135.4652709,N,12046.7575224,E,4,17,1.5,3.1434,M,8.321,M,00,0004*6A
$GPHPD,0,0.000,51.09,0.39,-13.74,31.5910878,120.7792920,3.143,13631963.226,24926645.938,3.143,0.000,0.000,0.000,0.000,0.000,0.000,0.000,17,18,4*60
$GPGGA,064841.00,3135.4653244,N,12046.7576056,E,4,17,1.5,3.1436,M,8.321,M,01,0004*69
$GPHPD,0,0.000,51.36,-0.38,-13.74,31.5910887,120.7792934,3.144,13631962.633,24926646.629,3.144,0.000,0.000,0.000,0.000,0.000,0.000,0.000,17,17,4*47
$GPGGA,064841.20,3135.4653787,N,12046.7576985,E,4,17,1.6,3.1387,M,8.321,M,01,0004*68
$GPHPD,0,0.000,51.83,-0.47,-13.69,31.5910896,120.7792950,3.139,13631962.048,24926647.434,3.139,0.000,0.000,0.000,0.000,0.000,0.000,0.000,17,17,4*4A
$GPGGA,064841.40,3135.4654340,N,12046.7577878,E,4,17,1.6,3.1346,M,8.321,M,01,0004*69
$GPHPD,0,0.000,52.05,-0.61,-13.67,31.5910906,120.7792965,3.135,13631961.442,24926648.189,3.135,0.000,0.000,0.000,0.000,0.000,0.000,0.000,17,17,4*42
$GPGGA,064841.60,3135.4654881,N,12046.7578729,E,4,17,1.6,3.1306,M,8.321,M,00,0004*6C
$GPHPD,0,0.000,52.57,-1.11,-13.64,31.5910915,120.7792979,3.131,13631960.844,24926648.900,3.131,0.000,0.000,0.000,0.000,0.000,0.000,0.000,17,17,4*4D
$GPGGA,064841.80,3135.4655433,N,12046.7579589,E,4,16,1.6,3.1268,M,8.321,M,00,0004*67
$GPHPD,0,0.000,53.15,0.02,-13.55,31.5910924,120.7792993,3.127,13631960.233,24926649.616,3.127,0.000,0.000,0.000,0.000,0.000,0.000,0.000,16,17,4*62
$GPGGA,064842.00,3135.4655953,N,12046.7580439,E,4,16,1.6,3.1447,M,8.321,M,01,0004*61
$GPHPD,0,0.000,53.38,0.58,-13.52,31.5910933,120.7793007,3.145,13631959.664,24926650.338,3.145,0.000,0.000,0.000,0.000,0.000,0.000,0.000,16,17,4*6B
$GPGGA,064842.20,3135.4656485,N,12046.7581258,E,4,16,1.6,3.1332,M,8.321,M,01,0004*63
$GPHPD,0,0.000,53.35,-0.76,-13.48,31.5910941,120.7793021,3.133,13631959.073,24926651.016,3.133,0.000,0.000,0.000,0.000,0.000,0.000,0.000,16,17,4*43
$GPGGA,064842.40,3135.4657016,N,12046.7582120,E,4,16,1.6,3.1412,M,8.321,M,01,0004*60
$GPHPD,0,0.000,53.28,-0.37,-13.45,31.5910950,120.7793035,3.141,13631958.492,24926651.746,3.141,0.000,0.000,0.000,0.000,0.000,0.000,0.000,16,17,4*4A
$GPGGA,064842.60,3135.4657592,N,12046.7582974,E,4,16,1.4,3.1454,M,8.321,M,00,0004*63
$GPHPD,0,0.000,53.46,-0.81,-13.43,31.5910960,120.7793050,3.145,13631957.845,24926652.441,3.145,0.000,0.000,0.000,0.000,0.000,0.000,0.000,16,17,4*47
$GPGGA,064842.80,3135.4658114,N,12046.7583844,E,4,16,1.4,3.1528,M,8.321,M,00,0004*61
$GPHPD,0,0.000,53.42,-0.66,-13.42,31.5910969,120.7793064,3.153,13631957.278,24926653.186,3.153,0.000,0.000,0.000,0.000,0.000,0.000,0.000,16,17,4*4E
$GPGGA,064843.00,3135.4658663,N,12046.7584855,E,4,16,1.4,3.1460,M,8.321,M,01,0004*64
$GPHPD,0,0.000,53.45,-0.75,-13.41,31.5910978,120.7793081,3.146,13631956.701,24926654.086,3.146,0.000,0.000,0.000,0.000,0.000,0.000,0.000,16,17,4*4F
$GPGGA,064843.20,3135.4659266,N,12046.7585831,E,4,16,1.4,3.1355,M,8.321,M,01,0004*64
$GPHPD,0,0.000,53.84,-0.45,-13.41,31.5910988,120.7793097,3.136,13631956.040,24926654.912,3.136,0.000,0.000,0.000,0.000,0.000,0.000,0.000,16,17,4*4F
$GPGGA,064843.40,3135.4659794,N,12046.7586835,E,4,17,1.4,3.1427,M,8.321,M,01,0004*6E
$GPHPD,0,0.000,53.90,0.09,-13.42,31.5910997,120.7793114,3.143,13631955.492,24926655.815,3.143,0.000,0.000,0.000,0.000,0.000,0.000,0.000,17,17,4*66
$GPGGA,064843.60,3135.4660388,N,12046.7587843,E,4,17,1.4,3.1479,M,8.321,M,00,0004*65
$GPHPD,0,0.000,53.96,0.02,-13.41,31.5911006,120.7793131,3.148,13631954.850,24926656.685,3.148,0.000,0.000,0.000,0.000,0.000,0.000,0.000,17,17,4*68
$GPGGA,064843.80,3135.4661008,N,12046.7588858,E,4,17,1.4,3.1443,M,8.321,M,00,0004*6D
$GPHPD,0,0.000,54.12,-0.40,-13.39,31.5911017,120.7793148,3.144,13631954.173,24926657.548,3.144,0.000,0.000,0.000,0.000,0.000,0.000,0.000,17,17,4*42
$GPGGA,064844.00,3135.4661635,N,12046.7589915,E,4,17,1.4,3.1306,M,8.321,M,01,0004*64
$GPHPD,0,0.000,54.61,-0.56,-13.38,31.5911027,120.7793165,3.131,13631953.495,24926658.458,3.131,0.000,0.000,0.000,0.000,0.000,0.000,0.000,17,17,4*49
$GPGGA,064844.20,3135.4662279,N,12046.7590995,E,4,17,1.4,3.1348,M,8.321,M,01,0004*63
$GPHPD,0,0.000,55.13,-0.03,-13.38,31.5911038,120.7793183,3.135,13631952.797,24926659.385,3.135,0.000,0.000,0.000,0.000,0.000,0.000,0.000,17,17,4*4D
