35.5354840,N,12046.8933220,E,4,17,1.4,2.7330,M,8.329,M,01,0004*6D
$GPHPD,0,0.000,56.49,-0.55,-11.71,31.5922581,120.7815554,2.733,13631238.432,24927874.813,2.733,0.000,0.000,0.000,0.000,0.000,0.000,0.000,17,17,4*4A
$GPGGA,080433.60,3135.5354219,N,12046.8932177,E,4,17,1.4,2.7425,M,8.329,M,00,0004*6B
$GPHPD,0,0.000,55.44,0.08,-11.82,31.5922570,120.7815536,2.743,13631239.105,24927873.917,2.743,0.000,0.000,0.000,0.000,0.000,0.000,0.000,17,17,4*65
$GPGGA,080433.80,3135.5353658,N,12046.8931159,E,4,17,1.4,2.7306,M,8.329,M,00,0004*6A
$GPHPD,0,0.000,54.34,-0.15,-11.89,31.5922561,120.7815519,2.731,13631239.698,24927873.016,2.731,0.000,0.000,0.000,0.000,0.000,0.000,0.000,17,17,4*4F
$GPGGA,080434.00,3135.5353041,N,12046.8930176,E,4,17,1.4,2.7439,M,8.329,M,01,0004*6D
$GPHPD,0,0.000,53.71,0.85,-11.94,31.5922551,120.7815503,2.744,13631240.377,24927872.190,2.744,0.000,0.000,0.000,0.000,0.000,0.000,0.000,17,16,4*6C
$GPGGA,080434.20,3135.5352467,N,12046.8929270,E,4,17,1.4,2.7348,M,8.329,M,01,0004*62
$GPHPD,0,0.000,52.49,0.25,-11.99,31.5922541,120.7815488,2.735,13631241.010,24927871.431,2.735,0.000,0.000,0.000,0.000,0.000,0.000,0.000,17,16,4*6C
$GPGGA,080434.40,3135.5351840,N,12046.8928318,E,4,17,1.4,2.7402,M,8.329,M,01,0004*69
$GPHPD,0,0.000,51.56,0.08,-12.05,31.5922531,120.7815472,2.740,13631241.710,24927870.648,2.740,0.000,0.000,0.000,0.000,0.000,0.000,0.000,17,16,4*60
$GPGGA,080434.60,3135.5351212,N,12046.8927426,E,4,17,1.4,2.7493,M,8.329,M,00,0004*6A
$GPHPD,0,0.000,50.77,0.08,-12.14,31.5922520,120.7815457,2.749,13631242.423,24927869.938,2.749,0.000,0.000,0.000,0.000,0.000,0.000,0.000,17,16,4*65
$GPGGA,080434.80,3135.5350598,N,12046.8926525,E,4,17,1.4,2.7391,M,8.329,M,00,0004*66
$GPHPD,0,0.000,50.05,-0.84,-12.20,31.5922510,120.7815442,2.739,13631243.115,24927869.209,2.739,0.000,0.000,0.000,0.000,0.000,0.000,0.000,17,16,4*41
$GPGGA,080435.00,3135.5350025,N,12046.8925696,E,4,17,1.4,2.7356,M,8.329,M,01,0004*6E
$GPHPD,0,0.000,49.64,0.21,-12.22,31.5922500,120.7815428,2.736,13631243.763,24927868.543,2.736,0.000,0.000,0.000,0.000,0.000,0.000,0.000,17,16,4*6C
$GPGGA,080435.20,3135.5349388,N,12046.8924774,E,4,17,1.4,2.7484,M,8.329,M,01,0004*64
$GPHPD,0,0.000,49.11,-0.43,-12.19,31.5922490,120.7815413,2.748,13631244.483,24927867.802,2.748,0.000,0.000,0.000,0.000,0.000,0.000,0.000,17,16,4*42
$GPGGA,080435.40,3135.5348789,N,12046.8924010,E,4,17,1.5,2.7431,M,8.329,M,01,0004*6C
$GPHPD,0,0.000,48.57,-0.23,-12.18,31.5922480,120.7815400,2.743,13631245.180,24927867.230,2.743,0.000,0.000,0.000,0.000,0.000,0.000,0.000,17,16,4*49
$GPGGA,080435.60,3135.5348153,N,12046.8923135,E,4,17,1.5,2.7362,M,8.329,M,00,0004*6E
$GPHPD,0,0.000,48.15,0.38,-12.18,31.5922469,120.7815386,2.736,13631245.908,24927866.545,2.736,0.000,0.000,0.000,0.000,0.000,0.000,0.000,17,16,4*6A
$GPGGA,080435.80,3135.5347512,N,12046.8922294,E,4,17,1.5,2.7425,M,8.329,M,00,0004*63
$GPHPD,0,0.000,47.58,0.00,-12.14,31.5922459,120.7815372,2.743,13631246.650,24927865.904,2.743,0.000,0.000,0.000,0.000,0.000,0.000,0.000,17,16,4*68
$GPGGA,080436.00,3135.5346896,N,12046.8921405,E,4,17,1.5,2.7223,M,8.329,M,01,0004*64
$GPHPD,0,0.000,47.23,0.15,-12.08,31.5922448,120.7815357,2.722,13631247.347,24927865.191,2.722,0.000,0.000,0.000,0.000,0.000,0.000,0.000,17,16,4*6C
$GPGGA,080436.20,3135.5346224,N,12046.8920511,E,4,17,1.5,2.7273,M,8.329,M,01,0004*65
$GPHPD,0,0.000,47.52,0.04,-12.06,31.5922437,120.7815342,2.727,13631248.123,24927864.504,2.727,0.000,0.000,0.000,0.000,0.000,0.000,0.000,17,16,4*6E
$GPGGA,080436.40,3135.5345524,N,12046.8919570,E,4,17,1.5,2.7119,M,8.329,M,01,0004*65
$GPHPD,0,0.000,47.65,0.14,-12.11,31.5922425,120.7815326,2.712,13631248.928,24927863.777,2.712,0.000,0.000,0.000,0.000,0.000,0.000,0.000,17,16,4*6E
$GPGGA,080436.60,3135.5344796,N,12046.8918603,E,4,16,1.5,2.7158,M,8.329,M,00,0004*6E
$GPHPD,0,0.000,48.10,0.68,-12.21,31.5922413,120.7815310,2.716,13631249.769,24927863.034,2.716,0.000,0.000,0.000,0.000,0.000,0.000,0.000,16,15,4*63
$GPGGA,080436.80,3135.5344086,N,12046.8917691,E,4,16,1.5,2.6918,M,8.329,M,00,0004*6F
$GPHPD,0,0.000,48.82,0.60,-12.32,31.5922401,120.7815295,2.692,13631250.594,24927862.348,2.692,0.000,0.000,0.000,0.000,0.000,0.000,0.000,16,15,4*6C
$GPGGA,080437.00,3135.5343332,N,12046.8916786,E,4,16,1.5,2.7196,M,8.329,M,01,0004*65
$GPHPD,0,0.000,49.46,1.96,-12.49,31.5922389,120.7815280,2.720,13631251.484,24927861.696,2.720,0.000,0.000,0.000,0.000,0.000,0.000,0.000,16,15,4*66
$GPGGA,080437.20,3135.5342685,N,12046.8915956,E,4,16,1.5,2.7407,M,8.329,M,01,0004*62
$GPHPD,0,0.000,49.53,0.94,-12.66,31.5922378,120.7815266,2.741,13631252.237,24927861.072,2.741,0.000,0.000,0.000,0.000,0.000,0.000,0.000,16,15,4*6B
$GPGGA,080437.40,3135.5342160,N,12046.8915210,E,4,16,1.6,2.7366,M,8.329,M,01,0004*62
$GPHPD,0,0.000,49.83,-0.31,-12.81,31.5922369,120.7815254,2.737,13631252.833,24927860.478,2.737,0.000,0.000,0.000,0.000,0.000,0.000,0.000,16,15,4*4D
$GPGGA,080437.60,3135.5341704,N,12046.8914487,E,4,16,1.5,2.7384,M,8.329,M,00,0004*60
$GPHPD,0,0.000,50.82,-0.19,-12.85,31.5922362,120.7815241,2.738,13631253.336,24927859.871,2.738,0.000,0.000,0.000,0.000,0.000,0.000,0.000,16,15,4*45
$GPGGA,080437.80,3135.5341259,N,12046.8913909,E,4,15,1.7,2.7176,M,8.329,M,00,0004*61
$GPHPD,0,0.000,51.72,-0.88,-12.87,31.5922354,120.7815232,2.718,13631253.852,24927859.433,2.718,0.000,0.000,0.000,0.000,0.000,0.000,0.000,15,15,4*40
$GPGGA,080438.00,3135.5340803,N,12046.8913236,E,4,15,1.5,2.7294,M,8.329,M,01,0004*69
$GPHPD,0,0.000,52.56,-0.92,-12.89,31.5922347,120.7815221,2.729,13631254.365,24927858.887,2.729,0.000,0.000,0.000,0.000,0.000,0.000,0.000,15,14,4*4B
$GPGGA,080438.20,3135.5340454,N,12046.8912613,E,4,15,1.5,2.7097,M,8.329,M,01,0004*66
$GPHPD,0,0.000,53.14,-0.72,-12.92,31.5922341,120.7815210,2.710,13631254.736,24927858.339,2.710,0.000,0.000,0.000,0.000,0.000,0.000,0.000,15,14,4*40
$GPGGA,080438.40,3135.5340034,N,12046.8912007,E,4,16,1.6,2.7288,M,8.329,M,01,0004*6D
$GPHPD,0,0.000,53.90,-0.18,-12.97,31.5922334,120.7815200,2.729,13631255.211,24927857.853,2.729,0.000,0.000,0.000,0.000,0.000,0.000,0.000,16,14,4*4C
$GPGGA,080438.60,3135.5339692,N,12046.8911464,E,4,16,1.6,2.7146,M,8.329,M,00,0004*69
$GPHPD,0,0.000,54.25,-1.34,-13.00,31.5922328,120.7815191,2.715,13631255.588,24927857.397,2.715,0.000,0.000,0.000,0.000,0.000,0.000,0.000,16,15,4*46
$GPGGA,080438.80,3135.5339369,N,12046.8910903,E,4,16,1.6,2.7225,M,8.329,M,00,0004*6D
$GPHPD,0,0.000,54.82,-0.66,-13.02,31.5922323,120.7815182,2.723,13631255.934,24927856.909,2.723,0.000,0.000,0.000,0.000,0.000,0.000,0.000,16,15,4*41
$GPGGA,080439.00,3135.5339072,N,12046.8910405,E,4,16,1.6,2.7225,M,8.329,M,01,0004*67
$GPHPD,0,0.000,55.12,-0.98,-13.05,31.5922318,120.7815173,2.723,13631256.256,24927856.481,2.723,0.000,0.000,0.000,0.000,0.000,0.000,0.000,16,15,4*48
$GPGGA,080439.20,3135.5338761,N,12046.8909937,E,4,16,1.6,2.7299,M,8.329,M,01,0004*62
$GPHPD,0,0.000,55.51,-1.62,-13.09,31.5922313,120.7815166,2.730,13631256.604,24927856.098,2.730,0.000,0.000,0.000,0.000,0.000,0.000,0.000,16,15,4*47
$GPGGA,080439.40,3135.5338470,N,12046.8909518,E,4,16,1.6,2.7374,M,8.329,M,01,0004*64
$GPHPD,0,0.000,55.97,-1.68,-13.17,31.5922308,120.7815159,2.737,13631256.933,24927855.762,2.737,0.000,0.000,0.000,0.000,0.000,0.000,0.000,16,16,4*47
$GPGGA,080439.60,3135.5338297,N,12046.8909134,E,4,16,1.6,2.7381,M,8.329,M,00,0004*68
$GPHPD,0,0.000,55.62,-1.99,-13.25,31.5922305,120.7815152,2.738,13631257.102,24927855.400,2.738,0.000,0.000,0.000,0.000,0.000,0.000,0.000,16,16,4*48
$GPGGA,080439.80,3135.5338133,N,12046.8908803,E,4,16,1.6,2.7278,M,8.329,M,00,0004*60
$GPHPD,0,0.000,55.98,-2.94,-13.36,31.5922302,120.7815147,2.728,13631257.268,24927855.096,2.728,0.000,0.000,0.000,0.000,0.000,0.000,0.000,16,16,4*46
$GPGGA,080440.00,3135.5338049,N,12046.8908575,E,4,16,1.6,2.7226,M,8.329,M,01,0004*6C
$GPHPD,0,0.000,57.59,-0.77,-13.47,31.5922301,120.7815143,2.723,13631257.342,24927854.870,2.723,0.000,0.000,0.000,0.000,0.000,0.000,0.000,16,16,4*4F
$GPGGA,080440.20,3135.5337979,N,12046.8908451,E,4,16,1.6,2.7184,M,8.329,M,01,0004*67
$GPHPD,0,0.000,58.02,-0.34,-13.55,31.5922300,120.7815141,2.718,13631257.416,24927854.761,2.718,0.000,0.000,0.000,0.000,0.000,0.000,0.000,16,16,4*40
$GPGGA,080440.40,3135.5337961,N,12046.8908414,E,4,16,1.6,2.7216,M,8.329,M,01,0004*61
$GPHPD,0,0.000,57.92,-0.07,-13.60,31.5922299,120.7815140,2.722,13631257.435,24927854.727,2.722,0.000,0.000,0.000,0.000,0.000,0.000,0.000,16,16,4*43
$GPGGA,080440.60,3135.5337946,N,12046.8908411,E,4,16,1.5,2.7231,M,8.329,M,00,0004*64
$GPHPD,0,0.000,58.26,-0.02,-13.62,31.5922299,120.7815140,2.723,13631257.455,24927854.732,2.723,0.000,0.000,0.000,0.000,0.000,0.000,0.000,16,16,4*46
$GPGGA,080440.80,3135.5337947,N,12046.8908401,E,4,16,1.5,2.7163,M,8.329,M,00,0004*6E
$GPHPD,0,0.000,57.81,-0.25,-13.57,31.5922299,120.7815140,2.716,13631257.452,24927854.720,2.716,0.000,0.000,0.000,0.000,0.000,0.000,0.000,16,16,4*43
$GPGGA,080441.00,3135.5337951,N,12046.8908417,E,4,16,1.5,2.7172,M,8.329,M,01,0004*66
$GPHPD,0,0.000,57.96,0.10,-13.56,31.5922299,120.7815140,2.717,13631257.449,24927854.737,2.717,0.000,0.000,0.000,0.000,0.000,0.000,0.000,16,16,4*63
$GPGGA,080441.20,3135.5337950,N,12046.8908407,E,4,16,1.5,2.7151,M,8.329,M,01,0004*65
$GPHPD,0,0.000,58.06,0.03,-13.53,31.5922299,120.7815140,2.715,13631257.449,24927854.725,2.715,0.000,0.000,0.000,0.000,0.000,0.000,0.000,16,16,4*61
$GPGGA,080441.40,3135.5337936,N,12046.8908432,E,4,16,1.5,2.7199,M,8.329,M,01,0004*61
$GPHPD,0,0.000,58.03,0.37,-13.51,31.5922299,120.7815141,2.720,13631257.474,24927854.763,2.720,0.000,0.000,0.000,0.000,0.000,0.000,0.000,16,16,4*6C
$GPGGA,080441.60,3135.5337937,N,12046.8908421,E,4,16,1.5,2.7150,M,8.329,M,00,0004*64
$GPHPD,0,0.000,57.71,-0.21,-13.49,31.5922299,120.7815140,2.715,13631257.470,24927854.750,2.715,0.000,0.000,0.000,0.000,0.000,0.000,0.000,16,16,4*40
$GPGGA,080441.80,3135.5337944,N,12046.8908389,E,4,16,1.5,2.7204,M,8.329,M,00,0004*69
$GPHPD,0,0.000,57.74,0.12,-13.47,31.5922299,120.7815140,2.720,13631257.454,24927854.707,2.720,0.000,0.000,0.000,0.000,0.000,0.000,0.000,16,16,4*62
$GPGGA,080442.00,3135.5337923,N,12046.8908391,E,4,16,1.5,2.7288,M,8.329,M,01,0004*6F
$GPHPD,0,0.000,57.94,0.18,-13.45,31.5922299,120.7815140,2.729,13631257.484,24927854.721,2.729,0.000,0.000,0.000,0.000,0.000,0.000,0.000,16,16,4*6D
$GPGGA,080442.20,3135.5337928,N,12046.8908391,E,4,16,1.5,2.7239,M,8.329,M,01,0004*6C
$GPHPD,0,0.000,57.57,-0.32,-13.43,31.5922299,120.7815140,2.724,13631257.477,24927854.719,2.724,0.000,0.000,0.000,0.000,0.000,0.000,0.000,16,17,4*47
$GPGGA,080442.40,3135.5337915,N,12046.8908375,E,4,16,1.5,2.7296,M,8.329,M,01,0004*6B
$GPHPD,0,0.000,57.86,0.02,-13.42,31.5922299,120.7815140,2.730,13631257.492,24927854.707,2.730,0.000,0.000,0.000,0.000,0.000,0.000,0.000,16,17,4*60
$GPGGA,080442.60,3135.5337958,N,12046.8908376,E,4,16,1.5,2.7260,M,8.329,M,00,0004*6B
$GPHPD,0,0.000,58.08,0.07,-13.41,31.5922299,120.7815140,2.726,13631257.431,24927854.683,2.726,0.000,0.000,0.000,0.000,0.000,0.000,0.000,16,17,4*6B
$GPGGA,080442.80,3135.5337927,N,12046.8908390,E,4,16,1.5,2.7311,M,8.329,M,00,0004*62
$GPHPD,0,0.000,58.24,0.34,-13.39,31.5922299,120.7815140,2.731,13631257.478,24927854.718,2.731,0.000,0.000,0.000,0.000,0.000,0.000,0.000,16,17,4*64
$GPGGA,080443.00,3135.5337932,N,12046.8908397,E,4,16,1.5,2.7272,M,8.329,M,01,0004*6D
$GPHPD,0,0.000,57.76,-0.31,-13.38,31.5922299,120.7815140,2.727,13631257.472,24927854.723,2.727,0.000,0.000,0.000,0.000,0.000,0.000,0.000,16,17,4*47
$GPGGA,080443.20,3135.5337934,N,12046.8908424,E,4,16,1.5,2.7242,M,8.329,M,01,0004*65
$GPHPD,0,0.000,57.76,0.02,-13.39,31.5922299,120.7815140,2.724,13631257.475,24927854.755,2.724,0.000,0.000,0.000,0.000,0.000,0.000,0.000,16,17,4*6D
$GPGGA,080443.40,3135.5337953,N,12046.8908435,E,4,17,1.5,2.7328,M,8.329,M,01,0004*6E
$GPHPD,0,0.000,57.78,-0.08,-13.41,31.5922299,120.7815141,2.733,13631257.450,24927854.757,2.733,0.000,0.000,0.000,0.000,0.000,0.000,0.000,17,18,4*41
$GPGGA,080443.60,3135.5338023,N,12046.8908533,E,4,17,1.4,2.7308,M,8.329,M,00,0004*68
$GPHPD,0,0.000,57.97,-0.34,-13.46,31.5922300,120.7815142,2.731,13631257.370,24927854.835,2.731,0.000,0.000,0.000,0.000,0.000,0.000,0.000,17,18,4*44
$GPGGA,080443.80,3135.5338092,N,12046.8908691,E,4,17,1.4,2.7355,M,8.329,M,00,0004*6F
$GPHPD,0,0.000,57.45,-0.28,-13.54,31.5922302,120.7815145,2.736,13631257.304,24927854.985,2.736,0.000,0.000,0.000,0.000,0.000,0.000,0.000,17,18,4*49
$GPGGA,080444.00,3135.5338198,N,12046.8908920,E,4,17,1.4,2.7359,M,8.329,M,01,0004*63
$GPHPD,0,0.000,57.87,-0.68,-13.59,31.5922303,120.7815149,2.736,13631257.200,24927855.199,2.736,0.000,0.000,0.000,0.000,0.000,0.000,0.000,17,18,4*42
$GPGGA,080444.20,3135.5338353,N,12046.8909269,E,4,17,1.4,2.7257,M,8.329,M,01,0004*6C
$GPHPD,0,0.000,57.52,-0.23,-13.60,31.5922306,120.7815154,2.726,13631257.049,24927855.530,2.726,0.000,0.000,0.000,0.000,0.000,0.000,0.000,17,18,4*4E
$GPGGA,080444.40,3135.5338548,N,12046.8909596,E,4,17,1.4,2.7114,M,8.329,M,01,0004*65
$GPHPD,0,0.000,56.92,-0.53,-13.59,31.5922309,120.7815160,2.711,13631256.838,24927855.811,2.711,0.000,0.000,0.000,0.000,0.000,0.000,0.000,17,18,4*47
$GPGGA,080444.60,3135.5338754,N,12046.8909912,E,4,17,1.4,2.7173,M,8.329,M,00,0004*68
$GPHPD,0,0.000,56.66,-0.42,-13.55,31.5922313,120.7815165,2.717,13631256.609,24927856.072,2.717,0.000,0.000,0.000,0.000,0.000,0.000,0.000,17,18,4*4C
$GPGGA,080444.80,3135.5338944,N,12046.8910209,E,4,17,1.4,2.7080,M,8.329,M,00,0004*6D
$GPHPD,0,0.000,57.15,-0.42,-13.51,31.5922316,120.7815170,2.708,13631256.398,24927856.319,2.708,0.000,0.000,0.000,0.000,0.000,0.000,0.000,17,18,4*4F
$GPGGA,080445.00,3135.5339121,N,12046.8910594,E,4,17,1.4,2.7054,M,8.329,M,01,0004*65
$GPHPD,0,0.000,57.58,-0.40,-13.48,31.5922319,120.7815177,2.705,13631256.224,24927856.681,2.705,0.000,0.000,0.000,0.000,0.000,0.000,0.000,17,18,4*46
$GPGGA,080445.20,3135.5339305,N,12046.8910911,E,4,17,1.4,2.7119,M,8.329,M,01,0004*6A
$GPHPD,0,0.000,57.56,-0.23,-13.48,31.5922322,120.7815182,2.712,13631256.027,24927856.956,2.712,0.000,0.000,0.000,0.000,0.000,0.000,0.000,17,18,4*4B
$GPGGA,080445.40,3135.5339499,N,12046.8911298,E,4,17,1.4,2.7199,M,8.329,M,01,0004*6D
$GPHPD,0,0.000,57.22,-0.42,-13.49,31.5922325,120.7815188,2.720,13631255.829,24927857.309,2.720,0.000,0.000,0.000,0.000,0.000,0.000,0.000,17,18,4*47
$GPGGA,080445.60,3135.5339718,N,12046.8911658,E,4,17,1.4,2.7153,M,8.329,M,00,0004*6A
$GPHPD,0,0.000,57.00,-0.98,-13.48,31.5922329,120.7815194,2.715,13631255.590,24927857.616,2.715,0.000,0.000,0.000,0.000,0.000,0.000,0.000,17,18,4*44
$GPGGA,080445.80,3135.5339919,N,12046.8912050,E,4,17,1.4,2.7337,M,8.329,M,00,0004*66
$GPHPD,0,0.000,56.72,-0.81,-13.46,31.5922332,120.7815201,2.734,13631255.383,24927857.972,2.734,0.000,0.000,0.000,0.000,0.000,0.000,0.000,17,18,4*4A
$GPGGA,080446.00,3135.5340146,N,12046.8912432,E,4,17,1.4,2.7250,M,8.329,M,01,0004*60
$GPHPD,0,0.000,56.62,-1.35,-13.43,31.5922336,120.7815207,2.725,13631255.137,24927858.300,2.725,0.000,0.000,0.000,0.000,0.000,0.000,0.000,17,18,4*4F
$GPGGA,080446.20,3135.5340393,N,12046.8912805,E,4,17,1.4,2.7025,M,8.329,M,01,0004*60
$GPHPD,0,0.000,56.74,-1.13,-13.39,31.5922340,120.7815213,2.703,13631254.861,24927858.606,2.703,0.000,0.000,0.000,0.000,0.000,0.000,0.000,17,18,4*4D
$GPGGA,080446.40,3135.5340608,N,12046.8913188,E,4,17,1.4,2.7140,M,8.329,M,01,0004*6E
$GPHPD,0,0.000,56.42,-0.27,-13.35,31.5922343,120.7815220,2.714,13631254.632,24927858.943,2.714,0.000,0.000,0.000,0.000,0.000,0.000,0.000,17,18,4*47
$GPGGA,080446.60,3135.5340751,N,12046.8913562,E,4,17,1.4,2.7250,M,8.329,M,00,0004*62
$GPHPD,0,0.000,56.35,-0.53,-13.32,31.5922346,120.7815226,2.725,13631254.504,24927859.311,2.725,0.000,0.000,0.000,0.000,0.000,0.000,0.000,17,18,4*4A
$GPGGA,080446.80,3135.5340966,N,12046.8913935,E,4,17,1.4,2.7162,M,8.329,M,00,0004*6A
$GPHPD,0,0.000,56.27,-1.41,-13.29,31.5922349,120.7815232,2.716,13631254.274,24927859.635,2.716,0.000,0.000,0.000,0.000,0.000,0.000,0.000,17,17,4*47
$GPGGA,080447.00,3135.5341159,N,12046.8914282,E,4,17,1.4,2.7215,M,8.329,M,01,0004*64
$GPHPD,0,0.000,56.71,-0.72,-13.27,31.5922353,120.7815238,2.722,13631254.069,24927859.941,2.722,0.000,0.000,0.000,0.000,0.000,0.000,0.000,17,17,4*48
$GPGGA,080447.20,3135.5341360,N,12046.8914625,E,4,17,1.4,2.7305,M,8.329,M,01,0004*67
$GPHPD,0,0.000,57.35,0.09,-13.25,31.5922356,120.7815244,2.731,13631253.853,24927860.238,2.731,0.000,0.000,0.000,0.000,0.000,0.000,0.000,17,17,4*6D
$GPGGA,080447.40,3135.5341569,N,12046.8915033,E,4,17,1.4,2.7102,M,8.329,M,01,0004*6B
$GPHPD,0,0.000,57.16,-0.36,-13.23,31.5922359,120.7815251,2.710,13631253.638,24927860.608,2.710,0.000,0.000,0.000,0.000,0.000,0.000,0.000,17,17,4*44
$GPGGA,080447.60,3135.5341738,N,12046.8915346,E,4,17,1.4,2.7167,M,8.329,M,00,0004*6C
$GPHPD,0,0.000,56.33,0.65,-13.21,31.5922362,120.7815256,2.717,13631253.460,24927860.887,2.717,0.000,0.000,0.000,0.000,0.000,0.000,0.000,17,17,4*62
$GPGGA,080447.80,3135.5341934,N,12046.8915697,E,4,17,1.4,2.7279,M,8.329,M,00,0004*65
$GPHPD,0,0.000,55.72,0.38,-13.17,31.5922366,120.7815262,2.728,13631253.252,24927861.197,2.728,0.000,0.000,0.000,0.000,0.000,0.000,0.000,17,17,4*64
$GPGGA,080448.00,3135.5342125,N,12046.8916069,E,4,17,1.5,2.7244,M,8.329,M,01,0004*63
$GPHPD,0,0.000,55.94,-0.26,-13.10,31.5922369,120.7815268,2.724,13631253.056,24927861.534,2.724,0.000,0.000,0.000,0.000,0.000,0.000,0.000,17,17,4*47
$GPGGA,080448.20,3135.5342295,N,12046.8916390,E,4,17,1.4,2.7345,M,8.329,M,01,0004*6D
$GPHPD,0,0.000,56.18,-0.38,-13.05,31.5922372,120.7815273,2.735,13631252.879,24927861.822,2.735,0.000,0.000,0.000,0.000,0.000,0.000,0.000,17,17,4*45
$GPGGA,080448.40,3135.5342448,N,12046.8916662,E,4,17,1.4,2.7379,M,8.329,M,01,0004*6A
$GPHPD,0,0.000,55.78,-1.13,-12.99,31.5922374,120.7815278,2.738,13631252.716,24927862.061,2.738,0.000,0.000,0.000,0.000,0.000,0.000,0.000,17,17,4*4B
$GPGGA,080448.60,3135.5342591,N,12046.8916931,E,4,17,1.5,2.7264,M,8.329,M,00,0004*69
$GPHPD,0,0.000,55.65,-1.48,-12.91,31.5922377,120.7815282,2.726,13631252.567,24927862.302,2.726,0.000,0.000,0.000,0.000,0.000,0.000,0.000,17,17,4*45
$GPGGA,080448.80,3135.5342682,N,12046.8917121,E,4,17,1.4,2.7330,M,8.329,M,00,0004*6F
$GPHPD,0,0.000,55.73,-1.20,-12.85,31.5922378,120.7815285,2.733,13631252.476,24927862.478,2.733,0.000,0.000,0.000,0.000,0.000,0.000,0.000,17,17,4*4A
$GPGGA,080449.00,3135.5342794,N,12046.8917333,E,4,17,1.4,2.7296,M,8.329,M,01,0004*6D
$GPHPD,0,0.000,55.50,-1.91,-12.79,31.5922380,120.7815289,2.730,13631252.359,24927862.669,2.730,0.000,0.000,0.000,0.000,0.000,0.000,0.000,17,17,4*41
$GPGGA,080449.20,3135.5342812,N,12046.8917470,E,4,17,1.5,2.7449,M,8.329,M,01,0004*6B
$GPHPD,0,0.000,55.43,-2.07,-12.76,31.5922380,120.7815291,2.745,13631252.361,24927862.823,2.745,0.000,0.000,0.000,0.000,0.000,0.000,0.000,17,17,4*42
$GPGGA,080449.40,3135.5342907,N,12046.8917625,E,4,17,1.5,2.7452,M,8.329,M,01,0004*60
$GPHPD,0,0.000,55.95,-0.65,-12.77,31.5922382,120.7815294,2.745,13631252.257,24927862.955,2.745,0.000,0.000,0.000,0.000,0.000,0.000,0.000,17,17,4*4D
$GPGGA,080449.60,3135.5343016,N,12046.8917817,E,4,17,1.5,2.7419,M,8.329,M,00,0004*6B
$GPHPD,0,0.000,55.91,-0.66,-12.81,31.5922384,120.7815297,2.742,13631252.141,24927863.123,2.742,0.000,0.000,0.000,0.000,0.000,0.000,0.000,17,17,4*4A
$GPGGA,080449.80,3135.5343159,N,12046.8918038,E,4,17,1.5,2.7310,M,8.329,M,00,0004*6B
$GPHPD,0,0.000,56.01,-0.68,-12.86,31.5922386,120.7815301,2.731,13631251.982,24927863.306,2.731,0.000,0.000,0.000,0.000,0.000,0.000,0.000,17,17,4*44
$GPGGA,080450.00,3135.5343294,N,12046.8918325,E,4,17,1.5,2.7479,M,8.329,M,01,0004*6F
$GPHPD,0,0.000,56.08,-0.53,-12.92,31.5922388,120.7815305,2.748,13631251.848,24927863.574,2.748,0.000,0.000,0.000,0.000,0.000,0.000,0.000,17,17,4*4E
$GPGGA,080450.20,3135.5343494,N,12046.8918662,E,4,17,1.5,2.7403,M,8.329,M,01,0004*60
$GPHPD,0,0.000,55.85,-1.40,-12.98,31.5922392,120.7815311,2.740,13631251.631,24927863.864,2.740,0.000,0.000,0.000,0.000,0.000,0.000,0.000,17,17,4*43
$GPGGA,080450.40,3135.5343786,N,12046.8919100,E,4,17,1.7,2.7172,M,8.329,M,01,0004*65
$GPHPD,0,0.000,56.03,-0.99,-13.05,31.5922396,120.7815318,2.717,13631251.304,24927864.222,2.717,0.000,0.000,0.000,0.000,0.000,0.000,0.000,17,17,4*4F
$GPGGA,080450.60,3135.5344069,N,12046.8919613,E,4,17,1.5,2.7262,M,8.329,M,00,0004*62
$GPHPD,0,0.000,56.33,-0.27,-13.12,31.5922401,120.7815327,2.726,13631251.005,24927864.676,2.726,0.000,0.000,0.000,0.000,0.000,0.000,0.000,17,17,4*4D
$GPGGA,080450.80,3135.5344355,N,12046.8920148,E,4,17,1.5,2.7387,M,8.329,M,00,0004*69
$GPHPD,0,0.000,56.50,-0.75,-13.18,31.5922406,120.7815336,2.739,13631250.706,24927865.155,2.739,0.000,0.000,0.000,0.000,0.000,0.000,0.000,17,17,4*40
$GPGGA,080451.00,3135.5344730,N,12046.8920829,E,4,17,1.5,2.7256,M,8.329,M,01,0004*65
$GPHPD,0,0.000,56.65,-1.01,-13.20,31.5922412,120.7815347,2.726,13631250.310,24927865.757,2.726,0.000,0.000,0.000,0.000,0.000,0.000,0.000,17,17,4*4B
$GPGGA,080451.20,3135.5345120,N,12046.8921530,E,4,17,1.5,2.7213,M,8.329,M,01,0004*64
$GPHPD,0,0.000,56.43,-0.54,-13.13,31.5922419,120.7815359,2.721,13631249.897,24927866.376,2.721,0.000,0.000,0.000,0.000,0.000,0.000,0.000,17,17,4*42
$GPGGA,080451.40,3135.5345486,N,12046.8922231,E,4,17,1.5,2.7149,M,8.329,M,01,0004*62
$GPHPD,0,0.000,56.29,-0.55,-13.03,31.5922425,120.7815371,2.715,13631249.518,24927867.008,2.715,0.000,0.000,0.000,0.000,0.000,0.000,0.000,17,17,4*4A
$GPGGA,080451.60,3135.5345826,N,12046.8922898,E,4,17,1.5,2.7472,M,8.329,M,00,0004*63
$GPHPD,0,0.000,56.21,0.44,-13.01,31.5922430,120.7815382,2.747,13631249.169,24927867.614,2.747,0.000,0.000,0.000,0.000,0.000,0.000,0.000,17,17,4*6C
$GPGGA,080451.80,3135.5346210,N,12046.8923551,E,4,17,1.5,2.7498,M,8.329,M,00,0004*6C
$GPHPD,0,0.000,55.42,-0.71,-13.03,31.5922437,120.7815393,2.750,13631248.754,24927868.178,2.750,0.000,0.000,0.000,0.000,0.000,0.000,0.000,17,17,4*4F
$GPGGA,080452.00,3135.5346572,N,12046.8924235,E,4,17,1.5,2.7336,M,8.329,M,01,0004*64
$GPHPD,0,0.000,55.79,-1.60,-13.07,31.5922443,120.7815404,2.734,13631248.377,24927868.792,2.734,0.000,0.000,0.000,0.000,0.000,0.000,0.000,17,17,4*4F
$GPGGA,080452.20,3135.5346952,N,12046.8924925,E,4,17,1.5,2.7427,M,8.329,M,01,0004*65
$GPHPD,0,0.000,56.18,-0.73,-13.04,31.5922449,120.7815415,2.743,13631247.976,24927869.403,2.743,0.000,0.000,0.000,0.000,0.000,0.000,0.000,17,17,4*4F
$GPGGA,080452.40,3135.5347356,N,12046.8925626,E,4,17,1.5,2.7146,M,8.329,M,01,0004*63
$GPHPD,0,0.000,56.23,-0.62,-13.03,31.5922456,120.7815427,2.715,13631247.543,24927870.013,2.715,0.000,0.000,0.000,0.000,0.000,0.000,0.000,17,17,4*48
$GPGGA,080452.60,3135.5347709,N,12046.8926355,E,4,17,1.5,2.7294,M,8.329,M,00,0004*60
$GPHPD,0,0.000,56.58,-0.36,-13.01,31.5922462,120.7815439,2.729,13631247.188,24927870.687,2.729,0.000,0.000,0.000,0.000,0.000,0.000,0.000,17,17,4*47
$GPGGA,080452.80,3135.5348086,N,12046.8927040,E,4,17,1.5,2.7297,M,8.329,M,00,0004*64
$GPHPD,0,0.000,56.66,-0.50,-12.97,31.5922468,120.7815451,2.730,13631246.789,24927871.293,2.730,0.000,0.000,0.000,0.000,0.000,0.000,0.000,17,17,4*46
$GPGGA,080453.00,3135.5348469,N,12046.8927758,E,4,17,1.5,2.7193,M,8.329,M,01,0004*60
$GPHPD,0,0.000,56.96,-0.39,-12.93,31.5922474,120.7815463,2.719,13631246.390,24927871.936,2.719,0.000,0.000,0.000,0.000,0.000,0.000,0.000,17,17,4*46
$GPGGA,080453.20,3135.5348787,N,12046.8928419,E,4,17,1.5,2.7417,M,8.329,M,01,0004*61
$GPHPD,0,0.000,56.93,-0.55,-12.86,31.5922480,120.7815474,2.742,13631246.070,24927872.548,2.742,0.000,0.000,0.000,0.000,0.000,0.000,0.000,17,17,4*4B
$GPGGA,080453.40,3135.5349177,N,12046.8929054,E,4,17,1.5,2.7105,M,8.329,M,01,0004*65
$GPHPD,0,0.000,56.95,-0.69,-12.77,31.5922486,120.7815484,2.711,13631245.644,24927873.087,2.711,0.000,0.000,0.000,0.000,0.000,0.000,0.000,17,17,4*40
$GPGGA,080453.60,3135.5349480,N,12046.8929585,E,4,17,1.4,2.7223,M,8.329,M,01,0004*65
$GPHPD,0,0.000,57.34,-0.08,-12.68,31.5922491,120.7815493,2.722,13631245.320,24927873.551,2.722,0.000,0.000,0.000,0.000,0.000,0.000,0.000,17,17,4*4A
$GPGGA,080453.80,3135.5349741,N,12046.8930082,E,4,17,1.4,2.7226,M,8.329,M,01,0004*6A
$GPHPD,0,0.000,57.58,0.14,-12.59,31.5922496,120.7815501,2.723,13631245.049,24927873.998,2.723,0.000,0.000,0.000,0.000,0.000,0.000,0.000,17,17,4*6A
$GPGGA,080454.00,3135.5349974,N,12046.8930525,E,4,17,1.4,2.7271,M,8.329,M,02,0004*64
$GPHPD,0,0.000,57.80,0.15,-12.53,31.5922500,120.7815509,2.727,13631244.807,24927874.397,2.727,0.000,0.000,0.000,0.000,0.000,0.000,0.000,17,17,4*63
$GPGGA,080454.20,3135.5350184,N,12046.8930919,E,4,17,1.4,2.7326,M,8.329,M,02,0004*69
$GPHPD,0,0.000,58.05,-0.31,-12.51,31.5922503,120.7815515,2.733,13631244.588,24927874.750,2.733,0.000,0.000,0.000,0.000,0.000,0.000,0.000,17,17,4*43
$GPGGA,080454.40,3135.5350437,N,12046.8931313,E,4,17,1.4,2.7125,M,8.329,M,02,0004*62
$GPHPD,0,0.000,58.37,0.04,-12.51,31.5922507,120.7815522,2.713,13631244.307,24927875.077,2.713,0.000,0.000,0.000,0.000,0.000,0.000,0.000,17,17,4*6B
$GPGGA,080454.60,3135.5350618,N,12046.8931649,E,4,17,1.4,2.7188,M,8.329,M,02,0004*62
$GPHPD,0,0.000,58.57,0.45,-12.49,31.5922510,120.7815527,2.719,13631244.118,24927875.377,2.719,0.000,0.000,0.000,0.000,0.000,0.000,0.000,17,17,4*6D
$GPGGA,080454.80,3135.5350807,N,12046.8931970,E,4,17,1.4,2.7028,M,8.329,M,00,0004*60
$GPHPD,0,0.000,58.26,-0.14,-12.46,31.5922513,120.7815533,2.703,13631243.913,24927875.654,2.703,0.000,0.000,0.000,0.000,0.000,0.000,0.000,17,17,4*4B
$GPGGA,080455.00,3135.5350974,N,12046.8932282,E,4,17,1.4,2.7108,M,8.329,M,01,0004*6B
$GPHPD,0,0.000,58.37,0.68,-12.46,31.5922516,120.7815538,2.711,13631243.739,24927875.933,2.711,0.000,0.000,0.000,0.000,0.000,0.000,0.000,17,17,4*6B
$GPGGA,080455.20,3135.5351122,N,12046.8932587,E,4,17,1.4,2.7144,M,8.329,M,01,0004*69
$GPHPD,0,0.000,58.50,0.18,-12.48,31.5922519,120.7815543,2.714,13631243.590,24927876.215,2.714,0.000,0.000,0.000,0.000,0.000,0.000,0.000,17,17,4*6D
$GPGGA,080455.40,3135.5351287,N,12046.8932939,E,4,17,1.4,2.7077,M,8.329,M,01,0004*6B
$GPHPD,0,0.000,58.60,0.26,-12.50,31.5922521,120.7815549,2.708,13631243.426,24927876.543,2.708,0.000,0.000,0.000,0.000,0.000,0.000,0.000,17,17,4*63
$GPGGA,080455.60,3135.5351427,N,12046.8933290,E,4,17,1.4,2.7228,M,8.329,M,00,0004*65
$GPHPD,0,0.000,58.80,0.03,-12.53,31.5922524,120.7815555,2.723,13631243.298,24927876.885,2.723,0.000,0.000,0.000,0.000,0.000,0.000,0.000,17,17,4*65
$GPGGA,080455.80,3135.5351603,N,12046.8933643,E,4,17,1.4,2.7255,M,8.329,M,00,0004*6F
$GPHPD,0,0.000,58.86,-0.71,-12.57,31.5922527,120.7815561,2.726,13631243.119,24927877.208,2.726,0.000,0.000,0.000,0.000,0.000,0.000,0.000,17,17,4*4F
$GPGGA,080456.00,3135.5351810,N,12046.8934033,E,4,17,1.4,2.7084,M,8.329,M,01,0004*61
$GPHPD,0,0.000,58.73,-0.63,-12.61,31.5922530,120.7815567,2.708,13631242.903,24927877.558,2.708,0.000,0.000,0.000,0.000,0.000,0.000,0.000,17,18,4*4C
$GPGGA,080456.20,3135.5352009,N,12046.8934420,E,4,17,1.4,2.7184,M,8.329,M,01,0004*67
$GPHPD,0,0.000,58.69,0.42,-12.64,31.5922533,120.7815574,2.718,13631242.698,24927877.909,2.718,0.000,0.000,0.000,0.000,0.000,0.000,0.000,17,18,4*68
$GPGGA,080456.40,3135.5352234,N,12046.8934838,E,4,17,1.4,2.7063,M,8.329,M,01,0004*60
$GPHPD,0,0.000,58.76,-0.26,-12.69,31.5922537,120.7815581,2.706,13631242.462,24927878.282,2.706,0.000,0.000,0.000,0.000,0.000,0.000,0.000,17,18,4*4A
$GPGGA,080456.60,3135.5352477,N,12046.8935300,E,4,17,1.4,2.7136,M,8.329,M,00,0004*62
$GPHPD,0,0.000,58.94,0.16,-12.77,31.5922541,120.7815588,2.714,13631242.210,24927878.698,2.714,0.000,0.000,0.000,0.000,0.000,0.000,0.000,17,18,4*63
$GPGGA,080456.80,3135.5352709,N,12046.8935850,E,4,17,1.4,2.7149,M,8.329,M,00,0004*60
$GPHPD,0,0.000,58.89,0.14,-12.87,31.5922545,120.7815598,2.715,13631241.990,24927879.226,2.715,0.000,0.000,0.000,0.000,0.000,0.000,0.000,17,18,4*67
$GPGGA,080457.00,3135.5353011,N,12046.8936454,E,4,17,1.4,2.7170,M,8.329,M,01,0004*66
$GPHPD,0,0.000,58.63,-0.43,-12.97,31.5922550,120.7815608,2.717,13631241.683,24927879.778,2.717,0.000,0.000,0.000,0.000,0.000,0.000,0.000,17,18,4*40
$GPGGA,080457.20,3135.5353358,N,12046.8937140,E,4,17,1.4,2.7189,M,8.329,M,01,0004*6D
$GPHPD,0,0.000,58.58,-0.60,-13.04,31.5922556,120.7815619,2.719,13631241.327,24927880.404,2.719,0.000,0.000,0.000,0.000,0.000,0.000,0.000,17,18,4*41
$GPGGA,080457.40,3135.5353735,N,12046.8937870,E,4,17,1.4,2.7038,M,8.329,M,01,0004*65
$GPHPD,0,0.000,58.83,-1.09,-13.05,31.5922562,120.7815631,2.704,13631240.938,24927881.064,2.704,0.000,0.000,0.000,0.000,0.000,0.000,0.000,17,18,4*43
$GPGGA,080457.60,3135.5354112,N,12046.8938630,E,4,17,1.4,2.7245,M,8.329,M,00,0004*6F
$GPHPD,0,0.000,59.00,-0.51,-13.02,31.5922569,120.7815644,2.725,13631240.555,24927881.761,2.725,0.000,0.000,0.000,0.000,0.000,0.000,0.000,17,18,4*4E
$GPGGA,080457.80,3135.5354457,N,12046.8939380,E,4,17,1.4,2.7188,M,8.329,M,00,0004*68
$GPHPD,0,0.000,59.00,-0.91,-12.99,31.5922574,120.7815656,2.719,13631240.216,24927882.465,2.719,0.000,0.000,0.000,0.000,0.000,0.000,0.000,17,18,4*4A
$GPGGA,080458.00,3135.5354831,N,12046.8940076,E,4,17,1.4,2.7170,M,8.329,M,01,0004*61
$GPHPD,0,0.000,59.14,-0.67,-12.98,31.5922581,120.7815668,2.717,13631239.824,24927883.087,2.717,0.000,0.000,0.000,0.000,0.000,0.000,0.000,17,18,4*4C
$GPGGA,080458.20,3135.5355141,N,12046.8940762,E,4,17,1.5,2.7247,M,8.329,M,01,0004*68
$GPHPD,0,0.000,59.33,-0.71,-12.95,31.5922586,120.7815679,2.725,13631239.522,24927883.733,2.725,0.000,0.000,0.000,0.000,0.000,0.000,0.000,17,18,4*47
$GPGGA,080458.40,3135.5355453,N,12046.8941456,E,4,17,1.5,2.7238,M,8.329,M,01,0004*65
$GPHPD,0,0.000,59.27,-0.85,-12.94,31.5922591,120.7815691,2.724,13631239.218,24927884.389,2.724,0.000,0.000,0.000,0.000,0.000,0.000,0.000,17,18,4*44
$GPGGA,080458.60,3135.5355784,N,12046.8942109,E,4,17,1.5,2.7233,M,8.329,M,00,0004*68
$GPHPD,0,0.000,59.33,-0.48,-12.91,31.5922596,120.7815702,2.723,13631238.879,24927884.983,2.723,0.000,0.000,0.000,0.000,0.000,0.000,0.000,17,18,4*45
$GPGGA,080458.80,3135.5356105,N,12046.8942777,E,4,17,1.5,2.7280,M,8.329,M,00,0004*6D
$GPHPD,0,0.000,59.43,-0.28,-12.90,31.5922602,120.7815713,2.728,13631238.557,24927885.602,2.728,0.000,0.000,0.000,0.000,0.000,0.000,0.000,17,18,4*4D
$GPGGA,080459.00,3135.5356421,N,12046.8943401,E,4,17,1.5,2.7180,M,8.329,M,01,0004*66
$GPHPD,0,0.000,59.21,-0.92,-12.88,31.5922607,120.7815723,2.718,13631238.233,24927886.171,2.718,0.000,0.000,0.000,0.000,0.000,0.000,0.000,17,18,4*42
$GPGGA,080459.20,3135.5356715,N,12046.8944041,E,4,17,1.5,2.7220,M,8.329,M,01,0004*6E
$GPHPD,0,0.000,59.54,-0.48,-12.89,31.5922612,120.7815734,2.722,13631237.944,24927886.771,2.722,0.000,0.000,0.000,0.000,0.000,0.000,0.000,17,18,4*46
$GPGGA,080459.40,3135.5357018,N,12046.8944668,E,4,17,1.5,2.7214,M,8.329,M,01,0004*69
$GPHPD,0,0.000,59.47,-0.59,-12.89,31.5922617,120.7815744,2.721,13631237.639,24927887.351,2.721,0.000,0.000,0.000,0.000,0.000,0.000,0.000,17,18,4*44
$GPGGA,080459.60,3135.5357350,N,12046.8945271,E,4,17,1.5,2.7140,M,8.329,M,00,0004*6A
$GPHPD,0,0.000,59.58,-0.99,-12.89,31.5922623,120.7815755,2.714,13631237.289,24927887.885,2.714,0.000,0.000,0.000,0.000,0.000,0.000,0.000,17,18,4*4C
$GPGGA,080459.80,3135.5357634,N,12046.8945893,E,4,17,1.5,2.7044,M,8.329,M,00,0004*60
$GPHPD,0,0.000,59.65,-0.26,-12.90,31.5922627,120.7815765,2.704,13631237.010,24927888.470,2.704,0.000,0.000,0.000,0.000,0.000,0.000,0.000,17,18,4*42
$GPGGA,080500.00,3135.5357924,N,12046.8946514,E,4,17,1.5,2.6935,M,8.329,M,01,0004*65
$GPHPD,0,0.000,59.64,-0.29,-12.90,31.5922632,120.7815775,2.694,13631236.723,24927889.050,2.694,0.000,0.000,0.000,0.000,0.000,0.000,0.000,17,18,4*48
$GPGGA,080500.20,3135.5358192,N,12046.8947091,E,4,17,1.5,2.7087,M,8.329,M,01,0004*65
$GPHPD,0,0.000,60.21,0.44,-12.90,31.5922637,120.7815785,2.709,13631236.458,24927889.589,2.709,0.000,0.000,0.000,0.000,0.000,0.000,0.000,17,18,4*61
$GPGGA,080500.40,3135.5358436,N,12046.8947664,E,4,17,1.5,2.7121,M,8.329,M,01,0004*69
$GPHPD,0,0.000,60.49,-0.29,-12.89,31.5922641,120.7815794,2.712,13631236.227,24927890.138,2.712,0.000,0.000,0.000,0.000,0.000,0.000,0.000,17,18,4*48
$GPGGA,080500.60,3135.5358689,N,12046.8948223,E,4,17,1.5,2.7158,M,8.329,M,00,0004*6A
$GPHPD,0,0.000,60.65,-0.89,-12.91,31.5922645,120.7815804,2.716,13631235.979,24927890.665,2.716,0.000,0.000,0.000,0.000,0.000,0.000,0.000,17,18,4*4B
$GPGGA,080500.80,3135.5358946,N,12046.8948787,E,4,17,1.5,2.7041,M,8.329,M,00,0004*6A
$GPHPD,0,0.000,61.01,-0.86,-12.93,31.5922649,120.7815813,2.704,13631235.727,24927891.196,2.704,0.000,0.000,0.000,0.000,0.000,0.000,0.000,17,18,4*40
$GPGGA,080501.00,3135.5359187,N,12046.8949319,E,4,17,1.5,2.7062,M,8.329,M,01,0004*65
$GPHPD,0,0.000,61.45,-0.19,-12.93,31.5922653,120.7815822,2.706,13631235.492,24927891.697,2.706,0.000,0.000,0.000,0.000,0.000,0.000,0.000,17,18,4*44
$GPGGA,080501.20,3135.5359412,N,12046.8949837,E,4,17,1.5,2.7021,M,8.329,M,01,0004*6E
$GPHPD,0,0.000,61.36,-0.33,-12.91,31.5922657,120.7815831,2.702,13631235.276,24927892.190,2.702,0.000,0.000,0.000,0.000,0.000,0.000,0.000,17,18,4*43
$GPGGA,080501.40,3135.5359643,N,12046.8950345,E,4,17,1.5,2.7062,M,8.329,M,01,0004*6F
$GPHPD,0,0.000,61.38,-0.68,-12.89,31.5922661,120.7815839,2.706,13631235.050,24927892.669,2.706,0.000,0.000,0.000,0.000,0.000,0.000,0.000,17,18,4*40
$GPGGA,080501.60,3135.5359828,N,12046.8950783,E,4,17,1.5,2.7145,M,8.329,M,00,0004*65
$GPHPD,0,0.000,61.34,-0.54,-12.90,31.5922664,120.7815846,2.715,13631234.875,24927893.089,2.715,0.000,0.000,0.000,0.000,0.000,0.000,0.000,17,18,4*41
$GPGGA,080501.80,3135.5360012,N,12046.8951187,E,4,17,1.5,2.7155,M,8.329,M,00,0004*62
$GPHPD,0,0.000,61.49,-0.26,-12.97,31.5922667,120.7815853,2.716,13631234.695,24927893.469,2.716,0.000,0.000,0.000,0.000,0.000,0.000,0.000,17,18,4*44
$GPGGA,080502.00,3135.5360188,N,12046.8951617,E,4,17,1.5,2.7254,M,8.329,M,01,0004*66
$GPHPD,0,0.000,61.39,-0.42,-13.03,31.5922670,120.7815860,2.725,13631234.531,24927893.885,2.725,0.000,0.000,0.000,0.000,0.000,0.000,0.000,17,18,4*48
$GPGGA,080502.20,3135.5360425,N,12046.8952090,E,4,17,1.5,2.7170,M,8.329,M,01,0004*69
$GPHPD,0,0.000,61.30,-0.96,-13.06,31.5922674,120.7815868,2.717,13631234.290,24927894.318,2.717,0.000,0.000,0.000,0.000,0.000,0.000,0.000,17,18,4*45
$GPGGA,080502.40,3135.5360685,N,12046.8952585,E,4,17,1.5,2.6943,M,8.329,M,01,0004*6F
$GPHPD,0,0.000,61.37,-0.44,-13.13,31.5922678,120.7815876,2.694,13631234.020,24927894.763,2.694,0.000,0.000,0.000,0.000,0.000,0.000,0.000,17,18,4*4B
$GPGGA,080502.60,3135.5360898,N,12046.8953145,E,4,17,1.4,2.7175,M,8.329,M,00,0004*6A
$GPHPD,0,0.000,61.60,0.38,-13.19,31.5922682,120.7815886,2.718,13631233.830,24927895.314,2.718,0.000,0.000,0.000,0.000,0.000,0.000,0.000,17,18,4*64
$GPGGA,080502.80,3135.5361195,N,12046.8953774,E,4,17,1.4,2.7046,M,8.329,M,00,0004*64
$GPHPD,0,0.000,61.44,-0.57,-13.26,31.5922687,120.7815896,2.705,13631233.534,24927895.900,2.705,0.000,0.000,0.000,0.000,0.000,0.000,0.000,17,18,4*48
$GPGGA,080503.00,3135.5361533,N,12046.8954483,E,4,17,1.4,2.7109,M,8.329,M,01,0004*62
$GPHPD,0,0.000,61.59,0.13,-13.37,31.5922692,120.7815908,2.711,13631233.196,24927896.558,2.711,0.000,0.000,0.000,0.000,0.000,0.000,0.000,17,18,4*65
$GPGGA,080503.20,3135.5361904,N,12046.8955282,E,4,17,1.4,2.7131,M,8.329,M,01,0004*65
$GPHPD,0,0.000,61.66,-0.30,-13.47,31.5922698,120.7815921,2.713,13631232.829,24927897.306,2.713,0.000,0.000,0.000,0.000,0.000,0.000,0.000,17,18,4*43
$GPGGA,080503.40,3135.5362304,N,12046.8956174,E,4,17,1.4,2.7019,M,8.329,M,01,0004*68
$GPHPD,0,0.000,61.86,-0.41,-13.60,31.5922705,120.7815936,2.702,13631232.440,24927898.149,2.702,0.000,0.000,0.000,0.000,0.000,0.000,0.000,17,18,4*48
$GPGGA,080503.60,3135.5362749,N,12046.8957201,E,4,17,1.4,2.6892,M,8.329,M,00,0004*6C
$GPHPD,0,0.000,61.74,-0.53,-13.70,31.5922712,120.7815953,2.689,13631232.014,24927899.128,2.689,0.000,0.000,0.000,0.000,0.000,0.000,0.000,17,18,4*41
$GPGGA,080503.80,3135.5363218,N,12046.8958283,E,4,17,1.4,2.7061,M,8.329,M,00,0004*62
$GPHPD,0,0.000,61.94,0.17,-13.81,31.5922720,120.7815971,2.706,13631231.565,24927900.160,2.706,0.000,0.000,0.000,0.000,0.000,0.000,0.000,17,18,4*60
$GPGGA,080504.00,3135.5363767,N,12046.8959409,E,4,17,1.4,2.7003,M,8.329,M,01,0004*60
$GPHPD,0,0.000,61.96,0.43,-13.90,31.5922729,120.7815990,2.700,13631231.012,24927901.198,2.700,0.000,0.000,0.000,0.000,0.000,0.000,0.000,17,18,4*66
$GPGGA,080504.20,3135.5364346,N,12046.8960714,E,4,16,1.5,2.7035,M,8.329,M,01,0004*62
$GPHPD,0,0.000,62.16,0.41,-13.98,31.5922739,120.7816012,2.704,13631230.451,24927902.435,2.704,0.000,0.000,0.000,0.000,0.000,0.000,0.000,16,18,4*64
$GPGGA,080504.40,3135.5364914,N,12046.8962082,E,4,16,1.5,2.7068,M,8.329,M,01,0004*6B
$GPHPD,0,0.000,62.06,-1.08,-14.09,31.5922749,120.7816035,2.707,13631229.919,24927903.754,2.707,0.000,0.000,0.000,0.000,0.000,0.000,0.000,16,17,4*4A
$GPGGA,080504.60,3135.5365522,N,12046.8963509,E,4,16,1.5,2.7101,M,8.329,M,00,0004*69
$GPHPD,0,0.000,62.17,0.34,-14.14,31.5922759,120.7816058,2.710,13631229.342,24927905.121,2.710,0.000,0.000,0.000,0.000,0.000,0.000,0.000,16,17,4*69
$GPGGA,080504.80,3135.5366154,N,12046.8964994,E,4,16,1.5,2.7038,M,8.329,M,00,0004*65
$GPHPD,0,0.000,61.69,0.16,-14.17,31.5922769,120.7816083,2.704,13631228.742,24927906.543,2.704,0.000,0.000,0.000,0.000,0.000,0.000,0.000,16,17,4*63
$GPGGA,080505.00,3135.5366788,N,12046.8966495,E,4,16,1.5,2.7167,M,8.329,M,01,0004*6F
$GPHPD,0,0.000,61.46,-0.53,-14.15,31.5922780,120.7816108,2.717,13631228.143,24927907.984,2.717,0.000,0.000,0.000,0.000,0.000,0.000,0.000,16,17,4*44
$GPGGA,080505.20,3135.5367482,N,12046.8968085,E,4,16,1.5,2.7066,M,8.329,M,01,0004*6E
$GPHPD,0,0.000,61.84,0.44,-14.13,31.5922791,120.7816135,2.707,13631227.476,24927909.498,2.707,0.000,0.000,0.000,0.000,0.000,0.000,0.000,16,17,4*6B
$GPGGA,080505.40,3135.5368167,N,12046.8969657,E,4,16,1.5,2.7176,M,8.329,M,01,0004*61
$GPHPD,0,0.000,61.88,0.73,-14.15,31.5922803,120.7816161,2.718,13631226.819,24927910.995,2.718,0.000,0.000,0.000,0.000,0.000,0.000,0.000,16,17,4*6C
$GPGGA,080505.60,3135.5368867,N,12046.8971193,E,4,16,1.5,2.7234,M,8.329,M,00,0004*68
$GPHPD,0,0.000,62.06,1.00,-14.16,31.5922814,120.7816187,2.723,13631226.133,24927912.439,2.723,0.000,0.000,0.000,0.000,0.000,0.000,0.000,16,17,4*69
$GPGGA,080505.80,3135.5369528,N,12046.8972772,E,4,16,1.5,2.7267,M,8.329,M,00,0004*6D
$GPHPD,0,0.000,62.32,0.37,-14.07,31.5922825,120.7816213,2.727,13631225.511,24927913.959,2.727,0.000,0.000,0.000,0.000,0.000,0.000,0.000,16,17,4*6A
$GPGGA,080506.00,3135.5370235,N,12046.8974341,E,4,16,1.5,2.7085,M,8.329,M,01,0004*68
$GPHPD,0,0.000,62.48,-0.26,-13.98,31.5922837,120.7816239,2.709,13631224.822,24927915.439,2.709,0.000,0.000,0.000,0.000,0.000,0.000,0.000,16,17,4*41
$GPGGA,080506.20,3135.5370873,N,12046.8975844,E,4,16,1.5,2.7222,M,8.329,M,01,0004*62
$GPHPD,0,0.000,62.28,-0.65,-13.91,31.5922848,120.7816264,2.722,13631224.217,24927916.880,2.722,0.000,0.000,0.000,0.000,0.000,0.000,0.000,16,17,4*48
$GPGGA,080506.40,3135.5371519,N,12046.8977399,E,4,16,1.5,2.7158,M,8.329,M,01,0004*63
$GPHPD,0,0.000,62.48,-0.95,-13.80,31.5922859,120.7816290,2.716,13631223.612,24927918.379,2.716,0.000,0.000,0.000,0.000,0.000,0.000,0.000,16,17,4*4F
$GPGGA,080506.60,3135.5372099,N,12046.8978830,E,4,16,1.5,2.7369,M,8.329,M,01,0004*68
$GPHPD,0,0.000,62.65,-0.38,-13.68,31.5922868,120.7816314,2.737,13631223.075,24927919.767,2.737,0.000,0.000,0.000,0.000,0.000,0.000,0.000,16,17,4*43
$GPGGA,080506.80,3135.5372694,N,12046.8980183,E,4,16,1.5,2.7292,M,8.329,M,01,0004*6E
$GPHPD,0,0.000,62.82,-0.80,-13.62,31.5922878,120.7816336,2.729,13631222.502,24927921.052,2.729,0.000,0.000,0.000,0.000,0.000,0.000,0.000,16,17,4*4C
$GPGGA,080507.00,3135.5373249,N,12046.8981529,E,4,16,1.5,2.7243,M,8.329,M,02,0004*68
$GPHPD,0,0.000,63.52,-1.24,-13.52,31.5922887,120.7816359,2.724,13631221.983,24927922.353,2.724,0.000,0.000,0.000,0.000,0.000,0.000,0.000,16,17,4*42
$GPGGA,080507.20,3135.5373792,N,12046.8982885,E,4,16,1.5,2.7199,M,8.329,M,02,0004*65
$GPHPD,0,0.000,64.15,-1.17,-13.47,31.5922897,120.7816381,2.720,13631221.484,24927923.672,2.720,0.000,0.000,0.000,0.000,0.000,0.000,0.000,16,17,4*4B
$GPGGA,080507.40,3135.5374250,N,12046.8984192,E,4,17,1.6,2.7130,M,8.329,M,02,0004*67
$GPHPD,0,0.000,64.68,-0.35,-13.40,31.5922904,120.7816403,2.713,13631221.096,24927924.981,2.713,0.000,0.000,0.000,0.000,0.000,0.000,0.000,17,18,4*4C
$GPGGA,080507.60,3135.5374695,N,12046.8985375,E,4,17,1.5,2.7215,M,8.329,M,02,0004*65
$GPHPD,0,0.000,64.59,-0.41,-13.35,31.5922912,120.7816423,2.722,13631220.702,24927926.149,2.722,0.000,0.000,0.000,0.000,0.000,0.000,0.000,17,18,4*4F
$GPGGA,080507.80,3135.5375128,N,12046.8986514,E,4,17,1.5,2.7039,M,8.329,M,02,0004*65
$GPHPD,0,0.000,65.38,-0.32,-13.26,31.5922919,120.7816442,2.704,13631220.315,24927927.270,2.704,0.000,0.000,0.000,0.000,0.000,0.000,0.000,17,18,4*49
$GPGGA,080508.00,3135.5375514,N,12046.8987607,E,4,17,1.5,2.7306,M,8.329,M,03,0004*67
$GPHPD,0,0.000,66.48,0.89,-13.21,31.5922925,120.7816460,2.731,13631219.987,24927928.363,2.731,0.000,0.000,0.000,0.000,0.000,0.000,0.000,17,18,4*6F
$GPGGA,080508.20,3135.5375857,N,12046.8988666,E,4,17,1.5,2.7220,M,8.329,M,03,0004*62
$GPHPD,0,0.000,67.28,1.09,-13.18,31.5922931,120.7816478,2.722,13631219.712,24927929.441,2.722,0.000,0.000,0.000,0.000,0.000,0.000,0.000,17,18,4*63
$GPGGA,080508.40,3135.5376187,N,12046.8989683,E,4,17,1.6,2.7070,M,8.329,M,03,0004*6D
$GPHPD,0,0.000,68.12,1.22,-13.17,31.5922936,120.7816495,2.707,13631219.448,24927930.475,2.707,0.000,0.000,0.000,0.000,0.000,0.000,0.000,17,18,4*64
$GPGGA,080508.60,3135.5376438,N,12046.8990659,E,4,17,1.5,2.7298,M,8.329,M,03,0004*66
$GPHPD,0,0.000,69.02,1.63,-13.13,31.5922941,120.7816511,2.730,13631219.287,24927931.506,2.730,0.000,0.000,0.000,0.000,0.000,0.000,0.000,17,18,4*69
$GPGGA,080508.80,3135.5376721,N,12046.8991550,E,4,17,1.5,2.7246,M,8.329,M,03,0004*6B
$GPHPD,0,0.000,69.08,0.42,-13.12,31.5922945,120.7816526,2.725,13631219.064,24927932.416,2.725,0.000,0.000,0.000,0.000,0.000,0.000,0.000,17,18,4*6C
$GPGGA,080509.00,3135.5377003,N,12046.8992446,E,4,17,1.5,2.7052,M,8.329,M,04,0004*61
$GPHPD,0,0.000,70.14,0.74,-13.11,31.5922950,120.7816541,2.705,13631218.844,24927933.332,2.705,0.000,0.000,0.000,0.000,0.000,0.000,0.000,17,18,4*61
$GPGGA,080509.20,3135.5377225,N,12046.8993257,E,4,17,1.5,2.7159,M,8.330,M,04,0004*60
$GPHPD,0,0.000,71.07,0.98,-13.11,31.5922954,120.7816554,2.716,13631218.691,24927934.181,2.716,0.000,0.000,0.000,0.000,0.000,0.000,0.000,17,18,4*6B
$GPGGA,080509.40,3135.5377316,N,12046.8994075,E,4,17,1.6,2.7497,M,8.330,M,04,0004*66
$GPHPD,0,0.000,71.97,1.31,-13.11,31.5922955,120.7816568,2.750,13631218.727,24927935.114,2.750,0.000,0.000,0.000,0.000,0.000,0.000,0.000,17,18,4*6F
$GPGGA,080509.60,3135.5377522,N,12046.8994863,E,4,17,1.6,2.7387,M,8.330,M,04,0004*6C
$GPHPD,0,0.000,71.73,0.01,-13.10,31.5922959,120.7816581,2.739,13631218.592,24927935.945,2.739,0.000,0.000,0.000,0.000,0.000,0.000,0.000,17,18,4*6D
$GPGGA,080509.80,3135.5377710,N,12046.8995582,E,4,17,1.6,2.7356,M,8.330,M,00,0004*6A
$GPHPD,0,0.000,72.48,0.03,-13.09,31.5922962,120.7816593,2.736,13631218.470,24927936.702,2.736,0.000,0.000,0.000,0.000,0.000,0.000,0.000,17,18,4*64
$GPGGA,080510.00,3135.5377888,N,12046.8996282,E,4,17,1.6,2.7382,M,8.330,M,01,0004*68
$GPHPD,0,0.000,73.13,0.50,-13.10,31.5922965,120.7816605,2.738,13631218.358,24927937.443,2.738,0.000,0.000,0.000,0.000,0.000,0.000,0.000,17,18,4*64
$GPGGA,080510.20,3135.5378028,N,12046.8996957,E,4,17,1.6,2.7464,M,8.330,M,01,0004*6B
$GPHPD,0,0.000,73.93,0.36,-13.09,31.5922967,120.7816616,2.746,13631218.294,24927938.175,2.746,0.000,0.000,0.000,0.000,0.000,0.000,0.000,17,18,4*6A
$GPGGA,080510.40,3135.5378157,N,12046.8997619,E,4,17,1.6,2.7441,M,8.330,M,01,0004*67
$GPHPD,0,0.000,74.22,0.21,-13.12,31.5922969,120.7816627,2.744,13631218.244,24927938.899,2.744,0.000,0.000,0.000,0.000,0.000,0.000,0.000,17,18,4*61
$GPGGA,080510.60,3135.5378274,N,12046.8998225,E,4,17,1.5,2.7432,M,8.330,M,00,0004*65
$GPHPD,0,0.000,74.45,0.03,-13.17,31.5922971,120.7816637,2.743,13631218.200,24927939.561,2.743,0.000,0.000,0.000,0.000,0.000,0.000,0.000,17,18,4*66
$GPGGA,080510.80,3135.5378386,N,12046.8998913,E,4,17,1.5,2.7513,M,8.330,M,00,0004*6B
$GPHPD,0,0.000,75.31,0.18,-13.23,31.5922973,120.7816649,2.751,13631218.179,24927940.326,2.751,0.000,0.000,0.000,0.000,0.000,0.000,0.000,17,18,4*64
$GPGGA,080511.00,3135.5378523,N,12046.8999656,E,4,17,1.5,2.7493,M,8.330,M,01,0004*6C
$GPHPD,0,0.000,75.95,0.50,-13.32,31.5922975,120.7816661,2.749,13631218.134,24927941.142,2.749,0.000,0.000,0.000,0.000,0.000,0.000,0.000,17,18,4*62
$GPGGA,080511.20,3135.5378706,N,12046.9000392,E,4,17,1.5,2.7367,M,8.330,M,01,0004*62
$GPHPD,0,0.000,75.96,0.25,-13.40,31.5922978,120.7816673,2.737,13631218.022,24927941.923,2.737,0.000,0.000,0.000,0.000,0.000,0.000,0.000,17,18,4*61
$GPGGA,080511.40,3135.5378849,N,12046.9001231,E,4,17,1.5,2.7411,M,8.330,M,01,0004*6F
$GPHPD,0,0.000,76.85,0.69,-13.52,31.5922981,120.7816687,2.741,13631217.987,24927942.852,2.741,0.000,0.000,0.000,0.000,0.000,0.000,0.000,17,18,4*6B
$GPGGA,080511.60,3135.5379027,N,12046.9002139,E,4,17,1.5,2.7383,M,8.330,M,00,0004*69
$GPHPD,0,0.000,77.32,0.43,-13.61,31.5922984,120.7816702,2.738,13631217.917,24927943.843,2.738,0.000,0.000,0.000,0.000,0.000,0.000,0.000,17,18,4*6F
$GPGGA,080511.80,3135.5379170,N,12046.9003120,E,4,17,1.5,2.7398,M,8.330,M,00,0004*67
$GPHPD,0,0.000,77.83,0.71,-13.72,31.5922986,120.7816719,2.740,13631217.911,24927944.943,2.740,0.000,0.000,0.000,0.000,0.000,0.000,0.000,17,18,4*6E
$GPGGA,080512.00,3135.5379356,N,12046.9004172,E,4,17,1.5,2.7322,M,8.330,M,01,0004*6A
$GPHPD,0,0.000,78.46,0.49,-13.84,31.5922989,120.7816736,2.732,13631217.858,24927946.103,2.732,0.000,0.000,0.000,0.000,0.000,0.000,0.000,17,18,4*6A
$GPGGA,080512.20,3135.5379513,N,12046.9005283,E,4,17,1.5,2.7317,M,8.330,M,01,0004*65
$GPHPD,0,0.000,79.19,0.85,-13.84,31.5922992,120.7816755,2.732,13631217.859,24927947.352,2.732,0.000,0.000,0.000,0.000,0.000,0.000,0.000,17,18,4*68
$GPGGA,080512.40,3135.5379666,N,12046.9006403,E,4,17,1.4,2.7415,M,8.330,M,01,0004*6B
$GPHPD,0,0.000,79.69,1.40,-13.81,31.5922994,120.7816773,2.742,13631217.867,24927948.613,2.742,0.000,0.000,0.000,0.000,0.000,0.000,0.000,17,18,4*62
$GPGGA,080512.60,3135.5379829,N,12046.9007467,E,4,17,1.4,2.7366,M,8.330,M,00,0004*6D
$GPHPD,0,0.000,79.80,0.85,-13.77,31.5922997,120.7816791,2.737,13631217.849,24927949.802,2.737,0.000,0.000,0.000,0.000,0.000,0.000,0.000,17,18,4*68
$GPGGA,080512.80,3135.5379952,N,12046.9008449,E,4,17,1.4,2.7420,M,8.330,M,00,0004*68
$GPHPD,0,0.000,80.14,1.44,-13.73,31.5922999,120.7816807,2.742,13631217.872,24927950.914,2.742,0.000,0.000,0.000,0.000,0.000,0.000,0.000,17,18,4*63
$GPGGA,080513.00,3135.5380069,N,12046.9009420,E,4,17,1.4,2.7583,M,8.330,M,01,0004*61
$GPHPD,0,0.000,80.35,1.66,-13.71,31.5923001,120.7816824,2.758,13631217.901,24927952.017,2.758,0.000,0.000,0.000,0.000,0.000,0.000,0.000,17,17,4*68
$GPGGA,080513.20,3135.5380211,N,12046.9010367,E,4,17,1.4,2.7483,M,8.330,M,01,0004*63
$GPHPD,0,0.000,80.17,1.13,-13.69,31.5923004,120.7816839,2.748,13631217.889,24927953.077,2.748,0.000,0.000,0.000,0.000,0.000,0.000,0.000,17,17,4*6C
$GPGGA,080513.40,3135.5380282,N,12046.9011265,E,4,17,1.4,2.7545,M,8.330,M,01,0004*66
$GPHPD,0,0.000,80.72,1.25,-13.70,31.5923005,120.7816854,2.755,13631217.969,24927954.118,2.755,0.000,0.000,0.000,0.000,0.000,0.000,0.000,17,17,4*68
$GPGGA,080513.60,3135.5380369,N,12046.9012190,E,4,17,1.4,2.7635,M,8.330,M,00,0004*6F
$GPHPD,0,0.000,80.74,1.18,-13.73,31.5923006,120.7816870,2.764,13631218.032,24927955.183,2.764,0.000,0.000,0.000,0.000,0.000,0.000,0.000,17,17,4*6D
$GPGGA,080513.80,3135.5380484,N,12046.9013109,E,4,17,1.4,2.7630,M,8.330,M,00,0004*61
$GPHPD,0,0.000,80.79,0.96,-13.76,31.5923008,120.7816885,2.763,13631218.053,24927956.224,2.763,0.000,0.000,0.000,0.000,0.000,0.000,0.000,17,17,4*6C
$GPGGA,080514.00,3135.5380634,N,12046.9014132,E,4,17,1.4,2.7442,M,8.330,M,01,0004*6E
$GPHPD,0,0.000,80.91,0.79,-13.80,31.5923011,120.7816902,2.744,13631218.046,24927957.371,2.744,0.000,0.000,0.000,0.000,0.000,0.000,0.000,17,17,4*60
$GPGGA,080514.20,3135.5380756,N,12046.9015155,E,4,17,1.4,2.7533,M,8.330,M,01,0004*6E
$GPHPD,0,0.000,81.07,1.06,-13.84,31.5923013,120.7816919,2.753,13631218.078,24927958.533,2.753,0.000,0.000,0.000,0.000,0.000,0.000,0.000,17,17,4*69
$GPGGA,080514.40,3135.5380858,N,12046.9016274,E,4,17,1.4,2.7665,M,8.330,M,01,0004*6A
$GPHPD,0,0.000,81.54,0.96,-13.89,31.5923014,120.7816938,2.767,13631218.158,24927959.824,2.767,0.000,0.000,0.000,0.000,0.000,0.000,0.000,17,17,4*67
$GPGGA,080514.60,3135.5381008,N,12046.9017465,E,4,17,1.4,2.7670,M,8.330,M,00,0004*66
$GPHPD,0,0.000,81.84,0.72,-13.92,31.5923017,120.7816958,2.767,13631218.185,24927961.173,2.767,0.000,0.000,0.000,0.000,0.000,0.000,0.000,17,17,4*6F
$GPGGA,080514.80,3135.5381164,N,12046.9018731,E,4,17,1.4,2.7644,M,8.330,M,00,0004*69
$GPHPD,0,0.000,82.05,0.36,-13.96,31.5923019,120.7816979,2.764,13631218.218,24927962.608,2.764,0.000,0.000,0.000,0.000,0.000,0.000,0.000,17,17,4*63
$GPGGA,080515.00,3135.5381272,N,12046.9020075,E,4,17,1.4,2.7636,M,8.330,M,01,0004*6C
$GPHPD,0,0.000,82.73,0.33,-13.98,31.5923021,120.7817001,2.764,13631218.335,24927964.166,2.764,0.000,0.000,0.000,0.000,0.000,0.000,0.000,17,17,4*62
$GPGGA,080515.20,3135.5381347,N,12046.9021490,E,4,17,1.4,2.7828,M,8.330,M,01,0004*66
$GPHPD,0,0.000,84.23,1.06,-13.91,31.5923022,120.7817025,2.783,13631218.513,24927965.829,2.783,0.000,0.000,0.000,0.000,0.000,0.000,0.000,17,17,4*6B
$GPGGA,080515.40,3135.5381367,N,12046.9022897,E,4,17,1.4,2.7836,M,8.330,M,01,0004*65
$GPHPD,0,0.000,85.84,0.31,-13.76,31.5923023,120.7817048,2.784,13631218.767,24927967.514,2.784,0.000,0.000,0.000,0.000,0.000,0.000,0.000,17,18,4*6E
$GPGGA,080515.60,3135.5381298,N,12046.9024325,E,4,17,1.4,2.7966,M,8.330,M,00,0004*67
$GPHPD,0,0.000,88.00,0.44,-13.60,31.5923022,120.7817072,2.797,13631219.153,24927969.277,2.797,0.000,0.000,0.000,0.000,0.000,0.000,0.000,17,18,4*6E
$GPGGA,080515.80,3135.5381228,N,12046.9025657,E,4,17,1.4,2.7909,M,8.330,M,00,0004*6A
$GPHPD,0,0.000,90.38,0.08,-13.47,31.5923020,120.7817094,2.791,13631219.520,24927970.924,2.791,0.000,0.000,0.000,0.000,0.000,0.000,0.000,17,18,4*6E
$GPGGA,080516.00,3135.5381113,N,12046.9026948,E,4,17,1.4,2.7873,M,8.330,M,01,0004*65
$GPHPD,0,0.000,93.17,0.67,-13.29,31.5923019,120.7817116,2.787,13631219.944,24927972.548,2.787,0.000,0.000,0.000,0.000,0.000,0.000,0.000,17,18,4*6A
$GPGGA,080516.20,3135.5380902,N,12046.9028193,E,4,17,1.4,2.8037,M,8.330,M,01,0004*69
$GPHPD,0,0.000,95.69,0.42,-13.15,31.5923015,120.7817137,2.804,13631220.494,24927974.172,2.804,0.000,0.000,0.000,0.000,0.000,0.000,0.000,17,18,4*63
$GPGGA,080516.40,3135.5380656,N,12046.9029373,E,4,17,1.4,2.8030,M,8.330,M,01,0004*6B
$GPHPD,0,0.000,98.03,-0.30,-13.06,31.5923011,120.7817156,2.803,13631221.081,24927975.739,2.803,0.000,0.000,0.000,0.000,0.000,0.000,0.000,17,18,4*42
$GPGGA,080516.60,3135.5380397,N,12046.9030539,E,4,17,1.4,2.7918,M,8.330,M,00,0004*6C
$GPHPD,0,0.000,100.31,-0.49,-12.97,31.5923007,120.7817176,2.792,13631221.684,24927977.296,2.792,0.000,0.000,0.000,0.000,0.000,0.000,0.000,17,18,4*70
$GPGGA,080516.80,3135.5380114,N,12046.9031718,E,4,17,1.4,2.7953,M,8.330,M,00,0004*64
$GPHPD,0,0.000,102.46,0.07,-12.84,31.5923002,120.7817195,2.795,13631222.323,24927978.882,2.795,0.000,0.000,0.000,0.000,0.000,0.000,0.000,17,18,4*54
$GPGGA,080517.00,3135.5379835,N,12046.9032808,E,4,17,1.4,2.8066,M,8.330,M,01,0004*6D
$GPHPD,0,0.000,104.33,0.19,-12.75,31.5922997,120.7817213,2.807,13631222.939,24927980.359,2.807,0.000,0.000,0.000,0.000,0.000,0.000,0.000,17,18,4*53
$GPGGA,080517.20,3135.5379526,N,12046.9033893,E,4,17,1.4,2.8034,M,8.330,M,01,0004*64
$GPHPD,0,0.000,106.09,-0.73,-12.69,31.5922992,120.7817232,2.803,13631223.597,24927981.848,2.803,0.000,0.000,0.000,0.000,0.000,0.000,0.000,17,18,4*71
$GPGGA,080517.40,3135.5379189,N,12046.9034919,E,4,17,1.4,2.8030,M,8.330,M,01,0004*63
$GPHPD,0,0.000,107.87,-0.62,-12.65,31.5922986,120.7817249,2.803,13631224.282,24927983.281,2.803,0.000,0.000,0.000,0.000,0.000,0.000,0.000,17,18,4*7A
$GPGGA,080517.60,3135.5378827,N,12046.9035926,E,4,17,1.4,2.7993,M,8.330,M,00,0004*6E
$GPHPD,0,0.000,109.52,-0.33,-12.64,31.5922980,120.7817265,2.799,13631225.000,24927984.707,2.799,0.000,0.000,0.000,0.000,0.000,0.000,0.000,17,18,4*74
$GPGGA,080517.80,3135.5378442,N,12046.9036918,E,4,17,1.4,2.7988,M,8.330,M,00,0004*6B
$GPHPD,0,0.000,110.84,-0.55,-12.68,31.5922974,120.7817282,2.799,13631225.747,24927986.127,2.799,0.000,0.000,0.000,0.000,0.000,0.000,0.000,17,18,4*7B
$GPGGA,080518.00,3135.5378045,N,12046.9037920,E,4,17,1.4,2.8026,M,8.330,M,01,0004*66
$GPHPD,0,0.000,112.01,-0.16,-12.70,31.5922967,120.7817299,2.803,13631226.513,24927987.567,2.803,0.000,0.000,0.000,0.000,0.000,0.000,0.000,17,18,4*73
$GPGGA,080518.20,3135.5377639,N,12046.9038909,E,4,17,1.4,2.7989,M,8.330,M,01,0004*61
$GPHPD,0,0.000,113.02,-0.45,-12.73,31.5922961,120.7817315,2.799,13631227.289,24927988.996,2.799,0.000,0.000,0.000,0.000,0.000,0.000,0.000,17,18,4*7F
$GPGGA,080518.40,3135.5377224,N,12046.9039907,E,4,17,1.4,2.8065,M,8.330,M,01,0004*64
$GPHPD,0,0.000,113.93,-0.60,-12.74,31.5922954,120.7817332,2.807,13631228.079,24927990.441,2.807,0.000,0.000,0.000,0.000,0.000,0.000,0.000,17,18,4*78
$GPGGA,080518.60,3135.5376796,N,12046.9040929,E,4,17,1.4,2.8122,M,8.330,M,00,0004*6A
$GPHPD,0,0.000,114.58,-0.83,-12.78,31.5922947,120.7817349,2.812,13631228.894,24927991.923,2.812,0.000,0.000,0.000,0.000,0.000,0.000,0.000,17,18,4*74
$GPGGA,080518.80,3135.5376346,N,12046.9041958,E,4,17,1.4,2.8038,M,8.330,M,00,0004*60
$GPHPD,0,0.000,115.01,-1.29,-12.84,31.5922939,120.7817366,2.804,13631229.740,24927993.426,2.804,0.000,0.000,0.000,0.000,0.000,0.000,0.000,17,18,4*72
$GPGGA,080519.00,3135.5375856,N,12046.9043008,E,4,17,1.4,2.7967,M,8.330,M,01,0004*63
$GPHPD,0,0.000,115.57,-0.95,-12.86,31.5922931,120.7817383,2.797,13631230.648,24927994.978,2.797,0.000,0.000,0.000,0.000,0.000,0.000,0.000,17,18,4*76
$GPGGA,080519.20,3135.5375398,N,12046.9044113,E,4,17,1.4,2.7890,M,8.330,M,01,0004*6D
$GPHPD,0,0.000,115.93,-0.88,-12.84,31.5922923,120.7817402,2.789,13631231.521,24927996.577,2.789,0.000,0.000,0.000,0.000,0.000,0.000,0.000,17,18,4*71
$GPGGA,080519.40,3135.5374896,N,12046.9045211,E,4,17,1.4,2.7871,M,8.330,M,01,0004*60
$GPHPD,0,0.000,116.29,-0.57,-12.82,31.5922915,120.7817420,2.787,13631232.456,24927998.194,2.787,0.000,0.000,0.000,0.000,0.000,0.000,0.000,17,18,4*77
$GPGGA,080519.60,3135.5374392,N,12046.9046317,E,4,17,1.4,2.7891,M,8.330,M,01,0004*67
$GPHPD,0,0.000,116.55,-0.74,-12.80,31.5922907,120.7817439,2.789,13631233.395,24927999.821,2.789,0.000,0.000,0.000,0.000,0.000,0.000,0.000,17,18,4*7B
$GPGGA,080519.80,3135.5373892,N,12046.9047417,E,4,17,1.4,2.7843,M,8.330,M,01,0004*6C
$GPHPD,0,0.000,116.73,-0.54,-12.77,31.5922898,120.7817457,2.784,13631234.327,24928001.439,2.784,0.000,0.000,0.000,0.000,0.000,0.000,0.000,17,18,4*76
$GPGGA,080520.00,3135.5373386,N,12046.9048518,E,4,17,1.4,2.7793,M,8.330,M,02,0004*60
$GPHPD,0,0.000,117.19,-0.30,-12.71,31.5922890,120.7817475,2.779,13631235.268,24928003.062,2.779,0.000,0.000,0.000,0.000,0.000,0.000,0.000,17,18,4*74
$GPGGA,080520.20,3135.5372865,N,12046.9049602,E,4,17,1.4,2.7888,M,8.330,M,02,0004*69
$GPHPD,0,0.000,117.45,-0.45,-12.64,31.5922881,120.7817493,2.789,13631236.227,24928004.672,2.789,0.000,0.000,0.000,0.000,0.000,0.000,0.000,17,18,4*7B
$GPGGA,080520.40,3135.5372368,N,12046.9050633,E,4,17,1.4,2.7893,M,8.330,M,02,0004*69
$GPHPD,0,0.000,117.65,-1.00,-12.56,31.5922873,120.7817511,2.789,13631237.141,24928006.205,2.789,0.000,0.000,0.000,0.000,0.000,0.000,0.000,17,18,4*7A
$GPGGA,080520.60,3135.5371865,N,12046.9051705,E,4,17,1.4,2.7920,M,8.330,M,02,0004*62
$GPHPD,0,0.000,117.68,-1.61,-12.45,31.5922864,120.7817528,2.792,13631238.071,24928007.791,2.792,0.000,0.000,0.000,0.000,0.000,0.000,0.000,17,18,4*7A
$GPGGA,080520.80,3135.5371362,N,12046.9052749,E,4,17,1.4,2.8034,M,8.330,M,00,0004*6A
$GPHPD,0,0.000,118.00,-1.49,-12.36,31.5922856,120.7817546,2.803,13631238.997,24928009.343,2.803,0.000,0.000,0.000,0.000,0.000,0.000,0.000,17,18,4*78
$GPGGA,080521.00,3135.5370927,N,12046.9053725,E,4,17,1.4,2.7926,M,8.330,M,01,0004*66
$GPHPD,0,0.000,118.10,-1.97,-12.31,31.5922849,120.7817562,2.793,13631239.811,24928010.773,2.793,0.000,0.000,0.000,0.000,0.000,0.000,0.000,17,18,4*74
$GPGGA,080521.20,3135.5370433,N,12046.9054683,E,4,17,1.4,2.7990,M,8.330,M,01,0004*6B
$GPHPD,0,0.000,118.60,-1.81,-12.29,31.5922841,120.7817578,2.799,13631240.706,24928012.216,2.799,0.000,0.000,0.000,0.000,0.000,0.000,0.000,17,18,4*7D
$GPGGA,080521.40,3135.5369989,N,12046.9055601,E,4,17,1.4,2.7945,M,8.330,M,01,0004*6A
$GPHPD,0,0.000,118.89,-1.93,-12.27,31.5922833,120.7817593,2.795,13631241.522,24928013.582,2.795,0.000,0.000,0.000,0.000,0.000,0.000,0.000,17,18,4*79
$GPGGA,080521.60,3135.5369528,N,12046.9056506,E,4,17,1.4,2.7996,M,8.330,M,00,0004*67
$GPHPD,0,0.000,119.26,-1.28,-12.24,31.5922825,120.7817608,2.800,13631242.360,24928014.942,2.800,0.000,0.000,0.000,0.000,0.000,0.000,0.000,17,18,4*7C
$GPGGA,080521.80,3135.5369099,N,12046.9057364,E,4,17,1.4,2.7987,M,8.330,M,00,0004*65
$GPHPD,0,0.000,119.47,-1.96,-12.23,31.5922818,120.7817623,2.799,13631243.142,24928016.227,2.799,0.000,0.000,0.000,0.000,0.000,0.000,0.000,17,18,4*77
$GPGGA,080522.00,3135.5368679,N,12046.9058157,E,4,17,1.4,2.7926,M,8.330,M,01,0004*60
$GPHPD,0,0.000,119.68,-2.01,-12.24,31.5922811,120.7817636,2.793,13631243.899,24928017.427,2.793,0.000,0.000,0.000,0.000,0.000,0.000,0.000,17,18,4*75
$GPGGA,080522.20,3135.5368287,N,12046.9058949,E,4,17,1.4,2.7912,M,8.330,M,01,0004*67
$GPHPD,0,0.000,120.04,-1.36,-12.25,31.5922805,120.7817649,2.791,13631244.615,24928018.611,2.791,0.000,0.000,0.000,0.000,0.000,0.000,0.000,17,18,4*7B
$GPGGA,080522.40,3135.5367870,N,12046.9059678,E,4,17,1.4,2.7868,M,8.330,M,01,0004*6C
$GPHPD,0,0.000,120.14,-1.54,-12.25,31.5922798,120.7817661,2.787,13631245.355,24928019.733,2.787,0.000,0.000,0.000,0.000,0.000,0.000,0.000,17,18,4*7F
$GPGGA,080522.60,3135.5367513,N,12046.9060406,E,4,17,1.4,2.7759,M,8.330,M,00,0004*6B
$GPHPD,0,0.000,120.20,-1.36,-12.26,31.5922792,120.7817673,2.776,13631246.009,24928020.819,2.776,0.000,0.000,0.000,0.000,0.000,0.000,0.000,17,18,4*72
$GPGGA,080522.80,3135.5367159,N,12046.9061068,E,4,17,1.4,2.7691,M,8.330,M,00,0004*67
$GPHPD,0,0.000,120.52,-1.69,-12.33,31.5922786,120.7817684,2.769,13631246.645,24928021.823,2.769,0.000,0.000,0.000,0.000,0.000,0.000,0.000,17,17,4*7D
$GPGGA,080523.00,3135.5366764,N,12046.9061805,E,4,17,1.4,2.7726,M,8.330,M,01,0004*68
$GPHPD,0,0.000,120.89,-0.55,-12.48,31.5922779,120.7817697,2.773,13631247.355,24928022.942,2.773,0.000,0.000,0.000,0.000,0.000,0.000,0.000,17,18,4*74
$GPGGA,080523.20,3135.5366345,N,12046.9062554,E,4,17,1.4,2.7748,M,8.330,M,01,0004*6F
$GPHPD,0,0.000,121.19,-0.51,-12.55,31.5922772,120.7817709,2.775,13631248.101,24928024.090,2.775,0.000,0.000,0.000,0.000,0.000,0.000,0.000,17,18,4*75
$GPGGA,080523.40,3135.5365855,N,12046.9063377,E,4,17,1.4,2.7845,M,8.330,M,01,0004*64
$GPHPD,0,0.000,121.22,-0.91,-12.58,31.5922764,120.7817723,2.785,13631248.963,24928025.368,2.785,0.000,0.000,0.000,0.000,0.000,0.000,0.000,17,18,4*7A
$GPGGA,080523.60,3135.5365421,N,12046.9064181,E,4,17,1.4,2.7794,M,8.330,M,01,0004*66
$GPHPD,0,0.000,121.32,-0.75,-12.53,31.5922757,120.7817736,2.779,13631249.742,24928026.590,2.779,0.000,0.000,0.000,0.000,0.000,0.000,0.000,17,18,4*70
$GPGGA,080523.80,3135.5365059,N,12046.9064873,E,4,17,1.4,2.7685,M,8.330,M,00,0004*67
$GPHPD,0,0.000,121.59,-0.29,-12.47,31.5922751,120.7817748,2.769,13631250.396,24928027.635,2.769,0.000,0.000,0.000,0.000,0.000,0.000,0.000,17,18,4*76
$GPGGA,080524.00,3135.5364704,N,12046.9065480,E,4,17,1.4,2.7689,M,8.330,M,01,0004*6A
$GPHPD,0,0.000,121.95,-0.06,-12.36,31.5922745,120.7817758,2.769,13631251.023,24928028.574,2.769,0.000,0.000,0.000,0.000,0.000,0.000,0.000,17,18,4*7C
$GPGGA,080524.20,3135.5364422,N,12046.9065994,E,4,17,1.4,2.7683,M,8.330,M,01,0004*6D
$GPHPD,0,0.000,121.97,-0.14,-12.25,31.5922740,120.7817767,2.768,13631251.527,24928029.358,2.768,0.000,0.000,0.000,0.000,0.000,0.000,0.000,17,18,4*7E
$GPGGA,080524.40,3135.5364219,N,12046.9066350,E,4,17,1.4,2.7612,M,8.330,M,01,0004*6C
