$GPGGA,065340.20,3135.5393898,N,12046.8921109,E,4,17,1.6,2.7676,M,8.329,M,01,0004*63
$GPHPD,0,0.000,234.85,-1.08,-12.86,31.5923232,120.7815352,2.768,13631180.473,24927837.461,2.768,0.000,0.000,0.000,0.000,0.000,0.000,0.000,17,17,4*7B
$GPGGA,065340.40,3135.5393601,N,12046.8920596,E,4,17,1.6,2.7748,M,8.329,M,01,0004*64
$GPHPD,0,0.000,234.87,-0.75,-12.81,31.5923227,120.7815343,2.775,13631180.792,24927837.015,2.775,0.000,0.000,0.000,0.000,0.000,0.000,0.000,17,17,4*7A
$GPGGA,065340.60,3135.5393342,N,12046.8920115,E,4,17,1.6,2.7617,M,8.329,M,00,0004*61
$GPHPD,0,0.000,234.88,-1.37,-12.81,31.5923222,120.7815335,2.762,13631181.063,24927836.586,2.762,0.000,0.000,0.000,0.000,0.000,0.000,0.000,17,17,4*70
$GPGGA,065340.80,3135.5393047,N,12046.8919655,E,4,17,1.6,2.7760,M,8.329,M,00,0004*61
$GPHPD,0,0.000,234.81,-1.01,-12.79,31.5923217,120.7815328,2.776,13631181.390,24927836.203,2.776,0.000,0.000,0.000,0.000,0.000,0.000,0.000,17,17,4*74
$GPGGA,065341.00,3135.5392811,N,12046.8919202,E,4,17,1.6,2.7708,M,8.329,M,01,0004*6B
$GPHPD,0,0.000,235.09,-1.10,-12.73,31.5923214,120.7815320,2.771,13631181.634,24927835.794,2.771,0.000,0.000,0.000,0.000,0.000,0.000,0.000,17,17,4*77
$GPGGA,065341.20,3135.5392595,N,12046.8918830,E,4,17,1.4,2.7760,M,8.329,M,01,0004*6E
$GPHPD,0,0.000,235.01,-1.11,-12.66,31.5923210,120.7815314,2.776,13631181.867,24927835.471,2.776,0.000,0.000,0.000,0.000,0.000,0.000,0.000,17,17,4*79
$GPGGA,065341.40,3135.5392398,N,12046.8918467,E,4,17,1.4,2.7684,M,8.329,M,01,0004*66
$GPHPD,0,0.000,234.89,-1.19,-12.60,31.5923207,120.7815308,2.768,13631182.074,24927835.148,2.768,0.000,0.000,0.000,0.000,0.000,0.000,0.000,17,17,4*7B
$GPGGA,065341.60,3135.5392239,N,12046.8918160,E,4,17,1.4,2.7687,M,8.329,M,01,0004*6F
$GPHPD,0,0.000,234.92,-0.81,-12.54,31.5923204,120.7815303,2.769,13631182.238,24927834.870,2.769,0.000,0.000,0.000,0.000,0.000,0.000,0.000,17,17,4*77
$GPGGA,065341.80,3135.5392044,N,12046.8917858,E,4,17,1.4,2.7727,M,8.329,M,01,0004*6F
$GPHPD,0,0.000,234.78,-0.82,-12.55,31.5923201,120.7815298,2.773,13631182.454,24927834.620,2.773,0.000,0.000,0.000,0.000,0.000,0.000,0.000,17,17,4*70
$GPGGA,065342.00,3135.5391870,N,12046.8917487,E,4,17,1.4,2.7594,M,8.329,M,02,0004*6F
$GPHPD,0,0.000,234.79,-1.00,-12.63,31.5923198,120.7815291,2.759,13631182.627,24927834.273,2.759,0.000,0.000,0.000,0.000,0.000,0.000,0.000,17,17,4*71
$GPGGA,065342.20,3135.5391636,N,12046.8917080,E,4,17,1.4,2.7578,M,8.329,M,02,0004*60
$GPHPD,0,0.000,234.73,-0.08,-12.69,31.5923194,120.7815285,2.758,13631182.878,24927833.919,2.758,0.000,0.000,0.000,0.000,0.000,0.000,0.000,17,17,4*75
$GPGGA,065342.40,3135.5391389,N,12046.8916635,E,4,17,1.4,2.7614,M,8.329,M,02,0004*67
$GPHPD,0,0.000,234.63,-0.25,-12.73,31.5923190,120.7815277,2.761,13631183.139,24927833.526,2.761,0.000,0.000,0.000,0.000,0.000,0.000,0.000,17,17,4*74
$GPGGA,065342.60,3135.5391110,N,12046.8916130,E,4,17,1.4,2.7663,M,8.329,M,02,0004*65
$GPHPD,0,0.000,234.36,-0.93,-12.75,31.5923185,120.7815269,2.766,13631183.434,24927833.080,2.766,0.000,0.000,0.000,0.000,0.000,0.000,0.000,17,17,4*75
$GPGGA,065342.80,3135.5390810,N,12046.8915613,E,4,17,1.4,2.7630,M,8.329,M,00,0004*62
$GPHPD,0,0.000,234.58,-1.17,-12.73,31.5923180,120.7815260,2.763,13631183.757,24927832.631,2.763,0.000,0.000,0.000,0.000,0.000,0.000,0.000,17,17,4*71
$GPGGA,065343.00,3135.5390527,N,12046.8915086,E,4,17,1.4,2.7644,M,8.329,M,01,0004*6A
$GPHPD,0,0.000,234.52,-0.75,-12.73,31.5923175,120.7815251,2.764,13631184.053,24927832.160,2.764,0.000,0.000,0.000,0.000,0.000,0.000,0.000,17,17,4*71
$GPGGA,065343.20,3135.5390199,N,12046.8914561,E,4,17,1.4,2.7564,M,8.329,M,01,0004*65
$GPHPD,0,0.000,234.16,-0.34,-12.74,31.5923170,120.7815243,2.756,13631184.414,24927831.718,2.756,0.000,0.000,0.000,0.000,0.000,0.000,0.000,17,17,4*78
$GPGGA,065343.40,3135.5389918,N,12046.8914032,E,4,17,1.4,2.7593,M,8.329,M,01,0004*61
$GPHPD,0,0.000,234.14,-0.09,-12.73,31.5923165,120.7815234,2.759,13631184.707,24927831.244,2.759,0.000,0.000,0.000,0.000,0.000,0.000,0.000,17,17,4*7A
$GPGGA,065343.60,3135.5389579,N,12046.8913560,E,4,17,1.4,2.7700,M,8.329,M,01,0004*65
$GPHPD,0,0.000,233.86,-0.17,-12.73,31.5923160,120.7815226,2.770,13631185.093,24927830.872,2.770,0.000,0.000,0.000,0.000,0.000,0.000,0.000,17,17,4*7A
$GPGGA,065343.80,3135.5389277,N,12046.8913029,E,4,17,1.4,2.7601,M,8.329,M,01,0004*6A
$GPHPD,0,0.000,234.00,0.02,-12.70,31.5923155,120.7815217,2.760,13631185.416,24927830.407,2.760,0.000,0.000,0.000,0.000,0.000,0.000,0.000,17,17,4*5A
$GPGGA,065344.00,3135.5389000,N,12046.8912512,E,4,17,1.4,2.7662,M,8.329,M,02,0004*6D
$GPHPD,0,0.000,234.06,0.29,-12.70,31.5923150,120.7815209,2.766,13631185.706,24927829.945,2.766,0.000,0.000,0.000,0.000,0.000,0.000,0.000,17,17,4*5E
$GPGGA,065344.20,3135.5388667,N,12046.8911936,E,4,17,1.6,2.7501,M,8.329,M,02,0004*64
$GPHPD,0,0.000,234.22,-0.42,-12.75,31.5923144,120.7815199,2.750,13631186.063,24927829.444,2.750,0.000,0.000,0.000,0.000,0.000,0.000,0.000,17,17,4*79
$GPGGA,065344.40,3135.5388347,N,12046.8911335,E,4,17,1.6,2.7424,M,8.329,M,02,0004*6A
$GPHPD,0,0.000,233.91,-0.50,-12.78,31.5923139,120.7815189,2.742,13631186.397,24927828.906,2.742,0.000,0.000,0.000,0.000,0.000,0.000,0.000,17,17,4*71
$GPGGA,065344.60,3135.5387985,N,12046.8910745,E,4,16,1.6,2.7522,M,8.329,M,02,0004*67
$GPHPD,0,0.000,234.15,0.01,-12.83,31.5923133,120.7815179,2.752,13631186.793,24927828.405,2.752,0.000,0.000,0.000,0.000,0.000,0.000,0.000,16,17,4*5D
$GPGGA,065344.80,3135.5387578,N,12046.8910104,E,4,17,1.6,2.7561,M,8.329,M,00,0004*60
$GPHPD,0,0.000,234.38,-0.14,-12.92,31.5923126,120.7815168,2.756,13631187.243,24927827.869,2.756,0.000,0.000,0.000,0.000,0.000,0.000,0.000,17,17,4*7E
$GPGGA,065345.00,3135.5387133,N,12046.8909442,E,4,17,1.6,2.7592,M,8.329,M,01,0004*60
$GPHPD,0,0.000,234.50,-0.31,-12.98,31.5923119,120.7815157,2.759,13631187.742,24927827.330,2.759,0.000,0.000,0.000,0.000,0.000,0.000,0.000,17,17,4*7E
$GPGGA,065345.20,3135.5386662,N,12046.8908672,E,4,17,1.6,2.7481,M,8.329,M,01,0004*63
$GPHPD,0,0.000,234.66,-0.21,-13.06,31.5923111,120.7815145,2.748,13631188.257,24927826.676,2.748,0.000,0.000,0.000,0.000,0.000,0.000,0.000,17,17,4*7F
$GPGGA,065345.40,3135.5386147,N,12046.8907768,E,4,16,1.6,2.7392,M,8.329,M,01,0004*64
$GPHPD,0,0.000,234.41,-0.46,-13.16,31.5923102,120.7815129,2.739,13631188.807,24927825.885,2.739,0.000,0.000,0.000,0.000,0.000,0.000,0.000,16,17,4*7D
$GPGGA,065345.60,3135.5385515,N,12046.8906839,E,4,17,1.6,2.7221,M,8.329,M,00,0004*65
$GPHPD,0,0.000,234.32,0.04,-13.23,31.5923092,120.7815114,2.722,13631189.518,24927825.133,2.722,0.000,0.000,0.000,0.000,0.000,0.000,0.000,17,17,4*55
$GPGGA,065345.80,3135.5384869,N,12046.8905851,E,4,17,1.6,2.7353,M,8.329,M,00,0004*65
$GPHPD,0,0.000,235.27,-0.27,-13.29,31.5923081,120.7815098,2.735,13631190.238,24927824.318,2.735,0.000,0.000,0.000,0.000,0.000,0.000,0.000,17,17,4*76
$GPGGA,065346.00,3135.5384198,N,12046.8904742,E,4,16,1.6,2.7368,M,8.329,M,01,0004*6D
$GPHPD,0,0.000,235.56,-1.03,-13.30,31.5923070,120.7815079,2.737,13631190.968,24927823.371,2.737,0.000,0.000,0.000,0.000,0.000,0.000,0.000,16,17,4*79
$GPGGA,065346.20,3135.5383455,N,12046.8903511,E,4,16,1.6,2.6819,M,8.329,M,01,0004*63
$GPHPD,0,0.000,235.99,-2.14,-13.32,31.5923058,120.7815059,2.682,13631191.777,24927822.319,2.682,0.000,0.000,0.000,0.000,0.000,0.000,0.000,16,17,4*7B
$GPGGA,065346.40,3135.5382921,N,12046.8902274,E,4,16,1.6,2.7111,M,8.329,M,01,0004*6F
$GPHPD,0,0.000,234.81,-3.66,-13.40,31.5923049,120.7815038,2.711,13631192.287,24927821.138,2.711,0.000,0.000,0.000,0.000,0.000,0.000,0.000,16,17,4*7E
$GPGGA,065346.60,3135.5382214,N,12046.8901029,E,4,16,1.6,2.7089,M,8.329,M,00,0004*68
$GPHPD,0,0.000,236.20,-0.24,-13.42,31.5923037,120.7815017,2.709,13631193.042,24927820.049,2.709,0.000,0.000,0.000,0.000,0.000,0.000,0.000,16,16,4*79
$GPGGA,065346.80,3135.5381386,N,12046.8899837,E,4,16,1.9,2.7177,M,8.329,M,00,0004*67
$GPHPD,0,0.000,236.18,-1.43,-13.38,31.5923023,120.7814997,2.718,13631193.979,24927819.093,2.718,0.000,0.000,0.000,0.000,0.000,0.000,0.000,16,16,4*76
$GPGGA,065347.00,3135.5380762,N,12046.8898471,E,4,16,1.6,2.7164,M,8.329,M,01,0004*62
$GPHPD,0,0.000,236.60,-1.43,-13.33,31.5923013,120.7814975,2.716,13631194.591,24927817.809,2.716,0.000,0.000,0.000,0.000,0.000,0.000,0.000,16,16,4*75
$GPGGA,065347.20,3135.5380063,N,12046.8897146,E,4,16,1.8,2.7176,M,8.329,M,01,0004*65
$GPHPD,0,0.000,236.40,-0.48,-13.29,31.5923001,120.7814952,2.718,13631195.318,24927816.619,2.718,0.000,0.000,0.000,0.000,0.000,0.000,0.000,16,16,4*78
$GPGGA,065347.40,3135.5379442,N,12046.8895860,E,4,16,1.8,2.7222,M,8.329,M,01,0004*6F
$GPHPD,0,0.000,235.80,-2.03,-13.20,31.5922991,120.7814931,2.722,13631195.942,24927815.429,2.722,0.000,0.000,0.000,0.000,0.000,0.000,0.000,16,16,4*70
$GPGGA,065347.60,3135.5378824,N,12046.8894579,E,4,17,1.8,2.7705,M,8.329,M,01,0004*65
$GPHPD,0,0.000,235.80,-2.41,-13.11,31.5922980,120.7814910,2.771,13631196.563,24927814.244,2.771,0.000,0.000,0.000,0.000,0.000,0.000,0.000,17,16,4*76
$GPGGA,065347.80,3135.5378105,N,12046.8893194,E,4,17,1.8,2.7386,M,8.329,M,00,0004*6F
$GPHPD,0,0.000,235.05,-4.14,-13.10,31.5922968,120.7814887,2.739,13631197.306,24927812.993,2.739,0.000,0.000,0.000,0.000,0.000,0.000,0.000,17,17,4*77
$GPGGA,065348.00,3135.5377436,N,12046.8891896,E,4,17,1.8,2.7428,M,8.329,M,01,0004*69
$GPHPD,0,0.000,236.08,-1.49,-13.13,31.5922957,120.7814865,2.743,13631197.996,24927811.817,2.743,0.000,0.000,0.000,0.000,0.000,0.000,0.000,17,17,4*7A
$GPGGA,065348.20,3135.5376734,N,12046.8890589,E,4,17,1.8,2.7440,M,8.329,M,01,0004*67
$GPHPD,0,0.000,236.19,-1.98,-13.13,31.5922946,120.7814843,2.744,13631198.731,24927810.650,2.744,0.000,0.000,0.000,0.000,0.000,0.000,0.000,17,17,4*72
$GPGGA,065348.40,3135.5375993,N,12046.8889370,E,4,17,1.8,2.7419,M,8.329,M,01,0004*65
$GPHPD,0,0.000,235.36,-2.55,-13.15,31.5922933,120.7814823,2.742,13631199.539,24927809.611,2.742,0.000,0.000,0.000,0.000,0.000,0.000,0.000,17,17,4*7A
$GPGGA,065348.60,3135.375229,N,12046.8888043,E,4,17,1.8,2.7312,M,8.329,M,01,0004*63
$GPHPD,0,0.000,235.42,-2.66,-13.16,31.5922920,120.7814801,2.731,13631200.358,24927808.456,2.731,0.000,0.000,0.000,0.000,0.000,0.000,0.000,17,17,4*7A
$GPGGA,065348.80,3135.5374532,N,12046.8886659,E,4,15,1.9,2.7515,M,8.329,M,01,0004*60
$GPHPD,0,0.000,235.69,-1.93,-13.15,31.5922909,120.7814778,2.752,13631201.070,24927807.192,2.752,0.000,0.000,0.000,0.000,0.000,0.000,0.000,15,17,4*7B
$GPGGA,065349.00,3135.5373808,N,12046.8885259,E,4,16,1.9,2.7250,M,8.329,M,02,0004*6B
$GPHPD,0,0.000,235.97,-1.89,-13.14,31.5922897,120.7814754,2.725,13631201.818,24927805.926,2.725,0.000,0.000,0.000,0.000,0.000,0.000,0.000,16,16,4*79
$GPGGA,065349.20,3135.5373060,N,12046.8883847,E,4,15,1.9,2.7088,M,8.329,M,02,0004*68
$GPHPD,0,0.000,235.55,-0.63,-13.16,31.5922884,120.7814731,2.709,13631202.597,24927804.659,2.709,0.000,0.000,0.000,0.000,0.000,0.000,0.000,15,16,4*7D
$GPGGA,065349.40,3135.5372309,N,12046.8882594,E,4,15,1.9,2.7442,M,8.329,M,02,0004*63
$GPHPD,0,0.000,233.83,-1.04,-13.16,31.5922872,120.7814710,2.744,13631203.412,24927803.585,2.744,0.000,0.000,0.000,0.000,0.000,0.000,0.000,15,14,4*70
$GPGGA,065349.60,3135.5371574,N,12046.8881242,E,4,15,1.9,2.7516,M,8.329,M,02,0004*61
$GPHPD,0,0.000,235.99,-1.06,-13.14,31.5922860,120.7814687,2.752,13631204.185,24927802.382,2.752,0.000,0.000,0.000,0.000,0.000,0.000,0.000,15,14,4*7D
$GPGGA,065349.80,3135.5370761,N,12046.8879890,E,4,15,1.9,2.7532,M,8.329,M,00,0004*6E
$GPHPD,0,0.000,234.68,-2.25,-13.12,31.5922846,120.7814665,2.753,13631205.069,24927801.225,2.753,0.000,0.000,0.000,0.000,0.000,0.000,0.000,15,14,4*73
$GPGGA,065350.00,3135.5370029,N,12046.8878473,E,4,16,1.9,2.7166,M,8.329,M,01,0004*62
$GPHPD,0,0.000,236.37,-0.60,-13.10,31.5922834,120.7814641,2.717,13631205.824,24927799.943,2.717,0.000,0.000,0.000,0.000,0.000,0.000,0.000,16,14,4*7E
$GPGGA,065350.20,3135.5369286,N,12046.8877170,E,4,16,1.9,2.7565,M,8.329,M,01,0004*61
$GPHPD,0,0.000,235.74,-0.71,-13.08,31.5922821,120.7814620,2.757,13631206.618,24927798.804,2.757,0.000,0.000,0.000,0.000,0.000,0.000,0.000,16,15,4*70
$GPGGA,065350.40,3135.5368428,N,12046.8875822,E,4,17,1.9,2.7420,M,8.329,M,01,0004*69
$GPHPD,0,0.000,237.96,-0.23,-13.07,31.5922807,120.7814597,2.742,13631207.567,24927797.678,2.742,0.000,0.000,0.000,0.000,0.000,0.000,0.000,17,15,4*7C
$GPGGA,065350.60,3135.5367569,N,12046.8874591,E,4,16,1.8,2.7929,M,8.329,M,01,0004*60
$GPHPD,0,0.000,238.37,-0.11,-13.07,31.5922793,120.7814577,2.793,13631208.540,24927796.694,2.793,0.000,0.000,0.000,0.000,0.000,0.000,0.000,16,16,4*7E
$GPGGA,065350.80,3135.5366927,N,12046.8873214,E,4,16,1.8,2.8230,M,8.329,M,00,0004*69
$GPHPD,0,0.000,238.39,-0.94,-13.08,31.5922782,120.7814554,2.823,13631209.176,24927795.407,2.823,0.000,0.000,0.000,0.000,0.000,0.000,0.000,16,15,4*7B
$GPGGA,065351.00,3135.366324,N,12046.8871793,E,4,16,1.8,2.8286,M,8.329,M,01,0004*6D
$GPHPD,0,0.000,238.48,-2.16,-13.08,31.5922772,120.7814530,2.829,13631209.747,24927794.044,2.829,0.000,0.000,0.000,0.000,0.000,0.000,0.000,16,15,4*7E
$GPGGA,065351.20,3135.5365576,N,12046.8870276,E,4,16,1.8,2.8012,M,8.329,M,01,0004*6D
$GPHPD,0,0.000,236.84,-3.90,-13.11,31.5922760,120.7814505,2.801,13631210.505,24927792.651,2.801,0.000,0.000,0.000,0.000,0.000,0.000,0.000,16,15,4*7A
$GPGGA,065351.40,3135.5364944,N,12046.8868822,E,4,16,1.8,2.7945,M,8.329,M,01,0004*61
$GPHPD,0,0.000,239.37,-1.91,-13.13,31.5922749,120.7814480,2.795,13631211.111,24927791.265,2.795,0.000,0.000,0.000,0.000,0.000,0.000,0.000,16,15,4*7B
$GPGGA,065351.60,3135.5364236,N,12046.8867437,E,4,17,1.4,2.7925,M,8.329,M,00,0004*60
$GPHPD,0,0.000,238.17,-1.71,-13.12,31.5922737,120.7814457,2.793,13631211.839,24927790.007,2.793,0.000,0.000,0.000,0.000,0.000,0.000,0.000,17,15,4*71
$GPGGA,065351.80,3135.5363562,N,12046.8866039,E,4,17,1.4,2.8053,M,8.329,M,00,0004*63
$GPHPD,0,0.000,237.69,-1.91,-13.11,31.5922726,120.7814434,2.805,13631212.515,24927788.714,2.805,0.000,0.000,0.000,0.000,0.000,0.000,0.000,17,16,4*70
$GPGGA,065352.00,3135.5362991,N,12046.8864401,E,4,17,1.4,2.7274,M,8.329,M,01,0004*6D
$GPHPD,0,0.000,236.85,-1.21,-13.08,31.5922717,120.7814407,2.727,13631212.998,24927787.071,2.727,0.000,0.000,0.000,0.000,0.000,0.000,0.000,17,16,4*70
$GPGGA,065352.20,3135.5362248,N,12046.8862980,E,4,17,1.4,2.7254,M,8.329,M,01,0004*60
$GPHPD,0,0.000,237.49,-0.71,-13.05,31.5922704,120.7814383,2.725,13631213.768,24927785.790,2.725,0.000,0.000,0.000,0.000,0.000,0.000,0.000,17,16,4*7B
$GPGGA,065352.40,3135.5361612,N,12046.8861603,E,4,17,1.4,2.7391,M,8.329,M,01,0004*61
$GPHPD,0,0.000,237.68,-0.33,-13.04,31.5922694,120.7814360,2.739,13631214.395,24927784.499,2.739,0.000,0.000,0.000,0.000,0.000,0.000,0.000,17,16,4*70
$GPGGA,065352.60,3135.5360853,N,12046.8860184,E,4,17,1.4,2.7383,M,8.329,M,00,0004*62
$GPHPD,0,0.000,236.77,-0.80,-13.03,31.5922681,120.7814336,2.738,13631215.188,24927783.230,2.738,0.000,0.000,0.000,0.000,0.000,0.000,0.000,17,16,4*7A
$GPGGA,065352.80,3135.5360163,N,12046.8858819,E,4,17,1.4,2.7457,M,8.329,M,00,0004*6E
$GPHPD,0,0.000,237.26,-0.40,-13.05,31.5922669,120.7814314,2.746,13631215.894,24927781.986,2.746,0.000,0.000,0.000,0.000,0.000,0.000,0.000,17,16,4*73
$GPGGA,065353.00,3135.5359407,N,12046.8857237,E,4,17,1.4,2.7139,M,8.329,M,01,0004*6F
$GPHPD,0,0.000,236.49,-1.12,-13.04,31.5922657,120.7814287,2.714,13631216.651,24927780.518,2.714,0.000,0.000,0.000,0.000,0.000,0.000,0.000,17,16,4*74
$GPGGA,065353.20,3135.5358671,N,12046.8855834,E,4,17,1.4,2.7100,M,8.329,M,01,0004*6E
$GPHPD,0,0.000,238.33,-0.50,-12.99,31.5922645,120.7814264,2.710,13631217.415,24927779.255,2.710,0.000,0.000,0.000,0.000,0.000,0.000,0.000,17,16,4*70
$GPGGA,065353.40,3135.5357911,N,12046.8854362,E,4,17,1.4,2.7059,M,8.329,M,01,0004*6A
$GPHPD,0,0.000,238.43,-0.08,-12.91,31.5922632,120.7814239,2.706,13631218.199,24927777.922,2.706,0.000,0.000,0.000,0.000,0.000,0.000,0.000,17,16,4*71
$GPGGA,065353.60,3135.5357173,N,12046.8852888,E,4,17,1.4,2.6944,M,8.329,M,00,0004*68
$GPHPD,0,0.000,238.54,-0.31,-12.84,31.5922620,120.7814215,2.694,13631218.951,24927776.574,2.694,0.000,0.000,0.000,0.000,0.000,0.000,0.000,17,16,4*76
$GPGGA,065353.80,3135.5356435,N,12046.8851515,E,4,17,1.4,2.7150,M,8.329,M,00,0004*66
$GPHPD,0,0.000,239.09,0.05,-12.79,31.5922607,120.7814192,2.715,13631219.724,24927775.348,2.715,0.000,0.000,0.000,0.000,0.000,0.000,0.000,17,16,4*59
$GPGGA,065354.00,3135.5355735,N,12046.8850085,E,4,17,1.4,2.7102,M,8.329,M,01,0004*62
$GPHPD,0,0.000,239.30,-0.78,-12.78,31.5922596,120.7814168,2.710,13631220.432,24927774.032,2.710,0.000,0.000,0.000,0.000,0.000,0.000,0.000,17,16,4*7A
$GPGGA,065354.20,3135.5355056,N,12046.8848650,E,4,17,1.4,2.6817,M,8.329,M,01,0004*69
$GPHPD,0,0.000,239.82,-0.73,-12.77,31.5922584,120.7814144,2.682,13631221.108,24927772.696,2.682,0.000,0.000,0.000,0.000,0.000,0.000,0.000,17,16,4*79
$GPGGA,065354.40,3135.5354320,N,12046.8847212,E,4,17,1.4,2.7006,M,8.329,M,01,0004*68
$GPHPD,0,0.000,240.05,0.73,-12.78,31.5922572,120.7814120,2.701,13631221.865,24927771.391,2.701,0.000,0.000,0.000,0.000,0.000,0.000,0.000,17,16,4*52
$GPGGA,065354.60,3135.5353622,N,12046.8845747,E,4,17,1.4,2.6984,M,8.329,M,01,0004*6F
$GPHPD,0,0.000,240.39,-0.51,-12.76,31.5922560,120.7814096,2.698,13631222.562,24927770.030,2.698,0.000,0.000,0.000,0.000,0.000,0.000,0.000,17,16,4*71
$GPGGA,065354.80,3135.5352957,N,12046.8844336,E,4,17,1.4,2.7054,M,8.329,M,01,0004*6B
$GPHPD,0,0.000,240.42,-0.46,-12.75,31.5922549,120.7814072,2.705,13631223.224,24927768.716,2.705,0.000,0.000,0.000,0.000,0.000,0.000,0.000,17,16,4*77
$GPGGA,065355.00,3135.5352246,N,12046.8842870,E,4,17,1.4,2.7100,M,8.329,M,02,0004*65
$GPHPD,0,0.000,240.18,-0.58,-12.76,31.5922537,120.7814048,2.710,13631223.939,24927767.362,2.710,0.000,0.000,0.000,0.000,0.000,0.000,0.000,17,16,4*7B
$GPGGA,065355.20,3135.5351626,N,12046.8841376,E,4,17,1.4,2.6947,M,8.329,M,02,0004*62
$GPHPD,0,0.000,239.73,-0.41,-12.80,31.5922527,120.7814023,2.695,13631224.520,24927765.921,2.695,0.000,0.000,0.000,0.000,0.000,0.000,0.000,17,16,4*79
$GPGGA,065355.40,3135.5350936,N,12046.8839903,E,4,17,1.4,2.7124,M,8.329,M,02,0004*60
$GPHPD,0,0.000,239.50,-0.03,-12.83,31.5922516,120.7813998,2.712,13631225.205,24927764.547,2.712,0.000,0.000,0.000,0.000,0.000,0.000,0.000,17,16,4*7D
$GPGGA,065355.60,3135.5350216,N,12046.8838446,E,4,17,1.4,2.6956,M,8.329,M,02,0004*6A
$GPHPD,0,0.000,239.12,-0.65,-12.86,31.5922504,120.7813974,2.696,13631225.935,24927763.209,2.696,0.000,0.000,0.000,0.000,0.000,0.000,0.000,17,17,4*7C
$GPGGA,065355.80,3135.5349503,N,12046.8837007,E,4,17,1.4,2.7025,M,8.329,M,00,0004*6F
$GPHPD,0,0.000,239.18,-0.19,-12.89,31.5922492,120.7813950,2.703,13631226.659,24927761.889,2.703,0.000,0.000,0.000,0.000,0.000,0.000,0.000,17,17,4*7C
$GPGGA,065356.00,3135.5348808,N,12046.8835531,E,4,17,1.4,2.6993,M,8.329,M,01,0004*65
$GPHPD,0,0.000,238.54,-0.61,-12.87,31.5922480,120.7813926,2.699,13631227.350,24927760.514,2.699,0.000,0.000,0.000,0.000,0.000,0.000,0.000,17,17,4*73
$GPGGA,065356.20,3135.5348091,N,12046.8834121,E,4,17,1.4,2.7065,M,8.329,M,01,0004*6A
$GPHPD,0,0.000,238.16,-0.51,-12.86,31.5922468,120.7813902,2.707,13631228.085,24927759.231,2.707,0.000,0.000,0.000,0.000,0.000,0.000,0.000,17,17,4*79
$GPGGA,065356.40,3135.5347388,N,12046.8832646,E,4,17,1.4,2.7058,M,8.329,M,01,0004*66
$GPHPD,0,0.000,238.11,-1.07,-12.85,31.5922456,120.7813877,2.706,13631228.788,24927757.861,2.706,0.000,0.000,0.000,0.000,0.000,0.000,0.000,17,17,4*7A
$GPGGA,065356.60,3135.5346668,N,12046.8831206,E,4,17,1.4,2.7070,M,8.329,M,00,0004*66
$GPHPD,0,0.000,238.58,-0.97,-12.84,31.5922444,120.7813853,2.707,13631229.522,24927756.544,2.707,0.000,0.000,0.000,0.000,0.000,0.000,0.000,17,17,4*73
$GPGGA,065356.80,3135.5345949,N,12046.8829785,E,4,17,1.4,2.7006,M,8.328,M,00,0004*60
$GPHPD,0,0.000,238.95,-0.74,-12.86,31.5922432,120.7813830,2.701,13631230.258,24927755.249,2.701,0.000,0.000,0.000,0.000,0.000,0.000,0.000,17,17,4*72
$GPGGA,065357.00,3135.5345156,N,12046.8828370,E,4,17,1.4,2.6894,M,8.328,M,01,0004*63
$GPHPD,0,0.000,238.83,-0.17,-12.89,31.5922419,120.7813806,2.689,13631231.100,24927754.004,2.689,0.000,0.000,0.000,0.000,0.000,0.000,0.000,17,17,4*76
$GPGGA,065357.20,3135.5344415,N,12046.8826979,E,4,17,1.4,2.6936,M,8.328,M,01,0004*66
$GPHPD,0,0.000,239.89,-0.26,-12.92,31.5922407,120.7813783,2.694,13631231.874,24927752.758,2.694,0.000,0.000,0.000,0.000,0.000,0.000,0.000,17,17,4*7A
$GPGGA,065357.40,3135.5343675,N,12046.8825576,E,4,17,1.4,2.6864,M,8.328,M,01,0004*65
$GPHPD,0,0.000,239.13,-0.30,-12.91,31.5922395,120.7813760,2.686,13631232.643,24927751.497,2.686,0.000,0.000,0.000,0.000,0.000,0.000,0.000,17,17,4*76
$GPGGA,065357.60,3135.5343002,N,12046.8824175,E,4,17,1.8,2.6864,M,8.328,M,00,0004*6A
$GPHPD,0,0.000,239.11,-0.10,-12.90,31.5922383,120.7813736,2.686,13631233.318,24927750.200,2.686,0.000,0.000,0.000,0.000,0.000,0.000,0.000,17,17,4*70
$GPGGA,065357.80,3135.5342364,N,12046.8822736,E,4,17,1.4,2.6882,M,8.328,M,00,0004*65
$GPHPD,0,0.000,239.40,-0.11,-12.88,31.5922373,120.7813712,2.688,13631233.936,24927748.836,2.688,0.000,0.000,0.000,0.000,0.000,0.000,0.000,17,17,4*75
$GPGGA,065358.00,3135.5341576,N,12046.8821421,E,4,17,1.4,2.6759,M,8.328,M,01,0004*6A
$GPHPD,0,0.000,239.29,-0.05,-12.88,31.5922360,120.7813690,2.676,13631234.791,24927747.709,2.676,0.000,0.000,0.000,0.000,0.000,0.000,0.000,17,17,4*7E
$GPGGA,065358.20,3135.5341071,N,12046.8819915,E,4,17,1.4,2.6957,M,8.328,M,01,0004*6B
$GPHPD,0,0.000,239.53,0.10,-12.88,31.5922351,120.7813665,2.696,13631235.206,24927746.187,2.696,0.000,0.000,0.000,0.000,0.000,0.000,0.000,17,17,4*59
$GPGGA,065358.40,3135.5340348,N,12046.8818567,E,4,17,1.4,2.7037,M,8.328,M,01,0004*63
$GPHPD,0,0.000,238.61,-0.28,-12.88,31.5922339,120.7813643,2.704,13631235.963,24927744.982,2.704,0.000,0.000,0.000,0.000,0.000,0.000,0.000,17,17,4*72
$GPGGA,065358.60,3135.5339743,N,12046.8817097,E,4,17,1.7,2.7337,M,8.328,M,00,0004*64
$GPHPD,0,0.000,238.82,-0.58,-12.87,31.5922329,120.7813618,2.734,13631236.527,24927743.562,2.734,0.000,0.000,0.000,0.000,0.000,0.000,0.000,17,17,4*72
$GPGGA,065358.80,3135.5338975,N,12046.8815746,E,4,17,1.5,2.7101,M,8.328,M,00,0004*6C
$GPHPD,0,0.000,239.47,0.07,-12.88,31.5922316,120.7813596,2.710,13631237.347,24927742.380,2.710,0.000,0.000,0.000,0.000,0.000,0.000,0.000,17,17,4*51
$GPGGA,065359.00,3135.5338166,N,12046.8814354,E,4,17,1.7,2.6951,M,8.328,M,01,0004*66
$GPHPD,0,0.000,238.76,-0.12,-12.85,31.5922303,120.7813573,2.695,13631238.217,24927741.172,2.695,0.000,0.000,0.000,0.000,0.000,0.000,0.000,17,17,4*7E
$GPGGA,065359.20,3135.5337491,N,12046.8812895,E,4,17,1.7,2.7134,M,8.328,M,01,0004*6C
$GPHPD,0,0.000,238.41,-0.47,-12.80,31.5922292,120.7813548,2.713,13631238.883,24927739.806,2.713,0.000,0.000,0.000,0.000,0.000,0.000,0.000,17,17,4*7C
$GPGGA,065359.40,3135.5336708,N,12046.8811482,E,4,16,1.7,2.6902,M,8.328,M,01,0004*6C
$GPHPD,0,0.000,238.45,-0.64,-12.77,31.5922278,120.7813525,2.690,13631239.711,24927738.557,2.690,0.000,0.000,0.000,0.000,0.000,0.000,0.000,16,17,4*72
$GPGGA,065359.60,3135.5336074,N,12046.8810031,E,4,17,1.7,2.6895,M,8.328,M,00,0004*60
$GPHPD,0,0.000,238.35,-0.78,-12.75,31.5922268,120.7813501,2.690,13631240.321,24927737.177,2.690,0.000,0.000,0.000,0.000,0.000,0.000,0.000,17,17,4*7C
$GPGGA,065359.80,3135.5335123,N,12046.8808638,E,4,17,1.7,2.6380,M,8.328,M,00,0004*67
$GPHPD,0,0.000,237.64,-0.89,-12.72,31.5922252,120.7813477,2.638,13631241.392,24927736.051,2.638,0.000,0.000,0.000,0.000,0.000,0.000,0.000,17,17,4*7A
$GPGGA,065400.00,3135.5334488,N,12046.8807213,E,4,17,2.1,2.6659,M,8.328,M,01,0004*66
$GPHPD,0,0.000,237.92,-0.96,-12.71,31.5922241,120.7813454,2.666,13631242.008,24927734.702,2.666,0.000,0.000,0.000,0.000,0.000,0.000,0.000,17,17,4*7D
$GPGGA,065400.20,3135.5333753,N,12046.8805774,E,4,16,1.6,2.6651,M,8.328,M,01,0004*6D
$GPHPD,0,0.000,237.05,-3.01,-12.71,31.5922229,120.7813430,2.665,13631242.763,24927733.395,2.665,0.000,0.000,0.000,0.000,0.000,0.000,0.000,16,16,4*75
$GPGGA,065400.40,3135.5333046,N,12046.8804354,E,4,16,1.6,2.6664,M,8.328,M,01,0004*69
$GPHPD,0,0.000,238.01,-0.99,-12.73,31.5922217,120.7813406,2.666,13631243.483,24927732.094,2.666,0.000,0.000,0.000,0.000,0.000,0.000,0.000,16,16,4*79
$GPGGA,065400.60,3135.5332315,N,12046.8802912,E,4,16,1.6,2.6554,M,8.328,M,00,0004*60
$GPHPD,0,0.000,237.82,-0.58,-12.74,31.5922205,120.7813382,2.655,13631244.232,24927730.780,2.655,0.000,0.000,0.000,0.000,0.000,0.000,0.000,16,16,4*74
$GPGGA,065400.80,3135.5331484,N,12046.8801524,E,4,16,1.6,2.6453,M,8.328,M,00,0004*6E
$GPHPD,0,0.000,237.64,0.13,-12.77,31.5922191,120.7813359,2.645,13631245.134,24927729.590,2.645,0.000,0.000,0.000,0.000,0.000,0.000,0.000,16,16,4*5A
$GPGGA,065401.00,3135.5330727,N,12046.8800097,E,4,16,1.6,2.6323,M,8.328,M,01,0004*61
$GPHPD,0,0.000,237.40,0.19,-12.79,31.5922179,120.7813335,2.632,13631245.923,24927728.310,2.632,0.000,0.000,0.000,0.000,0.000,0.000,0.000,16,16,4*55
$GPGGA,065401.20,3135.5330013,N,12046.8798724,E,4,16,1.6,2.6320,M,8.328,M,01,0004*61
$GPHPD,0,0.000,237.22,-0.02,-12.81,31.5922167,120.7813312,2.632,13631246.661,24927727.070,2.632,0.000,0.000,0.000,0.000,0.000,0.000,0.000,16,16,4*7B
$GPGGA,065401.40,3135.5329295,N,12046.8797294,E,4,16,1.6,2.6574,M,8.328,M,01,0004*65
$GPHPD,0,0.000,237.64,0.36,-12.83,31.5922155,120.7813288,2.657,13631247.394,24927725.764,2.657,0.000,0.000,0.000,0.000,0.000,0.000,0.000,16,16,4*5C
$GPGGA,065401.60,3135.5328533,N,12046.8795894,E,4,16,1.6,2.6373,M,8.328,M,00,0004*65
$GPHPD,0,0.000,238.64,0.86,-12.84,31.5922142,120.7813265,2.637,13631248.196,24927724.519,2.637,0.000,0.000,0.000,0.000,0.000,0.000,0.000,16,16,4*5C
$GPGGA,065401.80,3135.5327806,N,12046.8794543,E,4,16,1.6,2.6579,M,8.328,M,00,0004*65
$GPHPD,0,0.000,237.88,0.73,-12.86,31.5922130,120.7813242,2.658,13631248.957,24927723.313,2.658,0.000,0.000,0.000,0.000,0.000,0.000,0.000,16,16,4*57
$GPGGA,065402.00,3135.5326930,N,12046.8793150,E,4,16,1.6,2.6233,M,8.328,M,01,0004*62
$GPHPD,0,0.000,238.20,0.05,-12.87,31.5922116,120.7813219,2.623,13631249.922,24927722.144,2.623,0.000,0.000,0.000,0.000,0.000,0.000,0.000,16,16,4*52
$GPGGA,065402.20,3135.5326222,N,12046.8791735,E,4,16,1.6,2.6224,M,8.328,M,01,0004*69
$GPHPD,0,0.000,238.82,0.20,-12.88,31.5922104,120.7813196,2.622,13631250.644,24927720.849,2.622,0.000,0.000,0.000,0.000,0.000,0.000,0.000,16,16,4*54
$GPGGA,065402.40,3135.5325645,N,12046.8790271,E,4,16,1.6,2.6614,M,8.328,M,01,0004*6A
$GPHPD,0,0.000,238.64,-0.89,-12.88,31.5922094,120.7813171,2.661,13631251.170,24927719.420,2.661,0.000,0.000,0.000,0.000,0.000,0.000,0.000,16,16,4*7B
$GPGGA,065402.60,3135.5325048,N,12046.8788866,E,4,16,1.6,2.6929,M,8.328,M,00,0004*66
$GPHPD,0,0.000,238.15,-0.12,-12.88,31.5922084,120.7813148,2.693,13631251.735,24927718.073,2.693,0.000,0.000,0.000,0.000,0.000,0.000,0.000,16,16,4*70
$GPGGA,065402.80,3135.5324298,N,12046.8787452,E,4,16,1.6,2.6860,M,8.328,M,00,0004*6E
$GPHPD,0,0.000,237.58,-0.25,-12.86,31.5922072,120.7813124,2.686,13631252.517,24927716.805,2.686,0.000,0.000,0.000,0.000,0.000,0.000,0.000,16,16,4*79
$GPGGA,065403.00,3135.5323565,N,12046.8785999,E,4,16,1.6,2.6949,M,8.328,M,01,0004*66
$GPHPD,0,0.000,237.84,-0.91,-12.84,31.5922059,120.7813100,2.695,13631253.267,24927715.479,2.695,0.000,0.000,0.000,0.000,0.000,0.000,0.000,16,16,4*7F
$GPGGA,065403.20,3135.5322477,N,12046.8784435,E,4,15,1.7,2.5398,M,8.328,M,01,0004*6A
$GPHPD,0,0.000,238.43,-1.03,-12.81,31.5922041,120.7813074,2.540,13631254.499,24927714.227,2.540,0.000,0.000,0.000,0.000,0.000,0.000,0.000,15,15,4*73
$GPGGA,065403.40,3135.5321953,N,12046.8783017,E,4,15,1.7,2.5847,M,8.328,M,01,0004*6E
$GPHPD,0,0.000,237.98,-0.61,-12.82,31.5922033,120.7813050,2.585,13631254.958,24927712.822,2.585,0.000,0.000,0.000,0.000,0.000,0.000,0.000,15,15,4*76
$GPGGA,065403.60,3135.5321417,N,12046.8781646,E,4,15,1.7,2.6644,M,8.328,M,00,0004*6E
$GPHPD,0,0.000,238.69,0.54,-12.80,31.5922024,120.7813027,2.664,13631255.444,24927711.480,2.664,0.000,0.000,0.000,0.000,0.000,0.000,0.000,15,15,4*5E
$GPGGA,065403.80,3135.5320722,N,12046.8780261,E,4,15,1.7,2.6941,M,8.328,M,00,0004*6E
$GPHPD,0,0.000,238.63,-0.30,-12.79,31.5922012,120.7813004,2.694,13631256.154,24927710.215,2.694,0.000,0.000,0.000,0.000,0.000,0.000,0.000,15,15,4*75
$GPGGA,065404.00,3135.5319888,N,12046.8778836,E,4,15,1.7,2.6725,M,8.328,M,01,0004*66
$GPHPD,0,0.000,237.68,-2.21,-12.80,31.5921998,120.7812981,2.673,13631257.052,24927708.982,2.673,0.000,0.000,0.000,0.000,0.000,0.000,0.000,15,15,4*72
$GPGGA,065404.20,3135.5319210,N,12046.8777397,E,4,15,1.7,2.6611,M,8.328,M,01,0004*66
$GPHPD,0,0.000,238.17,-1.22,-12.80,31.5921987,120.7812957,2.661,13631257.727,24927707.642,2.661,0.000,0.000,0.000,0.000,0.000,0.000,0.000,15,15,4*79
$GPGGA,065404.40,3135.5318517,N,12046.8775960,E,4,15,1.7,2.6768,M,8.328,M,01,0004*6E
$GPHPD,0,0.000,238.31,0.33,-12.77,31.5921975,120.7812933,2.677,13631258.423,24927706.312,2.677,0.000,0.000,0.000,0.000,0.000,0.000,0.000,15,15,4*5F
$GPGGA,065404.60,3135.5317818,N,12046.8774594,E,4,15,1.7,2.6749,M,8.328,M,01,0004*64
$GPHPD,0,0.000,237.24,-1.98,-12.78,31.5921964,120.7812910,2.675,13631259.141,24927705.072,2.675,0.000,0.000,0.000,0.000,0.000,0.000,0.000,15,15,4*71
$GPGGA,065404.80,3135.5317063,N,12046.8773160,E,4,15,1.7,2.6863,M,8.328,M,00,0004*60
$GPHPD,0,0.000,237.10,-2.34,-12.77,31.5921951,120.7812886,2.686,13631259.926,24927703.782,2.686,0.000,0.000,0.000,0.000,0.000,0.000,0.000,15,15,4*73
$GPGGA,065405.00,3135.5316363,N,12046.8771724,E,4,15,1.7,2.6858,M,8.328,M,01,0004*66
$GPHPD,0,0.000,237.95,-0.40,-12.77,31.5921939,120.7812862,2.686,13631260.632,24927702.458,2.686,0.000,0.000,0.000,0.000,0.000,0.000,0.000,15,15,4*7E
$GPGGA,065405.20,3135.5315590,N,12046.8770333,E,4,15,1.7,2.6857,M,8.328,M,01,0004*61
$GPHPD,0,0.000,237.18,-1.40,-12.78,31.5921927,120.7812839,2.686,13631261.451,24927701.231,2.686,0.000,0.000,0.000,0.000,0.000,0.000,0.000,15,15,4*78
$GPGGA,065405.40,3135.5314904,N,12046.8768903,E,4,15,1.7,2.6770,M,8.328,M,01,0004*6D
$GPHPD,0,0.000,237.79,-1.24,-12.80,31.5921915,120.7812815,2.677,13631262.138,24927699.906,2.677,0.000,0.000,0.000,0.000,0.000,0.000,0.000,15,15,4*73
$GPGGA,065405.60,3135.5314108,N,12046.8767512,E,4,15,1.7,2.6811,M,8.328,M,00,0004*61
$GPHPD,0,0.000,237.23,-0.72,-12.81,31.5921902,120.7812792,2.681,13631262.990,24927698.692,2.681,0.000,0.000,0.000,0.000,0.000,0.000,0.000,15,15,4*70
$GPGGA,065405.80,3135.5313415,N,12046.8766153,E,4,15,1.7,2.6516,M,8.328,M,00,0004*6B
$GPHPD,0,0.000,237.84,-0.91,-12.82,31.5921890,120.7812769,2.652,13631263.702,24927697.456,2.652,0.000,0.000,0.000,0.000,0.000,0.000,0.000,15,15,4*7C
$GPGGA,065406.00,3135.5312629,N,12046.8764692,E,4,15,1.7,2.6512,M,8.328,M,01,0004*61
$GPHPD,0,0.000,237.54,0.88,-12.85,31.5921877,120.7812745,2.651,13631264.525,24927696.152,2.651,0.000,0.000,0.000,0.000,0.000,0.000,0.000,15,15,4*54
$GPGGA,065406.20,3135.5311867,N,12046.8763294,E,4,15,1.7,2.6587,M,8.328,M,01,0004*6D
$GPHPD,0,0.000,237.85,-0.21,-12.87,31.5921864,120.7812722,2.659,13631265.327,24927694.910,2.659,0.000,0.000,0.000,0.000,0.000,0.000,0.000,15,15,4*7E
$GPGGA,065406.40,3135.5311170,N,12046.8761850,E,4,15,1.7,2.6616,M,8.328,M,01,0004*6F
$GPHPD,0,0.000,238.25,0.00,-12.87,31.5921853,120.7812698,2.662,13631266.027,24927693.574,2.662,0.000,0.000,0.000,0.000,0.000,0.000,0.000,15,15,4*58
$GPGGA,065406.60,3135.5310409,N,12046.8760436,E,4,15,1.7,2.6650,M,8.328,M,00,0004*69
$GPHPD,0,0.000,237.93,0.66,-12.84,31.5921840,120.7812674,2.665,13631266.825,24927692.312,2.665,0.000,0.000,0.000,0.000,0.000,0.000,0.000,15,15,4*54
$GPGGA,065406.80,3135.5309682,N,12046.8758972,E,4,15,1.7,2.6573,M,8.328,M,00,0004*6A
$GPHPD,0,0.000,238.33,0.09,-12.80,31.5921828,120.7812650,2.657,13631267.563,24927690.970,2.657,0.000,0.000,0.000,0.000,0.000,0.000,0.000,15,15,4*56
$GPGGA,065407.00,3135.5308913,N,12046.8757579,E,4,15,1.7,2.6770,M,8.328,M,01,0004*6D
$GPHPD,0,0.000,238.35,-0.31,-12.77,31.5921815,120.7812626,2.677,13631268.376,24927689.738,2.677,0.000,0.000,0.000,0.000,0.000,0.000,0.000,15,15,4*76
$GPGGA,065407.20,3135.5308159,N,12046.8756075,E,4,15,1.7,2.6429,M,8.328,M,01,0004*6E
$GPHPD,0,0.000,238.76,-0.59,-12.72,31.5921803,120.7812601,2.643,13631269.145,24927688.363,2.643,0.000,0.000,0.000,0.000,0.000,0.000,0.000,15,15,4*70
$GPGGA,065407.40,3135.5307451,N,12046.8754678,E,4,16,1.6,2.6559,M,8.328,M,01,0004*67
$GPHPD,0,0.000,238.78,0.62,-12.68,31.5921791,120.7812578,2.656,13631269.871,24927687.091,2.656,0.000,0.000,0.000,0.000,0.000,0.000,0.000,16,15,4*55
$GPGGA,065407.60,3135.5306695,N,12046.8753209,E,4,16,1.6,2.6694,M,8.328,M,00,0004*68
$GPHPD,0,0.000,238.33,-2.19,-12.67,31.5921778,120.7812553,2.669,13631270.650,24927685.759,2.669,0.000,0.000,0.000,0.000,0.000,0.000,0.000,16,16,4*7F
$GPGGA,065407.80,3135.5306026,N,12046.8751798,E,4,16,1.6,2.6795,M,8.328,M,00,0004*67
$GPHPD,0,0.000,239.13,1.34,-12.66,31.5921767,120.7812530,2.680,13631271.317,24927684.447,2.680,0.000,0.000,0.000,0.000,0.000,0.000,0.000,16,16,4*5D
$GPGGA,065408.00,3135.5305273,N,12046.8750325,E,4,16,1.6,2.6712,M,8.328,M,01,0004*6C
$GPHPD,0,0.000,238.37,-1.84,-12.64,31.5921755,120.7812505,2.671,13631272.091,24927683.109,2.671,0.000,0.000,0.000,0.000,0.000,0.000,0.000,16,16,4*7F
$GPGGA,065408.20,3135.5304591,N,12046.8748947,E,4,16,1.6,2.6752,M,8.328,M,01,0004*67
$GPHPD,0,0.000,238.86,0.16,-12.61,31.5921743,120.7812482,2.675,13631272.783,24927681.845,2.675,0.000,0.000,0.000,0.000,0.000,0.000,0.000,16,16,4*59
$GPGGA,065408.40,3135.5303860,N,12046.8747444,E,4,16,1.6,2.6836,M,8.328,M,01,0004*69
$GPHPD,0,0.000,238.92,0.03,-12.60,31.5921731,120.7812457,2.684,13631273.520,24927680.458,2.684,0.000,0.000,0.000,0.000,0.000,0.000,0.000,16,16,4*5F
$GPGGA,065408.60,3135.5303143,N,12046.8745983,E,4,16,1.6,2.6790,M,8.328,M,00,0004*65
$GPHPD,0,0.000,238.52,-0.56,-12.60,31.5921719,120.7812433,2.679,13631274.245,24927679.113,2.679,0.000,0.000,0.000,0.000,0.000,0.000,0.000,16,15,4*7A
$GPGGA,065408.80,3135.5302388,N,12046.8744554,E,4,16,1.6,2.6912,M,8.328,M,00,0004*6C
$GPHPD,0,0.000,238.05,-0.09,-12.60,31.5921706,120.7812409,2.691,13631275.031,24927677.830,2.691,0.000,0.000,0.000,0.000,0.000,0.000,0.000,16,15,4*73
$GPGGA,065409.00,3135.5301638,N,12046.8743070,E,4,16,1.6,2.6889,M,8.328,M,01,0004*6E
$GPHPD,0,0.000,238.08,-0.48,-12.61,31.5921694,120.7812385,2.689,13631275.798,24927676.477,2.689,0.000,0.000,0.000,0.000,0.000,0.000,0.000,16,16,4*7A
$GPGGA,065409.20,3135.5300946,N,12046.8741612,E,4,16,1.6,2.6927,M,8.328,M,01,0004*6E
$GPHPD,0,0.000,237.80,-0.02,-12.62,31.5921682,120.7812360,2.693,13631276.489,24927675.121,2.693,0.000,0.000,0.000,0.000,0.000,0.000,0.000,16,15,4*72
$GPGGA,065409.40,3135.5300196,N,12046.8740124,E,4,16,1.6,2.6807,M,8.328,M,01,0004*6D
$GPHPD,0,0.000,237.07,0.26,-12.62,31.5921670,120.7812335,2.681,13631277.255,24927673.764,2.681,0.000,0.000,0.000,0.000,0.000,0.000,0.000,16,15,4*5C
$GPGGA,065409.60,3135.5299385,N,12046.8738687,E,4,16,1.6,2.6866,M,8.328,M,00,0004*69
$GPHPD,0,0.000,236.67,-0.44,-12.63,31.5921656,120.7812311,2.687,13631278.119,24927672.503,2.687,0.000,0.000,0.000,0.000,0.000,0.000,0.000,16,15,4*77
$GPGGA,065409.80,3135.5298613,N,12046.8737215,E,4,16,1.6,2.6766,M,8.328,M,00,0004*63
$GPHPD,0,0.000,237.16,-1.18,-12.63,31.5921644,120.7812287,2.677,13631278.920,24927671.177,2.677,0.000,0.000,0.000,0.000,0.000,0.000,0.000,16,15,4*73
$GPGGA,065410.00,3135.5297847,N,12046.8735747,E,4,16,1.6,2.6974,M,8.328,M,01,0004*6F
$GPHPD,0,0.000,237.00,-0.61,-12.62,31.5921631,120.7812262,2.697,13631279.714,24927669.853,2.697,0.000,0.000,0.000,0.000,0.000,0.000,0.000,16,15,4*7D
$GPGGA,065410.20,3135.5297112,N,12046.8734325,E,4,16,1.6,2.6887,M,8.328,M,01,0004*68
$GPHPD,0,0.000,237.06,-1.59,-12.61,31.5921619,120.7812239,2.689,13631280.472,24927668.566,2.689,0.000,0.000,0.000,0.000,0.000,0.000,0.000,16,15,4*79
$GPGGA,065410.40,3135.5296268,N,12046.8732937,E,4,16,1.6,2.7025,M,8.328,M,01,0004*6F
$GPHPD,0,0.000,237.33,-2.38,-12.62,31.5921604,120.7812216,2.703,13631281.393,24927667.384,2.703,0.000,0.000,0.000,0.000,0.000,0.000,0.000,16,15,4*75
$GPGGA,065410.60,3135.5295510,N,12046.8731402,E,4,15,1.7,2.6488,M,8.328,M,01,0004*6E
$GPHPD,0,0.000,237.71,-2.44,-12.61,31.5921592,120.7812190,2.649,13631282.162,24927665.974,2.649,0.000,0.000,0.000,0.000,0.000,0.000,0.000,15,15,4*71
$GPGGA,065410.80,3135.5294759,N,12046.8730004,E,4,16,1.7,2.6683,M,8.328,M,00,0004*66
$GPHPD,0,0.000,237.39,-0.49,-12.62,31.5921579,120.7812167,2.668,13631282.948,24927664.725,2.668,0.000,0.000,0.000,0.000,0.000,0.000,0.000,16,15,4*74
$GPGGA,065411.00,3135.5293929,N,12046.8728621,E,4,15,1.7,2.6781,M,8.328,M,01,0004*68
$GPHPD,0,0.000,237.79,-0.80,-12.62,31.5921565,120.7812144,2.678,13631283.849,24927663.541,2.678,0.000,0.000,0.000,0.000,0.000,0.000,0.000,15,15,4*7C
$GPGGA,065411.20,3135.5293213,N,12046.8727136,E,4,15,1.7,2.6518,M,8.328,M,01,0004*64
$GPHPD,0,0.000,239.05,-1.75,-12.61,31.5921554,120.7812119,2.652,13631284.568,24927662.167,2.652,0.000,0.000,0.000,0.000,0.000,0.000,0.000,15,15,4*73
$GPGGA,065411.40,3135.5292476,N,12046.8725691,E,4,16,1.7,2.6426,M,8.328,M,01,0004*61
$GPHPD,0,0.000,239.31,-1.34,-12.62,31.5921541,120.7812095,2.643,13631285.325,24927660.854,2.643,0.000,0.000,0.000,0.000,0.000,0.000,0.000,16,15,4*75
$GPGGA,065411.60,3135.5291716,N,12046.8724277,E,4,14,1.7,2.6576,M,8.328,M,01,0004*6E
$GPHPD,0,0.000,239.90,-1.02,-12.61,31.5921529,120.7812071,2.658,13631286.121,24927659.591,2.658,0.000,0.000,0.000,0.000,0.000,0.000,0.000,14,14,4*74
$GPGGA,065411.80,3135.5290913,N,12046.8722840,E,4,14,1.7,2.6550,M,8.328,M,00,0004*67
$GPHPD,0,0.000,239.89,-0.34,-12.57,31.5921515,120.7812047,2.655,13631286.973,24927658.325,2.655,0.000,0.000,0.000,0.000,0.000,0.000,0.000,14,14,4*70
$GPGGA,065412.00,3135.5290227,N,12046.8721341,E,4,14,1.7,2.6556,M,8.328,M,01,0004*6E
$GPHPD,0,0.000,240.65,-0.23,-12.56,31.5921504,120.7812022,2.656,13631287.647,24927656.917,2.656,0.000,0.000,0.000,0.000,0.000,0.000,0.000,14,14,4*74
$GPGGA,065412.20,3135.5289530,N,12046.8719856,E,4,14,1.7,2.6601,M,8.328,M,01,0004*62
$GPHPD,0,0.000,240.29,-0.61,-12.54,31.5921492,120.7811998,2.660,13631288.339,24927655.532,2.660,0.000,0.000,0.000,0.000,0.000,0.000,0.000,14,14,4*76
$GPGGA,065412.40,3135.5288847,N,12046.8718400,E,4,14,1.7,2.6602,M,8.328,M,01,0004*65
$GPHPD,0,0.000,239.91,-0.89,-12.53,31.5921481,120.7811973,2.660,13631289.017,24927654.174,2.660,0.000,0.000,0.000,0.000,0.000,0.000,0.000,14,14,4*74
$GPGGA,065412.60,3135.5288196,N,12046.8716863,E,4,15,1.6,2.6562,M,8.328,M,00,0004*61
$GPHPD,0,0.000,239.53,-1.08,-12.52,31.5921470,120.7811948,2.656,13631289.633,24927652.700,2.656,0.000,0.000,0.000,0.000,0.000,0.000,0.000,15,15,4*76
$GPGGA,065412.80,3135.5287492,N,12046.8715450,E,4,16,1.4,2.6660,M,8.328,M,00,0004*6E
$GPHPD,0,0.000,238.85,-1.34,-12.52,31.5921458,120.7811924,2.666,13631290.349,24927651.405,2.666,0.000,0.000,0.000,0.000,0.000,0.000,0.000,16,15,4*75
$GPGGA,065413.00,3135.5286771,N,12046.8713929,E,4,16,1.4,2.6655,M,8.328,M,01,0004*6A
$GPHPD,0,0.000,238.73,-1.41,-12.53,31.5921446,120.7811899,2.666,13631291.068,24927649.991,2.666,0.000,0.000,0.000,0.000,0.000,0.000,0.000,16,16,4*7C
$GPGGA,065413.20,3135.5286047,N,12046.8712505,E,4,16,1.4,2.6528,M,8.328,M,01,0004*60
$GPHPD,0,0.000,238.41,-0.77,-12.54,31.5921434,120.7811875,2.653,13631291.811,24927648.695,2.653,0.000,0.000,0.000,0.000,0.000,0.000,0.000,16,16,4*75
$GPGGA,065413.40,3135.5285300,N,12046.8711074,E,4,17,1.4,2.6621,M,8.328,M,01,0004*6E
$GPHPD,0,0.000,238.42,-1.14,-12.55,31.5921422,120.7811851,2.662,13631292.585,24927647.405,2.662,0.000,0.000,0.000,0.000,0.000,0.000,0.000,17,16,4*74
$GPGGA,065413.60,3135.5284573,N,12046.8709611,E,4,17,1.4,2.6521,M,8.328,M,00,0004*61
$GPHPD,0,0.000,238.08,-1.14,-12.55,31.5921410,120.7811827,2.652,13631293.324,24927646.064,2.652,0.000,0.000,0.000,0.000,0.000,0.000,0.000,17,17,4*75
$GPGGA,065413.80,3135.5283845,N,12046.8708182,E,4,17,1.4,2.6474,M,8.328,M,00,0004*6D
$GPHPD,0,0.000,237.85,-0.66,-12.57,31.5921397,120.7811803,2.647,13631294.071,24927644.764,2.647,0.000,0.000,0.000,0.000,0.000,0.000,0.000,17,17,4*76
$GPGGA,065414.00,3135.5283113,N,12046.8706683,E,4,17,1.4,2.6277,M,8.328,M,01,0004*64
$GPHPD,0,0.000,237.35,-0.78,-12.57,31.5921385,120.7811778,2.628,13631294.810,24927643.383,2.628,0.000,0.000,0.000,0.000,0.000,0.000,0.000,17,17,4*77
$GPGGA,065414.20,3135.5282363,N,12046.8705260,E,4,17,1.4,2.6349,M,8.328,M,01,0004*64
$GPHPD,0,0.000,237.46,-1.22,-12.60,31.5921373,120.7811754,2.635,13631295.590,24927642.103,2.635,0.000,0.000,0.000,0.000,0.000,0.000,0.000,17,17,4*71
$GPGGA,065414.40,3135.5281628,N,12046.8703783,E,4,17,1.4,2.6200,M,8.328,M,01,0004*69
$GPHPD,0,0.000,237.26,-2.12,-12.61,31.5921360,120.7811730,2.620,13631296.338,24927640.750,2.620,0.000,0.000,0.000,0.000,0.000,0.000,0.000,17,17,4*73
$GPGGA,065414.60,3135.5280833,N,12046.8702365,E,4,17,1.4,2.6288,M,8.328,M,00,0004*62
$GPHPD,0,0.000,237.48,-1.31,-12.60,31.5921347,120.7811706,2.629,13631297.182,24927639.503,2.629,0.000,0.000,0.000,0.000,0.000,0.000,0.000,17,17,4*70
$GPGGA,065414.80,3135.5280074,N,12046.8700893,E,4,17,1.4,2.6173,M,8.328,M,00,0004*60
$GPHPD,0,0.000,239.10,-0.09,-12.59,31.5921335,120.7811682,2.617,13631297.965,24927638.170,2.617,0.000,0.000,0.000,0.000,0.000,0.000,0.000,17,17,4*7B
$GPGGA,065415.00,3135.5279318,N,12046.8699490,E,4,17,1.4,2.6194,M,8.328,M,01,0004*60
$GPHPD,0,0.000,239.41,0.29,-12.57,31.5921322,120.7811658,2.619,13631298.757,24927636.918,2.619,0.000,0.000,0.000,0.000,0.000,0.000,0.000,17,17,4*57
$GPGGA,065415.20,3135.5278585,N,12046.8698021,E,4,17,1.4,2.6037,M,8.328,M,01,0004*66
$GPHPD,0,0.000,240.29,0.59,-12.56,31.5921310,120.7811634,2.604,13631299.504,24927635.573,2.604,0.000,0.000,0.000,0.000,0.000,0.000,0.000,17,17,4*5D
$GPGGA,065415.40,3135.5277840,N,12046.8696579,E,4,17,1.4,2.5841,M,8.328,M,01,0004*67
$GPHPD,0,0.000,239.29,-0.29,-12.56,31.5921297,120.7811610,2.584,13631300.273,24927634.268,2.584,0.000,0.000,0.000,0.000,0.000,0.000,0.000,17,17,4*7B
$GPGGA,065415.60,3135.5277138,N,12046.8695124,E,4,17,1.4,2.5785,M,8.328,M,00,0004*6A
$GPHPD,0,0.000,239.53,0.35,-12.57,31.5921286,120.7811585,2.579,13631300.978,24927632.922,2.579,0.000,0.000,0.000,0.000,0.000,0.000,0.000,17,17,4*5B
$GPGGA,065415.80,3135.5276522,N,12046.8693684,E,4,17,1.4,2.6012,M,8.328,M,00,0004*6B
$GPHPD,0,0.000,240.12,1.88,-12.58,31.5921275,120.7811561,2.601,13631301.564,24927631.544,2.601,0.000,0.000,0.000,0.000,0.000,0.000,0.000,17,17,4*51
$GPGGA,065416.00,3135.5275822,N,12046.8692307,E,4,17,1.4,2.6143,M,8.328,M,01,0004*65
$GPHPD,0,0.000,239.52,-0.12,-12.58,31.5921264,120.7811538,2.614,13631302.282,24927630.291,2.614,0.000,0.000,0.000,0.000,0.000,0.000,0.000,17,17,4*7A
$GPGGA,065416.20,3135.5275108,N,12046.8690907,E,4,17,1.4,2.6151,M,8.328,M,01,0004*6D
$GPHPD,0,0.000,239.91,-0.10,-12.58,31.5921252,120.7811515,2.615,13631303.015,24927629.019,2.615,0.000,0.000,0.000,0.000,0.000,0.000,0.000,17,17,4*7A
$GPGGA,065416.40,3135.5274362,N,12046.8689497,E,4,17,1.4,2.6091,M,8.328,M,01,0004*65
$GPHPD,0,0.000,239.63,-1.04,-12.59,31.5921239,120.7811492,2.609,13631303.792,24927627.753,2.609,0.000,0.000,0.000,0.000,0.000,0.000,0.000,17,17,4*7E
$GPGGA,065416.60,3135.5273734,N,12046.8688069,E,4,17,1.4,2.6090,M,8.328,M,00,0004*63
$GPHPD,0,0.000,240.61,0.63,-12.61,31.5921229,120.7811468,2.609,13631304.397,24927626.396,2.609,0.000,0.000,0.000,0.000,0.000,0.000,0.000,17,17,4*5A
$GPGGA,065416.80,3135.5273059,N,12046.8686666,E,4,17,1.4,2.6218,M,8.328,M,00,0004*64
$GPHPD,0,0.000,240.17,0.30,-12.64,31.5921218,120.7811444,2.622,13631305.074,24927625.097,2.622,0.000,0.000,0.000,0.000,0.000,0.000,0.000,17,17,4*5A
$GPGGA,065417.00,3135.5272455,N,12046.8685250,E,4,17,1.4,2.6091,M,8.328,M,01,0004*64
$GPHPD,0,0.000,240.11,0.48,-12.65,31.5921208,120.7811421,2.609,13631305.648,24927623.741,2.609,0.000,0.000,0.000,0.000,0.000,0.000,0.000,17,16,4*52
$GPGGA,065417.20,3135.5271805,N,12046.8683821,E,4,17,1.4,2.6245,M,8.328,M,01,0004*6D
$GPHPD,0,0.000,239.76,0.73,-12.67,31.5921197,120.7811397,2.625,13631306.284,24927622.397,2.625,0.000,0.000,0.000,0.000,0.000,0.000,0.000,17,17,4*50
$GPGGA,065417.40,3135.5271158,N,12046.8682365,E,4,17,1.5,2.6245,M,8.328,M,01,0004*61
$GPHPD,0,0.000,239.55,-0.21,-12.67,31.5921186,120.7811373,2.625,13631306.911,24927621.018,2.625,0.000,0.000,0.000,0.000,0.000,0.000,0.000,17,16,4*70
$GPGGA,065417.60,3135.5270481,N,12046.8680970,E,4,17,1.4,2.6148,M,8.328,M,01,0004*60
$GPHPD,0,0.000,239.17,-0.19,-12.68,31.5921175,120.7811350,2.615,13631307.593,24927619.729,2.615,0.000,0.000,0.000,0.000,0.000,0.000,0.000,17,17,4*77
$GPGGA,065417.80,3135.5269796,N,12046.8679592,E,4,17,1.4,2.6266,M,8.328,M,01,0004*6A
$GPHPD,0,0.000,239.20,-0.13,-12.69,31.5921163,120.7811327,2.627,13631308.289,24927618.466,2.627,0.000,0.000,0.000,0.000,0.000,0.000,0.000,17,17,4*75
$GPGGA,065418.00,3135.5269083,N,12046.8678206,E,4,17,1.4,2.6297,M,8.328,M,02,0004*68
$GPHPD,0,0.000,239.46,-0.63,-12.70,31.5921151,120.7811303,2.630,13631309.024,24927617.210,2.630,0.000,0.000,0.000,0.000,0.000,0.000,0.000,17,17,4*71
$GPGGA,065418.20,3135.5268406,N,12046.8676801,E,4,17,1.4,2.6285,M,8.328,M,02,0004*62
$GPHPD,0,0.000,239.57,-0.67,-12.71,31.5921140,120.7811280,2.629,13631309.703,24927615.910,2.629,0.000,0.000,0.000,0.000,0.000,0.000,0.000,17,17,4*75
$GPGGA,065418.40,3135.5267732,N,12046.8675342,E,4,17,1.4,2.6154,M,8.328,M,02,0004*6F
$GPHPD,0,0.000,239.56,-1.00,-12.71,31.5921129,120.7811256,2.615,13631310.368,24927614.543,2.615,0.000,0.000,0.000,0.000,0.000,0.000,0.000,17,17,4*7A
$GPGGA,065418.60,3135.5267042,N,12046.8673960,E,4,17,1.4,2.6175,M,8.328,M,02,0004*62
$GPHPD,0,0.000,238.87,-0.53,-12.71,31.5921117,120.7811233,2.618,13631311.071,24927613.278,2.618,0.000,0.000,0.000,0.000,0.000,0.000,0.000,17,17,4*7C
$GPGGA,065418.80,3135.5266374,N,12046.8672594,E,4,17,1.4,2.6166,M,8.328,M,00,0004*6D
$GPHPD,0,0.000,238.03,-0.24,-12.69,31.5921106,120.7811210,2.617,13631311.745,24927612.020,2.617,0.000,0.000,0.000,0.000,0.000,0.000,0.000,17,17,4*76
$GPGGA,065419.00,3135.5265686,N,12046.8671173,E,4,17,1.4,2.6163,M,8.328,M,01,0004*65
$GPHPD,0,0.000,237.74,-0.69,-12.67,31.5921095,120.7811186,2.616,13631312.438,24927610.707,2.616,0.000,0.000,0.000,0.000,0.000,0.000,0.000,17,17,4*73
$GPGGA,065419.20,3135.5265001,N,12046.8669754,E,4,17,1.4,2.6126,M,8.328,M,01,0004*65
$GPHPD,0,0.000,239.05,-1.65,-12.66,31.5921083,120.7811163,2.613,13631313.126,24927609.394,2.613,0.000,0.000,0.000,0.000,0.000,0.000,0.000,17,17,4*76
$GPGGA,065419.40,3135.5264286,N,12046.8668361,E,4,17,1.4,2.6173,M,8.328,M,01,0004*6C
$GPHPD,0,0.000,238.19,-1.78,-12.66,31.5921071,120.7811139,2.617,13631313.862,24927608.131,2.617,0.000,0.000,0.000,0.000,0.000,0.000,0.000,17,17,4*71
$GPGGA,065419.60,3135.5263521,N,12046.8667001,E,4,17,1.4,2.6094,M,8.328,M,00,0004*60
$GPHPD,0,0.000,238.92,-1.64,-12.66,31.5921059,120.7811117,2.609,13631314.676,24927606.936,2.609,0.000,0.000,0.000,0.000,0.000,0.000,0.000,17,17,4*74
$GPGGA,065419.80,3135.5262737,N,12046.8665712,E,4,17,1.4,2.6341,M,8.328,M,00,0004*66
$GPHPD,0,0.000,238.75,-0.67,-12.66,31.5921046,120.7811095,2.634,13631315.531,24927605.838,2.634,0.000,0.000,0.000,0.000,0.000,0.000,0.000,17,17,4*77
$GPGGA,065420.00,3135.5261952,N,12046.8664291,E,4,17,1.4,2.6118,M,8.328,M,01,0004*6A
$GPHPD,0,0.000,239.81,-2.03,-12.65,31.5921033,120.7811072,2.612,13631316.361,24927604.582,2.612,0.000,0.000,0.000,0.000,0.000,0.000,0.000,17,17,4*78
$GPGGA,065420.20,3135.5261234,N,12046.8662866,E,4,17,1.6,2.5830,M,8.328,M,01,0004*65
$GPHPD,0,0.000,240.32,-0.83,-12.66,31.5921021,120.7811048,2.583,13631317.095,24927603.281,2.583,0.000,0.000,0.000,0.000,0.000,0.000,0.000,17,16,4*76
$GPGGA,065420.40,3135.5260408,N,12046.8661525,E,4,17,1.4,2.5818,M,8.327,M,01,0004*65
$GPHPD,0,0.000,240.60,0.45,-12.67,31.5921007,120.7811025,2.582,13631317.999,24927602.145,2.582,0.000,0.000,0.000,0.000,0.000,0.000,0.000,17,16,4*57
$GPGGA,065420.60,3135.5260036,N,12046.8659989,E,4,16,1.4,2.6091,M,8.327,M,01,0004*64
$GPHPD,0,0.000,240.60,-0.48,-12.66,31.5921001,120.7811000,2.609,13631318.219,24927600.509,2.609,0.000,0.000,0.000,0.000,0.000,0.000,0.000,16,15,4*77
$GPGGA,065420.80,3135.5259307,N,12046.8658604,E,4,16,1.4,2.6019,M,8.327,M,01,0004*6A
$GPHPD,0,0.000,239.61,-0.67,-12.69,31.5920988,120.7810977,2.602,13631318.976,24927599.263,2.602,0.000,0.000,0.000,0.000,0.000,0.000,0.000,16,15,4*71
$GPGGA,065421.00,3135.5258582,N,12046.8657203,E,4,16,1.4,2.6036,M,8.327,M,02,0004*6B
$GPHPD,0,0.000,239.61,-0.64,-12.70,31.5920976,120.7810953,2.604,13631319.725,24927597.996,2.604,0.000,0.000,0.000,0.000,0.000,0.000,0.000,16,15,4*7B
$GPGGA,065421.20,3135.5257909,N,12046.8655734,E,4,16,1.4,2.5982,M,8.327,M,02,0004*6F
$GPHPD,0,0.000,239.39,-0.74,-12.70,31.5920965,120.7810929,2.598,13631320.386,24927596.616,2.598,0.000,0.000,0.000,0.000,0.000,0.000,0.000,16,15,4*79
$GPGGA,065421.40,3135.5257268,N,12046.8654247,E,4,16,1.4,2.5963,M,8.327,M,02,0004*6A
$GPHPD,0,0.000,238.63,-1.08,-12.71,31.5920954,120.7810904,2.596,13631320.998,24927595.196,2.596,0.000,0.000,0.000,0.000,0.000,0.000,0.000,16,15,4*78
$GPGGA,065421.60,3135.5256592,N,12046.8652815,E,4,16,1.4,2.6067,M,8.327,M,02,0004*6E
$GPHPD,0,0.000,239.19,-0.27,-12.70,31.5920943,120.7810880,2.607,13631321.671,24927593.863,2.607,0.000,0.000,0.000,0.000,0.000,0.000,0.000,16,15,4*7E
$GPGGA,065421.80,3135.5255943,N,12046.8651353,E,4,16,1.5,2.6048,M,8.327,M,00,0004*67
$GPHPD,0,0.000,238.66,-0.53,-12.70,31.5920932,120.7810856,2.605,13631322.299,24927592.478,2.605,0.000,0.000,0.000,0.000,0.000,0.000,0.000,16,15,4*7F
$GPGGA,065422.00,3135.5255218,N,12046.8649907,E,4,16,1.5,2.5908,M,8.327,M,01,0004*64
$GPHPD,0,0.000,239.21,-0.19,-12.69,31.5920920,120.7810832,2.591,13631323.039,24927591.156,2.591,0.000,0.000,0.000,0.000,0.000,0.000,0.000,16,15,4*79
$GPGGA,065422.20,3135.5254535,N,12046.8648483,E,4,16,1.5,2.6058,M,8.327,M,01,0004*60
$GPHPD,0,0.000,238.48,-0.46,-12.68,31.5920909,120.7810808,2.606,13631323.723,24927589.837,2.606,0.000,0.000,0.000,0.000,0.000,0.000,0.000,16,15,4*75
$GPGGA,065422.40,3135.5253787,N,12046.8647036,E,4,16,1.7,2.6097,M,8.327,M,01,0004*6E
$GPHPD,0,0.000,238.52,-1.21,-12.68,31.5920896,120.7810784,2.610,13631324.495,24927588.527,2.610,0.000,0.000,0.000,0.000,0.000,0.000,0.000,16,15,4*76
$GPGGA,065422.60,3135.5252985,N,12046.8645570,E,4,16,1.5,2.5935,M,8.327,M,00,0004*65
$GPHPD,0,0.000,238.19,-1.78,-12.65,31.5920883,120.7810760,2.594,13631325.340,24927587.226,2.594,0.000,0.000,0.000,0.000,0.000,0.000,0.000,16,15,4*71
$GPGGA,065422.80,3135.5252209,N,12046.8644144,E,4,16,1.5,2.5959,M,8.327,M,00,0004*6C
$GPHPD,0,0.000,238.27,-1.58,-12.62,31.5920870,120.7810736,2.596,13631326.156,24927585.958,2.596,0.000,0.000,0.000,0.000,0.000,0.000,0.000,16,15,4*70
$GPGGA,065423.00,3135.5251506,N,12046.8642642,E,4,16,1.5,2.5905,M,8.327,M,01,0004*61
$GPHPD,0,0.000,239.12,-1.12,-12.58,31.5920858,120.7810711,2.591,13631326.854,24927584.556,2.591,0.000,0.000,0.000,0.000,0.000,0.000,0.000,16,15,4*77
$GPGGA,065423.20,3135.5250761,N,12046.8641168,E,4,16,1.5,2.5828,M,8.327,M,01,0004*63
$GPHPD,0,0.000,238.85,-0.69,-12.56,31.5920846,120.7810686,2.583,13631327.616,24927583.213,2.583,0.000,0.000,0.000,0.000,0.000,0.000,0.000,16,15,4*73
$GPGGA,065423.40,3135.5250016,N,12046.8639703,E,4,16,1.5,2.5904,M,8.327,M,01,0004*69
$GPHPD,0,0.000,239.04,-1.00,-12.53,31.5920834,120.7810662,2.590,13631328.380,24927581.880,2.590,0.000,0.000,0.000,0.000,0.000,0.000,0.000,16,15,4*78
$GPGGA,065423.60,3135.5249306,N,12046.8638202,E,4,16,1.5,2.5889,M,8.327,M,00,0004*61
$GPHPD,0,0.000,238.76,-0.98,-12.49,31.5920822,120.7810637,2.589,13631329.087,24927580.483,2.589,0.000,0.000,0.000,0.000,0.000,0.000,0.000,16,15,4*7B
$GPGGA,065423.80,3135.5248517,N,12046.8636700,E,4,16,1.7,2.5834,M,8.327,M,00,0004*65
$GPHPD,0,0.000,238.56,-0.90,-12.48,31.5920809,120.7810612,2.583,13631329.907,24927579.131,2.583,0.000,0.000,0.000,0.000,0.000,0.000,0.000,16,15,4*75
$GPGGA,065424.00,3135.5247728,N,12046.8635222,E,4,16,1.7,2.5668,M,8.327,M,01,0004*6B
$GPHPD,0,0.000,238.23,-1.76,-12.45,31.5920795,120.7810587,2.567,13631330.731,24927577.808,2.567,0.000,0.000,0.000,0.000,0.000,0.000,0.000,16,15,4*78
$GPGGA,065424.20,3135.5247045,N,12046.8633761,E,4,15,1.7,2.5902,M,8.327,M,01,0004*61
$GPHPD,0,0.000,238.12,-2.44,-12.43,31.5920784,120.7810563,2.590,13631331.408,24927576.444,2.590,0.000,0.000,0.000,0.000,0.000,0.000,0.000,15,14,4*7B
$GPGGA,065424.40,3135.5246299,N,12046.8632227,E,4,15,1.7,2.5763,M,8.327,M,01,0004*6A
$GPHPD,0,0.000,239.17,-0.08,-12.40,31.5920772,120.7810537,2.576,13631332.160,24927575.028,2.576,0.000,0.000,0.000,0.000,0.000,0.000,0.000,15,14,4*7B
$GPGGA,065424.60,3135.5245533,N,12046.8630729,E,4,15,1.7,2.5747,M,8.327,M,00,0004*62
$GPHPD,0,0.000,238.97,0.60,-12.41,31.5920759,120.7810512,2.575,13631332.947,24927573.668,2.575,0.000,0.000,0.000,0.000,0.000,0.000,0.000,15,14,4*57
$GPGGA,065424.80,3135.5244780,N,12046.8629265,E,4,15,1.7,2.5752,M,8.327,M,00,0004*66
$GPHPD,0,0.000,239.25,1.46,-12.43,31.5920746,120.7810488,2.575,13631333.723,24927572.341,2.575,0.000,0.000,0.000,0.000,0.000,0.000,0.000,15,14,4*56
$GPGGA,065425.00,3135.5244021,N,12046.8627799,E,4,15,1.7,2.5785,M,8.327,M,01,0004*60
$GPHPD,0,0.000,239.69,1.87,-12.46,31.5920734,120.7810463,2.579,13631334.507,24927571.015,2.579,0.000,0.000,0.000,0.000,0.000,0.000,0.000,15,14,4*54
$GPGGA,065425.20,3135.5243351,N,12046.8626281,E,4,16,1.7,2.5902,M,8.327,M,01,0004*6E
$GPHPD,0,0.000,239.23,1.04,-12.51,31.5920723,120.7810438,2.590,13631335.154,24927569.574,2.590,0.000,0.000,0.000,0.000,0.000,0.000,0.000,16,15,4*55
$GPGGA,065425.40,3135.5242582,N,12046.8624861,E,4,16,1.6,2.5970,M,8.327,M,01,0004*63
$GPHPD,0,0.000,238.85,0.09,-12.54,31.5920710,120.7810414,2.597,13631335.961,24927568.310,2.597,0.000,0.000,0.000,0.000,0.000,0.000,0.000,16,15,4*54
$GPGGA,065425.60,3135.5241829,N,12046.8623421,E,4,16,1.6,2.6066,M,8.327,M,00,0004*6D
$GPHPD,0,0.000,238.62,-0.41,-12.56,31.5920697,120.7810390,2.607,13631336.742,24927567.012,2.607,0.000,0.000,0.000,0.000,0.000,0.000,0.000,16,16,4*7A
$GPGGA,065425.80,3135.5241089,N,12046.8621923,E,4,16,1.6,2.6095,M,8.327,M,00,0004*60
$GPHPD,0,0.000,238.09,-1.16,-12.54,31.5920685,120.7810365,2.610,13631337.492,24927565.636,2.610,0.000,0.000,0.000,0.000,0.000,0.000,0.000,16,16,4*72
$GPGGA,065426.00,3135.5240372,N,12046.8620433,E,4,16,1.7,2.6174,M,8.327,M,01,0004*6E
$GPHPD,0,0.000,237.86,-1.94,-12.55,31.5920673,120.7810341,2.617,13631338.212,24927564.257,2.617,0.000,0.000,0.000,0.000,0.000,0.000,0.000,16,16,4*7D
$GPGGA,065426.20,3135.5239618,N,12046.8618955,E,4,16,1.7,2.6005,M,8.327,M,01,0004*6A
$GPHPD,0,0.000,237.61,-2.60,-12.57,31.5920660,120.7810316,2.601,13631338.986,24927562.913,2.601,0.000,0.000,0.000,0.000,0.000,0.000,0.000,16,16,4*75
$GPGGA,065426.40,3135.5238899,N,12046.8617425,E,4,17,1.7,2.6074,M,8.327,M,01,0004*68
$GPHPD,0,0.000,237.86,-2.15,-12.58,31.5920648,120.7810290,2.607,13631339.700,24927561.487,2.607,0.000,0.000,0.000,0.000,0.000,0.000,0.000,17,16,4*77
$GPGGA,065426.60,3135.5238095,N,12046.8615935,E,4,17,1.5,2.5873,M,8.327,M,00,0004*6F
$GPHPD,0,0.000,237.67,-2.16,-12.60,31.5920635,120.7810266,2.587,13631340.543,24927560.158,2.587,0.000,0.000,0.000,0.000,0.000,0.000,0.000,17,17,4*7F
$GPGGA,065426.80,3135.5237332,N,12046.8614459,E,4,17,1.5,2.5975,M,8.327,M,00,0004*61
$GPHPD,0,0.000,237.28,-1.97,-12.61,31.5920622,120.7810241,2.598,13631341.331,24927558.822,2.598,0.000,0.000,0.000,0.000,0.000,0.000,0.000,17,16,4*70
$GPGGA,065427.00,3135.5236476,N,12046.8612959,E,4,17,1.4,2.5678,M,8.327,M,01,0004*67
$GPHPD,0,0.000,236.86,-2.90,-12.61,31.5920608,120.7810216,2.568,13631342.246,24927557.512,2.568,0.000,0.000,0.000,0.000,0.000,0.000,0.000,17,16,4*78
$GPGGA,065427.20,3135.5235674,N,12046.8611450,E,4,17,1.4,2.5554,M,8.327,M,01,0004*6C
$GPHPD,0,0.000,236.84,-2.13,-12.60,31.5920595,120.7810191,2.555,13631343.082,24927556.159,2.555,0.000,0.000,0.000,0.000,0.000,0.000,0.000,17,16,4*7A
$GPGGA,065427.40,3135.5234903,N,12046.8610009,E,4,17,1.4,2.5546,M,8.327,M,01,0004*6E
$GPHPD,0,0.000,236.59,-1.05,-12.57,31.5920582,120.7810167,2.555,13631343.888,24927554.870,2.555,0.000,0.000,0.000,0.000,0.000,0.000,0.000,17,16,4*77
$GPGGA,065427.60,3135.5234150,N,12046.8608500,E,4,17,1.4,2.5562,M,8.327,M,00,0004*60
$GPHPD,0,0.000,235.92,-1.87,-12.59,31.5920569,120.7810142,2.556,13631344.655,24927553.489,2.556,0.000,0.000,0.000,0.000,0.000,0.000,0.000,17,16,4*71
$GPGGA,065427.80,3135.5233422,N,12046.8607026,E,4,17,1.4,2.5560,M,8.327,M,00,0004*65
$GPHPD,0,0.000,236.09,-0.50,-12.59,31.5920557,120.7810117,2.556,13631345.393,24927552.135,2.556,0.000,0.000,0.000,0.000,0.000,0.000,0.000,17,16,4*7B
$GPGGA,065428.00,3135.5232605,N,12046.8605527,E,4,17,1.4,2.5360,M,8.327,M,01,0004*65
$GPHPD,0,0.000,236.12,-0.48,-12.61,31.5920543,120.7810092,2.536,13631346.253,24927550.803,2.536,0.000,0.000,0.000,0.000,0.000,0.000,0.000,17,16,4*7A
$GPGGA,065428.20,3135.5231791,N,12046.8604118,E,4,17,1.4,2.5414,M,8.327,M,01,0004*65
$GPHPD,0,0.000,236.03,-0.77,-12.62,31.5920530,120.7810069,2.541,13631347.127,24927549.578,2.541,0.000,0.000,0.000,0.000,0.000,0.000,0.000,17,16,4*7D
$GPGGA,065428.40,3135.5230966,N,12046.8602642,E,4,17,1.4,2.5480,M,8.327,M,01,0004*67
$GPHPD,0,0.000,236.22,-1.69,-12.62,31.5920516,120.7810044,2.548,13631348.002,24927548.278,2.548,0.000,0.000,0.000,0.000,0.000,0.000,0.000,17,16,4*74
$GPGGA,065428.60,3135.5230198,N,12046.8601234,E,4,17,1.4,2.5567,M,8.327,M,00,0004*63
$GPHPD,0,0.000,237.14,-0.54,-12.63,31.5920503,120.7810021,2.557,13631348.811,24927547.028,2.557,0.000,0.000,0.000,0.000,0.000,0.000,0.000,17,16,4*7B
$GPGGA,065428.80,3135.5229373,N,12046.8599763,E,4,17,1.4,2.5592,M,8.327,M,00,0004*6D
$GPHPD,0,0.000,237.56,-1.15,-12.65,31.5920490,120.7809996,2.559,13631349.688,24927545.734,2.559,0.000,0.000,0.000,0.000,0.000,0.000,0.000,17,16,4*7E
$GPGGA,065429.00,3135.5228498,N,12046.8598301,E,4,17,1.4,2.5249,M,8.327,M,01,0004*66
$GPHPD,0,0.000,237.13,-1.38,-12.66,31.5920475,120.7809972,2.525,13631350.637,24927544.480,2.525,0.000,0.000,0.000,0.000,0.000,0.000,0.000,17,16,4*73
$GPGGA,065429.20,3135.5227643,N,12046.8596907,E,4,17,1.4,2.5177,M,8.327,M,01,0004*63
$GPHPD,0,0.000,237.47,-0.68,-12.67,31.5920461,120.7809948,2.518,13631351.572,24927543.297,2.518,0.000,0.000,0.000,0.000,0.000,0.000,0.000,17,16,4*7F
$GPGGA,065429.40,3135.5227051,N,12046.8595349,E,4,17,1.4,2.5045,M,8.327,M,01,0004*63
$GPHPD,0,0.000,238.68,-0.61,-12.69,31.5920451,120.7809922,2.505,13631352.100,24927541.763,2.505,0.000,0.000,0.000,0.000,0.000,0.000,0.000,17,16,4*7B
$GPGGA,065429.60,3135.5226289,N,12046.8593976,E,4,17,1.4,2.5149,M,8.327,M,00,0004*6B
$GPHPD,0,0.000,237.27,0.77,-12.70,31.5920438,120.7809900,2.515,13631352.907,24927540.551,2.515,0.000,0.000,0.000,0.000,0.000,0.000,0.000,17,16,4*5F
$GPGGA,065429.80,3135.5225602,N,12046.8592550,E,4,17,1.4,2.5234,M,8.327,M,00,0004*61
$GPHPD,0,0.000,237.72,0.27,-12.73,31.5920427,120.7809876,2.523,13631353.597,24927539.231,2.523,0.000,0.000,0.000,0.000,0.000,0.000,0.000,17,16,4*5C
$GPGGA,065430.00,3135.5224753,N,12046.8591191,E,4,17,1.4,2.5222,M,8.327,M,01,0004*69
$GPHPD,0,0.000,238.02,0.14,-12.77,31.5920413,120.7809853,2.522,13631354.530,24927538.087,2.522,0.000,0.000,0.000,0.000,0.000,0.000,0.000,17,16,4*54
$GPGGA,065430.20,3135.5224005,N,12046.8589717,E,4,17,1.4,2.5070,M,8.327,M,01,0004*6B
$GPHPD,0,0.000,238.90,0.41,-12.79,31.5920400,120.7809829,2.507,13631355.297,24927536.745,2.507,0.000,0.000,0.000,0.000,0.000,0.000,0.000,17,16,4*52
$GPGGA,065430.40,3135.5223303,N,12046.8588323,E,4,17,1.4,2.5092,M,8.327,M,01,0004*61
$GPHPD,0,0.000,238.50,0.75,-12.79,31.5920388,120.7809805,2.509,13631356.014,24927535.472,2.509,0.000,0.000,0.000,0.000,0.000,0.000,0.000,17,16,4*5E
$GPGGA,065430.60,3135.5222594,N,12046.8586903,E,4,17,1.4,2.5063,M,8.327,M,00,0004*63
$GPHPD,0,0.000,238.17,0.37,-12.80,31.5920377,120.7809782,2.506,13631356.736,24927534.173,2.506,0.000,0.000,0.000,0.000,0.000,0.000,0.000,17,16,4*5F
$GPGGA,065430.80,3135.5221914,N,12046.8585530,E,4,17,1.4,2.5204,M,8.327,M,00,0004*66
$GPHPD,0,0.000,237.98,-0.46,-12.79,31.5920365,120.7809759,2.520,13631357.427,24927532.913,2.520,0.000,0.000,0.000,0.000,0.000,0.000,0.000,17,16,4*75
$GPGGA,065431.00,3135.5221222,N,12046.8584057,E,4,17,1.4,2.5311,M,8.327,M,01,0004*60
