$GPGGA,065841.60,3135.4721402,N,12046.7393389,E,4,18,1.3,2.8502,M,8.320,M,00,0004*65
$GPHPD,0,0.000,316.75,-0.24,-12.49,31.5912023,120.7789890,2.850,13631828.984,24926386.661,2.850,0.000,0.000,0.000,0.000,0.000,0.000,0.000,18,18,4*7A
$GPGGA,065841.80,3135.4721382,N,12046.7393405,E,4,18,1.3,2.8594,M,8.320,M,00,0004*68
$GPHPD,0,0.000,316.86,-0.49,-12.48,31.5912023,120.7789890,2.859,13631829.015,24926386.692,2.859,0.000,0.000,0.000,0.000,0.000,0.000,0.000,18,18,4*70
$GPGGA,065842.00,3135.4721381,N,12046.7393403,E,4,18,1.3,2.8581,M,8.320,M,01,0004*63
$GPHPD,0,0.000,316.75,-0.85,-12.48,31.5912023,120.7789890,2.858,13631829.016,24926386.690,2.858,0.000,0.000,0.000,0.000,0.000,0.000,0.000,18,18,4*7D
$GPGGA,065842.20,3135.4721392,N,12046.7393395,E,4,18,1.3,2.8529,M,8.320,M,01,0004*69
$GPHPD,0,0.000,316.82,-0.97,-12.48,31.5912023,120.7789890,2.853,13631828.999,24926386.674,2.853,0.000,0.000,0.000,0.000,0.000,0.000,0.000,18,18,4*73
$GPGGA,065842.40,3135.4721381,N,12046.7393397,E,4,18,1.3,2.8538,M,8.320,M,01,0004*6F
$GPHPD,0,0.000,316.84,-0.73,-12.49,31.5912023,120.7789890,2.854,13631829.015,24926386.682,2.854,0.000,0.000,0.000,0.000,0.000,0.000,0.000,18,18,4*7B
$GPGGA,065842.60,3135.4721380,N,12046.7393404,E,4,18,1.3,2.8496,M,8.320,M,00,0004*65
$GPHPD,0,0.000,316.87,-0.77,-12.48,31.5912023,120.7789890,2.850,13631829.018,24926386.691,2.850,0.000,0.000,0.000,0.000,0.000,0.000,0.000,18,18,4*72
$GPGGA,065842.80,3135.4721383,N,12046.7393401,E,4,18,1.3,2.8629,M,8.320,M,00,0004*6B
$GPHPD,0,0.000,316.81,-0.71,-12.48,31.5912023,120.7789890,2.863,13631829.013,24926386.686,2.863,0.000,0.000,0.000,0.000,0.000,0.000,0.000,18,18,4*7F
$GPGGA,065843.00,3135.4721376,N,12046.7393416,E,4,18,1.3,2.8646,M,8.320,M,01,0004*66
$GPHPD,0,0.000,316.86,-1.00,-12.48,31.5912023,120.7789890,2.865,13631829.026,24926386.708,2.865,0.000,0.000,0.000,0.000,0.000,0.000,0.000,18,18,4*7E
$GPGGA,065843.20,3135.4721381,N,12046.7393387,E,4,18,1.3,2.8553,M,8.320,M,01,0004*64
$GPHPD,0,0.000,316.88,-0.74,-12.48,31.5912023,120.7789890,2.855,13631829.013,24926386.670,2.855,0.000,0.000,0.000,0.000,0.000,0.000,0.000,18,18,4*7A
$GPGGA,065843.40,3135.4721381,N,12046.7393402,E,4,18,1.3,2.8649,M,8.320,M,01,0004*60
$GPHPD,0,0.000,317.01,-0.46,-12.48,31.5912023,120.7789890,2.865,13631829.016,24926386.688,2.865,0.000,0.000,0.000,0.000,0.000,0.000,0.000,18,18,4*79
$GPGGA,065843.60,3135.4721382,N,12046.7393398,E,4,18,1.3,2.8660,M,8.320,M,00,0004*6F
$GPHPD,0,0.000,316.76,-0.86,-12.48,31.5912023,120.7789890,2.866,13631829.014,24926386.683,2.866,0.000,0.000,0.000,0.000,0.000,0.000,0.000,18,18,4*7D
$GPGGA,065843.80,3135.4721398,N,12046.7393397,E,4,18,1.3,2.8579,M,8.320,M,00,0004*6E
$GPHPD,0,0.000,316.97,-0.97,-12.48,31.5912023,120.7789890,2.858,13631828.991,24926386.673,2.858,0.000,0.000,0.000,0.000,0.000,0.000,0.000,18,18,4*78
$GPGGA,065844.00,3135.4721400,N,12046.7393399,E,4,18,1.3,2.8568,M,8.320,M,01,0004*68
$GPHPD,0,0.000,316.89,-0.43,-12.48,31.5912023,120.7789890,2.857,13631828.988,24926386.674,2.857,0.000,0.000,0.000,0.000,0.000,0.000,0.000,18,18,4*71
$GPGGA,065844.20,3135.4721393,N,12046.7393398,E,4,18,1.3,2.8618,M,8.320,M,01,0004*62
$GPHPD,0,0.000,316.82,-0.41,-12.49,31.5912023,120.7789890,2.862,13631828.998,24926386.677,2.862,0.000,0.000,0.000,0.000,0.000,0.000,0.000,18,18,4*7B
$GPGGA,065844.40,3135.4721396,N,12046.7393406,E,4,18,1.3,2.8594,M,8.320,M,01,0004*66
$GPHPD,0,0.000,316.90,-0.86,-12.47,31.5912023,120.7789890,2.859,13631828.996,24926386.685,2.859,0.000,0.000,0.000,0.000,0.000,0.000,0.000,18,18,4*7E
$GPGGA,065844.60,3135.4721371,N,12046.7393398,E,4,18,1.3,2.8599,M,8.320,M,00,0004*61
$GPHPD,0,0.000,316.67,-0.51,-12.47,31.5912023,120.7789890,2.860,13631829.029,24926386.689,2.860,0.000,0.000,0.000,0.000,0.000,0.000,0.000,18,18,4*7C
$GPGGA,065844.80,3135.4721393,N,12046.7393380,E,4,18,1.3,2.8593,M,8.320,M,00,0004*60
$GPHPD,0,0.000,317.01,-0.61,-12.48,31.5912023,120.7789890,2.859,13631828.995,24926386.655,2.859,0.000,0.000,0.000,0.000,0.000,0.000,0.000,18,18,4*7F
$GPGGA,065845.00,3135.4721400,N,12046.7393392,E,4,18,1.3,2.8545,M,8.320,M,01,0004*6D
$GPHPD,0,0.000,316.88,-0.64,-12.47,31.5912023,120.7789890,2.855,13631828.987,24926386.665,2.855,0.000,0.000,0.000,0.000,0.000,0.000,0.000,18,18,4*75
$GPGGA,065845.20,3135.4721388,N,12046.7393405,E,4,18,1.3,2.8587,M,8.320,M,01,0004*6F
$GPHPD,0,0.000,316.89,-0.49,-12.47,31.5912023,120.7789890,2.859,13631829.007,24926386.688,2.859,0.000,0.000,0.000,0.000,0.000,0.000,0.000,18,18,4*78
$GPGGA,065845.40,3135.4721384,N,12046.7393399,E,4,18,1.3,2.8579,M,8.320,M,01,0004*66
$GPHPD,0,0.000,316.88,-0.48,-12.47,31.5912023,120.7789890,2.858,13631829.011,24926386.683,2.858,0.000,0.000,0.000,0.000,0.000,0.000,0.000,18,18,4*74
$GPGGA,065845.60,3135.4721396,N,12046.7393397,E,4,18,1.3,2.8543,M,8.320,M,00,0004*61
$GPHPD,0,0.000,316.86,-0.58,-12.47,31.5912023,120.7789890,2.854,13631828.994,24926386.674,2.854,0.000,0.000,0.000,0.000,0.000,0.000,0.000,18,18,4*76
$GPGGA,065845.80,3135.4721374,N,12046.7393409,E,4,18,1.3,2.8619,M,8.320,M,00,0004*6F
$GPHPD,0,0.000,316.90,-0.35,-12.47,31.5912023,120.7789890,2.862,13631829.027,24926386.701,2.862,0.000,0.000,0.000,0.000,0.000,0.000,0.000,18,18,4*79
$GPGGA,065846.00,3135.4721374,N,12046.7393408,E,4,18,1.3,2.8626,M,8.320,M,01,0004*68
$GPHPD,0,0.000,316.95,-0.86,-12.48,31.5912023,120.7789890,2.863,13631829.027,24926386.700,2.863,0.000,0.000,0.000,0.000,0.000,0.000,0.000,18,18,4*7A
$GPGGA,065846.20,3135.4721394,N,12046.7393402,E,4,18,1.3,2.8585,M,8.320,M,01,0004*64
$GPHPD,0,0.000,316.96,-0.66,-12.48,31.5912023,120.7789890,2.859,13631828.998,24926386.681,2.859,0.000,0.000,0.000,0.000,0.000,0.000,0.000,18,18,4*73
$GPGGA,065846.40,3135.4721374,N,12046.7393402,E,4,18,1.3,2.8625,M,8.320,M,01,0004*65
$GPHPD,0,0.000,316.73,-0.56,-12.48,31.5912023,120.7789890,2.863,13631829.026,24926386.693,2.863,0.000,0.000,0.000,0.000,0.000,0.000,0.000,18,18,4*75
$GPGGA,065846.60,3135.4721364,N,12046.7393399,E,4,18,1.3,2.8612,M,8.320,M,00,0004*66
$GPHPD,0,0.000,316.99,-0.74,-12.48,31.5912023,120.7789890,2.861,13631829.040,24926386.695,2.861,0.000,0.000,0.000,0.000,0.000,0.000,0.000,18,18,4*77
$GPGGA,065846.80,3135.4721380,N,12046.7393396,E,4,18,1.3,2.8573,M,8.320,M,00,0004*69
$GPHPD,0,0.000,316.95,-0.62,-12.48,31.5912023,120.7789890,2.857,13631829.016,24926386.682,2.857,0.000,0.000,0.000,0.000,0.000,0.000,0.000,18,18,4*79
$GPGGA,065847.00,3135.4721388,N,12046.7393393,E,4,18,1.3,2.8552,M,8.320,M,01,0004*6F
$GPHPD,0,0.000,316.99,-0.56,-12.48,31.5912023,120.7789890,2.855,13631829.004,24926386.674,2.855,0.000,0.000,0.000,0.000,0.000,0.000,0.000,18,18,4*78
$GPGGA,065847.20,3135.4721392,N,12046.7393396,E,4,18,1.3,2.8555,M,8.320,M,01,0004*64
$GPHPD,0,0.000,316.83,-0.53,-12.49,31.5912023,120.7789890,2.856,13631828.999,24926386.675,2.856,0.000,0.000,0.000,0.000,0.000,0.000,0.000,18,18,4*7A
$GPGGA,065847.40,3135.4721389,N,12046.7393400,E,4,18,1.3,2.8543,M,8.320,M,01,0004*67
$GPHPD,0,0.000,316.87,-0.41,-12.49,31.5912023,120.7789890,2.854,13631829.004,24926386.681,2.854,0.000,0.000,0.000,0.000,0.000,0.000,0.000,18,18,4*7A
$GPGGA,065847.60,3135.4721398,N,12046.7393389,E,4,18,1.3,2.8615,M,8.320,M,00,0004*62
$GPHPD,0,0.000,316.81,-0.19,-12.50,31.5912023,120.7789890,2.862,13631828.989,24926386.663,2.862,0.000,0.000,0.000,0.000,0.000,0.000,0.000,18,18,4*78
$GPGGA,065847.80,3135.4721406,N,12046.7393396,E,4,18,1.3,2.8550,M,8.320,M,00,0004*60
$GPHPD,0,0.000,316.89,-0.72,-12.51,31.5912023,120.7789890,2.855,13631828.979,24926386.667,2.855,0.000,0.000,0.000,0.000,0.000,0.000,0.000,18,18,4*77
$GPGGA,065848.00,3135.4721405,N,12046.7393373,E,4,18,1.3,2.8618,M,8.320,M,01,0004*61
$GPHPD,0,0.000,316.87,-0.34,-12.54,31.5912023,120.7789890,2.862,13631828.976,24926386.640,2.862,0.000,0.000,0.000,0.000,0.000,0.000,0.000,18,18,4*74
$GPGGA,065848.20,3135.4721474,N,12046.7393297,E,4,18,1.3,2.8553,M,8.320,M,01,0004*62
$GPHPD,0,0.000,316.83,-0.44,-12.61,31.5912025,120.7789888,2.855,13631828.863,24926386.508,2.855,0.000,0.000,0.000,0.000,0.000,0.000,0.000,18,18,4*74
$GPGGA,065848.40,3135.4721566,N,12046.7393209,E,4,18,1.3,2.8505,M,8.320,M,01,0004*62
$GPHPD,0,0.000,317.10,-0.60,-12.66,31.5912026,120.7789887,2.851,13631828.714,24926386.348,2.851,0.000,0.000,0.000,0.000,0.000,0.000,0.000,18,18,4*7F
$GPGGA,065848.60,3135.4721680,N,12046.7393090,E,4,18,1.3,2.8536,M,8.320,M,00,0004*68
$GPHPD,0,0.000,317.09,-0.52,-12.69,31.5912028,120.7789885,2.854,13631828.528,24926386.138,2.854,0.000,0.000,0.000,0.000,0.000,0.000,0.000,18,18,4*7D
$GPGGA,065848.80,3135.4721830,N,12046.7392908,E,4,18,1.3,2.8507,M,8.320,M,00,0004*68
$GPHPD,0,0.000,317.16,-0.57,-12.73,31.5912031,120.7789882,2.851,13631828.278,24926385.831,2.851,0.000,0.000,0.000,0.000,0.000,0.000,0.000,18,18,4*73
$GPGGA,065849.00,3135.4722023,N,12046.7392724,E,4,18,1.3,2.8485,M,8.320,M,01,0004*62
$GPHPD,0,0.000,317.35,-0.70,-12.75,31.5912034,120.7789879,2.849,13631827.967,24926385.497,2.849,0.000,0.000,0.000,0.000,0.000,0.000,0.000,18,18,4*7A
$GPGGA,065849.20,3135.4722242,N,12046.7392505,E,4,18,1.3,2.8526,M,8.320,M,01,0004*6C
$GPHPD,0,0.000,317.72,-0.55,-12.77,31.5912037,120.7789875,2.853,13631827.612,24926385.105,2.853,0.000,0.000,0.000,0.000,0.000,0.000,0.000,18,18,4*70
$GPGGA,065849.40,3135.4722472,N,12046.7392281,E,4,18,1.3,2.8526,M,8.320,M,01,0004*64
$GPHPD,0,0.000,317.91,-0.47,-12.78,31.5912041,120.7789871,2.853,13631827.240,24926384.701,2.853,0.000,0.000,0.000,0.000,0.000,0.000,0.000,18,18,4*74
$GPGGA,065849.60,3135.4722737,N,12046.7392026,E,4,18,1.3,2.8553,M,8.320,M,00,0004*68
$GPHPD,0,0.000,318.31,-0.48,-12.78,31.5912046,120.7789867,2.855,13631826.812,24926384.240,2.855,0.000,0.000,0.000,0.000,0.000,0.000,0.000,18,18,4*72
$GPGGA,065849.80,3135.4723018,N,12046.7391776,E,4,18,1.3,2.8497,M,8.320,M,00,0004*65
$GPHPD,0,0.000,318.52,-0.61,-12.75,31.5912050,120.7789863,2.850,13631826.362,24926383.775,2.850,0.000,0.000,0.000,0.000,0.000,0.000,0.000,18,18,4*7A
$GPGGA,065850.00,3135.4723276,N,12046.7391518,E,4,18,1.3,2.8450,M,8.320,M,01,0004*6F
$GPHPD,0,0.000,318.90,-0.32,-12.72,31.5912055,120.7789859,2.845,13631825.943,24926383.313,2.845,0.000,0.000,0.000,0.000,0.000,0.000,0.000,18,18,4*77
$GPGGA,065850.20,3135.4723519,N,12046.7391289,E,4,18,1.3,2.8535,M,8.320,M,01,0004*6E
$GPHPD,0,0.000,319.19,-0.67,-12.69,31.5912059,120.7789855,2.854,13631825.552,24926382.896,2.854,0.000,0.000,0.000,0.000,0.000,0.000,0.000,18,18,4*76
$GPGGA,065850.40,3135.4723777,N,12046.7391043,E,4,18,1.3,2.8463,M,8.320,M,01,0004*64
$GPHPD,0,0.000,319.52,-0.88,-12.68,31.5912063,120.7789851,2.846,13631825.135,24926382.449,2.846,0.000,0.000,0.000,0.000,0.000,0.000,0.000,18,18,4*7F
$GPGGA,065850.60,3135.4724033,N,12046.7390810,E,4,18,1.3,2.8422,M,8.320,M,00,0004*6D
$GPHPD,0,0.000,319.80,-0.51,-12.68,31.5912067,120.7789847,2.842,13631824.725,24926382.019,2.842,0.000,0.000,0.000,0.000,0.000,0.000,0.000,18,18,4*70
$GPGGA,065850.80,3135.4724280,N,12046.7390575,E,4,18,1.3,2.8482,M,8.320,M,00,0004*6D
$GPHPD,0,0.000,320.03,-0.38,-12.67,31.5912071,120.7789843,2.848,13631824.326,24926381.592,2.848,0.000,0.000,0.000,0.000,0.000,0.000,0.000,18,18,4*70
$GPGGA,065851.00,3135.4724522,N,12046.7390358,E,4,18,1.3,2.8519,M,8.320,M,01,0004*60
$GPHPD,0,0.000,320.24,-0.76,-12.63,31.5912075,120.7789839,2.852,13631823.939,24926381.189,2.852,0.000,0.000,0.000,0.000,0.000,0.000,0.000,18,18,4*7F
$GPGGA,065851.20,3135.4724744,N,12046.7390165,E,4,18,1.3,2.8476,M,8.320,M,01,0004*64
$GPHPD,0,0.000,320.41,-0.90,-12.58,31.5912079,120.7789836,2.848,13631823.584,24926380.827,2.848,0.000,0.000,0.000,0.000,0.000,0.000,0.000,18,18,4*79
$GPGGA,065851.40,3135.4724945,N,12046.7389973,E,4,18,1.3,2.8504,M,8.320,M,01,0004*6E
$GPHPD,0,0.000,320.57,-0.64,-12.53,31.5912082,120.7789833,2.850,13631823.260,24926380.478,2.850,0.000,0.000,0.000,0.000,0.000,0.000,0.000,18,18,4*74
$GPGGA,065851.60,3135.4725123,N,12046.7389789,E,4,18,1.3,2.8534,M,8.320,M,00,0004*6C
$GPHPD,0,0.000,320.80,-0.86,-12.49,31.5912085,120.7789830,2.853,13631822.970,24926380.153,2.853,0.000,0.000,0.000,0.000,0.000,0.000,0.000,18,18,4*7A
$GPGGA,065851.80,3135.4725327,N,12046.7389641,E,4,18,1.3,2.8463,M,8.320,M,00,0004*62
$GPHPD,0,0.000,320.84,-0.66,-12.47,31.5912089,120.7789827,2.846,13631822.650,24926379.856,2.846,0.000,0.000,0.000,0.000,0.000,0.000,0.000,18,18,4*73
$GPGGA,065852.00,3135.4725492,N,12046.7389480,E,4,18,1.3,2.8514,M,8.320,M,01,0004*6F
$GPHPD,0,0.000,320.89,-0.58,-12.44,31.5912092,120.7789825,2.851,13631822.383,24926379.565,2.851,0.000,0.000,0.000,0.000,0.000,0.000,0.000,18,18,4*7E
$GPGGA,065852.20,3135.4725653,N,12046.7389339,E,4,18,1.3,2.8530,M,8.320,M,01,0004*61
$GPHPD,0,0.000,320.93,-0.37,-12.41,31.5912094,120.7789822,2.853,13631822.126,24926379.302,2.853,0.000,0.000,0.000,0.000,0.000,0.000,0.000,18,18,4*72
$GPGGA,065852.40,3135.4725822,N,12046.7389193,E,4,18,1.3,2.8494,M,8.320,M,01,0004*62
$GPHPD,0,0.000,321.02,-0.59,-12.40,31.5912097,120.7789820,2.849,13631821.856,24926379.027,2.849,0.000,0.000,0.000,0.000,0.000,0.000,0.000,18,18,4*7A
$GPGGA,065852.60,3135.4725971,N,12046.7389020,E,4,18,1.3,2.8535,M,8.320,M,00,0004*65
$GPHPD,0,0.000,321.06,-0.89,-12.40,31.5912100,120.7789817,2.854,13631821.610,24926378.732,2.854,0.000,0.000,0.000,0.000,0.000,0.000,0.000,18,18,4*76
$GPGGA,065852.80,3135.4726159,N,12046.7388850,E,4,18,1.3,2.8555,M,8.320,M,00,0004*62
$GPHPD,0,0.000,321.17,-1.18,-12.42,31.5912103,120.7789814,2.856,13631821.308,24926378.417,2.856,0.000,0.000,0.000,0.000,0.000,0.000,0.000,18,18,4*75
$GPGGA,065853.00,3135.4726373,N,12046.7388660,E,4,18,1.3,2.8498,M,8.320,M,01,0004*6D
$GPHPD,0,0.000,321.30,-0.98,-12.44,31.5912106,120.7789811,2.850,13631820.966,24926378.064,2.850,0.000,0.000,0.000,0.000,0.000,0.000,0.000,18,18,4*7C
$GPGGA,065853.20,3135.4726612,N,12046.7388454,E,4,18,1.3,2.8551,M,8.320,M,01,0004*6C
$GPHPD,0,0.000,321.20,-0.62,-12.44,31.5912110,120.7789808,2.855,13631820.585,24926377.676,2.855,0.000,0.000,0.000,0.000,0.000,0.000,0.000,18,18,4*7C
$GPGGA,065853.40,3135.4726846,N,12046.7388248,E,4,18,1.3,2.8558,M,8.320,M,01,0004*67
$GPHPD,0,0.000,321.23,-0.83,-12.44,31.5912114,120.7789804,2.856,13631820.210,24926377.291,2.856,0.000,0.000,0.000,0.000,0.000,0.000,0.000,18,18,4*7E
$GPGGA,065853.60,3135.4727102,N,12046.7388017,E,4,18,1.3,2.8519,M,8.320,M,00,0004*61
$GPHPD,0,0.000,321.26,-1.09,-12.46,31.5912118,120.7789800,2.852,13631819.800,24926376.864,2.852,0.000,0.000,0.000,0.000,0.000,0.000,0.000,18,18,4*72
$GPGGA,065853.80,3135.4727422,N,12046.7387737,E,4,18,1.3,2.8429,M,8.320,M,00,0004*60
$GPHPD,0,0.000,321.39,-0.95,-12.52,31.5912124,120.7789796,2.843,13631819.289,24926376.340,2.843,0.000,0.000,0.000,0.000,0.000,0.000,0.000,18,18,4*74
$GPGGA,065854.00,3135.4727806,N,12046.7387382,E,4,18,1.3,2.8452,M,8.320,M,01,0004*62
$GPHPD,0,0.000,321.65,-0.74,-12.58,31.5912130,120.7789790,2.845,13631818.672,24926375.688,2.845,0.000,0.000,0.000,0.000,0.000,0.000,0.000,18,18,4*78
$GPGGA,065854.20,3135.4728226,N,12046.7387044,E,4,18,1.3,2.8416,M,8.320,M,01,0004*6E
$GPHPD,0,0.000,321.84,-0.53,-12.61,31.5912137,120.7789784,2.842,13631818.007,24926375.036,2.842,0.000,0.000,0.000,0.000,0.000,0.000,0.000,18,18,4*7D
$GPGGA,065854.40,3135.4728704,N,12046.7386628,E,4,18,1.3,2.8375,M,8.320,M,01,0004*62
$GPHPD,0,0.000,321.69,-0.55,-12.65,31.5912145,120.7789777,2.838,13631817.243,24926374.256,2.838,0.000,0.000,0.000,0.000,0.000,0.000,0.000,18,18,4*7D
$GPGGA,065854.60,3135.4729239,N,12046.7386171,E,4,18,1.3,2.8365,M,8.320,M,00,0004*61
$GPHPD,0,0.000,321.93,-0.68,-12.71,31.5912154,120.7789770,2.837,13631816.391,24926373.393,2.837,0.000,0.000,0.000,0.000,0.000,0.000,0.000,18,18,4*74
$GPGGA,065854.80,3135.4729822,N,12046.7385659,E,4,18,1.3,2.8380,M,8.320,M,00,0004*6A
$GPHPD,0,0.000,322.04,-0.68,-12.75,31.5912164,120.7789761,2.838,13631815.459,24926372.437,2.838,0.000,0.000,0.000,0.000,0.000,0.000,0.000,18,18,4*76
$GPGGA,065855.00,3135.4730448,N,12046.7385117,E,4,18,1.3,2.8398,M,8.320,M,01,0004*6E
$GPHPD,0,0.000,322.16,-0.41,-12.76,31.5912174,120.7789752,2.840,13631814.460,24926371.419,2.840,0.000,0.000,0.000,0.000,0.000,0.000,0.000,18,18,4*78
$GPGGA,065855.20,3135.4731130,N,12046.7384508,E,4,18,1.3,2.8416,M,8.320,M,01,0004*6D
$GPHPD,0,0.000,322.28,-0.93,-12.71,31.5912186,120.7789742,2.842,13631813.368,24926370.287,2.842,0.000,0.000,0.000,0.000,0.000,0.000,0.000,18,18,4*79
$GPGGA,065855.40,3135.4731858,N,12046.7383871,E,4,18,1.3,2.8452,M,8.320,M,01,0004*68
$GPHPD,0,0.000,322.16,-0.88,-12.64,31.5912198,120.7789731,2.845,13631812.205,24926369.095,2.845,0.000,0.000,0.000,0.000,0.000,0.000,0.000,18,18,4*73
$GPGGA,065855.60,3135.4732517,N,12046.7383272,E,4,18,1.3,2.8505,M,8.320,M,00,0004*64
$GPHPD,0,0.000,322.12,-1.12,-12.61,31.5912209,120.7789721,2.851,13631811.148,24926367.989,2.851,0.000,0.000,0.000,0.000,0.000,0.000,0.000,18,18,4*79
$GPGGA,065855.80,3135.4733193,N,12046.7382694,E,4,18,1.3,2.8395,M,8.320,M,00,0004*61
$GPHPD,0,0.000,322.21,-1.62,-12.56,31.5912220,120.7789712,2.840,13631810.071,24926366.898,2.840,0.000,0.000,0.000,0.000,0.000,0.000,0.000,18,18,4*7B
$GPGGA,065856.00,3135.4733865,N,12046.7382125,E,4,18,1.3,2.8377,M,8.320,M,01,0004*6A
$GPHPD,0,0.000,321.97,-1.01,-12.52,31.5912231,120.7789702,2.838,13631809.001,24926365.821,2.838,0.000,0.000,0.000,0.000,0.000,0.000,0.000,18,18,4*7B
$GPGGA,065856.20,3135.4734476,N,12046.7381608,E,4,18,1.3,2.8344,M,8.320,M,01,0004*6A
$GPHPD,0,0.000,322.09,-1.11,-12.50,31.5912241,120.7789693,2.834,13631808.028,24926364.842,2.834,0.000,0.000,0.000,0.000,0.000,0.000,0.000,18,18,4*7C
$GPGGA,065856.40,3135.4735088,N,12046.7381051,E,4,18,1.3,2.8353,M,8.320,M,01,0004*64
$GPHPD,0,0.000,322.01,-1.14,-12.51,31.5912251,120.7789684,2.835,13631807.046,24926363.814,2.835,0.000,0.000,0.000,0.000,0.000,0.000,0.000,18,18,4*74
$GPGGA,065856.60,3135.4735676,N,12046.7380552,E,4,18,1.3,2.8312,M,8.320,M,00,0004*62
$GPHPD,0,0.000,322.17,-1.23,-12.51,31.5912261,120.7789676,2.831,13631806.110,24926362.870,2.831,0.000,0.000,0.000,0.000,0.000,0.000,0.000,18,18,4*79
$GPGGA,065856.80,3135.4736251,N,12046.7380037,E,4,18,1.3,2.8254,M,8.320,M,00,0004*6B
$GPHPD,0,0.000,321.89,-0.76,-12.52,31.5912271,120.7789667,2.825,13631805.189,24926361.914,2.825,0.000,0.000,0.000,0.000,0.000,0.000,0.000,18,18,4*7D
$GPGGA,065857.00,3135.4736824,N,12046.7379539,E,4,18,1.3,2.8315,M,8.320,M,01,0004*62
$GPHPD,0,0.000,322.08,-1.65,-12.53,31.5912280,120.7789659,2.832,13631804.274,24926360.980,2.832,0.000,0.000,0.000,0.000,0.000,0.000,0.000,18,18,4*7A
$GPGGA,065857.20,3135.4737428,N,12046.7379031,E,4,18,1.3,2.8300,M,8.320,M,01,0004*68
$GPHPD,0,0.000,322.26,-2.17,-12.51,31.5912290,120.7789651,2.830,13631803.314,24926360.016,2.830,0.000,0.000,0.000,0.000,0.000,0.000,0.000,18,18,4*7D
$GPGGA,065857.40,3135.4738012,N,12046.7378521,E,4,18,1.3,2.8271,M,8.320,M,01,0004*6E
$GPHPD,0,0.000,322.13,-1.73,-12.55,31.5912300,120.7789642,2.827,13631802.381,24926359.060,2.827,0.000,0.000,0.000,0.000,0.000,0.000,0.000,18,18,4*72
$GPGGA,065857.60,3135.4738619,N,12046.7378000,E,4,18,1.3,2.8202,M,8.320,M,00,0004*62
$GPHPD,0,0.000,322.48,-1.69,-12.56,31.5912310,120.7789633,2.820,13631801.413,24926358.079,2.820,0.000,0.000,0.000,0.000,0.000,0.000,0.000,18,18,4*75
$GPGGA,065857.80,3135.4739257,N,12046.7377485,E,4,18,1.3,2.8104,M,8.320,M,00,0004*60
$GPHPD,0,0.000,322.44,-0.89,-12.56,31.5912321,120.7789625,2.810,13631800.403,24926357.086,2.810,0.000,0.000,0.000,0.000,0.000,0.000,0.000,18,18,4*7C
$GPGGA,065858.00,3135.4739835,N,12046.7376956,E,4,18,1.3,2.8214,M,8.320,M,01,0004*68
$GPHPD,0,0.000,322.16,-1.12,-12.59,31.5912331,120.7789616,2.821,13631799.474,24926356.112,2.821,0.000,0.000,0.000,0.000,0.000,0.000,0.000,18,18,4*74
$GPGGA,065858.20,3135.4740513,N,12046.7376394,E,4,18,1.3,2.8115,M,8.320,M,01,0004*6B
$GPHPD,0,0.000,322.51,-0.58,-12.65,31.5912342,120.7789607,2.812,13631798.398,24926355.039,2.812,0.000,0.000,0.000,0.000,0.000,0.000,0.000,18,18,4*7C
$GPGGA,065858.40,3135.4741285,N,12046.7375748,E,4,18,1.3,2.8067,M,8.320,M,01,0004*66
$GPHPD,0,0.000,322.50,-0.88,-12.66,31.5912355,120.7789596,2.807,13631797.170,24926353.811,2.807,0.000,0.000,0.000,0.000,0.000,0.000,0.000,18,18,4*71
$GPGGA,065858.60,3135.4741970,N,12046.7375115,E,4,18,1.4,2.7987,M,8.320,M,01,0004*64
$GPHPD,0,0.000,322.98,-0.69,-12.71,31.5912366,120.7789585,2.799,13631796.069,24926352.649,2.799,0.000,0.000,0.000,0.000,0.000,0.000,0.000,18,18,4*74
$GPGGA,065858.80,3135.4742674,N,12046.7374499,E,4,18,1.4,2.7893,M,8.320,M,00,0004*67
$GPHPD,0,0.000,323.53,-0.99,-12.81,31.5912378,120.7789575,2.789,13631794.944,24926351.496,2.789,0.000,0.000,0.000,0.000,0.000,0.000,0.000,18,18,4*75
$GPGGA,065859.00,3135.4743585,N,12046.7373732,E,4,18,1.4,2.7823,M,8.320,M,01,0004*6D
$GPHPD,0,0.000,323.97,0.25,-12.94,31.5912393,120.7789562,2.782,13631793.495,24926350.041,2.782,0.000,0.000,0.000,0.000,0.000,0.000,0.000,18,18,4*59
$GPGGA,065859.20,3135.4744402,N,12046.7373047,E,4,18,1.4,2.7798,M,8.320,M,01,0004*6C
$GPHPD,0,0.000,323.41,-2.22,-13.04,31.5912407,120.7789551,2.780,13631792.196,24926348.739,2.780,0.000,0.000,0.000,0.000,0.000,0.000,0.000,18,18,4*7E
$GPGGA,065859.40,3135.4745356,N,12046.7372263,E,4,18,1.4,2.7926,M,8.320,M,01,0004*63
$GPHPD,0,0.000,323.61,-0.32,-13.07,31.5912423,120.7789538,2.793,13631790.682,24926347.238,2.793,0.000,0.000,0.000,0.000,0.000,0.000,0.000,18,18,4*7E
$GPGGA,065859.60,3135.4746260,N,12046.7371493,E,4,18,1.4,2.7766,M,8.320,M,00,0004*67
$GPHPD,0,0.000,324.56,-1.58,-13.09,31.5912438,120.7789525,2.777,13631789.242,24926345.783,2.777,0.000,0.000,0.000,0.000,0.000,0.000,0.000,18,18,4*7F
$GPGGA,065859.80,3135.4747247,N,12046.7370659,E,4,18,1.4,2.7882,M,8.320,M,00,0004*6D
$GPHPD,0,0.000,323.57,-0.05,-13.08,31.5912454,120.7789511,2.788,13631787.671,24926344.203,2.788,0.000,0.000,0.000,0.000,0.000,0.000,0.000,18,17,4*75
$GPGGA,065900.00,3135.4748157,N,12046.7369876,E,4,18,1.4,2.7881,M,8.320,M,01,0004*6C
$GPHPD,0,0.000,324.21,1.03,-13.07,31.5912469,120.7789498,2.788,13631786.220,24926342.729,2.788,0.000,0.000,0.000,0.000,0.000,0.000,0.000,18,16,4*53
$GPGGA,065900.20,3135.4749206,N,12046.7368989,E,4,17,1.5,2.7831,M,8.320,M,01,0004*6D
$GPHPD,0,0.000,323.85,-0.66,-13.08,31.5912487,120.7789483,2.783,13631784.550,24926341.048,2.783,0.000,0.000,0.000,0.000,0.000,0.000,0.000,17,17,4*7F
$GPGGA,065900.40,3135.4750224,N,12046.7368091,E,4,17,1.4,2.7724,M,8.320,M,01,0004*69
$GPHPD,0,0.000,324.38,-0.26,-13.13,31.5912504,120.7789468,2.772,13631782.923,24926339.373,2.772,0.000,0.000,0.000,0.000,0.000,0.000,0.000,17,16,4*74
$GPGGA,065900.60,3135.4751329,N,12046.7367159,E,4,17,1.4,2.7999,M,8.320,M,00,0004*65
$GPHPD,0,0.000,324.50,0.43,-13.18,31.5912522,120.7789453,2.800,13631781.164,24926337.606,2.800,0.000,0.000,0.000,0.000,0.000,0.000,0.000,17,16,4*52
$GPGGA,065900.80,3135.4752431,N,12046.7366413,E,4,17,1.4,2.7768,M,8.320,M,00,0004*6C
$GPHPD,0,0.000,324.31,1.40,-13.22,31.5912541,120.7789440,2.777,13631779.448,24926336.064,2.777,0.000,0.000,0.000,0.000,0.000,0.000,0.000,17,16,4*56
$GPGGA,065901.00,3135.4753460,N,12046.7365458,E,4,17,1.6,2.8130,M,8.320,M,01,0004*6B
$GPHPD,0,0.000,323.57,1.77,-13.28,31.5912558,120.7789424,2.813,13631777.793,24926334.314,2.813,0.000,0.000,0.000,0.000,0.000,0.000,0.000,17,16,4*58
$GPGGA,065901.20,3135.4754547,N,12046.7364666,E,4,17,1.6,2.8092,M,8.320,M,01,0004*6D
$GPHPD,0,0.000,323.96,2.03,-13.29,31.5912576,120.7789411,2.809,13631776.088,24926332.726,2.809,0.000,0.000,0.000,0.000,0.000,0.000,0.000,17,16,4*51
$GPGGA,065901.40,3135.4755711,N,12046.7363781,E,4,17,1.6,2.7809,M,8.320,M,01,0004*61
$GPHPD,0,0.000,323.81,0.83,-13.30,31.5912595,120.7789396,2.781,13631774.256,24926330.981,2.781,0.000,0.000,0.000,0.000,0.000,0.000,0.000,17,16,4*52
$GPGGA,065901.60,3135.4756735,N,12046.7362863,E,4,17,1.6,2.8089,M,8.320,M,00,0004*6A
$GPHPD,0,0.000,323.76,1.92,-13.31,31.5912612,120.7789381,2.809,13631772.615,24926329.278,2.809,0.000,0.000,0.000,0.000,0.000,0.000,0.000,17,16,4*50
$GPGGA,065901.80,3135.4757795,N,12046.7361885,E,4,17,1.6,2.8063,M,8.320,M,00,0004*60
$GPHPD,0,0.000,324.22,0.77,-13.28,31.5912630,120.7789365,2.806,13631770.912,24926327.481,2.806,0.000,0.000,0.000,0.000,0.000,0.000,0.000,17,16,4*5A
$GPGGA,065902.00,3135.4758877,N,12046.7360998,E,4,17,1.6,2.8202,M,8.320,M,01,0004*6F
$GPHPD,0,0.000,324.64,0.91,-13.26,31.5912648,120.7789350,2.820,13631769.195,24926325.781,2.820,0.000,0.000,0.000,0.000,0.000,0.000,0.000,17,16,4*59
$GPGGA,065902.20,3135.4759936,N,12046.7360043,E,4,17,1.6,2.8346,M,8.320,M,01,0004*66
$GPHPD,0,0.000,325.13,-0.56,-13.24,31.5912666,120.7789334,2.835,13631767.498,24926324.013,2.835,0.000,0.000,0.000,0.000,0.000,0.000,0.000,17,16,4*79
$GPGGA,065902.40,3135.4761095,N,12046.7359222,E,4,17,1.6,2.8319,M,8.320,M,01,0004*6E
$GPHPD,0,0.000,325.59,-1.80,-13.22,31.5912685,120.7789320,2.832,13631765.685,24926322.348,2.832,0.000,0.000,0.000,0.000,0.000,0.000,0.000,17,16,4*74
$GPGGA,065902.60,3135.4762219,N,12046.7358354,E,4,17,1.6,2.8197,M,8.320,M,00,0004*6D
$GPHPD,0,0.000,325.23,-1.35,-13.21,31.5912704,120.7789306,2.820,13631763.913,24926320.647,2.820,0.000,0.000,0.000,0.000,0.000,0.000,0.000,17,16,4*76
$GPGGA,065902.80,3135.4763357,N,12046.7357447,E,4,17,1.6,2.8127,M,8.320,M,00,0004*68
$GPHPD,0,0.000,325.40,-0.36,-13.17,31.5912723,120.7789291,2.813,13631762.113,24926318.891,2.813,0.000,0.000,0.000,0.000,0.000,0.000,0.000,17,16,4*79
$GPGGA,065903.00,3135.4764489,N,12046.7356574,E,4,16,1.7,2.8108,M,8.320,M,01,0004*6E
$GPHPD,0,0.000,325.13,-1.29,-13.12,31.5912741,120.7789276,2.811,13631760.328,24926317.179,2.811,0.000,0.000,0.000,0.000,0.000,0.000,0.000,16,15,4*72
$GPGGA,065903.20,3135.4765630,N,12046.7355583,E,4,16,1.9,2.8154,M,8.320,M,01,0004*61
$GPHPD,0,0.000,325.39,-0.94,-13.06,31.5912761,120.7789260,2.815,13631758.506,24926315.320,2.815,0.000,0.000,0.000,0.000,0.000,0.000,0.000,16,15,4*70
$GPGGA,065903.40,3135.4766764,N,12046.7354661,E,4,16,1.7,2.8193,M,8.320,M,01,0004*6F
$GPHPD,0,0.000,325.49,-0.45,-13.01,31.5912779,120.7789244,2.819,13631756.709,24926313.548,2.819,0.000,0.000,0.000,0.000,0.000,0.000,0.000,16,15,4*7E
$GPGGA,065903.60,3135.4767963,N,12046.7353803,E,4,16,1.7,2.8081,M,8.320,M,00,0004*6B
$GPHPD,0,0.000,325.92,0.85,-12.95,31.5912799,120.7789230,2.808,13631754.832,24926311.815,2.808,0.000,0.000,0.000,0.000,0.000,0.000,0.000,16,15,4*5A
$GPGGA,065903.80,3135.4769153,N,12046.7352903,E,4,16,1.7,2.8010,M,8.320,M,00,0004*68
$GPHPD,0,0.000,325.62,0.44,-12.92,31.5912819,120.7789215,2.801,13631752.959,24926310.037,2.801,0.000,0.000,0.000,0.000,0.000,0.000,0.000,16,15,4*5C
$GPGGA,065904.00,3135.4770290,N,12046.7351974,E,4,16,1.7,2.7947,M,8.320,M,01,0004*65
$GPHPD,0,0.000,325.30,0.72,-12.94,31.5912838,120.7789200,2.795,13631751.156,24926308.254,2.795,0.000,0.000,0.000,0.000,0.000,0.000,0.000,16,15,4*55
$GPGGA,065904.20,3135.4771496,N,12046.7351103,E,4,16,1.7,2.7947,M,8.320,M,01,0004*6E
$GPHPD,0,0.000,325.85,0.68,-12.90,31.5912858,120.7789185,2.795,13631749.266,24926306.502,2.795,0.000,0.000,0.000,0.000,0.000,0.000,0.000,16,15,4*5F
$GPGGA,065904.40,3135.4772699,N,12046.7350144,E,4,16,1.7,2.7937,M,8.320,M,01,0004*63
$GPHPD,0,0.000,324.80,-0.04,-12.87,31.5912878,120.7789169,2.794,13631747.363,24926304.645,2.794,0.000,0.000,0.000,0.000,0.000,0.000,0.000,16,15,4*72
$GPGGA,065904.60,3135.4773872,N,12046.7349194,E,4,16,1.7,2.8086,M,8.320,M,00,0004*63
$GPHPD,0,0.000,324.47,0.91,-12.84,31.5912898,120.7789153,2.809,13631745.505,24926302.817,2.809,0.000,0.000,0.000,0.000,0.000,0.000,0.000,16,15,4*57
$GPGGA,065904.80,3135.4775076,N,12046.7348241,E,4,16,1.7,2.8093,M,8.320,M,00,0004*69
$GPHPD,0,0.000,324.26,2.00,-12.82,31.5912918,120.7789137,2.809,13631743.602,24926300.966,2.809,0.000,0.000,0.000,0.000,0.000,0.000,0.000,16,15,4*50
$GPGGA,065905.00,3135.4776276,N,12046.7347270,E,4,16,1.5,2.7990,M,8.320,M,01,0004*6A
$GPHPD,0,0.000,324.39,1.58,-12.82,31.5912938,120.7789121,2.799,13631741.700,24926299.097,2.799,0.000,0.000,0.000,0.000,0.000,0.000,0.000,16,15,4*52
$GPGGA,065905.20,3135.4777495,N,12046.7346289,E,4,15,1.5,2.7922,M,8.320,M,01,0004*6F
$GPHPD,0,0.000,323.81,0.17,-12.81,31.5912958,120.7789105,2.792,13631739.770,24926297.204,2.792,0.000,0.000,0.000,0.000,0.000,0.000,0.000,15,15,4*52
$GPGGA,065905.40,3135.4778696,N,12046.7345290,E,4,15,1.5,2.8052,M,8.320,M,01,0004*6D
$GPHPD,0,0.000,324.06,-0.56,-12.81,31.5912978,120.7789088,2.805,13631737.862,24926295.300,2.805,0.000,0.000,0.000,0.000,0.000,0.000,0.000,15,15,4*71
$GPGGA,065905.60,3135.4779894,N,12046.7344266,E,4,15,1.5,2.8039,M,8.320,M,01,0004*67
$GPHPD,0,0.000,324.36,-0.90,-12.82,31.5912998,120.7789071,2.804,13631735.953,24926293.368,2.804,0.000,0.000,0.000,0.000,0.000,0.000,0.000,15,15,4*7A
$GPGGA,065905.80,3135.4781137,N,12046.7343246,E,4,15,1.5,2.7964,M,8.320,M,00,0004*64
$GPHPD,0,0.000,324.64,-1.72,-12.78,31.5913019,120.7789054,2.796,13631733.981,24926291.414,2.796,0.000,0.000,0.000,0.000,0.000,0.000,0.000,15,15,4*74
$GPGGA,065906.00,3135.4782343,N,12046.7342224,E,4,15,1.5,2.8005,M,8.320,M,01,0004*68
$GPHPD,0,0.000,324.71,-1.94,-12.68,31.5913039,120.7789037,2.801,13631732.061,24926289.479,2.801,0.000,0.000,0.000,0.000,0.000,0.000,0.000,15,15,4*7A
$GPGGA,065906.20,3135.4783591,N,12046.7341239,E,4,15,1.5,2.7810,M,8.320,M,01,0004*6E
$GPHPD,0,0.000,324.63,-2.32,-12.66,31.5913060,120.7789021,2.781,13631730.089,24926287.565,2.781,0.000,0.000,0.000,0.000,0.000,0.000,0.000,15,15,4*75
$GPGGA,065906.40,3135.4784808,N,12046.7340328,E,4,15,1.5,2.7818,M,8.320,M,01,0004*6A
$GPHPD,0,0.000,324.69,-2.47,-12.70,31.5913080,120.7789005,2.782,13631728.176,24926285.758,2.782,0.000,0.000,0.000,0.000,0.000,0.000,0.000,15,15,4*74
$GPGGA,065906.60,3135.4786041,N,12046.7339359,E,4,15,1.5,2.7611,M,8.320,M,00,0004*61
$GPHPD,0,0.000,324.27,-2.43,-12.68,31.5913101,120.7788989,2.761,13631726.228,24926283.871,2.761,0.000,0.000,0.000,0.000,0.000,0.000,0.000,15,15,4*73
$GPGGA,065906.80,3135.4787236,N,12046.7338414,E,4,15,1.5,2.7515,M,8.320,M,00,0004*64
$GPHPD,0,0.000,324.21,-2.04,-12.66,31.5913121,120.7788974,2.752,13631724.339,24926282.036,2.752,0.000,0.000,0.000,0.000,0.000,0.000,0.000,15,15,4*71
$GPGGA,065907.00,3135.4788464,N,12046.7337445,E,4,15,1.7,2.7449,M,8.320,M,01,0004*63
$GPHPD,0,0.000,323.88,-0.98,-12.65,31.5913141,120.7788957,2.745,13631722.398,24926280.153,2.745,0.000,0.000,0.000,0.000,0.000,0.000,0.000,15,15,4*7B
$GPGGA,065907.20,3135.4789664,N,12046.7336413,E,4,15,1.7,2.7344,M,8.319,M,01,0004*60
$GPHPD,0,0.000,323.89,-0.19,-12.64,31.5913161,120.7788940,2.734,13631720.485,24926278.209,2.734,0.000,0.000,0.000,0.000,0.000,0.000,0.000,15,15,4*74
$GPGGA,065907.40,3135.4790881,N,12046.7335440,E,4,16,1.7,2.7294,M,8.319,M,01,0004*61
$GPHPD,0,0.000,324.31,-0.72,-12.62,31.5913181,120.7788924,2.729,13631718.559,24926276.328,2.729,0.000,0.000,0.000,0.000,0.000,0.000,0.000,16,16,4*70
$GPGGA,065907.60,3135.4792134,N,12046.7334423,E,4,16,1.7,2.7419,M,8.319,M,01,0004*61
$GPHPD,0,0.000,324.21,-0.58,-12.63,31.5913202,120.7788907,2.742,13631716.574,24926274.372,2.742,0.000,0.000,0.000,0.000,0.000,0.000,0.000,16,16,4*7D
$GPGGA,065907.80,3135.4793392,N,12046.7333428,E,4,16,1.7,2.7243,M,8.319,M,01,0004*65
$GPHPD,0,0.000,324.63,-0.57,-12.68,31.5913223,120.7788890,2.724,13631714.585,24926272.439,2.724,0.000,0.000,0.000,0.000,0.000,0.000,0.000,16,16,4*71
$GPGGA,065908.00,3135.4794615,N,12046.7332360,E,4,16,1.5,2.7480,M,8.319,M,02,0004*6D
$GPHPD,0,0.000,324.11,1.21,-12.71,31.5913244,120.7788873,2.748,13631712.632,24926270.439,2.748,0.000,0.000,0.000,0.000,0.000,0.000,0.000,16,15,4*55
$GPGGA,065908.20,3135.4795866,N,12046.7331329,E,4,16,1.7,2.7572,M,8.319,M,02,0004*64
$GPHPD,0,0.000,324.00,0.38,-12.71,31.5913264,120.7788855,2.757,13631710.646,24926268.468,2.757,0.000,0.000,0.000,0.000,0.000,0.000,0.000,16,15,4*56
$GPGGA,065908.40,3135.4797116,N,12046.7330275,E,4,16,1.5,2.7530,M,8.319,M,02,0004*63
$GPHPD,0,0.000,323.61,-1.10,-12.75,31.5913285,120.7788838,2.753,13631708.657,24926266.469,2.753,0.000,0.000,0.000,0.000,0.000,0.000,0.000,16,16,4*75
$GPGGA,065908.60,3135.4798339,N,12046.7329346,E,4,15,1.7,2.7509,M,8.319,M,00,0004*61
$GPHPD,0,0.000,323.49,-0.35,-12.79,31.5913306,120.7788822,2.751,13631706.732,24926264.637,2.751,0.000,0.000,0.000,0.000,0.000,0.000,0.000,15,13,4*75
$GPGGA,065908.80,3135.4799598,N,12046.7328321,E,4,15,1.7,2.7432,M,8.319,M,00,0004*6A
$GPHPD,0,0.000,323.55,-0.89,-12.80,31.5913327,120.7788805,2.743,13631704.736,24926262.668,2.743,0.000,0.000,0.000,0.000,0.000,0.000,0.000,15,13,4*75
$GPGGA,065909.00,3135.4800811,N,12046.7327282,E,4,15,1.7,2.7429,M,8.319,M,01,0004*6C
$GPHPD,0,0.000,324.35,-1.19,-12.78,31.5913347,120.7788788,2.743,13631702.802,24926260.708,2.743,0.000,0.000,0.000,0.000,0.000,0.000,0.000,15,13,4*7C
$GPGGA,065909.20,3135.4802041,N,12046.7326203,E,4,15,1.7,2.7309,M,8.319,M,01,0004*6C
$GPHPD,0,0.000,325.04,-2.44,-12.77,31.5913367,120.7788770,2.731,13631700.837,24926258.691,2.731,0.000,0.000,0.000,0.000,0.000,0.000,0.000,15,13,4*70
$GPGGA,065909.40,3135.4803285,N,12046.7325185,E,4,15,1.7,2.7348,M,8.319,M,01,0004*6A
$GPHPD,0,0.000,326.12,-3.32,-12.76,31.5913388,120.7788753,2.735,13631698.864,24926256.739,2.735,0.000,0.000,0.000,0.000,0.000,0.000,0.000,15,13,4*7E
$GPGGA,065909.60,3135.4804547,N,12046.7324154,E,4,16,1.7,2.7342,M,8.319,M,01,0004*62
$GPHPD,0,0.000,326.52,-4.53,-12.73,31.5913409,120.7788736,2.734,13631696.862,24926254.761,2.734,0.000,0.000,0.000,0.000,0.000,0.000,0.000,16,14,4*71
$GPGGA,065909.80,3135.4805805,N,12046.7323123,E,4,16,1.7,2.7511,M,8.319,M,01,0004*61
$GPHPD,0,0.000,326.50,-5.19,-12.72,31.5913430,120.7788719,2.751,13631694.867,24926252.785,2.751,0.000,0.000,0.000,0.000,0.000,0.000,0.000,16,15,4*70
$GPGGA,065910.00,3135.4807108,N,12046.7322367,E,4,16,1.7,2.7105,M,8.319,M,02,0004*66
$GPHPD,0,0.000,326.40,-6.34,-12.68,31.5913452,120.7788706,2.711,13631692.862,24926251.115,2.711,0.000,0.000,0.000,0.000,0.000,0.000,0.000,16,15,4*73
$GPGGA,065910.20,3135.4808216,N,12046.7321162,E,4,16,2.0,2.7204,M,8.319,M,02,0004*65
$GPHPD,0,0.000,324.20,-2.84,-12.67,31.5913470,120.7788686,2.720,13631691.045,24926249.017,2.720,0.000,0.000,0.000,0.000,0.000,0.000,0.000,16,15,4*7A
$GPGGA,065910.40,3135.4809444,N,12046.7320132,E,4,15,2.0,2.7273,M,8.319,M,02,0004*64
$GPHPD,0,0.000,324.18,-3.54,-12.66,31.5913491,120.7788669,2.727,13631689.092,24926247.060,2.727,0.000,0.000,0.000,0.000,0.000,0.000,0.000,15,13,4*7A
$GPGGA,065910.60,3135.4810689,N,12046.7319145,E,4,15,2.0,2.7102,M,8.319,M,02,0004*62
$GPHPD,0,0.000,323.27,-2.06,-12.64,31.5913511,120.7788652,2.710,13631687.124,24926245.145,2.710,0.000,0.000,0.000,0.000,0.000,0.000,0.000,15,13,4*72
$GPGGA,065910.80,3135.4811889,N,12046.7318144,E,4,15,2.0,2.7166,M,8.319,M,00,0004*63
$GPHPD,0,0.000,322.90,-0.90,-12.63,31.5913531,120.7788636,2.717,13631685.216,24926243.239,2.717,0.000,0.000,0.000,0.000,0.000,0.000,0.000,15,13,4*7B
$GPGGA,065911.00,3135.4813041,N,12046.7317190,E,4,15,2.0,2.7040,M,8.319,M,01,0004*66
$GPHPD,0,0.000,322.94,-1.61,-12.65,31.5913551,120.7788620,2.704,13631683.387,24926241.418,2.704,0.000,0.000,0.000,0.000,0.000,0.000,0.000,15,13,4*7F
$GPGGA,065911.20,3135.4814199,N,12046.7316223,E,4,15,2.0,2.7035,M,8.319,M,01,0004*6F
$GPHPD,0,0.000,323.01,-2.03,-12.68,31.5913570,120.7788604,2.704,13631681.546,24926239.578,2.704,0.000,0.000,0.000,0.000,0.000,0.000,0.000,15,13,4*7C
$GPGGA,065911.40,3135.4815421,N,12046.7315177,E,4,15,2.0,2.7083,M,8.319,M,01,0004*62
$GPHPD,0,0.000,323.45,-0.92,-12.69,31.5913590,120.7788586,2.708,13631679.599,24926237.605,2.708,0.000,0.000,0.000,0.000,0.000,0.000,0.000,15,14,4*75
$GPGGA,065911.60,3135.4816620,N,12046.7314152,E,4,15,2.0,2.6767,M,8.319,M,00,0004*6B
$GPHPD,0,0.000,323.45,-0.48,-12.69,31.5913610,120.7788569,2.677,13631677.688,24926235.671,2.677,0.000,0.000,0.000,0.000,0.000,0.000,0.000,15,13,4*73
$GPGGA,065911.80,3135.4817800,N,12046.7313151,E,4,15,2.0,2.6927,M,8.319,M,00,0004*66
$GPHPD,0,0.000,323.44,-0.44,-12.67,31.5913630,120.7788553,2.693,13631675.809,24926233.776,2.693,0.000,0.000,0.000,0.000,0.000,0.000,0.000,15,13,4*7E
$GPGGA,065912.00,3135.4819022,N,12046.7312175,E,4,15,2.0,2.6711,M,8.319,M,01,0004*66
$GPHPD,0,0.000,323.53,0.54,-12.65,31.5913650,120.7788536,2.671,13631673.876,24926231.888,2.671,0.000,0.000,0.000,0.000,0.000,0.000,0.000,15,13,4*51
$GPGGA,065912.20,3135.4820225,N,12046.7311107,E,4,15,2.0,2.6848,M,8.319,M,01,0004*6E
$GPHPD,0,0.000,323.45,0.29,-12.65,31.5913670,120.7788518,2.685,13631671.951,24926229.900,2.685,0.000,0.000,0.000,0.000,0.000,0.000,0.000,15,13,4*5C
$GPGGA,065912.40,3135.4821465,N,12046.7310047,E,4,15,1.9,2.7014,M,8.319,M,01,0004*65
$GPHPD,0,0.000,323.76,0.02,-12.62,31.5913691,120.7788501,2.701,13631669.975,24926227.899,2.701,0.000,0.000,0.000,0.000,0.000,0.000,0.000,15,13,4*55
$GPGGA,065912.60,3135.4822610,N,12046.7309086,E,4,14,2.0,2.6875,M,8.319,M,01,0004*64
$GPHPD,0,0.000,323.18,0.32,-12.60,31.5913710,120.7788485,2.688,13631668.154,24926226.074,2.688,0.000,0.000,0.000,0.000,0.000,0.000,0.000,14,14,4*5F
$GPGGA,065912.80,3135.4823829,N,12046.7308098,E,4,15,1.9,2.6762,M,8.319,M,01,0004*63
$GPHPD,0,0.000,323.91,-0.94,-12.57,31.5913730,120.7788468,2.676,13631666.223,24926224.173,2.676,0.000,0.000,0.000,0.000,0.000,0.000,0.000,15,13,4*75
$GPGGA,065913.00,3135.4825029,N,12046.7307158,E,4,16,2.0,2.6933,M,8.319,M,02,0004*66
$GPHPD,0,0.000,323.76,-0.04,-12.57,31.5913750,120.7788453,2.693,13631664.328,24926222.341,2.693,0.000,0.000,0.000,0.000,0.000,0.000,0.000,16,13,4*75
$GPGGA,065913.20,3135.4826205,N,12046.7306118,E,4,16,2.0,2.6865,M,8.319,M,02,0004*6C
$GPHPD,0,0.000,323.51,-0.47,-12.58,31.5913770,120.7788435,2.687,13631662.447,24926220.402,2.687,0.000,0.000,0.000,0.000,0.000,0.000,0.000,16,13,4*70
$GPGGA,065913.40,3135.4827439,N,12046.7304984,E,4,18,1.8,2.7075,M,8.319,M,02,0004*60
$GPHPD,0,0.000,323.44,0.11,-12.59,31.5913791,120.7788416,2.708,13631660.464,24926218.316,2.708,0.000,0.000,0.000,0.000,0.000,0.000,0.000,18,13,4*51
$GPGGA,065913.60,3135.4828615,N,12046.7304013,E,4,17,1.8,2.7015,M,8.319,M,02,0004*6F
$GPHPD,0,0.000,323.60,-0.65,-12.62,31.5913810,120.7788400,2.702,13631658.597,24926216.460,2.702,0.000,0.000,0.000,0.000,0.000,0.000,0.000,17,14,4*76
$GPGGA,065913.80,3135.4829804,N,12046.7303082,E,4,18,1.8,2.6956,M,8.319,M,00,0004*63
$GPHPD,0,0.000,323.70,-0.64,-12.63,31.5913830,120.7788385,2.696,13631656.720,24926214.645,2.696,0.000,0.000,0.000,0.000,0.000,0.000,0.000,18,15,4*76
$GPGGA,065914.00,3135.4830983,N,12046.7302014,E,4,17,1.8,2.7100,M,8.319,M,01,0004*60
$GPHPD,0,0.000,323.22,-0.10,-12.65,31.5913850,120.7788367,2.710,13631654.829,24926212.671,2.710,0.000,0.000,0.000,0.000,0.000,0.000,0.000,17,15,4*74
$GPGGA,065914.20,3135.4832190,N,12046.7301004,E,4,17,1.5,2.7018,M,8.319,M,01,0004*6D
$GPHPD,0,0.000,323.92,-1.07,-12.65,31.5913870,120.7788350,2.702,13631652.910,24926210.750,2.702,0.000,0.000,0.000,0.000,0.000,0.000,0.000,17,14,4*72
$GPGGA,065914.40,3135.4833345,N,12046.7300054,E,4,17,1.5,2.7112,M,8.319,M,01,0004*6F
$GPHPD,0,0.000,323.91,-1.49,-12.64,31.5913889,120.7788334,2.711,13631651.077,24926208.932,2.711,0.000,0.000,0.000,0.000,0.000,0.000,0.000,17,15,4*77
$GPGGA,065914.60,3135.4834560,N,12046.7299108,E,4,17,1.5,2.7002,M,8.319,M,01,0004*62
$GPHPD,0,0.000,323.61,-3.00,-12.63,31.5913909,120.7788318,2.700,13631649.160,24926207.084,2.700,0.000,0.000,0.000,0.000,0.000,0.000,0.000,17,15,4*72
$GPGGA,065914.80,3135.4835736,N,12046.7298191,E,4,17,1.5,2.6924,M,8.319,M,01,0004*61
$GPHPD,0,0.000,323.39,-2.27,-12.63,31.5913929,120.7788303,2.692,13631647.303,24926205.293,2.692,0.000,0.000,0.000,0.000,0.000,0.000,0.000,17,15,4*7C
$GPGGA,065915.00,3135.4836902,N,12046.7297149,E,4,17,1.5,2.7113,M,8.319,M,02,0004*66
$GPHPD,0,0.000,322.99,-1.96,-12.63,31.5913948,120.7788286,2.711,13631645.436,24926203.358,2.711,0.000,0.000,0.000,0.000,0.000,0.000,0.000,17,15,4*76
$GPGGA,065915.20,3135.4838073,N,12046.7296166,E,4,17,1.5,2.7072,M,8.319,M,02,0004*6F
$GPHPD,0,0.000,323.38,-2.29,-12.63,31.5913968,120.7788269,2.707,13631643.574,24926201.491,2.707,0.000,0.000,0.000,0.000,0.000,0.000,0.000,17,15,4*79
$GPGGA,065915.40,3135.4839225,N,12046.7295185,E,4,17,1.5,2.6882,M,8.319,M,02,0004*61
$GPHPD,0,0.000,323.29,-3.40,-12.63,31.5913987,120.7788253,2.688,13631641.739,24926199.637,2.688,0.000,0.000,0.000,0.000,0.000,0.000,0.000,17,15,4*7A
$GPGGA,065915.60,3135.4840343,N,12046.7294231,E,4,17,1.5,2.6782,M,8.319,M,02,0004*6E
$GPHPD,0,0.000,323.45,-1.98,-12.62,31.5914006,120.7788237,2.678,13631639.958,24926197.836,2.678,0.000,0.000,0.000,0.000,0.000,0.000,0.000,17,15,4*74
$GPGGA,065915.80,3135.4841518,N,12046.7293239,E,4,17,1.5,2.6628,M,8.319,M,00,0004*65
$GPHPD,0,0.000,323.31,-1.03,-12.63,31.5914025,120.7788221,2.663,13631638.088,24926195.955,2.663,0.000,0.000,0.000,0.000,0.000,0.000,0.000,17,15,4*71
$GPGGA,065916.00,3135.4842648,N,12046.7292347,E,4,17,1.7,2.6569,M,8.319,M,01,0004*67
$GPHPD,0,0.000,323.16,-0.08,-12.62,31.5914044,120.7788206,2.657,13631636.302,24926194.222,2.657,0.000,0.000,0.000,0.000,0.000,0.000,0.000,17,15,4*78
$GPGGA,065916.20,3135.4843811,N,12046.7291395,E,4,17,1.7,2.6557,M,8.319,M,01,0004*67
$GPHPD,0,0.000,323.46,-0.88,-12.61,31.5914064,120.7788190,2.656,13631634.458,24926192.397,2.656,0.000,0.000,0.000,0.000,0.000,0.000,0.000,17,15,4*7B
$GPGGA,065916.40,3135.4844957,N,12046.7290418,E,4,17,1.7,2.6437,M,8.319,M,01,0004*61
$GPHPD,0,0.000,323.09,0.89,-12.58,31.5914083,120.7788174,2.644,13631632.632,24926190.551,2.644,0.000,0.000,0.000,0.000,0.000,0.000,0.000,17,14,4*52
$GPGGA,065916.60,3135.4846136,N,12046.7289459,E,4,17,1.8,2.6526,M,8.319,M,00,0004*6C
$GPHPD,0,0.000,323.38,1.11,-12.56,31.5914102,120.7788158,2.653,13631630.763,24926188.708,2.653,0.000,0.000,0.000,0.000,0.000,0.000,0.000,17,13,4*5F
$GPGGA,065916.80,3135.4847305,N,12046.7288458,E,4,17,1.7,2.6711,M,8.319,M,00,0004*68
$GPHPD,0,0.000,323.69,0.36,-12.56,31.5914122,120.7788141,2.671,13631628.900,24926186.821,2.671,0.000,0.000,0.000,0.000,0.000,0.000,0.000,17,13,4*5D
$GPGGA,065917.00,3135.4848476,N,12046.7287480,E,4,17,1.7,2.6757,M,8.319,M,01,0004*64
$GPHPD,0,0.000,324.22,-0.81,-12.57,31.5914141,120.7788125,2.676,13631627.039,24926184.960,2.676,0.000,0.000,0.000,0.000,0.000,0.000,0.000,17,13,4*78
$GPGGA,065917.20,3135.4849650,N,12046.7286478,E,4,17,1.8,2.6683,M,8.319,M,01,0004*60
$GPHPD,0,0.000,324.24,-0.94,-12.58,31.5914161,120.7788108,2.668,13631625.168,24926183.068,2.668,0.000,0.000,0.000,0.000,0.000,0.000,0.000,17,13,4*79
$GPGGA,065917.40,3135.4850775,N,12046.7285471,E,4,17,1.8,2.6954,M,8.319,M,01,0004*67
$GPHPD,0,0.000,323.82,0.28,-12.59,31.5914180,120.7788091,2.695,13631623.366,24926181.198,2.695,0.000,0.000,0.000,0.000,0.000,0.000,0.000,17,14,4*56
$GPGGA,065917.60,3135.4851968,N,12046.7284573,E,4,17,1.8,2.6842,M,8.319,M,00,0004*63
$GPHPD,0,0.000,323.95,-1.08,-12.59,31.5914199,120.7788076,2.684,13631621.490,24926179.421,2.684,0.000,0.000,0.000,0.000,0.000,0.000,0.000,17,14,4*73
$GPGGA,065917.80,3135.4853140,N,12046.7283607,E,4,17,1.5,2.6780,M,8.319,M,00,0004*66
$GPHPD,0,0.000,322.84,0.82,-12.61,31.5914219,120.7788060,2.678,13631619.630,24926177.574,2.678,0.000,0.000,0.000,0.000,0.000,0.000,0.000,17,14,4*57
$GPGGA,065918.00,3135.4854273,N,12046.7282752,E,4,17,1.4,2.6695,M,8.319,M,01,0004*60
$GPHPD,0,0.000,323.51,-1.06,-12.62,31.5914238,120.7788046,2.670,13631617.847,24926175.883,2.670,0.000,0.000,0.000,0.000,0.000,0.000,0.000,17,14,4*7D
$GPGGA,065918.20,3135.4855427,N,12046.7281738,E,4,17,1.4,2.6675,M,8.319,M,01,0004*65
$GPHPD,0,0.000,323.46,-1.36,-12.66,31.5914257,120.7788029,2.668,13631616.003,24926173.988,2.668,0.000,0.000,0.000,0.000,0.000,0.000,0.000,17,14,4*79
$GPGGA,065918.40,3135.4856548,N,12046.7280720,E,4,17,1.5,2.6962,M,8.319,M,01,0004*68
$GPHPD,0,0.000,323.45,-1.92,-12.67,31.5914276,120.7788012,2.696,13631614.204,24926172.108,2.696,0.000,0.000,0.000,0.000,0.000,0.000,0.000,17,14,4*78
$GPGGA,065918.60,3135.4857683,N,12046.7279702,E,4,17,1.5,2.6852,M,8.319,M,00,0004*6A
$GPHPD,0,0.000,323.40,-1.97,-12.68,31.5914295,120.7787995,2.685,13631612.386,24926170.220,2.685,0.000,0.000,0.000,0.000,0.000,0.000,0.000,17,13,4*72
$GPGGA,065918.80,3135.4858810,N,12046.7278810,E,4,17,1.5,2.6897,M,8.319,M,00,0004*6B
$GPHPD,0,0.000,322.80,0.18,-12.69,31.5914314,120.7787980,2.690,13631610.605,24926168.488,2.690,0.000,0.000,0.000,0.000,0.000,0.000,0.000,17,13,4*58
$GPGGA,065919.00,3135.4859983,N,12046.7277849,E,4,17,1.5,2.6847,M,8.319,M,01,0004*67
$GPHPD,0,0.000,323.25,-0.84,-12.69,31.5914333,120.7787964,2.685,13631608.744,24926166.646,2.685,0.000,0.000,0.000,0.000,0.000,0.000,0.000,17,14,4*75
$GPGGA,065919.20,3135.4861088,N,12046.7276867,E,4,17,1.5,2.6797,M,8.319,M,01,0004*63
$GPHPD,0,0.000,323.58,-2.10,-12.65,31.5914351,120.7787948,2.680,13631606.975,24926164.818,2.680,0.000,0.000,0.000,0.000,0.000,0.000,0.000,17,14,4*73
$GPGGA,065919.40,3135.4862240,N,12046.7275961,E,4,18,1.5,2.6634,M,8.319,M,01,0004*63
$GPHPD,0,0.000,324.10,-2.85,-12.61,31.5914371,120.7787933,2.663,13631605.156,24926163.055,2.663,0.000,0.000,0.000,0.000,0.000,0.000,0.000,18,14,4*7D
$GPGGA,065919.60,3135.4863394,N,12046.7275012,E,4,18,1.5,2.6615,M,8.319,M,01,0004*66
$GPHPD,0,0.000,323.61,-0.70,-12.61,31.5914390,120.7787917,2.662,13631603.324,24926161.239,2.662,0.000,0.000,0.000,0.000,0.000,0.000,0.000,18,14,4*76
$GPGGA,065919.80,3135.4864527,N,12046.7274092,E,4,18,1.5,2.6599,M,8.319,M,01,0004*6F
$GPHPD,0,0.000,323.45,-0.61,-12.59,31.5914409,120.7787902,2.660,13631601.529,24926159.470,2.660,0.000,0.000,0.000,0.000,0.000,0.000,0.000,18,14,4*71
$GPGGA,065920.00,3135.4865704,N,12046.7273109,E,4,18,1.5,2.6833,M,8.319,M,02,0004*65
$GPHPD,0,0.000,323.75,-0.68,-12.57,31.5914428,120.7787885,2.683,13631599.658,24926157.599,2.683,0.000,0.000,0.000,0.000,0.000,0.000,0.000,18,14,4*77
$GPGGA,065920.20,3135.4866839,N,12046.7272236,E,4,18,1.5,2.6577,M,8.319,M,02,0004*66
$GPHPD,0,0.000,323.58,-1.05,-12.53,31.5914447,120.7787871,2.658,13631597.869,24926155.885,2.658,0.000,0.000,0.000,0.000,0.000,0.000,0.000,18,14,4*74
$GPGGA,065920.40,3135.4868006,N,12046.7271264,E,4,18,1.5,2.6705,M,8.319,M,02,0004*69
$GPHPD,0,0.000,322.99,0.50,-12.51,31.5914467,120.7787854,2.671,13631596.014,24926154.034,2.671,0.000,0.000,0.000,0.000,0.000,0.000,0.000,18,14,4*53
$GPGGA,065920.60,3135.4869179,N,12046.7270210,E,4,18,1.5,2.6762,M,8.319,M,02,0004*60
$GPHPD,0,0.000,322.96,0.51,-12.51,31.5914486,120.7787837,2.676,13631594.135,24926152.080,2.676,0.000,0.000,0.000,0.000,0.000,0.000,0.000,18,14,4*5E
$GPGGA,065920.80,3135.4870293,N,12046.7269252,E,4,18,1.5,2.6763,M,8.319,M,00,0004*6C
$GPHPD,0,0.000,323.64,-0.67,-12.52,31.5914505,120.7787821,2.676,13631592.358,24926150.276,2.676,0.000,0.000,0.000,0.000,0.000,0.000,0.000,18,15,4*73
$GPGGA,065921.00,3135.4871461,N,12046.7268332,E,4,18,1.5,2.6717,M,8.319,M,01,0004*6B
$GPHPD,0,0.000,323.38,0.20,-12.54,31.5914524,120.7787806,2.672,13631590.513,24926148.487,2.672,0.000,0.000,0.000,0.000,0.000,0.000,0.000,18,15,4*5E
$GPGGA,065921.20,3135.4872614,N,12046.7267397,E,4,18,1.5,2.6662,M,8.319,M,01,0004*69
$GPHPD,0,0.000,323.86,-0.54,-12.58,31.5914544,120.7787790,2.666,13631588.686,24926146.688,2.666,0.000,0.000,0.000,0.000,0.000,0.000,0.000,18,15,4*7A
$GPGGA,065921.40,3135.4873728,N,12046.7266358,E,4,18,1.5,2.6581,M,8.319,M,01,0004*6C
$GPHPD,0,0.000,323.60,0.72,-12.61,31.5914562,120.7787773,2.658,13631586.893,24926144.786,2.658,0.000,0.000,0.000,0.000,0.000,0.000,0.000,18,14,4*50
$GPGGA,065921.60,3135.4874913,N,12046.7265337,E,4,18,1.5,2.6758,M,8.319,M,00,0004*62
$GPHPD,0,0.000,324.38,-0.06,-12.63,31.5914582,120.7787756,2.676,13631585.004,24926142.865,2.676,0.000,0.000,0.000,0.000,0.000,0.000,0.000,18,15,4*7F
$GPGGA,065921.80,3135.4876106,N,12046.7264361,E,4,18,1.7,2.6946,M,8.319,M,00,0004*63
$GPHPD,0,0.000,324.39,-0.55,-12.67,31.5914602,120.7787739,2.695,13631583.111,24926140.994,2.695,0.000,0.000,0.000,0.000,0.000,0.000,0.000,18,15,4*70
$GPGGA,065922.00,3135.4877243,N,12046.7263401,E,4,18,1.5,2.6940,M,8.319,M,01,0004*68
$GPHPD,0,0.000,323.89,-0.33,-12.68,31.5914621,120.7787723,2.694,13631581.302,24926139.174,2.694,0.000,0.000,0.000,0.000,0.000,0.000,0.000,18,15,4*73
$GPGGA,065922.20,3135.4878394,N,12046.7262445,E,4,18,1.5,2.7000,M,8.319,M,01,0004*63
$GPHPD,0,0.000,323.66,-0.30,-12.72,31.5914640,120.7787707,2.700,13631579.473,24926137.351,2.700,0.000,0.000,0.000,0.000,0.000,0.000,0.000,18,15,4*76
$GPGGA,065922.40,3135.4879586,N,12046.7261576,E,4,17,1.6,2.6689,M,8.319,M,01,0004*69
$GPHPD,0,0.000,323.63,0.01,-12.74,31.5914660,120.7787693,2.669,13631577.604,24926135.609,2.669,0.000,0.000,0.000,0.000,0.000,0.000,0.000,17,16,4*5E
$GPGGA,065922.60,3135.4880752,N,12046.7260689,E,4,17,1.6,2.6664,M,8.319,M,00,0004*66
$GPHPD,0,0.000,323.66,0.26,-12.77,31.5914679,120.7787678,2.666,13631575.768,24926133.861,2.666,0.000,0.000,0.000,0.000,0.000,0.000,0.000,17,15,4*5C
$GPGGA,065922.80,3135.4881867,N,12046.7259673,E,4,17,1.6,2.6814,M,8.319,M,00,0004*66
$GPHPD,0,0.000,323.61,-0.91,-12.79,31.5914698,120.7787661,2.681,13631573.979,24926131.986,2.681,0.000,0.000,0.000,0.000,0.000,0.000,0.000,17,14,4*70
$GPGGA,065923.00,3135.4883081,N,12046.7258721,E,4,17,1.6,2.6767,M,8.319,M,01,0004*60
$GPHPD,0,0.000,323.75,-1.11,-12.76,31.5914718,120.7787645,2.677,13631572.062,24926130.131,2.677,0.000,0.000,0.000,0.000,0.000,0.000,0.000,17,15,4*7A
$GPGGA,065923.20,3135.4884240,N,12046.7257796,E,4,17,1.6,2.6723,M,8.319,M,01,0004*69
$GPHPD,0,0.000,323.82,-1.51,-12.76,31.5914737,120.7787630,2.672,13631570.228,24926128.341,2.672,0.000,0.000,0.000,0.000,0.000,0.000,0.000,17,15,4*7B
$GPGGA,065923.40,3135.4885346,N,12046.7256705,E,4,17,1.6,2.6862,M,8.319,M,01,0004*68
$GPHPD,0,0.000,323.88,-1.18,-12.74,31.5914756,120.7787612,2.686,13631568.436,24926126.381,2.686,0.000,0.000,0.000,0.000,0.000,0.000,0.000,17,15,4*7B
$GPGGA,065923.60,3135.4886479,N,12046.7255844,E,4,17,1.6,2.6686,M,8.319,M,00,0004*6E
$GPHPD,0,0.000,324.80,-2.75,-12.71,31.5914775,120.7787597,2.669,13631566.653,24926124.684,2.669,0.000,0.000,0.000,0.000,0.000,0.000,0.000,17,15,4*7B
$GPGGA,065923.80,3135.4887673,N,12046.7254927,E,4,17,1.6,2.6655,M,8.319,M,00,0004*62
$GPHPD,0,0.000,324.24,-1.57,-12.70,31.5914795,120.7787582,2.666,13631564.771,24926122.883,2.666,0.000,0.000,0.000,0.000,0.000,0.000,0.000,17,15,4*71
$GPGGA,065924.00,3135.4888845,N,12046.7253976,E,4,17,1.6,2.6674,M,8.319,M,01,0004*68
$GPHPD,0,0.000,324.16,-1.17,-12.70,31.5914814,120.7787566,2.667,13631562.914,24926121.053,2.667,0.000,0.000,0.000,0.000,0.000,0.000,0.000,17,15,4*75
$GPGGA,065924.20,3135.4889928,N,12046.7253051,E,4,17,1.6,2.6580,M,8.319,M,01,0004*65
$GPHPD,0,0.000,323.90,-1.01,-12.67,31.5914832,120.7787551,2.658,13631561.188,24926119.307,2.658,0.000,0.000,0.000,0.000,0.000,0.000,0.000,17,13,4*7C
$GPGGA,065924.40,3135.4891106,N,12046.7252117,E,4,17,1.6,2.6534,M,8.319,M,01,0004*63
$GPHPD,0,0.000,323.60,-0.53,-12.67,31.5914852,120.7787535,2.653,13631559.326,24926117.495,2.653,0.000,0.000,0.000,0.000,0.000,0.000,0.000,17,14,4*79
$GPGGA,065924.60,3135.4892269,N,12046.7251207,E,4,17,1.6,2.6592,M,8.319,M,00,0004*64
$GPHPD,0,0.000,323.98,-1.29,-12.66,31.5914871,120.7787520,2.659,13631557.489,24926115.721,2.659,0.000,0.000,0.000,0.000,0.000,0.000,0.000,17,14,4*74
$GPGGA,065924.80,3135.4893431,N,12046.7250218,E,4,17,1.6,2.6660,M,8.319,M,00,0004*61
$GPHPD,0,0.000,323.34,-0.03,-12.62,31.5914891,120.7787504,2.666,13631555.639,24926113.852,2.666,0.000,0.000,0.000,0.000,0.000,0.000,0.000,17,12,4*77
$GPGGA,065925.00,3135.4894594,N,12046.7249260,E,4,17,1.6,2.6620,M,8.319,M,01,0004*63
$GPHPD,0,0.000,323.27,0.01,-12.61,31.5914910,120.7787488,2.662,13631553.793,24926112.019,2.662,0.000,0.000,0.000,0.000,0.000,0.000,0.000,17,13,4*54
$GPGGA,065925.20,3135.4895732,N,12046.7248263,E,4,17,1.6,2.6457,M,8.319,M,01,0004*6E
$GPHPD,0,0.000,323.04,0.47,-12.63,31.5914929,120.7787471,2.646,13631551.974,24926110.154,2.646,0.000,0.000,0.000,0.000,0.000,0.000,0.000,17,13,4*56
$GPGGA,065925.40,3135.4896898,N,12046.7247236,E,4,18,1.5,2.6668,M,8.319,M,01,0004*69
$GPHPD,0,0.000,323.61,-0.37,-12.63,31.5914948,120.7787454,2.667,13631550.110,24926108.237,2.667,0.000,0.000,0.000,0.000,0.000,0.000,0.000,18,15,4*72
$GPGGA,065925.60,3135.4898073,N,12046.7246304,E,4,18,1.5,2.6409,M,8.319,M,01,0004*6C
$GPHPD,0,0.000,324.09,-2.06,-12.63,31.5914968,120.7787438,2.641,13631548.252,24926106.429,2.641,0.000,0.000,0.000,0.000,0.000,0.000,0.000,18,15,4*78
$GPGGA,065925.80,3135.4899214,N,12046.7245301,E,4,18,1.5,2.6629,M,8.319,M,00,0004*67
$GPHPD,0,0.000,322.55,2.41,-12.62,31.5914987,120.7787422,2.663,13631546.429,24926104.555,2.663,0.000,0.000,0.000,0.000,0.000,0.000,0.000,18,15,4*5E
$GPGGA,065926.00,3135.4900369,N,12046.7244365,E,4,18,1.5,2.6573,M,8.319,M,01,0004*68
$GPHPD,0,0.000,323.19,1.49,-12.62,31.5915006,120.7787406,2.657,13631544.599,24926102.754,2.657,0.000,0.000,0.000,0.000,0.000,0.000,0.000,18,15,4*56
$GPGGA,065926.20,3135.4901552,N,12046.7243336,E,4,17,1.5,2.6529,M,8.319,M,01,0004*64
$GPHPD,0,0.000,323.64,-1.39,-12.61,31.5915026,120.7787389,2.653,13631542.710,24926100.824,2.653,0.000,0.000,0.000,0.000,0.000,0.000,0.000,17,15,4*77
$GPGGA,065926.40,3135.4902743,N,12046.7242400,E,4,17,1.5,2.6412,M,8.319,M,01,0004*69
$GPHPD,0,0.000,324.28,-2.53,-12.61,31.5915046,120.7787373,2.641,13631540.829,24926099.002,2.641,0.000,0.000,0.000,0.000,0.000,0.000,0.000,17,15,4*7E
$GPGGA,065926.60,3135.4903941,N,12046.7241457,E,4,17,1.5,2.6534,M,8.319,M,00,0004*63
$GPHPD,0,0.000,323.60,-1.22,-12.57,31.5915066,120.7787358,2.653,13631538.936,24926097.168,2.653,0.000,0.000,0.000,0.000,0.000,0.000,0.000,17,15,4*7D
$GPGGA,065926.80,3135.4905090,N,12046.7240399,E,4,16,1.5,2.6509,M,8.319,M,00,0004*65
$GPHPD,0,0.000,323.45,-1.68,-12.55,31.5915085,120.7787340,2.651,13631537.090,24926095.223,2.651,0.000,0.000,0.000,0.000,0.000,0.000,0.000,16,15,4*77
$GPGGA,065927.00,3135.4906310,N,12046.7239462,E,4,16,1.5,2.6522,M,8.319,M,01,0004*61
$GPHPD,0,0.000,323.96,-2.70,-12.52,31.5915105,120.7787324,2.652,13631535.167,24926093.382,2.652,0.000,0.000,0.000,0.000,0.000,0.000,0.000,16,15,4*78
$GPGGA,065927.20,3135.4907527,N,12046.7238475,E,4,16,1.5,2.6365,M,8.319,M,01,0004*62
$GPHPD,0,0.000,323.49,-1.36,-12.49,31.5915125,120.7787308,2.637,13631533.239,24926091.484,2.637,0.000,0.000,0.000,0.000,0.000,0.000,0.000,16,15,4*70
$GPGGA,065927.40,3135.4908729,N,12046.7237467,E,4,16,1.5,2.6348,M,8.319,M,01,0004*64
$GPHPD,0,0.000,323.29,-0.56,-12.47,31.5915145,120.7787291,2.635,13631531.327,24926089.568,2.635,0.000,0.000,0.000,0.000,0.000,0.000,0.000,16,15,4*7E
$GPGGA,065927.60,3135.4909913,N,12046.7236451,E,4,16,1.5,2.6242,M,8.319,M,00,0004*6E
$GPHPD,0,0.000,323.11,-0.34,-12.45,31.5915165,120.7787274,2.624,13631529.440,24926087.654,2.624,0.000,0.000,0.000,0.000,0.000,0.000,0.000,16,15,4*77
$GPGGA,065927.80,3135.4911127,N,12046.7235451,E,4,17,1.5,2.6282,M,8.319,M,00,0004*68
$GPHPD,0,0.000,323.61,-0.94,-12.44,31.5915185,120.7787258,2.628,13631527.513,24926085.741,2.628,0.000,0.000,0.000,0.000,0.000,0.000,0.000,17,15,4*74
$GPGGA,065928.00,3135.4912339,N,12046.7234446,E,4,17,1.5,2.6343,M,8.319,M,01,0004*6B
$GPHPD,0,0.000,323.36,-0.78,-12.42,31.5915206,120.7787241,2.634,13631525.588,24926083.823,2.634,0.000,0.000,0.000,0.000,0.000,0.000,0.000,17,14,4*7E
$GPGGA,065928.20,3135.4913530,N,12046.7233432,E,4,18,1.5,2.6197,M,8.319,M,01,0004*67
$GPHPD,0,0.000,323.46,-1.21,-12.39,31.5915226,120.7787224,2.620,13631523.691,24926081.907,2.620,0.000,0.000,0.000,0.000,0.000,0.000,0.000,18,14,4*7E
$GPGGA,065928.40,3135.4914738,N,12046.7232441,E,4,18,1.5,2.6316,M,8.319,M,01,0004*62
$GPHPD,0,0.000,323.79,-1.77,-12.40,31.5915246,120.7787207,2.632,13631521.774,24926080.009,2.632,0.000,0.000,0.000,0.000,0.000,0.000,0.000,18,14,4*76
$GPGGA,065928.60,3135.4915882,N,12046.7231445,E,4,18,1.5,2.5911,M,8.319,M,00,0004*67
$GPHPD,0,0.000,323.70,-1.62,-12.43,31.5915265,120.7787191,2.591,13631519.948,24926078.142,2.591,0.000,0.000,0.000,0.000,0.000,0.000,0.000,18,14,4*76
$GPGGA,065928.80,3135.4917143,N,12046.7230448,E,4,18,1.7,2.6079,M,8.319,M,00,0004*65
$GPHPD,0,0.000,323.43,-0.27,-12.46,31.5915286,120.7787174,2.608,13631517.955,24926076.205,2.608,0.000,0.000,0.000,0.000,0.000,0.000,0.000,18,14,4*79
$GPGGA,065929.00,3135.4918345,N,12046.7229431,E,4,17,1.7,2.6034,M,8.319,M,01,0004*66
$GPHPD,0,0.000,323.89,-1.33,-12.49,31.5915306,120.7787157,2.603,13631516.041,24926074.279,2.603,0.000,0.000,0.000,0.000,0.000,0.000,0.000,17,16,4*75
$GPGGA,065929.20,3135.4919561,N,12046.7228418,E,4,17,1.7,2.6013,M,8.319,M,01,0004*6A
$GPHPD,0,0.000,323.76,-0.25,-12.51,31.5915326,120.7787140,2.601,13631514.109,24926072.350,2.601,0.000,0.000,0.000,0.000,0.000,0.000,0.000,17,15,4*7E
$GPGGA,065929.40,3135.4920797,N,12046.7227421,E,4,17,1.7,2.6089,M,8.319,M,01,0004*6B
$GPHPD,0,0.000,323.82,-0.04,-12.54,31.5915347,120.7787124,2.609,13631512.152,24926070.428,2.609,0.000,0.000,0.000,0.000,0.000,0.000,0.000,17,15,4*74
$GPGGA,065929.60,3135.4922032,N,12046.7226433,E,4,17,1.7,2.5864,M,8.319,M,00,0004*68
$GPHPD,0,0.000,323.46,-0.23,-12.57,31.5915367,120.7787107,2.586,13631510.197,24926068.517,2.586,0.000,0.000,0.000,0.000,0.000,0.000,0.000,17,15,4*76
$GPGGA,065929.80,3135.4923227,N,12046.7225420,E,4,17,1.7,2.5991,M,8.319,M,00,0004*6B
$GPHPD,0,0.000,323.53,-0.11,-12.58,31.5915387,120.7787090,2.599,13631508.295,24926066.600,2.599,0.000,0.000,0.000,0.000,0.000,0.000,0.000,17,15,4*7E
$GPGGA,065930.00,3135.4924419,N,12046.7224423,E,4,17,1.7,2.5950,M,8.319,M,01,0004*69
$GPHPD,0,0.000,323.61,0.13,-12.60,31.5915407,120.7787074,2.595,13631506.400,24926064.704,2.595,0.000,0.000,0.000,0.000,0.000,0.000,0.000,17,15,4*5D
$GPGGA,065930.20,3135.4925673,N,12046.7223399,E,4,17,1.7,2.5848,M,8.319,M,01,0004*6D
$GPHPD,0,0.000,323.98,-0.06,-12.61,31.5915428,120.7787057,2.585,13631504.411,24926062.739,2.585,0.000,0.000,0.000,0.000,0.000,0.000,0.000,17,15,4*75
$GPGGA,065930.40,3135.4926903,N,12046.7222387,E,4,17,1.7,2.5945,M,8.319,M,01,0004*62
$GPHPD,0,0.000,323.56,0.66,-12.62,31.5915448,120.7787040,2.595,13631502.459,24926060.802,2.595,0.000,0.000,0.000,0.000,0.000,0.000,0.000,17,15,4*50
$GPGGA,065930.60,3135.4928090,N,12046.7221393,E,4,16,1.7,2.5857,M,8.319,M,00,0004*69
$GPHPD,0,0.000,323.29,0.14,-12.61,31.5915468,120.7787023,2.586,13631500.572,24926058.912,2.586,0.000,0.000,0.000,0.000,0.000,0.000,0.000,16,15,4*59
$GPGGA,065930.80,3135.4929297,N,12046.7220410,E,4,16,1.7,2.5882,M,8.319,M,00,0004*66
$GPHPD,0,0.000,323.57,0.64,-12.60,31.5915488,120.7787007,2.588,13631498.658,24926057.024,2.588,0.000,0.000,0.000,0.000,0.000,0.000,0.000,16,15,4*56
$GPGGA,065931.00,3135.4930484,N,12046.7219344,E,4,16,1.7,2.5891,M,8.319,M,01,0004*6C
$GPHPD,0,0.000,323.67,0.42,-12.59,31.5915508,120.7786989,2.589,13631496.757,24926055.048,2.589,0.000,0.000,0.000,0.000,0.000,0.000,0.000,16,15,4*54
$GPGGA,065931.20,3135.4931723,N,12046.7218407,E,4,16,1.7,2.5905,M,8.319,M,01,0004*6C
$GPHPD,0,0.000,324.20,-0.45,-12.57,31.5915529,120.7786973,2.591,13631494.807,24926053.196,2.591,0.000,0.000,0.000,0.000,0.000,0.000,0.000,16,15,4*7E
$GPGGA,065931.40,3135.4932912,N,12046.7217316,E,4,15,1.7,2.5921,M,8.319,M,01,0004*68
$GPHPD,0,0.000,323.84,-0.20,-12.55,31.5915549,120.7786955,2.592,13631492.897,24926051.188,2.592,0.000,0.000,0.000,0.000,0.000,0.000,0.000,15,14,4*74
$GPGGA,065931.60,3135.4934140,N,12046.7216412,E,4,15,1.7,2.5758,M,8.319,M,00,0004*60
$GPHPD,0,0.000,324.73,-1.21,-12.53,31.5915569,120.7786940,2.576,13631490.970,24926049.383,2.576,0.000,0.000,0.000,0.000,0.000,0.000,0.000,15,14,4*71
$GPGGA,065931.80,3135.4935386,N,12046.7215359,E,4,15,1.7,2.5964,M,8.319,M,00,0004*6D
$GPHPD,0,0.000,324.03,-0.24,-12.52,31.5915590,120.7786923,2.596,13631488.987,24926047.388,2.596,0.000,0.000,0.000,0.000,0.000,0.000,0.000,15,14,4*74
$GPGGA,065932.00,3135.4936587,N,12046.7214390,E,4,15,1.7,2.5919,M,8.319,M,01,0004*6D
$GPHPD,0,0.000,324.42,-1.68,-12.51,31.5915610,120.7786907,2.592,13631487.085,24926045.520,2.592,0.000,0.000,0.000,0.000,0.000,0.000,0.000,15,14,4*74
$GPGGA,065932.20,3135.4937780,N,12046.7213415,E,4,15,1.7,2.5816,M,8.319,M,01,0004*68
$GPHPD,0,0.000,324.37,-1.21,-12.54,31.5915630,120.7786890,2.582,13631485.193,24926043.650,2.582,0.000,0.000,0.000,0.000,0.000,0.000,0.000,15,14,4*75
$GPGGA,065932.40,3135.4938989,N,12046.7212439,E,4,16,1.7,2.5876,M,8.319,M,01,0004*6C
