$GPGGA,070211.00,3135.5417983,N,12046.6755827,E,4,17,1.5,2.9835,M,8.315,M,01,0004*6D
$GPHPD,0,0.000,143.45,-1.21,-12.04,31.5923633,120.7779264,2.984,13630710.548,24925212.265,2.984,0.000,0.000,0.000,0.000,0.000,0.000,0.000,17,16,4*7A
$GPGGA,070211.20,3135.5417358,N,12046.6756357,E,4,17,1.5,2.9716,M,8.315,M,01,0004*62
$GPHPD,0,0.000,143.05,-0.87,-12.15,31.5923623,120.7779273,2.972,13630711.543,24925213.268,2.972,0.000,0.000,0.000,0.000,0.000,0.000,0.000,17,16,4*72
$GPGGA,070211.40,3135.5416708,N,12046.6756952,E,4,17,1.5,2.9652,M,8.315,M,01,0004*6A
$GPHPD,0,0.000,142.36,-0.45,-12.24,31.5923612,120.7779283,2.965,13630712.587,24925214.364,2.965,0.000,0.000,0.000,0.000,0.000,0.000,0.000,17,16,4*73
$GPGGA,070211.60,3135.5416031,N,12046.6757552,E,4,17,1.5,2.9663,M,8.315,M,00,0004*6B
$GPHPD,0,0.000,141.96,-0.19,-12.30,31.5923601,120.7779293,2.966,13630713.670,24925215.482,2.966,0.000,0.000,0.000,0.000,0.000,0.000,0.000,17,16,4*71
$GPGGA,070211.80,3135.5415335,N,12046.6758147,E,4,17,1.5,2.9550,M,8.315,M,00,0004*6D
$GPHPD,0,0.000,141.87,0.22,-12.31,31.5923589,120.7779302,2.955,13630714.779,24925216.605,2.955,0.000,0.000,0.000,0.000,0.000,0.000,0.000,17,16,4*5E
$GPGGA,070212.00,3135.5414653,N,12046.6758777,E,4,17,1.5,2.9487,M,8.315,M,01,0004*6D
$GPHPD,0,0.000,141.73,0.54,-12.29,31.5923578,120.7779313,2.949,13630715.875,24925217.762,2.949,0.000,0.000,0.000,0.000,0.000,0.000,0.000,17,16,4*50
$GPGGA,070212.20,3135.5414018,N,12046.6759358,E,4,17,1.5,2.9545,M,8.315,M,01,0004*61
$GPHPD,0,0.000,142.23,0.62,-12.23,31.5923567,120.7779323,2.955,13630716.895,24925218.832,2.955,0.000,0.000,0.000,0.000,0.000,0.000,0.000,17,16,4*5C
$GPGGA,070212.40,3135.5413423,N,12046.6759879,E,4,17,1.5,2.9548,M,8.315,M,01,0004*69
$GPHPD,0,0.000,142.27,0.59,-12.21,31.5923557,120.7779331,2.955,13630717.845,24925219.807,2.955,0.000,0.000,0.000,0.000,0.000,0.000,0.000,17,16,4*59
$GPGGA,070212.60,3135.5412841,N,12046.6760390,E,4,17,1.5,2.9459,M,8.315,M,00,0004*64
$GPHPD,0,0.000,142.60,-0.40,-12.24,31.5923547,120.7779340,2.946,13630718.775,24925220.762,2.946,0.000,0.000,0.000,0.000,0.000,0.000,0.000,17,16,4*78
$GPGGA,070212.80,3135.5412274,N,12046.6760866,E,4,17,1.5,2.9507,M,8.315,M,00,0004*6E
$GPHPD,0,0.000,142.27,-0.13,-12.25,31.5923538,120.7779348,2.951,13630719.677,24925221.666,2.951,0.000,0.000,0.000,0.000,0.000,0.000,0.000,17,16,4*7A
$GPGGA,070213.00,3135.5411679,N,12046.6761334,E,4,17,1.5,2.9580,M,8.315,M,01,0004*6E
$GPHPD,0,0.000,142.56,-0.08,-12.18,31.5923528,120.7779356,2.958,13630720.617,24925222.577,2.958,0.000,0.000,0.000,0.000,0.000,0.000,0.000,17,16,4*7A
$GPGGA,070213.20,3135.5411143,N,12046.6761807,E,4,17,1.5,2.9563,M,8.315,M,01,0004*64
$GPHPD,0,0.000,142.89,-0.19,-12.16,31.5923519,120.7779363,2.956,13630721.474,24925223.459,2.956,0.000,0.000,0.000,0.000,0.000,0.000,0.000,17,16,4*78
$GPGGA,070213.40,3135.5410601,N,12046.6762267,E,4,17,1.5,2.9560,M,8.315,M,01,0004*6E
$GPHPD,0,0.000,143.29,-0.26,-12.17,31.5923510,120.7779371,2.956,13630722.337,24925224.329,2.956,0.000,0.000,0.000,0.000,0.000,0.000,0.000,17,15,4*73
$GPGGA,070213.60,3135.5410039,N,12046.6762727,E,4,17,1.5,2.9550,M,8.315,M,00,0004*62
$GPHPD,0,0.000,143.77,-0.87,-12.17,31.5923501,120.7779379,2.955,13630723.228,24925225.211,2.955,0.000,0.000,0.000,0.000,0.000,0.000,0.000,17,15,4*7E
$GPGGA,070213.80,3135.5409469,N,12046.6763221,E,4,17,1.5,2.9579,M,8.315,M,00,0004*6C
$GPHPD,0,0.000,143.44,-0.35,-12.19,31.5923491,120.7779387,2.958,13630724.138,24925226.139,2.958,0.000,0.000,0.000,0.000,0.000,0.000,0.000,17,15,4*7F
$GPGGA,070214.00,3135.5408840,N,12046.6763730,E,4,17,1.5,2.9612,M,8.315,M,01,0004*6F
$GPHPD,0,0.000,143.48,-0.64,-12.24,31.5923481,120.7779396,2.961,13630725.134,24925227.119,2.961,0.000,0.000,0.000,0.000,0.000,0.000,0.000,17,15,4*76
$GPGGA,070214.20,3135.5408195,N,12046.6764276,E,4,17,1.5,2.9652,M,8.315,M,01,0004*68
$GPHPD,0,0.000,142.79,0.65,-12.29,31.5923470,120.7779405,2.965,13630726.161,24925228.153,2.965,0.000,0.000,0.000,0.000,0.000,0.000,0.000,17,15,4*55
$GPGGA,070214.40,3135.5407516,N,12046.6764851,E,4,17,1.5,2.9630,M,8.315,M,01,0004*65
$GPHPD,0,0.000,142.94,0.22,-12.32,31.5923459,120.7779414,2.963,13630727.242,24925229.241,2.963,0.000,0.000,0.000,0.000,0.000,0.000,0.000,17,15,4*56
$GPGGA,070214.60,3135.5406755,N,12046.6765461,E,4,17,1.5,2.9623,M,8.315,M,00,0004*6E
$GPHPD,0,0.000,141.20,3.16,-12.39,31.5923446,120.7779424,2.962,13630728.446,24925230.420,2.962,0.000,0.000,0.000,0.000,0.000,0.000,0.000,17,15,4*5C
$GPGGA,070214.80,3135.5405949,N,12046.6766166,E,4,17,1.5,2.9508,M,8.315,M,00,0004*6B
$GPHPD,0,0.000,143.02,-0.08,-12.49,31.5923432,120.7779436,2.951,13630729.734,24925231.739,2.951,0.000,0.000,0.000,0.000,0.000,0.000,0.000,17,15,4*75
$GPGGA,070215.00,3135.5405053,N,12046.6766889,E,4,17,1.5,2.9543,M,8.315,M,01,0004*66
$GPHPD,0,0.000,144.24,-0.79,-12.61,31.5923418,120.7779448,2.954,13630731.153,24925233.133,2.954,0.000,0.000,0.000,0.000,0.000,0.000,0.000,17,15,4*7B
$GPGGA,070215.20,3135.5404119,N,12046.6767708,E,4,17,1.5,2.9635,M,8.315,M,01,0004*6F
$GPHPD,0,0.000,143.47,1.67,-12.68,31.5923402,120.7779462,2.964,13630732.645,24925234.664,2.964,0.000,0.000,0.000,0.000,0.000,0.000,0.000,17,15,4*51
$GPGGA,070215.40,3135.5403131,N,12046.6768512,E,4,17,1.5,2.9565,M,8.315,M,01,0004*64
$GPHPD,0,0.000,143.65,-0.13,-12.75,31.5923386,120.7779475,2.957,13630734.211,24925236.209,2.957,0.000,0.000,0.000,0.000,0.000,0.000,0.000,17,15,4*71
$GPGGA,070215.60,3135.5402086,N,12046.6769375,E,4,17,1.5,2.9544,M,8.315,M,00,0004*6E
$GPHPD,0,0.000,144.25,-0.69,-12.80,31.5923368,120.7779490,2.954,13630735.870,24925237.858,2.954,0.000,0.000,0.000,0.000,0.000,0.000,0.000,17,14,4*7C
$GPGGA,070215.80,3135.5401004,N,12046.6770300,E,4,17,1.5,2.9747,M,8.315,M,00,0004*62
$GPHPD,0,0.000,144.88,-2.44,-12.81,31.5923350,120.7779505,2.975,13630737.594,24925239.604,2.975,0.000,0.000,0.000,0.000,0.000,0.000,0.000,17,13,4*7A
$GPGGA,070216.00,3135.5399918,N,12046.6771191,E,4,17,1.5,2.9788,M,8.315,M,01,0004*62
$GPHPD,0,0.000,146.13,-4.77,-12.81,31.5923332,120.7779520,2.979,13630739.317,24925241.310,2.979,0.000,0.000,0.000,0.000,0.000,0.000,0.000,17,13,4*73
$GPGGA,070216.20,3135.5398778,N,12046.6772105,E,4,17,1.5,2.9787,M,8.315,M,01,0004*68
$GPHPD,0,0.000,145.07,-2.83,-12.82,31.5923313,120.7779535,2.979,13630741.121,24925243.076,2.979,0.000,0.000,0.000,0.000,0.000,0.000,0.000,17,13,4*75
$GPGGA,070216.40,3135.5397699,N,12046.6773057,E,4,17,1.5,2.9747,M,8.315,M,01,0004*64
$GPHPD,0,0.000,146.01,-5.46,-12.84,31.5923295,120.7779551,2.975,13630742.847,24925244.853,2.975,0.000,0.000,0.000,0.000,0.000,0.000,0.000,17,13,4*77
$GPGGA,070216.60,3135.5396548,N,12046.6773898,E,4,17,1.9,2.9439,M,8.315,M,00,0004*64
$GPHPD,0,0.000,144.84,-2.61,-12.85,31.5923276,120.7779565,2.944,13630744.652,24925246.537,2.944,0.000,0.000,0.000,0.000,0.000,0.000,0.000,17,13,4*70
$GPGGA,070216.80,3135.5395439,N,12046.6774944,E,4,17,1.9,2.9812,M,8.315,M,00,0004*6C
$GPHPD,0,0.000,143.16,0.63,-12.84,31.5923257,120.7779582,2.981,13630746.439,24925248.444,2.981,0.000,0.000,0.000,0.000,0.000,0.000,0.000,17,13,4*5C
$GPGGA,070217.00,3135.5394309,N,12046.6775860,E,4,17,1.9,2.9642,M,8.315,M,01,0004*6C
$GPHPD,0,0.000,145.20,-2.78,-12.84,31.5923238,120.7779598,2.964,13630748.229,24925250.206,2.964,0.000,0.000,0.000,0.000,0.000,0.000,0.000,17,13,4*78
$GPGGA,070217.20,3135.5393138,N,12046.6776780,E,4,16,2.0,2.9534,M,8.315,M,01,0004*62
$GPHPD,0,0.000,143.74,-1.20,-12.84,31.5923219,120.7779613,2.953,13630750.079,24925251.998,2.953,0.000,0.000,0.000,0.000,0.000,0.000,0.000,16,13,4*70
$GPGGA,070217.40,3135.5391972,N,12046.6777739,E,4,17,2.0,2.9418,M,8.315,M,01,0004*6D
$GPHPD,0,0.000,144.01,-2.19,-12.88,31.5923200,120.7779629,2.942,13630751.929,24925253.833,2.942,0.000,0.000,0.000,0.000,0.000,0.000,0.000,17,13,4*7F
$GPGGA,070217.60,3135.5390840,N,12046.6778738,E,4,17,2.0,2.9606,M,8.315,M,00,0004*6C
$GPHPD,0,0.000,143.69,-1.97,-12.87,31.5923181,120.7779646,2.961,13630753.739,24925255.697,2.961,0.000,0.000,0.000,0.000,0.000,0.000,0.000,17,13,4*74
$GPGGA,070217.80,3135.5389672,N,12046.6779688,E,4,17,2.0,2.9393,M,8.315,M,00,0004*67
$GPHPD,0,0.000,144.33,-3.47,-12.86,31.5923161,120.7779661,2.939,13630755.590,24925257.522,2.939,0.000,0.000,0.000,0.000,0.000,0.000,0.000,17,13,4*71
$GPGGA,070218.00,3135.5388476,N,12046.6780653,E,4,17,2.0,2.9450,M,8.315,M,01,0004*6E
$GPHPD,0,0.000,144.20,-2.45,-12.85,31.5923141,120.7779678,2.945,13630757.484,24925259.382,2.945,0.000,0.000,0.000,0.000,0.000,0.000,0.000,17,13,4*7D
$GPGGA,070218.20,3135.5387283,N,12046.6781675,E,4,17,2.0,2.9517,M,8.315,M,01,0004*68
$GPHPD,0,0.000,144.20,-2.37,-12.85,31.5923121,120.7779695,2.952,13630759.386,24925261.309,2.952,0.000,0.000,0.000,0.000,0.000,0.000,0.000,17,13,4*7E
$GPGGA,070218.40,3135.5386108,N,12046.6782694,E,4,17,1.9,2.9586,M,8.315,M,01,0004*61
$GPHPD,0,0.000,146.44,-7.35,-12.83,31.5923102,120.7779712,2.959,13630761.261,24925263.222,2.959,0.000,0.000,0.000,0.000,0.000,0.000,0.000,17,13,4*79
$GPGGA,070218.60,3135.5384892,N,12046.6783687,E,4,17,1.9,2.9480,M,8.315,M,00,0004*6E
$GPHPD,0,0.000,145.80,-5.10,-12.82,31.5923082,120.7779728,2.948,13630763.189,24925265.128,2.948,0.000,0.000,0.000,0.000,0.000,0.000,0.000,17,13,4*7E
$GPGGA,070218.80,3135.5383659,N,12046.6784660,E,4,16,1.9,2.9375,M,8.315,M,00,0004*6C
$GPHPD,0,0.000,144.93,-1.76,-12.85,31.5923061,120.7779744,2.938,13630765.137,24925267.019,2.938,0.000,0.000,0.000,0.000,0.000,0.000,0.000,16,14,4*7D
$GPGGA,070219.00,3135.5382410,N,12046.6785591,E,4,16,1.9,2.9100,M,8.315,M,01,0004*66
$GPHPD,0,0.000,145.98,-4.48,-12.84,31.5923040,120.7779760,2.910,13630767.100,24925268.869,2.910,0.000,0.000,0.000,0.000,0.000,0.000,0.000,16,14,4*7D
$GPGGA,070219.20,3135.5381218,N,12046.6786638,E,4,16,1.9,2.9154,M,8.315,M,01,0004*6B
$GPHPD,0,0.000,145.94,-4.70,-12.84,31.5923020,120.7779777,2.915,13630769.005,24925270.825,2.915,0.000,0.000,0.000,0.000,0.000,0.000,0.000,16,14,4*71
$GPGGA,070219.40,3135.5379989,N,12046.6787641,E,4,16,1.9,2.9113,M,8.315,M,01,0004*65
$GPHPD,0,0.000,145.48,-2.83,-12.85,31.5923000,120.7779794,2.911,13630770.954,24925272.750,2.911,0.000,0.000,0.000,0.000,0.000,0.000,0.000,16,15,4*7F
$GPGGA,070219.60,3135.5378764,N,12046.6788670,E,4,16,1.9,2.9289,M,8.316,M,00,0004*64
$GPHPD,0,0.000,144.04,-0.28,-12.85,31.5922979,120.7779811,2.929,13630772.902,24925274.704,2.929,0.000,0.000,0.000,0.000,0.000,0.000,0.000,16,15,4*77
$GPGGA,070219.80,3135.5377564,N,12046.6789738,E,4,16,1.9,2.9380,M,8.316,M,00,0004*63
$GPHPD,0,0.000,144.54,-2.71,-12.85,31.5922959,120.7779829,2.938,13630774.823,24925276.691,2.938,0.000,0.000,0.000,0.000,0.000,0.000,0.000,16,15,4*7E
$GPGGA,070220.00,3135.5376318,N,12046.6790776,E,4,16,1.9,2.9440,M,8.316,M,01,0004*65
$GPHPD,0,0.000,145.42,-4.30,-12.87,31.5922939,120.7779846,2.944,13630776.802,24925278.668,2.944,0.000,0.000,0.000,0.000,0.000,0.000,0.000,16,15,4*7F
$GPGGA,070220.20,3135.5375115,N,12046.6791857,E,4,16,1.9,2.9728,M,8.316,M,01,0004*6B
$GPHPD,0,0.000,143.96,-0.95,-12.86,31.5922919,120.7779864,2.973,13630778.730,24925280.672,2.973,0.000,0.000,0.000,0.000,0.000,0.000,0.000,16,15,4*74
$GPGGA,070220.40,3135.5373900,N,12046.6792910,E,4,16,1.9,2.9741,M,8.316,M,01,0004*69
$GPHPD,0,0.000,144.66,-3.58,-12.87,31.5922898,120.7779882,2.974,13630780.669,24925282.649,2.974,0.000,0.000,0.000,0.000,0.000,0.000,0.000,16,15,4*7F
$GPGGA,070220.60,3135.5372663,N,12046.6793903,E,4,16,1.9,2.9566,M,8.316,M,00,0004*65
$GPHPD,0,0.000,144.38,-2.96,-12.84,31.5922878,120.7779898,2.957,13630782.627,24925284.567,2.957,0.000,0.000,0.000,0.000,0.000,0.000,0.000,16,15,4*70
$GPGGA,070220.80,3135.5371412,N,12046.6794912,E,4,15,2.0,2.9585,M,8.316,M,00,0004*6F
$GPHPD,0,0.000,143.90,-2.24,-12.83,31.5922857,120.7779915,2.959,13630784.608,24925286.512,2.959,0.000,0.000,0.000,0.000,0.000,0.000,0.000,15,15,4*7A
$GPGGA,070221.00,3135.5370176,N,12046.6795985,E,4,15,2.0,2.9552,M,8.316,M,01,0004*64
$GPHPD,0,0.000,144.29,-3.90,-12.82,31.5922836,120.7779933,2.955,13630786.581,24925288.525,2.955,0.000,0.000,0.000,0.000,0.000,0.000,0.000,15,14,4*78
$GPGGA,070221.20,3135.5368953,N,12046.6797081,E,4,15,2.0,2.9545,M,8.316,M,01,0004*69
$GPHPD,0,0.000,145.27,-4.38,-12.82,31.5922816,120.7779951,2.955,13630788.540,24925290.559,2.955,0.000,0.000,0.000,0.000,0.000,0.000,0.000,15,15,4*74
$GPGGA,070221.40,3135.5367470,N,12046.6798016,E,4,16,2.0,2.9243,M,8.316,M,01,0004*6F
$GPHPD,0,0.000,146.61,-7.10,-12.75,31.5922791,120.7779967,2.924,13630790.836,24925292.550,2.924,0.000,0.000,0.000,0.000,0.000,0.000,0.000,16,14,4*7D
$GPGGA,070221.60,3135.5366196,N,12046.6799078,E,4,16,2.0,2.9222,M,8.316,M,00,0004*6E
$GPHPD,0,0.000,144.29,-2.46,-12.72,31.5922770,120.7779985,2.922,13630792.860,24925294.572,2.922,0.000,0.000,0.000,0.000,0.000,0.000,0.000,16,14,4*76
$GPGGA,070221.80,3135.5364910,N,12046.6800124,E,4,15,2.0,2.9181,M,8.316,M,00,0004*6A
$GPHPD,0,0.000,144.79,-2.92,-12.68,31.5922749,120.7780002,2.918,13630794.899,24925296.583,2.918,0.000,0.000,0.000,0.000,0.000,0.000,0.000,15,14,4*74
$GPGGA,070222.00,3135.5363675,N,12046.6801264,E,4,16,2.0,2.9444,M,8.316,M,01,0004*62
$GPHPD,0,0.000,144.78,-3.16,-12.62,31.5922728,120.7780021,2.944,13630796.883,24925298.676,2.944,0.000,0.000,0.000,0.000,0.000,0.000,0.000,16,13,4*7E
$GPGGA,070222.20,3135.5362264,N,12046.6802225,E,4,16,2.1,2.8992,M,8.316,M,01,0004*65
$GPHPD,0,0.000,144.53,-1.90,-12.60,31.5922704,120.7780037,2.899,13630799.082,24925300.657,2.899,0.000,0.000,0.000,0.000,0.000,0.000,0.000,16,13,4*75
$GPGGA,070222.40,3135.5361095,N,12046.6803400,E,4,17,2.0,2.9610,M,8.316,M,01,0004*68
$GPHPD,0,0.000,144.76,-2.12,-12.54,31.5922685,120.7780057,2.961,13630800.980,24925302.754,2.961,0.000,0.000,0.000,0.000,0.000,0.000,0.000,17,13,4*77
$GPGGA,070222.60,3135.5359703,N,12046.6804407,E,4,17,2.1,2.9157,M,8.316,M,00,0004*6D
$GPHPD,0,0.000,145.54,-4.38,-12.54,31.5922662,120.7780073,2.916,13630803.161,24925304.779,2.916,0.000,0.000,0.000,0.000,0.000,0.000,0.000,17,13,4*7A
$GPGGA,070222.80,3135.5358403,N,12046.6805450,E,4,17,2.1,2.8974,M,8.316,M,00,0004*6A
$GPHPD,0,0.000,145.03,-2.92,-12.56,31.5922640,120.7780091,2.897,13630805.219,24925306.794,2.897,0.000,0.000,0.000,0.000,0.000,0.000,0.000,17,13,4*7B
$GPGGA,070223.00,3135.5357114,N,12046.6806584,E,4,17,2.1,2.9331,M,8.316,M,01,0004*6F
$GPHPD,0,0.000,144.56,-1.99,-12.54,31.5922619,120.7780110,2.933,13630807.279,24925308.912,2.933,0.000,0.000,0.000,0.000,0.000,0.000,0.000,17,12,4*7F
$GPGGA,070223.20,3135.5355805,N,12046.6807618,E,4,17,2.1,2.9246,M,8.316,M,01,0004*60
$GPHPD,0,0.000,144.87,-3.08,-12.54,31.5922597,120.7780127,2.925,13630809.348,24925310.921,2.925,0.000,0.000,0.000,0.000,0.000,0.000,0.000,17,12,4*7C
$GPGGA,070223.40,3135.5354506,N,12046.6808656,E,4,17,2.1,2.9003,M,8.316,M,01,0004*6F
$GPHPD,0,0.000,144.97,-3.88,-12.57,31.5922575,120.7780144,2.900,13630811.403,24925312.929,2.900,0.000,0.000,0.000,0.000,0.000,0.000,0.000,17,12,4*74
$GPGGA,070223.60,3135.5353226,N,12046.6809772,E,4,17,2.1,2.9236,M,8.316,M,00,0004*6C
$GPHPD,0,0.000,145.21,-3.96,-12.59,31.5922554,120.7780163,2.924,13630813.447,24925315.020,2.924,0.000,0.000,0.000,0.000,0.000,0.000,0.000,17,13,4*7B
$GPGGA,070223.80,3135.5351911,N,12046.6810820,E,4,17,2.1,2.9243,M,8.316,M,00,0004*6D
$GPHPD,0,0.000,145.47,-5.26,-12.61,31.5922532,120.7780180,2.924,13630815.527,24925317.049,2.924,0.000,0.000,0.000,0.000,0.000,0.000,0.000,17,13,4*7C
$GPGGA,070224.00,3135.5350610,N,12046.6811912,E,4,17,2.1,2.9353,M,8.316,M,01,0004*6D
$GPHPD,0,0.000,144.15,-2.02,-12.59,31.5922510,120.7780199,2.935,13630817.596,24925319.123,2.935,0.000,0.000,0.000,0.000,0.000,0.000,0.000,17,13,4*73
$GPGGA,070224.20,3135.5349280,N,12046.6812980,E,4,16,2.1,2.9355,M,8.316,M,01,0004*65
$GPHPD,0,0.000,144.62,-3.61,-12.57,31.5922488,120.7780216,2.936,13630819.702,24925321.185,2.936,0.000,0.000,0.000,0.000,0.000,0.000,0.000,16,13,4*7A
$GPGGA,070224.40,3135.5347971,N,12046.6813991,E,4,17,2.1,2.9018,M,8.316,M,01,0004*62
$GPHPD,0,0.000,144.94,-4.38,-12.58,31.5922466,120.7780233,2.902,13630821.766,24925323.167,2.902,0.000,0.000,0.000,0.000,0.000,0.000,0.000,17,13,4*76
$GPGGA,070224.60,3135.5346652,N,12046.6815021,E,4,17,2.1,2.8750,M,8.316,M,00,0004*60
$GPHPD,0,0.000,145.06,-4.33,-12.56,31.5922444,120.7780250,2.875,13630823.848,24925325.177,2.875,0.000,0.000,0.000,0.000,0.000,0.000,0.000,17,13,4*7A
$GPGGA,070224.80,3135.5345343,N,12046.6816080,E,4,17,2.1,2.8722,M,8.316,M,00,0004*65
$GPHPD,0,0.000,144.80,-3.01,-12.56,31.5922422,120.7780268,2.872,13630825.921,24925327.216,2.872,0.000,0.000,0.000,0.000,0.000,0.000,0.000,17,13,4*76
$GPGGA,070225.00,3135.5344050,N,12046.6817154,E,4,17,2.1,2.8628,M,8.316,M,01,0004*6F
$GPHPD,0,0.000,144.60,-2.91,-12.55,31.5922401,120.7780286,2.863,13630827.975,24925329.264,2.863,0.000,0.000,0.000,0.000,0.000,0.000,0.000,17,13,4*7A
$GPGGA,070225.20,3135.5342748,N,12046.6818189,E,4,17,2.1,2.8604,M,8.316,M,01,0004*64
$GPHPD,0,0.000,145.34,-3.77,-12.53,31.5922379,120.7780303,2.860,13630830.034,24925331.270,2.860,0.000,0.000,0.000,0.000,0.000,0.000,0.000,17,13,4*77
$GPGGA,070225.40,3135.5341444,N,12046.6819234,E,4,17,2.1,2.8555,M,8.316,M,01,0004*6D
$GPHPD,0,0.000,144.95,-2.86,-12.52,31.5922357,120.7780321,2.856,13630832.098,24925333.289,2.856,0.000,0.000,0.000,0.000,0.000,0.000,0.000,17,14,4*78
$GPGGA,070225.60,3135.5340216,N,12046.6820429,E,4,17,1.9,2.9040,M,8.316,M,00,0004*65
$GPHPD,0,0.000,145.29,-3.53,-12.51,31.5922337,120.7780340,2.904,13630834.084,24925335.445,2.904,0.000,0.000,0.000,0.000,0.000,0.000,0.000,17,14,4*7E
$GPGGA,070225.80,3135.5338940,N,12046.6821462,E,4,17,1.9,2.9132,M,8.316,M,00,0004*66
$GPHPD,0,0.000,144.75,-2.65,-12.53,31.5922316,120.7780358,2.913,13630836.105,24925337.434,2.913,0.000,0.000,0.000,0.000,0.000,0.000,0.000,17,14,4*74
$GPGGA,070226.00,3135.5337632,N,12046.6822458,E,4,17,1.9,2.8865,M,8.316,M,01,0004*69
$GPHPD,0,0.000,144.53,-2.15,-12.57,31.5922294,120.7780374,2.887,13630838.165,24925339.396,2.887,0.000,0.000,0.000,0.000,0.000,0.000,0.000,17,14,4*7F
$GPGGA,070226.20,3135.5336410,N,12046.6823536,E,4,17,1.9,2.9007,M,8.316,M,01,0004*6D
$GPHPD,0,0.000,144.76,-2.18,-12.56,31.5922274,120.7780392,2.901,13630840.119,24925341.408,2.901,0.000,0.000,0.000,0.000,0.000,0.000,0.000,17,14,4*79
$GPGGA,070226.40,3135.5335177,N,12046.6824572,E,4,17,2.1,2.9095,M,8.316,M,01,0004*6B
$GPHPD,0,0.000,144.87,-2.17,-12.58,31.5922253,120.7780410,2.910,13630842.080,24925343.375,2.910,0.000,0.000,0.000,0.000,0.000,0.000,0.000,17,14,4*72
$GPGGA,070226.60,3135.5333863,N,12046.6825536,E,4,17,2.1,2.8905,M,8.316,M,00,0004*62
$GPHPD,0,0.000,145.33,-3.29,-12.60,31.5922231,120.7780426,2.891,13630844.142,24925345.303,2.891,0.000,0.000,0.000,0.000,0.000,0.000,0.000,17,14,4*74
$GPGGA,070226.80,3135.5332628,N,12046.6826561,E,4,17,2.1,2.8896,M,8.316,M,00,0004*66
$GPHPD,0,0.000,145.07,-2.92,-12.61,31.5922210,120.7780443,2.890,13630846.103,24925347.258,2.890,0.000,0.000,0.000,0.000,0.000,0.000,0.000,17,13,4*7E
$GPGGA,070227.00,3135.5331347,N,12046.6827653,E,4,16,2.1,2.9125,M,8.316,M,01,0004*63
$GPHPD,0,0.000,145.57,-2.99,-12.58,31.5922189,120.7780461,2.913,13630848.144,24925349.320,2.913,0.000,0.000,0.000,0.000,0.000,0.000,0.000,16,13,4*75
$GPGGA,070227.20,3135.5330105,N,12046.6828663,E,4,16,2.1,2.9340,M,8.316,M,01,0004*69
$GPHPD,0,0.000,145.86,-3.79,-12.59,31.5922168,120.7780478,2.934,13630850.112,24925351.261,2.934,0.000,0.000,0.000,0.000,0.000,0.000,0.000,16,13,4*77
$GPGGA,070227.40,3135.5328825,N,12046.6829667,E,4,16,2.1,2.9062,M,8.316,M,01,0004*6B
$GPHPD,0,0.000,145.67,-3.36,-12.54,31.5922147,120.7780494,2.906,13630852.134,24925353.217,2.906,0.000,0.000,0.000,0.000,0.000,0.000,0.000,16,14,4*73
$GPGGA,070227.60,3135.5327519,N,12046.6830703,E,4,16,2.0,2.9041,M,8.316,M,00,0004*6E
$GPHPD,0,0.000,145.72,-2.96,-12.51,31.5922125,120.7780512,2.904,13630854.199,24925355.227,2.904,0.000,0.000,0.000,0.000,0.000,0.000,0.000,16,14,4*76
$GPGGA,070227.80,3135.5326257,N,12046.6831741,E,4,16,2.0,2.9292,M,8.316,M,00,0004*67
$GPHPD,0,0.000,145.37,-2.94,-12.49,31.5922104,120.7780529,2.929,13630856.201,24925357.213,2.929,0.000,0.000,0.000,0.000,0.000,0.000,0.000,16,14,4*72
$GPGGA,070228.00,3135.5325054,N,12046.6832780,E,4,14,2.0,2.9250,M,8.316,M,01,0004*61
$GPHPD,0,0.000,144.91,-2.69,-12.43,31.5922084,120.7780546,2.925,13630858.120,24925359.167,2.925,0.000,0.000,0.000,0.000,0.000,0.000,0.000,14,14,4*75
$GPGGA,070228.20,3135.5323766,N,12046.6833738,E,4,15,2.0,2.9169,M,8.316,M,01,0004*69
$GPHPD,0,0.000,145.64,-3.58,-12.42,31.5922063,120.7780562,2.917,13630860.144,24925361.072,2.917,0.000,0.000,0.000,0.000,0.000,0.000,0.000,15,14,4*75
$GPGGA,070228.40,3135.5322511,N,12046.6834796,E,4,16,2.0,2.9224,M,8.316,M,01,0004*66
$GPHPD,0,0.000,145.57,-4.34,-12.40,31.5922042,120.7780580,2.922,13630862.140,24925363.078,2.922,0.000,0.000,0.000,0.000,0.000,0.000,0.000,16,14,4*78
$GPGGA,070228.60,3135.5321246,N,12046.6835819,E,4,16,2.0,2.9180,M,8.316,M,00,0004*67
$GPHPD,0,0.000,145.27,-4.63,-12.38,31.5922021,120.7780597,2.918,13630864.144,24925365.049,2.918,0.000,0.000,0.000,0.000,0.000,0.000,0.000,16,14,4*77
$GPGGA,070228.80,3135.5319994,N,12046.6836866,E,4,16,2.0,2.8996,M,8.316,M,00,0004*63
$GPHPD,0,0.000,144.77,-3.15,-12.39,31.5922000,120.7780614,2.900,13630866.135,24925367.040,2.900,0.000,0.000,0.000,0.000,0.000,0.000,0.000,16,14,4*70
$GPGGA,070229.00,3135.5318706,N,12046.6837897,E,4,16,2.0,2.8956,M,8.316,M,01,0004*6C
$GPHPD,0,0.000,144.52,-2.94,-12.41,31.5921978,120.7780632,2.896,13630868.173,24925369.033,2.896,0.000,0.000,0.000,0.000,0.000,0.000,0.000,16,14,4*77
$GPGGA,070229.20,3135.5317376,N,12046.6838872,E,4,16,2.1,2.8453,M,8.316,M,01,0004*6F
$GPHPD,0,0.000,144.45,-3.07,-12.39,31.5921956,120.7780648,2.845,13630870.259,24925370.983,2.845,0.000,0.000,0.000,0.000,0.000,0.000,0.000,16,14,4*7C
$GPGGA,070229.40,3135.5316150,N,12046.6839920,E,4,16,2.0,2.8617,M,8.316,M,01,0004*6A
$GPHPD,0,0.000,144.60,-3.70,-12.42,31.5921936,120.7780665,2.862,13630872.213,24925372.961,2.862,0.000,0.000,0.000,0.000,0.000,0.000,0.000,16,14,4*7C
$GPGGA,070229.60,3135.5314913,N,12046.6841038,E,4,16,2.0,2.8773,M,8.316,M,00,0004*68
$GPHPD,0,0.000,143.55,-0.83,-12.44,31.5921915,120.7780684,2.877,13630874.196,24925375.029,2.877,0.000,0.000,0.000,0.000,0.000,0.000,0.000,16,14,4*70
$GPGGA,070229.80,3135.5313660,N,12046.6842137,E,4,16,2.0,2.9001,M,8.316,M,00,0004*64
$GPHPD,0,0.000,144.72,-3.79,-12.41,31.5921894,120.7780702,2.900,13630876.198,24925377.084,2.900,0.000,0.000,0.000,0.000,0.000,0.000,0.000,16,13,4*78
$GPGGA,070230.00,3135.5312292,N,12046.6843124,E,4,16,2.0,2.8486,M,8.316,M,01,0004*64
$GPHPD,0,0.000,143.66,-2.77,-12.45,31.5921872,120.7780719,2.849,13630878.341,24925379.071,2.849,0.000,0.000,0.000,0.000,0.000,0.000,0.000,16,14,4*78
$GPGGA,070230.20,3135.5311016,N,12046.6844232,E,4,16,2.0,2.8659,M,8.316,M,01,0004*68
$GPHPD,0,0.000,144.49,-3.25,-12.45,31.5921850,120.7780737,2.866,13630880.378,24925381.150,2.866,0.000,0.000,0.000,0.000,0.000,0.000,0.000,16,14,4*70
$GPGGA,070230.40,3135.5309763,N,12046.6845270,E,4,16,2.0,2.8387,M,8.316,M,01,0004*63
$GPHPD,0,0.000,143.59,-1.26,-12.46,31.5921829,120.7780755,2.839,13630882.368,24925383.131,2.839,0.000,0.000,0.000,0.000,0.000,0.000,0.000,16,15,4*79
$GPGGA,070230.60,3135.5308480,N,12046.6846337,E,4,16,2.0,2.8468,M,8.316,M,00,0004*68
$GPHPD,0,0.000,144.76,-3.62,-12.48,31.5921808,120.7780772,2.847,13630884.406,24925385.165,2.847,0.000,0.000,0.000,0.000,0.000,0.000,0.000,16,15,4*77
$GPGGA,070230.80,3135.5307223,N,12046.6847427,E,4,16,2.0,2.8573,M,8.316,M,00,0004*6A
$GPHPD,0,0.000,143.52,-2.20,-12.47,31.5921787,120.7780790,2.857,13630886.412,24925387.211,2.857,0.000,0.000,0.000,0.000,0.000,0.000,0.000,16,13,4*79
$GPGGA,070231.00,3135.5305945,N,12046.6848577,E,4,16,2.0,2.8908,M,8.316,M,01,0004*60
$GPHPD,0,0.000,143.62,-1.63,-12.43,31.5921766,120.7780810,2.891,13630888.460,24925389.342,2.891,0.000,0.000,0.000,0.000,0.000,0.000,0.000,16,14,4*77
$GPGGA,070231.20,3135.5304660,N,12046.6849600,E,4,16,2.0,2.8893,M,8.316,M,01,0004*6A
$GPHPD,0,0.000,143.93,-3.36,-12.46,31.5921744,120.7780827,2.889,13630890.492,24925391.324,2.889,0.000,0.000,0.000,0.000,0.000,0.000,0.000,16,14,4*77
$GPGGA,070231.40,3135.5303439,N,12046.6850625,E,4,16,2.0,2.8571,M,8.316,M,01,0004*6B
$GPHPD,0,0.000,144.15,-4.45,-12.46,31.5921724,120.7780844,2.857,13630892.434,24925393.270,2.857,0.000,0.000,0.000,0.000,0.000,0.000,0.000,16,14,4*72
$GPGGA,070231.60,3135.5302139,N,12046.6851638,E,4,15,2.0,2.8368,M,8.316,M,00,0004*6C
$GPHPD,0,0.000,143.89,-3.48,-12.45,31.5921702,120.7780861,2.837,13630894.486,24925395.249,2.837,0.000,0.000,0.000,0.000,0.000,0.000,0.000,15,13,4*7D
$GPGGA,070231.80,3135.5300865,N,12046.6852715,E,4,15,2.0,2.8292,M,8.316,M,00,0004*69
$GPHPD,0,0.000,144.23,-4.43,-12.45,31.5921681,120.7780879,2.829,13630896.513,24925397.289,2.829,0.000,0.000,0.000,0.000,0.000,0.000,0.000,15,13,4*74
$GPGGA,070232.00,3135.5299624,N,12046.6853793,E,4,15,2.0,2.8187,M,8.316,M,01,0004*61
$GPHPD,0,0.000,143.59,-3.10,-12.42,31.5921660,120.7780897,2.819,13630898.494,24925399.312,2.819,0.000,0.000,0.000,0.000,0.000,0.000,0.000,15,13,4*7A
$GPGGA,070232.20,3135.5298356,N,12046.6854902,E,4,15,2.0,2.8100,M,8.316,M,01,0004*6C
$GPHPD,0,0.000,144.54,-3.55,-12.40,31.5921639,120.7780915,2.810,13630900.520,24925401.387,2.810,0.000,0.000,0.000,0.000,0.000,0.000,0.000,15,13,4*70
$GPGGA,070232.40,3135.5297040,N,12046.6855943,E,4,15,2.0,2.8052,M,8.316,M,01,0004*63
$GPHPD,0,0.000,144.15,-1.84,-12.39,31.5921617,120.7780932,2.805,13630902.600,24925403.409,2.805,0.000,0.000,0.000,0.000,0.000,0.000,0.000,15,13,4*7C
$GPGGA,070232.60,3135.5295753,N,12046.6857001,E,4,15,2.0,2.8124,M,8.316,M,00,0004*6A
$GPHPD,0,0.000,144.80,-3.19,-12.37,31.5921596,120.7780950,2.812,13630904.642,24925405.434,2.812,0.000,0.000,0.000,0.000,0.000,0.000,0.000,15,14,4*79
$GPGGA,070232.80,3135.5294471,N,12046.6858102,E,4,15,2.0,2.8071,M,8.316,M,00,0004*6A
$GPHPD,0,0.000,144.21,-1.88,-12.38,31.5921575,120.7780968,2.807,13630906.686,24925407.508,2.807,0.000,0.000,0.000,0.000,0.000,0.000,0.000,15,14,4*77
$GPGGA,070233.00,3135.5293188,N,12046.6859176,E,4,14,2.0,2.8138,M,8.316,M,01,0004*69
$GPHPD,0,0.000,145.65,-4.24,-12.40,31.5921553,120.7780986,2.814,13630908.726,24925409.550,2.814,0.000,0.000,0.000,0.000,0.000,0.000,0.000,14,14,4*79
$GPGGA,070233.20,3135.5291939,N,12046.6860276,E,4,14,2.0,2.8256,M,8.316,M,01,0004*69
$GPHPD,0,0.000,144.50,-2.03,-12.36,31.5921532,120.7781005,2.826,13630910.722,24925411.604,2.826,0.000,0.000,0.000,0.000,0.000,0.000,0.000,14,14,4*7E
$GPGGA,070233.40,3135.5290645,N,12046.6861346,E,4,16,2.0,2.8344,M,8.316,M,01,0004*69
$GPHPD,0,0.000,144.59,-1.99,-12.33,31.5921511,120.7781022,2.834,13630912.777,24925413.648,2.834,0.000,0.000,0.000,0.000,0.000,0.000,0.000,16,15,4*7D
$GPGGA,070233.60,3135.5289338,N,12046.6862444,E,4,16,1.9,2.8694,M,8.316,M,00,0004*69
$GPHPD,0,0.000,145.64,-4.40,-12.38,31.5921489,120.7781041,2.869,13630914.856,24925415.733,2.869,0.000,0.000,0.000,0.000,0.000,0.000,0.000,16,15,4*7C
$GPGGA,070233.80,3135.5288054,N,12046.6863447,E,4,16,1.9,2.8355,M,8.316,M,00,0004*65
$GPHPD,0,0.000,144.27,-2.67,-12.43,31.5921468,120.7781057,2.836,13630916.882,24925417.690,2.836,0.000,0.000,0.000,0.000,0.000,0.000,0.000,16,14,4*7D
$GPGGA,070234.00,3135.5286811,N,12046.6864515,E,4,16,1.9,2.8462,M,8.316,M,01,0004*6E
$GPHPD,0,0.000,144.14,-2.24,-12.46,31.5921447,120.7781075,2.846,13630918.864,24925419.701,2.846,0.000,0.000,0.000,0.000,0.000,0.000,0.000,16,14,4*73
$GPGGA,070234.20,3135.5285494,N,12046.6865524,E,4,16,1.9,2.8425,M,8.316,M,01,0004*6E
$GPHPD,0,0.000,144.35,-3.02,-12.46,31.5921425,120.7781092,2.843,13630920.939,24925421.685,2.843,0.000,0.000,0.000,0.000,0.000,0.000,0.000,16,14,4*7C
$GPGGA,070234.40,3135.5284231,N,12046.6866628,E,4,16,1.9,2.8510,M,8.316,M,01,0004*6B
$GPHPD,0,0.000,144.52,-3.59,-12.46,31.5921404,120.7781110,2.851,13630922.956,24925423.751,2.851,0.000,0.000,0.000,0.000,0.000,0.000,0.000,16,14,4*7A
$GPGGA,070234.60,3135.5282985,N,12046.6867710,E,4,16,1.9,2.8617,M,8.316,M,00,0004*65
$GPHPD,0,0.000,144.67,-4.02,-12.43,31.5921383,120.7781129,2.862,13630924.945,24925425.782,2.862,0.000,0.000,0.000,0.000,0.000,0.000,0.000,16,14,4*7E
$GPGGA,070234.80,3135.5281690,N,12046.6868655,E,4,16,1.9,2.8342,M,8.316,M,00,0004*69
$GPHPD,0,0.000,144.89,-4.38,-12.41,31.5921362,120.7781144,2.834,13630926.976,24925427.675,2.834,0.000,0.000,0.000,0.000,0.000,0.000,0.000,16,14,4*78
$GPGGA,070235.00,3135.5280397,N,12046.6869675,E,4,16,1.9,2.8221,M,8.316,M,01,0004*65
$GPHPD,0,0.000,144.60,-3.42,-12.39,31.5921340,120.7781161,2.822,13630929.019,24925429.658,2.822,0.000,0.000,0.000,0.000,0.000,0.000,0.000,16,14,4*73
$GPGGA,070235.20,3135.5279135,N,12046.6870683,E,4,15,1.9,2.7994,M,8.316,M,01,0004*63
$GPHPD,0,0.000,144.16,-2.71,-12.40,31.5921319,120.7781178,2.799,13630931.016,24925431.608,2.799,0.000,0.000,0.000,0.000,0.000,0.000,0.000,15,14,4*70
$GPGGA,070235.40,3135.5277850,N,12046.6871709,E,4,16,1.9,2.7864,M,8.316,M,01,0004*6E
$GPHPD,0,0.000,143.95,-0.44,-12.41,31.5921298,120.7781195,2.786,13630933.049,24925433.594,2.786,0.000,0.000,0.000,0.000,0.000,0.000,0.000,16,14,4*7D
$GPGGA,070235.60,3135.5276584,N,12046.6872815,E,4,16,1.9,2.8084,M,8.316,M,00,0004*60
$GPHPD,0,0.000,143.92,-0.82,-12.37,31.5921276,120.7781214,2.808,13630935.071,24925435.664,2.808,0.000,0.000,0.000,0.000,0.000,0.000,0.000,16,14,4*7C
$GPGGA,070235.80,3135.5275324,N,12046.6873864,E,4,16,1.9,2.8110,M,8.316,M,00,0004*6A
$GPHPD,0,0.000,144.24,-1.62,-12.32,31.5921255,120.7781231,2.811,13630937.073,24925437.663,2.811,0.000,0.000,0.000,0.000,0.000,0.000,0.000,16,14,4*7F
$GPGGA,070236.00,3135.5274061,N,12046.6874900,E,4,16,1.9,2.8032,M,8.316,M,01,0004*66
$GPHPD,0,0.000,144.17,-1.59,-12.30,31.5921234,120.7781248,2.803,13630939.077,24925439.648,2.803,0.000,0.000,0.000,0.000,0.000,0.000,0.000,16,14,4*71
$GPGGA,070236.20,3135.5272784,N,12046.6875939,E,4,16,1.9,2.8075,M,8.316,M,01,0004*66
$GPHPD,0,0.000,143.91,-1.41,-12.31,31.5921213,120.7781266,2.808,13630941.101,24925441.644,2.808,0.000,0.000,0.000,0.000,0.000,0.000,0.000,16,14,4*75
$GPGGA,070236.40,3135.5271515,N,12046.6876984,E,4,16,1.9,2.8030,M,8.316,M,01,0004*6D
$GPHPD,0,0.000,144.47,-3.54,-12.32,31.5921192,120.7781283,2.803,13630943.115,24925443.643,2.803,0.000,0.000,0.000,0.000,0.000,0.000,0.000,16,14,4*7F
$GPGGA,070236.60,3135.5270233,N,12046.6878026,E,4,16,1.9,2.7931,M,8.316,M,00,0004*64
$GPHPD,0,0.000,144.43,-2.80,-12.34,31.5921171,120.7781300,2.793,13630945.147,24925445.646,2.793,0.000,0.000,0.000,0.000,0.000,0.000,0.000,16,14,4*70
$GPGGA,070236.80,3135.5269010,N,12046.6879091,E,4,16,1.9,2.8042,M,8.316,M,00,0004*6E
$GPHPD,0,0.000,145.02,-4.34,-12.35,31.5921150,120.7781318,2.804,13630947.099,24925447.642,2.804,0.000,0.000,0.000,0.000,0.000,0.000,0.000,16,14,4*70
$GPGGA,070237.00,3135.5267726,N,12046.6880123,E,4,16,1.9,2.8029,M,8.316,M,01,0004*69
$GPHPD,0,0.000,144.64,-3.43,-12.35,31.5921129,120.7781335,2.803,13630949.132,24925449.634,2.803,0.000,0.000,0.000,0.000,0.000,0.000,0.000,16,14,4*76
$GPGGA,070237.20,3135.5266446,N,12046.6881175,E,4,16,1.9,2.8070,M,8.316,M,01,0004*61
$GPHPD,0,0.000,144.82,-3.94,-12.36,31.5921107,120.7781353,2.807,13630951.163,24925451.648,2.807,0.000,0.000,0.000,0.000,0.000,0.000,0.000,16,13,4*73
$GPGGA,070237.40,3135.5265177,N,12046.6882213,E,4,16,1.9,2.7942,M,8.316,M,01,0004*64
$GPHPD,0,0.000,144.73,-3.81,-12.39,31.5921086,120.7781370,2.794,13630953.176,24925453.639,2.794,0.000,0.000,0.000,0.000,0.000,0.000,0.000,16,15,4*7B
$GPGGA,070237.60,3135.5263921,N,12046.6883266,E,4,16,1.9,2.7899,M,8.316,M,00,0004*6E
$GPHPD,0,0.000,144.51,-2.83,-12.40,31.5921065,120.7781388,2.790,13630955.173,24925455.640,2.790,0.000,0.000,0.000,0.000,0.000,0.000,0.000,16,15,4*77
$GPGGA,070237.80,3135.5262651,N,12046.6884312,E,4,16,1.9,2.7837,M,8.316,M,00,0004*68
$GPHPD,0,0.000,145.03,-3.06,-12.40,31.5921044,120.7781405,2.784,13630957.189,24925457.641,2.784,0.000,0.000,0.000,0.000,0.000,0.000,0.000,16,15,4*78
$GPGGA,070238.00,3135.5261393,N,12046.6885341,E,4,16,1.9,2.7856,M,8.316,M,01,0004*66
$GPHPD,0,0.000,145.02,-2.62,-12.41,31.5921023,120.7781422,2.786,13630959.184,24925459.614,2.786,0.000,0.000,0.000,0.000,0.000,0.000,0.000,16,15,4*72
$GPGGA,070238.20,3135.5260118,N,12046.6886369,E,4,16,1.9,2.7790,M,8.316,M,01,0004*68
$GPHPD,0,0.000,144.84,-2.55,-12.41,31.5921002,120.7781439,2.779,13630961.203,24925461.596,2.779,0.000,0.000,0.000,0.000,0.000,0.000,0.000,16,15,4*75
$GPGGA,070238.40,3135.5258859,N,12046.6887384,E,4,16,1.9,2.7779,M,8.316,M,01,0004*6C
$GPHPD,0,0.000,145.14,-2.49,-12.40,31.5920981,120.7781456,2.778,13630963.197,24925463.553,2.778,0.000,0.000,0.000,0.000,0.000,0.000,0.000,16,15,4*7C
$GPGGA,070238.60,3135.5257594,N,12046.6888426,E,4,16,1.9,2.7855,M,8.316,M,00,0004*6D
$GPHPD,0,0.000,144.96,-2.11,-12.40,31.5920960,120.7781474,2.786,13630965.204,24925465.546,2.786,0.000,0.000,0.000,0.000,0.000,0.000,0.000,16,15,4*78
$GPGGA,070238.80,3135.5256330,N,12046.6889416,E,4,16,1.9,2.7813,M,8.316,M,00,0004*6A
$GPHPD,0,0.000,144.77,-1.38,-12.42,31.5920939,120.7781490,2.781,13630967.200,24925467.476,2.781,0.000,0.000,0.000,0.000,0.000,0.000,0.000,16,15,4*7D
$GPGGA,070239.00,3135.5255030,N,12046.6890402,E,4,16,1.9,2.7787,M,8.316,M,01,0004*6D
$GPHPD,0,0.000,144.11,-1.06,-12.42,31.5920917,120.7781507,2.779,13630969.246,24925469.422,2.779,0.000,0.000,0.000,0.000,0.000,0.000,0.000,16,15,4*70
$GPGGA,070239.20,3135.5253796,N,12046.6891471,E,4,16,1.9,2.7720,M,8.316,M,01,0004*6A
$GPHPD,0,0.000,143.99,-0.59,-12.44,31.5920897,120.7781525,2.772,13630971.216,24925471.429,2.772,0.000,0.000,0.000,0.000,0.000,0.000,0.000,16,15,4*7D
$GPGGA,070239.40,3135.5252538,N,12046.6892532,E,4,16,1.9,2.7740,M,8.316,M,01,0004*68
$GPHPD,0,0.000,143.83,-0.43,-12.42,31.5920876,120.7781542,2.774,13630973.217,24925473.441,2.774,0.000,0.000,0.000,0.000,0.000,0.000,0.000,16,16,4*79
$GPGGA,070239.60,3135.5251290,N,12046.6893595,E,4,16,1.9,2.7869,M,8.316,M,00,0004*65
$GPHPD,0,0.000,143.71,-0.25,-12.43,31.5920855,120.7781560,2.787,13630975.205,24925475.449,2.787,0.000,0.000,0.000,0.000,0.000,0.000,0.000,16,16,4*7F
$GPGGA,070239.80,3135.5250066,N,12046.6894619,E,4,16,1.9,2.7707,M,8.316,M,00,0004*66
$GPHPD,0,0.000,143.63,-1.00,-12.46,31.5920834,120.7781577,2.771,13630977.151,24925477.397,2.771,0.000,0.000,0.000,0.000,0.000,0.000,0.000,16,16,4*78
$GPGGA,070240.00,3135.5248799,N,12046.6895685,E,4,16,1.9,2.7652,M,8.316,M,01,0004*6A
$GPHPD,0,0.000,143.50,0.00,-12.46,31.5920813,120.7781595,2.765,13630979.166,24925479.420,2.765,0.000,0.000,0.000,0.000,0.000,0.000,0.000,16,16,4*52
$GPGGA,070240.20,3135.5247559,N,12046.6896765,E,4,16,1.9,2.7791,M,8.316,M,01,0004*6B
$GPHPD,0,0.000,143.20,-0.39,-12.47,31.5920793,120.7781613,2.779,13630981.146,24925481.444,2.779,0.000,0.000,0.000,0.000,0.000,0.000,0.000,16,16,4*79
$GPGGA,070240.40,3135.5246309,N,12046.6897803,E,4,16,1.9,2.7870,M,8.316,M,01,0004*61
$GPHPD,0,0.000,143.37,-0.68,-12.47,31.5920772,120.7781630,2.787,13630983.132,24925483.424,2.787,0.000,0.000,0.000,0.000,0.000,0.000,0.000,16,16,4*70
$GPGGA,070240.60,3135.5245046,N,12046.6898886,E,4,16,2.1,2.7732,M,8.316,M,00,0004*69
$GPHPD,0,0.000,143.53,-1.37,-12.50,31.5920751,120.7781648,2.773,13630985.145,24925485.465,2.773,0.000,0.000,0.000,0.000,0.000,0.000,0.000,16,16,4*74
$GPGGA,070240.80,3135.5243831,N,12046.6899915,E,4,16,1.9,2.7528,M,8.316,M,00,0004*61
$GPHPD,0,0.000,143.63,-0.81,-12.52,31.5920731,120.7781665,2.753,13630987.079,24925487.413,2.753,0.000,0.000,0.000,0.000,0.000,0.000,0.000,16,16,4*7F
$GPGGA,070241.00,3135.5242574,N,12046.6900945,E,4,15,2.1,2.7602,M,8.316,M,01,0004*63
$GPHPD,0,0.000,143.53,-0.20,-12.53,31.5920710,120.7781682,2.760,13630989.073,24925489.387,2.760,0.000,0.000,0.000,0.000,0.000,0.000,0.000,15,16,4*7F
$GPGGA,070241.20,3135.5241322,N,12046.6901997,E,4,16,2.1,2.7523,M,8.316,M,01,0004*6A
$GPHPD,0,0.000,143.44,-0.48,-12.49,31.5920689,120.7781700,2.752,13630991.064,24925491.385,2.752,0.000,0.000,0.000,0.000,0.000,0.000,0.000,16,14,4*73
$GPGGA,070241.40,3135.5240091,N,12046.6903054,E,4,15,2.1,2.7487,M,8.316,M,01,0004*6E
$GPHPD,0,0.000,143.49,-0.15,-12.50,31.5920668,120.7781718,2.749,13630993.027,24925493.376,2.749,0.000,0.000,0.000,0.000,0.000,0.000,0.000,15,14,4*70
$GPGGA,070241.60,3135.5238833,N,12046.6904086,E,4,15,2.1,2.7648,M,8.316,M,00,0004*6B
$GPHPD,0,0.000,143.64,0.23,-12.46,31.5920647,120.7781735,2.765,13630995.022,24925495.353,2.765,0.000,0.000,0.000,0.000,0.000,0.000,0.000,15,14,4*50
$GPGGA,070241.80,3135.5237589,N,12046.6905134,E,4,15,2.1,2.7573,M,8.316,M,00,0004*64
$GPHPD,0,0.000,143.49,-0.82,-12.42,31.5920626,120.7781752,2.757,13630997.001,24925497.341,2.757,0.000,0.000,0.000,0.000,0.000,0.000,0.000,15,14,4*79
$GPGGA,070242.00,3135.5236350,N,12046.6906200,E,4,15,2.1,2.7598,M,8.316,M,01,0004*6F
$GPHPD,0,0.000,143.46,-0.65,-12.42,31.5920606,120.7781770,2.760,13630998.977,24925499.348,2.760,0.000,0.000,0.000,0.000,0.000,0.000,0.000,15,14,4*7D
$GPGGA,070242.20,3135.5235106,N,12046.6907251,E,4,15,2.1,2.7587,M,8.316,M,01,0004*64
$GPHPD,0,0.000,143.59,-0.62,-12.42,31.5920585,120.7781788,2.759,13631000.957,24925501.340,2.759,0.000,0.000,0.000,0.000,0.000,0.000,0.000,15,15,4*79
$GPGGA,070242.40,3135.5233854,N,12046.6908292,E,4,15,2.1,2.7680,M,8.316,M,01,0004*6E
$GPHPD,0,0.000,143.44,-0.77,-12.43,31.5920564,120.7781805,2.768,13631002.946,24925503.324,2.768,0.000,0.000,0.000,0.000,0.000,0.000,0.000,15,15,4*77
$GPGGA,070242.60,3135.5232588,N,12046.6909365,E,4,15,2.1,2.7528,M,8.316,M,01,0004*68
$GPHPD,0,0.000,143.26,-0.65,-12.35,31.5920543,120.7781823,2.753,13631004.961,24925505.355,2.753,0.000,0.000,0.000,0.000,0.000,0.000,0.000,15,15,4*73
$GPGGA,070242.80,3135.5231342,N,12046.6910398,E,4,15,2.1,2.7449,M,8.316,M,01,0004*69
$GPHPD,0,0.000,143.07,-0.20,-12.33,31.5920522,120.7781840,2.745,13631006.940,24925507.326,2.745,0.000,0.000,0.000,0.000,0.000,0.000,0.000,15,15,4*72
$GPGGA,070243.00,3135.5230073,N,12046.6911477,E,4,15,1.9,2.7537,M,8.316,M,02,0004*67
$GPHPD,0,0.000,143.05,0.58,-12.34,31.5920501,120.7781858,2.754,13631008.961,24925509.366,2.754,0.000,0.000,0.000,0.000,0.000,0.000,0.000,15,15,4*5A
$GPGGA,070243.20,3135.5228805,N,12046.6912521,E,4,15,1.9,2.7497,M,8.316,M,02,0004*6F
$GPHPD,0,0.000,143.12,0.35,-12.35,31.5920480,120.7781875,2.750,13631010.973,24925511.363,2.750,0.000,0.000,0.000,0.000,0.000,0.000,0.000,15,15,4*57
$GPGGA,070243.40,3135.5227546,N,12046.6913588,E,4,15,1.9,2.7643,M,8.316,M,02,0004*65
$GPHPD,0,0.000,143.04,0.72,-12.33,31.5920459,120.7781893,2.764,13631012.978,24925513.383,2.764,0.000,0.000,0.000,0.000,0.000,0.000,0.000,15,15,4*5C
$GPGGA,070243.60,3135.5226299,N,12046.6914661,E,4,15,1.9,2.7579,M,8.316,M,02,0004*6A
$GPHPD,0,0.000,143.18,0.28,-12.36,31.5920438,120.7781911,2.758,13631014.966,24925515.403,2.758,0.000,0.000,0.000,0.000,0.000,0.000,0.000,15,14,4*56
$GPGGA,070243.80,3135.5225026,N,12046.6915703,E,4,15,1.9,2.7603,M,8.316,M,00,0004*69
$GPHPD,0,0.000,143.52,-0.68,-12.38,31.5920417,120.7781928,2.760,13631016.985,24925517.401,2.760,0.000,0.000,0.000,0.000,0.000,0.000,0.000,15,14,4*77
$GPGGA,070244.00,3135.5223770,N,12046.6916756,E,4,15,1.9,2.7562,M,8.316,M,01,0004*62
$GPHPD,0,0.000,143.74,-1.07,-12.38,31.5920396,120.7781946,2.756,13631018.982,24925519.402,2.756,0.000,0.000,0.000,0.000,0.000,0.000,0.000,15,14,4*79
$GPGGA,070244.20,3135.5222522,N,12046.6917843,E,4,15,1.9,2.7676,M,8.316,M,01,0004*68
$GPHPD,0,0.000,143.62,-0.22,-12.38,31.5920375,120.7781964,2.768,13631020.975,24925521.439,2.768,0.000,0.000,0.000,0.000,0.000,0.000,0.000,15,14,4*75
$GPGGA,070244.40,3135.5221250,N,12046.6918900,E,4,15,1.9,2.7695,M,8.316,M,01,0004*6B
$GPHPD,0,0.000,143.47,-0.94,-12.41,31.5920354,120.7781982,2.770,13631022.996,24925523.454,2.770,0.000,0.000,0.000,0.000,0.000,0.000,0.000,15,14,4*7C
$GPGGA,070244.60,3135.5219983,N,12046.6919931,E,4,15,1.9,2.7770,M,8.316,M,00,0004*6F
$GPHPD,0,0.000,142.92,-0.03,-12.44,31.5920333,120.7781999,2.777,13631025.004,24925525.435,2.777,0.000,0.000,0.000,0.000,0.000,0.000,0.000,15,13,4*76
$GPGGA,070244.80,3135.5218685,N,12046.6921049,E,4,15,2.3,2.7353,M,8.316,M,00,0004*68
$GPHPD,0,0.000,142.98,-0.15,-12.42,31.5920311,120.7782017,2.735,13631027.074,24925527.539,2.735,0.000,0.000,0.000,0.000,0.000,0.000,0.000,15,13,4*7B
$GPGGA,070245.00,3135.5217408,N,12046.6922121,E,4,15,2.3,2.7563,M,8.316,M,01,0004*61
$GPHPD,0,0.000,142.75,0.71,-12.42,31.5920290,120.7782035,2.756,13631029.105,24925529.575,2.756,0.000,0.000,0.000,0.000,0.000,0.000,0.000,15,13,4*50
$GPGGA,070245.20,3135.5216168,N,12046.6923214,E,4,14,2.3,2.7491,M,8.317,M,01,0004*69
$GPHPD,0,0.000,143.22,0.53,-12.40,31.5920269,120.7782054,2.749,13631031.087,24925531.615,2.749,0.000,0.000,0.000,0.000,0.000,0.000,0.000,14,13,4*5F
$GPGGA,070245.40,3135.5214851,N,12046.6924305,E,4,14,2.3,2.7548,M,8.317,M,01,0004*6D
$GPHPD,0,0.000,143.74,0.44,-12.42,31.5920248,120.7782072,2.755,13631033.179,24925533.698,2.755,0.000,0.000,0.000,0.000,0.000,0.000,0.000,14,12,4*5B
$GPGGA,070245.60,3135.5213591,N,12046.6925386,E,4,14,2.3,2.7692,M,8.317,M,00,0004*66
$GPHPD,0,0.000,143.53,0.79,-12.37,31.5920227,120.7782090,2.769,13631035.187,24925535.735,2.769,0.000,0.000,0.000,0.000,0.000,0.000,0.000,14,12,4*50
$GPGGA,070245.80,3135.5212330,N,12046.6926461,E,4,13,2.3,2.7726,M,8.317,M,00,0004*60
$GPHPD,0,0.000,143.58,0.55,-12.38,31.5920206,120.7782108,2.773,13631037.196,24925537.765,2.773,0.000,0.000,0.000,0.000,0.000,0.000,0.000,13,11,4*58
$GPGGA,070246.00,3135.5211041,N,12046.6927581,E,4,12,2.3,2.7924,M,8.317,M,01,0004*6F
$GPHPD,0,0.000,143.49,0.77,-12.38,31.5920184,120.7782126,2.792,13631039.254,24925539.866,2.792,0.000,0.000,0.000,0.000,0.000,0.000,0.000,12,11,4*5D
$GPGGA,070246.20,3135.5209716,N,12046.6928613,E,4,13,2.3,2.7625,M,8.317,M,01,0004*69
$GPHPD,0,0.000,144.15,-1.34,-12.39,31.5920162,120.7782144,2.763,13631041.345,24925541.882,2.763,0.000,0.000,0.000,0.000,0.000,0.000,0.000,13,11,4*7F
$GPGGA,070246.40,3135.5208450,N,12046.6929687,E,4,13,2.1,2.7690,M,8.317,M,01,0004*6F
$GPHPD,0,0.000,144.20,-1.00,-12.36,31.5920141,120.7782161,2.769,13631043.360,24925543.914,2.769,0.000,0.000,0.000,0.000,0.000,0.000,0.000,13,11,4*7E
$GPGGA,070246.60,3135.5207175,N,12046.6930764,E,4,13,2.1,2.7701,M,8.317,M,00,0004*6C
$GPHPD,0,0.000,144.29,-1.68,-12.39,31.5920120,120.7782179,2.770,13631045.389,24925545.956,2.770,0.000,0.000,0.000,0.000,0.000,0.000,0.000,13,11,4*79
$GPGGA,070246.80,3135.5205872,N,12046.6931788,E,4,13,2.1,2.7673,M,8.317,M,00,0004*69
$GPHPD,0,0.000,144.18,-2.40,-12.43,31.5920098,120.7782196,2.767,13631047.447,24925547.949,2.767,0.000,0.000,0.000,0.000,0.000,0.000,0.000,13,11,4*77
$GPGGA,070247.00,3135.5204602,N,12046.6932903,E,4,13,2.1,2.7766,M,8.317,M,01,0004*62
$GPHPD,0,0.000,143.75,-1.70,-12.46,31.5920077,120.7782215,2.777,13631049.477,24925550.033,2.777,0.000,0.000,0.000,0.000,0.000,0.000,0.000,13,11,4*78
$GPGGA,070247.20,3135.5203302,N,12046.6933911,E,4,12,2.1,2.7651,M,8.317,M,01,0004*64
$GPHPD,0,0.000,143.81,-2.12,-12.45,31.5920055,120.7782232,2.765,13631051.528,24925552.005,2.765,0.000,0.000,0.000,0.000,0.000,0.000,0.000,12,11,4*76
$GPGGA,070247.40,3135.5202010,N,12046.6934942,E,4,12,2.1,2.7382,M,8.317,M,01,0004*69
$GPHPD,0,0.000,143.17,-1.07,-12.46,31.5920034,120.7782249,2.738,13631053.572,24925554.001,2.738,0.000,0.000,0.000,0.000,0.000,0.000,0.000,12,11,4*79
$GPGGA,070247.60,3135.5200758,N,12046.6936016,E,4,12,2.1,2.7322,M,8.317,M,01,0004*62
$GPHPD,0,0.000,143.14,-1.01,-12.45,31.5920013,120.7782267,2.732,13631055.567,24925556.025,2.732,0.000,0.000,0.000,0.000,0.000,0.000,0.000,12,10,4*71
$GPGGA,070247.80,3135.5199472,N,12046.6937078,E,4,12,2.1,2.7315,M,8.317,M,01,0004*69
$GPHPD,0,0.000,142.83,-0.22,-12.46,31.5919991,120.7782285,2.732,13631057.609,24925558.054,2.732,0.000,0.000,0.000,0.000,0.000,0.000,0.000,12,11,4*78
$GPGGA,070248.00,3135.5198233,N,12046.6938199,E,4,12,2.1,2.7342,M,8.317,M,02,0004*6C
$GPHPD,0,0.000,143.07,-0.54,-12.43,31.5919971,120.7782303,2.734,13631059.596,24925560.128,2.734,0.000,0.000,0.000,0.000,0.000,0.000,0.000,12,11,4*7A
$GPGGA,070248.20,3135.5196993,N,12046.6939321,E,4,12,2.1,2.7487,M,8.317,M,02,0004*6F
$GPHPD,0,0.000,143.40,-0.97,-12.43,31.5919950,120.7782322,2.749,13631061.584,24925562.202,2.749,0.000,0.000,0.000,0.000,0.000,0.000,0.000,12,11,4*77
$GPGGA,070248.40,3135.5195763,N,12046.6940380,E,4,12,2.1,2.7595,M,8.317,M,02,0004*6C
$GPHPD,0,0.000,143.83,-1.38,-12.41,31.5919929,120.7782340,2.760,13631063.545,24925564.196,2.760,0.000,0.000,0.000,0.000,0.000,0.000,0.000,12,11,4*73
$GPGGA,070248.60,3135.5194482,N,12046.6941513,E,4,12,2.1,2.7688,M,8.317,M,02,0004*61
$GPHPD,0,0.000,144.06,-1.57,-12.39,31.5919908,120.7782359,2.769,13631065.594,24925566.308,2.769,0.000,0.000,0.000,0.000,0.000,0.000,0.000,12,11,4*79
$GPGGA,070248.80,3135.5193182,N,12046.6942559,E,4,12,2.1,2.7664,M,8.317,M,00,0004*60
$GPHPD,0,0.000,144.14,-2.22,-12.37,31.5919886,120.7782376,2.766,13631067.652,24925568.326,2.766,0.000,0.000,0.000,0.000,0.000,0.000,0.000,12,11,4*76
$GPGGA,070249.00,3135.5191921,N,12046.6943597,E,4,12,2.1,2.7565,M,8.317,M,01,0004*6A
$GPHPD,0,0.000,143.61,-1.69,-12.34,31.5919865,120.7782393,2.757,13631069.654,24925570.312,2.757,0.000,0.000,0.000,0.000,0.000,0.000,0.000,12,11,4*7C
$GPGGA,070249.20,3135.5190677,N,12046.6944651,E,4,12,2.1,2.7388,M,8.317,M,01,0004*6E
$GPHPD,0,0.000,144.04,-2.21,-12.36,31.5919845,120.7782411,2.739,13631071.634,24925572.307,2.739,0.000,0.000,0.000,0.000,0.000,0.000,0.000,12,11,4*73
$GPGGA,070249.40,3135.5189371,N,12046.6945639,E,4,12,2.1,2.7179,M,8.317,M,01,0004*60
$GPHPD,0,0.000,144.25,-1.24,-12.36,31.5919823,120.7782427,2.718,13631073.689,24925574.259,2.718,0.000,0.000,0.000,0.000,0.000,0.000,0.000,12,12,4*78
$GPGGA,070249.60,3135.5188064,N,12046.6946638,E,4,12,2.1,2.7124,M,8.317,M,00,0004*6F
$GPHPD,0,0.000,143.71,0.02,-12.37,31.5919801,120.7782444,2.712,13631075.748,24925576.225,2.712,0.000,0.000,0.000,0.000,0.000,0.000,0.000,12,12,4*51
$GPGGA,070249.80,3135.5186824,N,12046.6947731,E,4,12,2.1,2.7096,M,8.317,M,00,0004*62
$GPHPD,0,0.000,143.22,0.19,-12.37,31.5919780,120.7782462,2.710,13631077.731,24925578.265,2.710,0.000,0.000,0.000,0.000,0.000,0.000,0.000,12,12,4*59
$GPGGA,070250.00,3135.5185538,N,12046.6948734,E,4,12,2.1,2.6900,M,8.317,M,01,0004*6D
$GPHPD,0,0.000,143.59,-0.80,-12.39,31.5919759,120.7782479,2.690,13631079.760,24925580.223,2.690,0.000,0.000,0.000,0.000,0.000,0.000,0.000,12,12,4*77
$GPGGA,070250.20,3135.5184277,N,12046.6949835,E,4,12,2.1,2.7006,M,8.317,M,01,0004*63
$GPHPD,0,0.000,143.15,0.52,-12.38,31.5919738,120.7782497,2.701,13631081.774,24925582.285,2.701,0.000,0.000,0.000,0.000,0.000,0.000,0.000,12,12,4*57
$GPGGA,070250.40,3135.5183052,N,12046.6950828,E,4,12,2.1,2.6918,M,8.317,M,01,0004*64
$GPHPD,0,0.000,143.51,0.39,-12.42,31.5919718,120.7782514,2.692,13631083.715,24925584.195,2.692,0.000,0.000,0.000,0.000,0.000,0.000,0.000,12,12,4*5E
$GPGGA,070250.60,3135.5181783,N,12046.6951932,E,4,12,2.1,2.7072,M,8.317,M,00,0004*61
$GPHPD,0,0.000,142.85,2.14,-12.45,31.5919696,120.7782532,2.707,13631085.741,24925586.265,2.707,0.000,0.000,0.000,0.000,0.000,0.000,0.000,12,12,4*56
$GPGGA,070250.80,3135.5180493,N,12046.6952950,E,4,12,2.1,2.6973,M,8.317,M,00,0004*62
$GPHPD,0,0.000,143.32,0.68,-12.44,31.5919675,120.7782549,2.697,13631087.780,24925588.244,2.697,0.000,0.000,0.000,0.000,0.000,0.000,0.000,12,12,4*50
$GPGGA,070251.00,3135.5179250,N,12046.6954045,E,4,12,2.1,2.7132,M,8.317,M,01,0004*62
$GPHPD,0,0.000,143.29,0.77,-12.44,31.5919654,120.7782567,2.713,13631089.767,24925590.288,2.713,0.000,0.000,0.000,0.000,0.000,0.000,0.000,12,12,4*55
$GPGGA,070251.20,3135.5178019,N,12046.6955066,E,4,13,2.1,2.6988,M,8.317,M,01,0004*67
$GPHPD,0,0.000,143.79,-0.99,-12.47,31.5919634,120.7782584,2.699,13631091.722,24925592.236,2.699,0.000,0.000,0.000,0.000,0.000,0.000,0.000,13,12,4*7B
$GPGGA,070251.40,3135.5176764,N,12046.6956116,E,4,14,2.1,2.7189,M,8.317,M,01,0004*68
$GPHPD,0,0.000,143.69,-0.54,-12.47,31.5919613,120.7782602,2.719,13631093.717,24925594.233,2.719,0.000,0.000,0.000,0.000,0.000,0.000,0.000,14,14,4*75
$GPGGA,070251.60,3135.5175561,N,12046.6957175,E,4,14,2.0,2.7320,M,8.317,M,00,0004*6B
$GPHPD,0,0.000,143.83,-1.35,-12.49,31.5919593,120.7782620,2.732,13631095.640,24925596.210,2.732,0.000,0.000,0.000,0.000,0.000,0.000,0.000,14,14,4*74
$GPGGA,070251.80,3135.5174335,N,12046.6958227,E,4,14,2.0,2.7346,M,8.317,M,00,0004*68
$GPHPD,0,0.000,143.63,-1.24,-12.49,31.5919572,120.7782637,2.735,13631097.595,24925598.193,2.735,0.000,0.000,0.000,0.000,0.000,0.000,0.000,14,14,4*7C
$GPGGA,070252.00,3135.5173092,N,12046.6959234,E,4,14,2.0,2.7218,M,8.317,M,01,0004*62
$GPHPD,0,0.000,144.18,-1.39,-12.51,31.5919552,120.7782654,2.722,13631099.564,24925600.131,2.722,0.000,0.000,0.000,0.000,0.000,0.000,0.000,14,14,4*7F
$GPGGA,070252.20,3135.5171822,N,12046.6960260,E,4,14,2.0,2.7232,M,8.317,M,01,0004*62
$GPHPD,0,0.000,144.06,-1.44,-12.49,31.5919530,120.7782671,2.723,13631101.576,24925602.108,2.723,0.000,0.000,0.000,0.000,0.000,0.000,0.000,14,14,4*7B
$GPGGA,070252.40,3135.5170584,N,12046.6961287,E,4,15,2.0,2.7266,M,8.317,M,01,0004*6C
$GPHPD,0,0.000,143.70,-0.72,-12.48,31.5919510,120.7782688,2.727,13631103.542,24925604.067,2.727,0.000,0.000,0.000,0.000,0.000,0.000,0.000,15,14,4*76
$GPGGA,070252.60,3135.5169346,N,12046.6962364,E,4,15,2.0,2.7250,M,8.317,M,00,0004*65
$GPHPD,0,0.000,143.41,-0.73,-12.45,31.5919489,120.7782706,2.725,13631105.518,24925606.086,2.725,0.000,0.000,0.000,0.000,0.000,0.000,0.000,15,14,4*7A
$GPGGA,070252.80,3135.5168089,N,12046.6963385,E,4,15,2.0,2.7274,M,8.317,M,00,0004*62
$GPHPD,0,0.000,143.49,0.12,-12.47,31.5919468,120.7782723,2.727,13631107.511,24925608.049,2.727,0.000,0.000,0.000,0.000,0.000,0.000,0.000,15,14,4*54
$GPGGA,070253.00,3135.5166857,N,12046.6964432,E,4,15,2.3,2.6932,M,8.317,M,01,0004*68
$GPHPD,0,0.000,142.95,0.66,-12.45,31.5919448,120.7782741,2.693,13631109.472,24925610.029,2.693,0.000,0.000,0.000,0.000,0.000,0.000,0.000,15,14,4*56
$GPGGA,070253.20,3135.5165640,N,12046.6965488,E,4,15,2.0,2.7033,M,8.317,M,01,0004*6B
$GPHPD,0,0.000,142.80,1.08,-12.43,31.5919427,120.7782758,2.703,13631111.415,24925612.011,2.703,0.000,0.000,0.000,0.000,0.000,0.000,0.000,15,13,4*5A
$GPGGA,070253.40,3135.5164374,N,12046.6966577,E,4,15,2.0,2.7121,M,8.317,M,01,0004*6E
$GPHPD,0,0.000,142.91,0.97,-12.40,31.5919406,120.7782776,2.712,13631113.433,24925614.062,2.712,0.000,0.000,0.000,0.000,0.000,0.000,0.000,15,13,4*55
$GPGGA,070253.60,3135.5163131,N,12046.6967663,E,4,15,2.0,2.7255,M,8.317,M,00,0004*6E
$GPHPD,0,0.000,143.06,-0.44,-12.43,31.5919386,120.7782794,2.726,13631115.419,24925616.095,2.726,0.000,0.000,0.000,0.000,0.000,0.000,0.000,15,13,4*7D
$GPGGA,070253.80,3135.5161926,N,12046.6968715,E,4,15,2.0,2.7322,M,8.317,M,00,0004*62
$GPHPD,0,0.000,143.02,-0.48,-12.47,31.5919365,120.7782812,2.732,13631117.343,24925618.065,2.732,0.000,0.000,0.000,0.000,0.000,0.000,0.000,15,13,4*76
$GPGGA,070254.00,3135.5160640,N,12046.6969770,E,4,15,2.0,2.7114,M,8.317,M,01,0004*67
$GPHPD,0,0.000,142.57,-0.27,-12.47,31.5919344,120.7782830,2.711,13631119.383,24925620.086,2.711,0.000,0.000,0.000,0.000,0.000,0.000,0.000,15,13,4*79
$GPGGA,070254.20,3135.5159423,N,12046.6970837,E,4,15,2.0,2.6918,M,8.317,M,01,0004*69
$GPHPD,0,0.000,142.18,0.58,-12.51,31.5919324,120.7782847,2.692,13631121.328,24925622.081,2.692,0.000,0.000,0.000,0.000,0.000,0.000,0.000,15,13,4*59
$GPGGA,070254.40,3135.5158167,N,12046.6971882,E,4,15,2.0,2.6906,M,8.317,M,01,0004*6B
$GPHPD,0,0.000,142.14,0.63,-12.54,31.5919303,120.7782865,2.691,13631123.324,24925624.073,2.691,0.000,0.000,0.000,0.000,0.000,0.000,0.000,15,13,4*58
$GPGGA,070254.60,3135.5156912,N,12046.6972958,E,4,15,2.0,2.6753,M,8.317,M,00,0004*67
$GPHPD,0,0.000,140.96,1.43,-12.54,31.5919282,120.7782883,2.675,13631125.324,24925626.101,2.675,0.000,0.000,0.000,0.000,0.000,0.000,0.000,15,13,4*53
$GPGGA,070254.80,3135.5155692,N,12046.6974083,E,4,15,2.0,2.6815,M,8.317,M,00,0004*69
$GPHPD,0,0.000,140.71,1.44,-12.52,31.5919262,120.7782901,2.682,13631127.285,24925628.168,2.682,0.000,0.000,0.000,0.000,0.000,0.000,0.000,15,13,4*57
$GPGGA,070255.00,3135.5154488,N,12046.6975171,E,4,15,2.0,2.6698,M,8.317,M,01,0004*6F
$GPHPD,0,0.000,141.04,1.11,-12.53,31.5919241,120.7782920,2.670,13631129.215,24925630.181,2.670,0.000,0.000,0.000,0.000,0.000,0.000,0.000,15,13,4*5E
$GPGGA,070255.20,3135.5153232,N,12046.6976288,E,4,15,2.0,2.7009,M,8.317,M,01,0004*64
$GPHPD,0,0.000,141.57,-0.02,-12.51,31.5919221,120.7782938,2.701,13631131.225,24925632.259,2.701,0.000,0.000,0.000,0.000,0.000,0.000,0.000,15,13,4*75
$GPGGA,070255.40,3135.5152019,N,12046.6977383,E,4,15,2.0,2.6823,M,8.317,M,01,0004*62
$GPHPD,0,0.000,141.51,-0.30,-12.45,31.5919200,120.7782956,2.682,13631133.169,24925634.286,2.682,0.000,0.000,0.000,0.000,0.000,0.000,0.000,15,13,4*71
$GPGGA,070255.60,3135.5150845,N,12046.6978553,E,4,14,2.0,2.7075,M,8.317,M,00,0004*6D
$GPHPD,0,0.000,141.59,-0.58,-12.44,31.5919181,120.7782976,2.708,13631135.074,24925636.380,2.708,0.000,0.000,0.000,0.000,0.000,0.000,0.000,14,13,4*71
$GPGGA,070255.80,3135.5149641,N,12046.6979721,E,4,14,2.0,2.7226,M,8.317,M,00,0004*63
$GPHPD,0,0.000,141.74,-2.03,-12.39,31.5919161,120.7782995,2.723,13631137.020,24925638.490,2.723,0.000,0.000,0.000,0.000,0.000,0.000,0.000,14,13,4*70
$GPGGA,070256.00,3135.5148393,N,12046.6980870,E,4,14,2.0,2.7370,M,8.317,M,01,0004*6D
$GPHPD,0,0.000,141.35,-2.82,-12.35,31.5919140,120.7783015,2.737,13631139.025,24925640.602,2.737,0.000,0.000,0.000,0.000,0.000,0.000,0.000,14,13,4*7E
$GPGGA,070256.20,3135.5147174,N,12046.6982012,E,4,14,2.0,2.7303,M,8.317,M,01,0004*61
$GPHPD,0,0.000,140.85,-2.47,-12.36,31.5919120,120.7783034,2.730,13631140.988,24925642.689,2.730,0.000,0.000,0.000,0.000,0.000,0.000,0.000,14,13,4*7A
$GPGGA,070256.40,3135.5145929,N,12046.6983088,E,4,14,2.1,2.6871,M,8.317,M,01,0004*69
$GPHPD,0,0.000,140.15,-1.28,-12.37,31.5919099,120.7783051,2.687,13631142.974,24925644.711,2.687,0.000,0.000,0.000,0.000,0.000,0.000,0.000,14,13,4*7F
$GPGGA,070256.60,3135.5144718,N,12046.6984249,E,4,14,2.1,2.6932,M,8.317,M,00,0004*69
$GPHPD,0,0.000,139.27,0.30,-12.41,31.5919079,120.7783071,2.693,13631144.929,24925646.816,2.693,0.000,0.000,0.000,0.000,0.000,0.000,0.000,14,13,4*5C
$GPGGA,070256.80,3135.5143490,N,12046.6985346,E,4,13,2.3,2.6573,M,8.317,M,00,0004*60
$GPHPD,0,0.000,139.53,0.23,-12.41,31.5919058,120.7783089,2.657,13631146.895,24925648.854,2.657,0.000,0.000,0.000,0.000,0.000,0.000,0.000,13,13,4*52
$GPGGA,070257.00,3135.5142307,N,12046.6986568,E,4,14,2.3,2.6546,M,8.317,M,01,0004*68
$GPHPD,0,0.000,140.62,-2.82,-12.39,31.5919038,120.7783109,2.655,13631148.822,24925651.016,2.655,0.000,0.000,0.000,0.000,0.000,0.000,0.000,14,13,4*79
$GPGGA,070257.20,3135.5141076,N,12046.6987801,E,4,14,2.3,2.6747,M,8.317,M,01,0004*6C
$GPHPD,0,0.000,141.37,-4.51,-12.40,31.5919018,120.7783130,2.675,13631150.820,24925653.220,2.675,0.000,0.000,0.000,0.000,0.000,0.000,0.000,14,13,4*78
$GPGGA,070257.40,3135.5139871,N,12046.6988990,E,4,14,2.3,2.6757,M,8.317,M,01,0004*6D
$GPHPD,0,0.000,141.28,-5.25,-12.45,31.5918998,120.7783150,2.676,13631152.772,24925655.355,2.676,0.000,0.000,0.000,0.000,0.000,0.000,0.000,14,14,4*7F
$GPGGA,070257.60,3135.5138715,N,12046.6990277,E,4,14,2.3,2.7113,M,8.317,M,00,0004*6E
$GPHPD,0,0.000,140.89,-5.76,-12.46,31.5918979,120.7783171,2.711,13631154.675,24925657.580,2.711,0.000,0.000,0.000,0.000,0.000,0.000,0.000,14,14,4*70
$GPGGA,070257.80,3135.5137492,N,12046.6991478,E,4,14,2.3,2.6910,M,8.317,M,00,0004*61
$GPHPD,0,0.000,141.28,-6.86,-12.46,31.5918958,120.7783191,2.691,13631156.655,24925659.741,2.691,0.000,0.000,0.000,0.000,0.000,0.000,0.000,14,13,4*7D
$GPGGA,070258.00,3135.5136275,N,12046.6992627,E,4,14,2.3,2.6726,M,8.317,M,01,0004*69
$GPHPD,0,0.000,141.08,-5.74,-12.48,31.5918938,120.7783210,2.673,13631158.616,24925661.835,2.673,0.000,0.000,0.000,0.000,0.000,0.000,0.000,14,13,4*7D
$GPGGA,070258.20,3135.5135102,N,12046.6993786,E,4,14,2.3,2.6769,M,8.317,M,01,0004*6B
$GPHPD,0,0.000,140.56,-4.59,-12.44,31.5918918,120.7783230,2.677,13631160.516,24925663.915,2.677,0.000,0.000,0.000,0.000,0.000,0.000,0.000,14,13,4*7C
$GPGGA,070258.40,3135.5133892,N,12046.6995057,E,4,14,2.3,2.7067,M,8.317,M,01,0004*6E
$GPHPD,0,0.000,140.50,-4.82,-12.39,31.5918898,120.7783251,2.707,13631162.492,24925666.152,2.707,0.000,0.000,0.000,0.000,0.000,0.000,0.000,14,13,4*79
$GPGGA,070258.60,3135.5132719,N,12046.6996208,E,4,14,2.3,2.7069,M,8.317,M,00,0004*65
$GPHPD,0,0.000,141.34,-7.00,-12.35,31.5918879,120.7783270,2.707,13631164.391,24925668.223,2.707,0.000,0.000,0.000,0.000,0.000,0.000,0.000,14,13,4*7A
$GPGGA,070258.80,3135.5131539,N,12046.6997496,E,4,15,2.3,2.7217,M,8.317,M,00,0004*62
$GPHPD,0,0.000,140.89,-6.78,-12.28,31.5918859,120.7783292,2.722,13631166.327,24925670.464,2.722,0.000,0.000,0.000,0.000,0.000,0.000,0.000,15,14,4*74
$GPGGA,070259.00,3135.5130275,N,12046.6998651,E,4,15,2.3,2.7143,M,8.317,M,01,0004*60
$GPHPD,0,0.000,141.87,-7.84,-12.28,31.5918838,120.7783311,2.714,13631168.356,24925672.592,2.714,0.000,0.000,0.000,0.000,0.000,0.000,0.000,15,14,4*76
$GPGGA,070259.20,3135.5129038,N,12046.6999826,E,4,15,2.3,2.6956,M,8.317,M,01,0004*63
$GPHPD,0,0.000,142.05,-8.77,-12.29,31.5918817,120.7783330,2.696,13631170.351,24925674.729,2.696,0.000,0.000,0.000,0.000,0.000,0.000,0.000,15,13,4*7E
$GPGGA,070259.40,3135.5127789,N,12046.7001008,E,4,15,2.3,2.6863,M,8.317,M,01,0004*6C
$GPHPD,0,0.000,141.66,-8.28,-12.26,31.5918796,120.7783350,2.686,13631172.364,24925676.882,2.686,0.000,0.000,0.000,0.000,0.000,0.000,0.000,15,12,4*74
$GPGGA,070259.60,3135.5126563,N,12046.7002240,E,4,15,2.3,2.6647,M,8.317,M,00,0004*6D
$GPHPD,0,0.000,141.02,-7.74,-12.20,31.5918776,120.7783371,2.665,13631174.355,24925679.081,2.665,0.000,0.000,0.000,0.000,0.000,0.000,0.000,15,13,4*7A
$GPGGA,070259.80,3135.5125366,N,12046.7003442,E,4,15,2.3,2.6557,M,8.317,M,00,0004*64
$GPHPD,0,0.000,141.10,-7.76,-12.20,31.5918756,120.7783391,2.656,13631176.298,24925681.228,2.656,0.000,0.000,0.000,0.000,0.000,0.000,0.000,15,13,4*73
$GPGGA,070300.00,3135.5124151,N,12046.7004685,E,4,15,2.3,2.6641,M,8.317,M,01,0004*6D
$GPHPD,0,0.000,140.73,-6.92,-12.18,31.5918736,120.7783411,2.664,13631178.275,24925683.434,2.664,0.000,0.000,0.000,0.000,0.000,0.000,0.000,15,13,4*7A
$GPGGA,070300.20,3135.5122904,N,12046.7005898,E,4,15,2.3,2.6288,M,8.317,M,01,0004*63
$GPHPD,0,0.000,138.36,-1.50,-12.16,31.5918715,120.7783432,2.629,13631180.292,24925685.623,2.629,0.000,0.000,0.000,0.000,0.000,0.000,0.000,15,13,4*7F
$GPGGA,070300.40,3135.5121730,N,12046.7007206,E,4,14,2.3,2.6438,M,8.317,M,01,0004*6C
$GPHPD,0,0.000,138.25,-0.69,-12.16,31.5918696,120.7783453,2.644,13631182.224,24925687.884,2.644,0.000,0.000,0.000,0.000,0.000,0.000,0.000,14,13,4*74
$GPGGA,070300.60,3135.5120442,N,12046.7008387,E,4,15,2.3,2.6110,M,8.317,M,00,0004*61
$GPHPD,0,0.000,138.90,-2.33,-12.22,31.5918674,120.7783473,2.611,13631184.292,24925690.058,2.611,0.000,0.000,0.000,0.000,0.000,0.000,0.000,15,13,4*7B
$GPGGA,070300.80,3135.5119192,N,12046.7009632,E,4,14,2.3,2.6055,M,8.317,M,00,0004*66
$GPHPD,0,0.000,138.38,-0.60,-12.27,31.5918653,120.7783494,2.606,13631186.320,24925692.287,2.606,0.000,0.000,0.000,0.000,0.000,0.000,0.000,14,12,4*7C
$GPGGA,070301.00,3135.5117945,N,12046.7010926,E,4,14,2.3,2.6208,M,8.317,M,01,0004*6A
$GPHPD,0,0.000,138.17,-0.71,-12.25,31.5918632,120.7783515,2.621,13631188.352,24925694.573,2.621,0.000,0.000,0.000,0.000,0.000,0.000,0.000,14,12,4*7D
$GPGGA,070301.20,3135.5116769,N,12046.7012313,E,4,14,2.3,2.6436,M,8.317,M,01,0004*6C
$GPHPD,0,0.000,139.26,-5.34,-12.25,31.5918613,120.7783539,2.644,13631190.303,24925696.931,2.644,0.000,0.000,0.000,0.000,0.000,0.000,0.000,14,12,4*72
$GPGGA,070301.40,3135.5115541,N,12046.7013633,E,4,14,2.3,2.6588,M,8.317,M,01,0004*63
$GPHPD,0,0.000,139.95,-6.88,-12.27,31.5918592,120.7783561,2.659,13631192.314,24925699.237,2.659,0.000,0.000,0.000,0.000,0.000,0.000,0.000,14,12,4*7D
$GPGGA,070301.60,3135.5114275,N,12046.7014835,E,4,14,2.3,2.6445,M,8.317,M,00,0004*6E
$GPHPD,0,0.000,140.85,-7.61,-12.29,31.5918571,120.7783581,2.645,13631194.356,24925701.424,2.645,0.000,0.000,0.000,0.000,0.000,0.000,0.000,14,12,4*7D
$GPGGA,070301.80,3135.5113044,N,12046.7016212,E,4,14,2.3,2.6519,M,8.317,M,00,0004*62
