,1.9,2.9113,M,8.314,M,01,0004*60
$GPHPD,0,0.000,78.10,-0.18,-13.19,31.5923963,120.7775764,2.911,13630640.153,24924947.498,2.911,0.000,0.000,0.000,0.000,0.000,0.000,0.000,17,16,4*42
$GPGGA,070726.60,3135.5437860,N,12046.6546299,E,4,17,1.5,2.9124,M,8.314,M,00,0004*62
$GPHPD,0,0.000,77.58,-0.22,-13.10,31.5923964,120.7775772,2.912,13630640.136,24924948.033,2.912,0.000,0.000,0.000,0.000,0.000,0.000,0.000,17,16,4*48
$GPGGA,070726.80,3135.5437917,N,12046.6546660,E,4,17,1.5,2.9123,M,8.314,M,00,0004*68
$GPHPD,0,0.000,77.27,-0.06,-13.01,31.5923965,120.7775778,2.912,13630640.127,24924948.435,2.912,0.000,0.000,0.000,0.000,0.000,0.000,0.000,17,16,4*4F
$GPGGA,070727.00,3135.5437964,N,12046.6546932,E,4,17,1.5,2.9152,M,8.314,M,01,0004*6A
$GPHPD,0,0.000,77.00,-0.17,-12.91,31.5923966,120.7775782,2.915,13630640.115,24924948.736,2.915,0.000,0.000,0.000,0.000,0.000,0.000,0.000,17,16,4*45
$GPGGA,070727.20,3135.5437995,N,12046.6547135,E,4,17,1.5,2.9170,M,8.314,M,01,0004*68
$GPHPD,0,0.000,76.87,-0.16,-12.83,31.5923967,120.7775786,2.917,13630640.112,24924948.962,2.917,0.000,0.000,0.000,0.000,0.000,0.000,0.000,17,16,4*44
$GPGGA,070727.40,3135.5438005,N,12046.6547245,E,4,17,1.5,2.9248,M,8.314,M,01,0004*6D
$GPHPD,0,0.000,76.74,-0.38,-12.76,31.5923967,120.7775787,2.925,13630640.120,24924949.089,2.925,0.000,0.000,0.000,0.000,0.000,0.000,0.000,17,17,4*42
$GPGGA,070727.60,3135.5438024,N,12046.6547339,E,4,17,1.4,2.9208,M,8.314,M,00,0004*62
$GPHPD,0,0.000,76.57,-0.55,-12.72,31.5923967,120.7775789,2.921,13630640.112,24924949.191,2.921,0.000,0.000,0.000,0.000,0.000,0.000,0.000,17,17,4*4B
$GPGGA,070727.80,3135.5438033,N,12046.6547325,E,4,17,1.4,2.9190,M,8.314,M,00,0004*65
$GPHPD,0,0.000,76.62,-0.36,-12.71,31.5923967,120.7775789,2.919,13630640.096,24924949.169,2.919,0.000,0.000,0.000,0.000,0.000,0.000,0.000,17,17,4*41
$GPGGA,070728.00,3135.5438014,N,12046.6547319,E,4,17,1.4,2.9065,M,8.314,M,01,0004*62
$GPHPD,0,0.000,76.69,-0.49,-12.75,31.5923967,120.7775789,2.907,13630640.122,24924949.173,2.907,0.000,0.000,0.000,0.000,0.000,0.000,0.000,17,17,4*43
$GPGGA,070728.20,3135.5438014,N,12046.6547366,E,4,17,1.4,2.9040,M,8.314,M,01,0004*6F
$GPHPD,0,0.000,76.55,-0.26,-12.79,31.5923967,120.7775789,2.904,13630640.131,24924949.230,2.904,0.000,0.000,0.000,0.000,0.000,0.000,0.000,17,17,4*4F
$GPGGA,070728.40,3135.5438029,N,12046.6547426,E,4,17,1.4,2.8956,M,8.314,M,01,0004*6B
$GPHPD,0,0.000,76.42,-0.02,-12.84,31.5923967,120.7775790,2.896,13630640.122,24924949.293,2.896,0.000,0.000,0.000,0.000,0.000,0.000,0.000,17,17,4*4E
$GPGGA,070728.60,3135.5438059,N,12046.6547540,E,4,17,1.4,2.9082,M,8.314,M,00,0004*6F
$GPHPD,0,0.000,76.53,-0.25,-12.89,31.5923968,120.7775792,2.908,13630640.102,24924949.413,2.908,0.000,0.000,0.000,0.000,0.000,0.000,0.000,17,17,4*47
$GPGGA,070728.80,3135.5438089,N,12046.6547698,E,4,17,1.4,2.8995,M,8.314,M,00,0004*64
$GPHPD,0,0.000,76.42,-0.22,-12.92,31.5923968,120.7775795,2.900,13630640.092,24924949.586,2.900,0.000,0.000,0.000,0.000,0.000,0.000,0.000,17,17,4*48
$GPGGA,070729.00,3135.5438125,N,12046.6547894,E,4,17,1.4,2.9007,M,8.314,M,01,0004*6A
$GPHPD,0,0.000,76.45,-0.57,-12.92,31.5923969,120.7775798,2.901,13630640.080,24924949.802,2.901,0.000,0.000,0.000,0.000,0.000,0.000,0.000,17,17,4*43
$GPGGA,070729.20,3135.5438157,N,12046.6548074,E,4,17,1.4,2.9015,M,8.314,M,01,0004*67
$GPHPD,0,0.000,76.46,-0.55,-12.91,31.5923969,120.7775801,2.902,13630640.071,24924950.000,2.902,0.000,0.000,0.000,0.000,0.000,0.000,0.000,17,17,4*42
$GPGGA,070729.40,3135.5438193,N,12046.6548247,E,4,17,1.4,2.9055,M,8.314,M,01,0004*6F
$GPHPD,0,0.000,76.42,-0.25,-12.89,31.5923970,120.7775804,2.906,13630640.054,24924950.188,2.906,0.000,0.000,0.000,0.000,0.000,0.000,0.000,17,17,4*43
$GPGGA,070729.60,3135.5438246,N,12046.6548416,E,4,17,1.4,2.9064,M,8.314,M,00,0004*67
$GPHPD,0,0.000,76.31,-0.40,-12.86,31.5923971,120.7775807,2.906,13630640.013,24924950.361,2.906,0.000,0.000,0.000,0.000,0.000,0.000,0.000,17,17,4*4F
$GPGGA,070729.80,3135.5438277,N,12046.6548558,E,4,17,1.4,2.9029,M,8.314,M,00,0004*69
$GPHPD,0,0.000,76.31,-0.32,-12.82,31.5923971,120.7775809,2.903,13630639.997,24924950.514,2.903,0.000,0.000,0.000,0.000,0.000,0.000,0.000,17,17,4*4F
$GPGGA,070730.00,3135.5438303,N,12046.6548672,E,4,17,1.4,2.9033,M,8.314,M,01,0004*6A
$GPHPD,0,0.000,76.28,-0.40,-12.79,31.5923972,120.7775811,2.903,13630639.983,24924950.636,2.903,0.000,0.000,0.000,0.000,0.000,0.000,0.000,17,17,4*4A
$GPGGA,070730.20,3135.5438324,N,12046.6548768,E,4,17,1.4,2.9058,M,8.314,M,01,0004*6A
$GPHPD,0,0.000,76.28,-0.04,-12.76,31.5923972,120.7775813,2.906,13630639.973,24924950.740,2.906,0.000,0.000,0.000,0.000,0.000,0.000,0.000,17,17,4*48
$GPGGA,070730.40,3135.5438338,N,12046.6548835,E,4,17,1.4,2.9063,M,8.314,M,01,0004*6E
$GPHPD,0,0.000,76.35,-0.01,-12.72,31.5923972,120.7775814,2.906,13630639.966,24924950.813,2.906,0.000,0.000,0.000,0.000,0.000,0.000,0.000,17,17,4*4F
$GPGGA,070730.60,3135.5438323,N,12046.6548849,E,4,17,1.4,2.9059,M,8.314,M,00,0004*65
$GPHPD,0,0.000,76.23,-0.22,-12.69,31.5923972,120.7775814,2.906,13630639.991,24924950.838,2.906,0.000,0.000,0.000,0.000,0.000,0.000,0.000,17,17,4*42
$GPGGA,070730.80,3135.5438318,N,12046.6548839,E,4,17,1.4,2.9043,M,8.314,M,00,0004*6F
$GPHPD,0,0.000,76.07,-0.27,-12.69,31.5923972,120.7775814,2.904,13630639.996,24924950.829,2.904,0.000,0.000,0.000,0.000,0.000,0.000,0.000,17,17,4*46
$GPGGA,070731.00,3135.5438310,N,12046.6548843,E,4,17,1.4,2.9041,M,8.314,M,01,0004*60
$GPHPD,0,0.000,76.09,-0.10,-12.70,31.5923972,120.7775814,2.904,13630640.008,24924950.838,2.904,0.000,0.000,0.000,0.000,0.000,0.000,0.000,17,17,4*44
$GPGGA,070731.20,3135.5438320,N,12046.6548841,E,4,17,1.4,2.9075,M,8.314,M,01,0004*64
$GPHPD,0,0.000,76.07,-0.10,-12.71,31.5923972,120.7775814,2.908,13630639.993,24924950.830,2.908,0.000,0.000,0.000,0.000,0.000,0.000,0.000,17,17,4*46
$GPGGA,070731.40,3135.5438303,N,12046.6548833,E,4,17,1.4,2.9057,M,8.314,M,01,0004*66
$GPHPD,0,0.000,75.96,-0.34,-12.71,31.5923972,120.7775814,2.906,13630640.016,24924950.830,2.906,0.000,0.000,0.000,0.000,0.000,0.000,0.000,17,17,4*41
$GPGGA,070731.60,3135.5438331,N,12046.6548855,E,4,17,1.4,2.9134,M,8.314,M,00,0004*60
$GPHPD,0,0.000,76.08,-0.28,-12.72,31.5923972,120.7775814,2.913,13630639.980,24924950.841,2.913,0.000,0.000,0.000,0.000,0.000,0.000,0.000,17,17,4*45
$GPGGA,070731.80,3135.5438325,N,12046.6548843,E,4,17,1.4,2.9064,M,8.314,M,00,0004*68
$GPHPD,0,0.000,76.09,-0.48,-12.73,31.5923972,120.7775814,2.906,13630639.987,24924950.830,2.906,0.000,0.000,0.000,0.000,0.000,0.000,0.000,17,17,4*42
$GPGGA,070732.00,3135.5438333,N,12046.6548847,E,4,17,1.4,2.9052,M,8.314,M,01,0004*64
$GPHPD,0,0.000,76.08,-0.22,-12.74,31.5923972,120.7775814,2.905,13630639.976,24924950.830,2.905,0.000,0.000,0.000,0.000,0.000,0.000,0.000,17,17,4*46
$GPGGA,070732.20,3135.5438343,N,12046.6548835,E,4,17,1.4,2.9077,M,8.314,M,01,0004*63
$GPHPD,0,0.000,76.18,0.03,-12.74,31.5923972,120.7775814,2.908,13630639.959,24924950.810,2.908,0.000,0.000,0.000,0.000,0.000,0.000,0.000,17,17,4*66
$GPGGA,070732.40,3135.5438330,N,12046.6548854,E,4,17,1.4,2.9111,M,8.314,M,01,0004*67
$GPHPD,0,0.000,76.28,-0.37,-12.76,31.5923972,120.7775814,2.911,13630639.982,24924950.840,2.911,0.000,0.000,0.000,0.000,0.000,0.000,0.000,17,17,4*4E
$GPGGA,070732.60,3135.5438328,N,12046.6548842,E,4,17,1.4,2.9093,M,8.314,M,00,0004*61
$GPHPD,0,0.000,76.06,-0.27,-12.75,31.5923972,120.7775814,2.909,13630639.982,24924950.827,2.909,0.000,0.000,0.000,0.000,0.000,0.000,0.000,17,17,4*41
$GPGGA,070732.80,3135.5438323,N,12046.6548844,E,4,17,1.4,2.9145,M,8.314,M,00,0004*68
$GPHPD,0,0.000,76.21,-0.28,-12.75,31.5923972,120.7775814,2.915,13630639.990,24924950.832,2.915,0.000,0.000,0.000,0.000,0.000,0.000,0.000,17,17,4*4C
$GPGGA,070733.00,3135.5438329,N,12046.6548842,E,4,17,1.4,2.9123,M,8.314,M,01,0004*6C
$GPHPD,0,0.000,76.05,-0.60,-12.76,31.5923972,120.7775814,2.912,13630639.981,24924950.826,2.912,0.000,0.000,0.000,0.000,0.000,0.000,0.000,17,17,4*40
$GPGGA,070733.20,3135.5438325,N,12046.6548852,E,4,17,1.4,2.9146,M,8.314,M,01,0004*60
$GPHPD,0,0.000,76.30,-0.46,-12.75,31.5923972,120.7775814,2.915,13630639.988,24924950.841,2.915,0.000,0.000,0.000,0.000,0.000,0.000,0.000,17,17,4*49
$GPGGA,070733.40,3135.5438325,N,12046.6548869,E,4,17,1.4,2.9088,M,8.314,M,01,0004*6D
$GPHPD,0,0.000,75.98,-0.63,-12.74,31.5923972,120.7775814,2.909,13630639.992,24924950.861,2.909,0.000,0.000,0.000,0.000,0.000,0.000,0.000,17,17,4*47
$GPGGA,070733.60,3135.5438317,N,12046.6548867,E,4,17,1.4,2.9107,M,8.314,M,00,0004*67
$GPHPD,0,0.000,76.19,-0.10,-12.74,31.5923972,120.7775814,2.911,13630640.003,24924950.863,2.911,0.000,0.000,0.000,0.000,0.000,0.000,0.000,17,17,4*44
$GPGGA,070733.80,3135.5438316,N,12046.6548859,E,4,17,1.4,2.9025,M,8.314,M,00,0004*64
$GPHPD,0,0.000,76.02,-0.54,-12.72,31.5923972,120.7775814,2.903,13630640.003,24924950.854,2.903,0.000,0.000,0.000,0.000,0.000,0.000,0.000,17,17,4*4C
$GPGGA,070734.00,3135.5438318,N,12046.6548852,E,4,17,1.4,2.9043,M,8.314,M,01,0004*6F
$GPHPD,0,0.000,76.08,-0.08,-12.72,31.5923972,120.7775814,2.904,13630639.998,24924950.845,2.904,0.000,0.000,0.000,0.000,0.000,0.000,0.000,17,17,4*4A
$GPGGA,070734.20,3135.5438308,N,12046.6548870,E,4,17,1.4,2.9079,M,8.314,M,01,0004*65
$GPHPD,0,0.000,76.03,-0.17,-12.72,31.5923972,120.7775815,2.908,13630640.016,24924950.872,2.908,0.000,0.000,0.000,0.000,0.000,0.000,0.000,17,17,4*4B
$GPGGA,070734.40,3135.5438320,N,12046.6548866,E,4,17,1.4,2.9062,M,8.314,M,01,0004*64
$GPHPD,0,0.000,75.92,-0.47,-12.74,31.5923972,120.7775814,2.906,13630639.998,24924950.860,2.906,0.000,0.000,0.000,0.000,0.000,0.000,0.000,17,17,4*40
$GPGGA,070734.60,3135.5438327,N,12046.6548904,E,4,17,1.4,2.9089,M,8.314,M,00,0004*60
$GPHPD,0,0.000,76.04,-0.28,-12.82,31.5923972,120.7775815,2.909,13630639.996,24924950.902,2.909,0.000,0.000,0.000,0.000,0.000,0.000,0.000,17,17,4*46
$GPGGA,070734.80,3135.5438356,N,12046.6549017,E,4,17,1.4,2.9028,M,8.314,M,00,0004*69
$GPHPD,0,0.000,76.19,-0.26,-12.89,31.5923973,120.7775817,2.903,13630639.977,24924951.021,2.903,0.000,0.000,0.000,0.000,0.000,0.000,0.000,17,17,4*4A
$GPGGA,070735.00,3135.5438398,N,12046.6549198,E,4,17,1.4,2.9067,M,8.314,M,01,0004*6E
$GPHPD,0,0.000,76.20,0.01,-12.97,31.5923973,120.7775820,2.907,13630639.954,24924951.215,2.907,0.000,0.000,0.000,0.000,0.000,0.000,0.000,17,17,4*67
$GPGGA,070735.20,3135.5438448,N,12046.6549480,E,4,17,1.4,2.9036,M,8.314,M,01,0004*6E
$GPHPD,0,0.000,76.12,-0.22,-13.04,31.5923974,120.7775825,2.904,13630639.940,24924951.526,2.904,0.000,0.000,0.000,0.000,0.000,0.000,0.000,17,17,4*41
$GPGGA,070735.40,3135.5438513,N,12046.6549859,E,4,17,1.4,2.9041,M,8.314,M,01,0004*6F
$GPHPD,0,0.000,76.04,-0.21,-13.10,31.5923975,120.7775831,2.904,13630639.924,24924951.945,2.904,0.000,0.000,0.000,0.000,0.000,0.000,0.000,17,17,4*4F
$GPGGA,070735.60,3135.5438611,N,12046.6550322,E,4,17,1.4,2.8961,M,8.314,M,00,0004*68
$GPHPD,0,0.000,75.84,-0.19,-13.16,31.5923977,120.7775839,2.896,13630639.878,24924952.447,2.896,0.000,0.000,0.000,0.000,0.000,0.000,0.000,17,17,4*47
$GPGGA,070735.80,3135.5438734,N,12046.6550850,E,4,17,1.4,2.9004,M,8.314,M,00,0004*65
$GPHPD,0,0.000,75.76,0.04,-13.23,31.5923979,120.7775848,2.900,13630639.809,24924953.012,2.900,0.000,0.000,0.000,0.000,0.000,0.000,0.000,17,17,4*66
$GPGGA,070736.00,3135.5438854,N,12046.6551481,E,4,17,1.4,2.9083,M,8.314,M,01,0004*68
$GPHPD,0,0.000,75.80,-0.07,-13.30,31.5923981,120.7775858,2.908,13630639.765,24924953.703,2.908,0.000,0.000,0.000,0.000,0.000,0.000,0.000,17,17,4*47
$GPGGA,070736.20,3135.5439006,N,12046.6552222,E,4,17,1.4,2.9089,M,8.314,M,01,0004*62
$GPHPD,0,0.000,75.37,-0.38,-13.36,31.5923983,120.7775870,2.909,13630639.698,24924954.508,2.909,0.000,0.000,0.000,0.000,0.000,0.000,0.000,17,17,4*44
$GPGGA,070736.40,3135.5439186,N,12046.6553036,E,4,17,1.4,2.9080,M,8.314,M,01,0004*62
$GPHPD,0,0.000,75.16,-0.37,-13.41,31.5923986,120.7775884,2.908,13630639.606,24924955.385,2.908,0.000,0.000,0.000,0.000,0.000,0.000,0.000,17,17,4*43
$GPGGA,070736.60,3135.5439396,N,12046.6553941,E,4,17,1.4,2.9060,M,8.314,M,00,0004*65
$GPHPD,0,0.000,74.96,-0.14,-13.42,31.5923990,120.7775899,2.906,13630639.490,24924956.354,2.906,0.000,0.000,0.000,0.000,0.000,0.000,0.000,17,17,4*41
$GPGGA,070736.80,3135.5439602,N,12046.6554922,E,4,17,1.4,2.9198,M,8.314,M,00,0004*67
$GPHPD,0,0.000,74.82,-0.26,-13.40,31.5923993,120.7775915,2.920,13630639.395,24924957.417,2.920,0.000,0.000,0.000,0.000,0.000,0.000,0.000,17,17,4*42
$GPGGA,070737.00,3135.5439775,N,12046.6555821,E,4,17,1.4,2.9216,M,8.314,M,01,0004*68
$GPHPD,0,0.000,74.57,-0.20,-13.26,31.5923996,120.7775930,2.922,13630639.330,24924958.400,2.922,0.000,0.000,0.000,0.000,0.000,0.000,0.000,17,17,4*48
$GPGGA,070737.20,3135.5439981,N,12046.6556645,E,4,17,1.4,2.9166,M,8.314,M,01,0004*64
$GPHPD,0,0.000,74.51,-0.43,-13.15,31.5924000,120.7775944,2.917,13630639.203,24924959.274,2.917,0.000,0.000,0.000,0.000,0.000,0.000,0.000,17,17,4*4C
$GPGGA,070737.40,3135.5440144,N,12046.6557429,E,4,17,1.4,2.9228,M,8.314,M,01,0004*6D
$GPHPD,0,0.000,74.54,-0.19,-13.09,31.5924002,120.7775957,2.923,13630639.129,24924960.124,2.923,0.000,0.000,0.000,0.000,0.000,0.000,0.000,17,17,4*4C
$GPGGA,070737.60,3135.5440299,N,12046.6558167,E,4,17,1.4,2.9243,M,8.314,M,00,0004*60
$GPHPD,0,0.000,74.47,-0.41,-13.06,31.5924005,120.7775969,2.924,13630639.057,24924960.924,2.924,0.000,0.000,0.000,0.000,0.000,0.000,0.000,17,17,4*46
$GPGGA,070737.80,3135.5440471,N,12046.6558841,E,4,17,1.4,2.9141,M,8.314,M,00,0004*62
$GPHPD,0,0.000,74.60,-0.35,-13.00,31.5924008,120.7775981,2.914,13630638.948,24924961.636,2.914,0.000,0.000,0.000,0.000,0.000,0.000,0.000,17,17,4*46
$GPGGA,070738.00,3135.5440616,N,12046.6559508,E,4,17,1.4,2.9108,M,8.314,M,01,0004*6B
$GPHPD,0,0.000,74.54,-0.36,-12.95,31.5924010,120.7775992,2.911,13630638.876,24924962.356,2.911,0.000,0.000,0.000,0.000,0.000,0.000,0.000,17,17,4*48
$GPGGA,070738.20,3135.5440763,N,12046.6560156,E,4,17,1.4,2.9090,M,8.314,M,01,0004*6F
$GPHPD,0,0.000,74.67,-0.20,-12.94,31.5924013,120.7776003,2.909,13630638.798,24924963.052,2.909,0.000,0.000,0.000,0.000,0.000,0.000,0.000,17,17,4*46
$GPGGA,070738.40,3135.5440887,N,12046.6560818,E,4,17,1.4,2.9160,M,8.314,M,01,0004*61
$GPHPD,0,0.000,74.68,-0.22,-12.94,31.5924015,120.7776014,2.916,13630638.755,24924963.778,2.916,0.000,0.000,0.000,0.000,0.000,0.000,0.000,17,17,4*45
$GPGGA,070738.60,3135.5441022,N,12046.6561471,E,4,17,1.4,2.9146,M,8.314,M,00,0004*62
$GPHPD,0,0.000,74.59,-0.57,-12.96,31.5924017,120.7776025,2.915,13630638.694,24924964.487,2.915,0.000,0.000,0.000,0.000,0.000,0.000,0.000,17,17,4*4F
$GPGGA,070738.80,3135.5441191,N,12046.6562186,E,4,17,1.4,2.9091,M,8.314,M,00,0004*60
$GPHPD,0,0.000,74.79,-0.46,-12.99,31.5924020,120.7776036,2.909,13630638.598,24924965.251,2.909,0.000,0.000,0.000,0.000,0.000,0.000,0.000,17,17,4*47
$GPGGA,070739.00,3135.5441355,N,12046.6562972,E,4,17,1.4,2.9049,M,8.314,M,01,0004*64
$GPHPD,0,0.000,75.02,-0.49,-13.04,31.5924023,120.7776050,2.905,13630638.523,24924966.103,2.905,0.000,0.000,0.000,0.000,0.000,0.000,0.000,17,17,4*44
$GPGGA,070739.20,3135.5441527,N,12046.6563792,E,4,17,1.4,2.8977,M,8.314,M,01,0004*61
$GPHPD,0,0.000,75.14,-0.26,-13.09,31.5924025,120.7776063,2.898,13630638.443,24924966.992,2.898,0.000,0.000,0.000,0.000,0.000,0.000,0.000,17,17,4*46
$GPGGA,070739.40,3135.5441678,N,12046.6564664,E,4,17,1.4,2.9122,M,8.314,M,01,0004*68
$GPHPD,0,0.000,75.52,-0.15,-13.13,31.5924028,120.7776078,2.912,13630638.404,24924967.955,2.912,0.000,0.000,0.000,0.000,0.000,0.000,0.000,17,17,4*41
$GPGGA,070739.60,3135.5441853,N,12046.6565553,E,4,17,1.4,2.9065,M,8.314,M,00,0004*68
$GPHPD,0,0.000,75.74,-0.57,-13.16,31.5924031,120.7776093,2.907,13630638.334,24924968.925,2.907,0.000,0.000,0.000,0.000,0.000,0.000,0.000,17,17,4*47
$GPGGA,070739.80,3135.5442017,N,12046.6566427,E,4,17,1.4,2.9045,M,8.314,M,00,0004*6E
$GPHPD,0,0.000,76.05,-0.22,-13.11,31.5924034,120.7776107,2.905,13630638.277,24924969.884,2.905,0.000,0.000,0.000,0.000,0.000,0.000,0.000,17,17,4*43
$GPGGA,070740.00,3135.5442164,N,12046.6567238,E,4,17,1.4,2.9034,M,8.314,M,01,0004*63
$GPHPD,0,0.000,76.36,-0.27,-13.04,31.5924036,120.7776121,2.903,13630638.231,24924970.776,2.903,0.000,0.000,0.000,0.000,0.000,0.000,0.000,17,17,4*4C
$GPGGA,070740.20,3135.5442297,N,12046.6567982,E,4,17,1.4,2.9005,M,8.314,M,01,0004*66
$GPHPD,0,0.000,76.59,-0.28,-12.96,31.5924038,120.7776133,2.901,13630638.192,24924971.596,2.901,0.000,0.000,0.000,0.000,0.000,0.000,0.000,17,17,4*4A
$GPGGA,070740.40,3135.5442408,N,12046.6568632,E,4,17,1.4,2.9004,M,8.314,M,01,0004*6A
$GPHPD,0,0.000,76.92,-0.08,-12.88,31.5924040,120.7776144,2.900,13630638.165,24924972.315,2.900,0.000,0.000,0.000,0.000,0.000,0.000,0.000,17,17,4*49
$GPGGA,070740.60,3135.5442502,N,12046.6569190,E,4,17,1.4,2.9081,M,8.314,M,00,0004*61
$GPHPD,0,0.000,77.02,-0.19,-12.82,31.5924042,120.7776153,2.908,13630638.144,24924972.933,2.908,0.000,0.000,0.000,0.000,0.000,0.000,0.000,17,17,4*42
$GPGGA,070740.80,3135.5442589,N,12046.6569662,E,4,17,1.4,2.9078,M,8.314,M,00,0004*60
$GPHPD,0,0.000,77.19,0.01,-12.81,31.5924043,120.7776161,2.908,13630638.115,24924973.452,2.908,0.000,0.000,0.000,0.000,0.000,0.000,0.000,17,17,4*60
$GPGGA,070741.00,3135.5442680,N,12046.6570140,E,4,17,1.4,2.8991,M,8.314,M,01,0004*62
$GPHPD,0,0.000,77.35,-0.33,-12.88,31.5924045,120.7776169,2.899,13630638.082,24924973.975,2.899,0.000,0.000,0.000,0.000,0.000,0.000,0.000,17,17,4*42
$GPGGA,070741.20,3135.5442757,N,12046.6570677,E,4,17,1.4,2.8952,M,8.314,M,01,0004*67
$GPHPD,0,0.000,77.64,-0.08,-12.94,31.5924046,120.7776178,2.895,13630638.080,24924974.578,2.895,0.000,0.000,0.000,0.000,0.000,0.000,0.000,17,17,4*44
$GPGGA,070741.40,3135.5442852,N,12046.6571256,E,4,17,1.4,2.8976,M,8.314,M,01,0004*6B
$GPHPD,0,0.000,77.66,0.13,-13.03,31.5924048,120.7776188,2.898,13630638.062,24924975.221,2.898,0.000,0.000,0.000,0.000,0.000,0.000,0.000,17,17,4*69
$GPGGA,070741.60,3135.5442963,N,12046.6571899,E,4,17,1.4,2.9031,M,8.314,M,00,0004*69
$GPHPD,0,0.000,77.94,0.13,-13.14,31.5924049,120.7776198,2.903,13630638.033,24924975.931,2.903,0.000,0.000,0.000,0.000,0.000,0.000,0.000,17,17,4*6C
$GPGGA,070741.80,3135.5443067,N,12046.6572623,E,4,17,1.4,2.9007,M,8.314,M,00,0004*62
$GPHPD,0,0.000,78.29,0.18,-13.20,31.5924051,120.7776210,2.901,13630638.031,24924976.744,2.901,0.000,0.000,0.000,0.000,0.000,0.000,0.000,17,17,4*6E
$GPGGA,070742.00,3135.5443185,N,12046.6573401,E,4,17,1.4,2.9088,M,8.314,M,01,0004*61
$GPHPD,0,0.000,78.48,0.19,-13.28,31.5924053,120.7776223,2.909,13630638.020,24924977.613,2.909,0.000,0.000,0.000,0.000,0.000,0.000,0.000,17,17,4*60
$GPGGA,070742.20,3135.5443295,N,12046.6574249,E,4,17,1.4,2.9088,M,8.314,M,01,0004*6C
$GPHPD,0,0.000,79.03,-0.07,-13.37,31.5924055,120.7776237,2.909,13630638.034,24924978.572,2.909,0.000,0.000,0.000,0.000,0.000,0.000,0.000,17,17,4*4F
$GPGGA,070742.40,3135.5443435,N,12046.6575190,E,4,17,1.4,2.8996,M,8.314,M,01,0004*67
$GPHPD,0,0.000,79.38,-0.27,-13.48,31.5924057,120.7776253,2.900,13630638.025,24924979.625,2.900,0.000,0.000,0.000,0.000,0.000,0.000,0.000,17,17,4*4D
$GPGGA,070742.60,3135.5443545,N,12046.6576198,E,4,17,1.4,2.8990,M,8.314,M,00,0004*6F
$GPHPD,0,0.000,80.08,0.15,-13.58,31.5924059,120.7776270,2.899,13630638.071,24924980.776,2.899,0.000,0.000,0.000,0.000,0.000,0.000,0.000,17,17,4*6A
$GPGGA,070742.80,3135.5443672,N,12046.6577285,E,4,17,1.4,2.8971,M,8.314,M,00,0004*67
$GPHPD,0,0.000,80.59,0.05,-13.63,31.5924061,120.7776288,2.897,13630638.109,24924982.013,2.897,0.000,0.000,0.000,0.000,0.000,0.000,0.000,17,17,4*63
$GPGGA,070743.00,3135.5443772,N,12046.6578451,E,4,17,1.4,2.9066,M,8.314,M,01,0004*60
$GPHPD,0,0.000,81.36,-0.09,-13.67,31.5924063,120.7776308,2.907,13630638.202,24924983.361,2.907,0.000,0.000,0.000,0.000,0.000,0.000,0.000,17,17,4*4A
$GPGGA,070743.20,3135.5443872,N,12046.6579657,E,4,17,1.4,2.9005,M,8.314,M,01,0004*6D
$GPHPD,0,0.000,82.21,0.07,-13.70,31.5924065,120.7776328,2.901,13630638.303,24924984.757,2.901,0.000,0.000,0.000,0.000,0.000,0.000,0.000,17,17,4*68
$GPGGA,070743.40,3135.5443961,N,12046.6580854,E,4,17,1.4,2.8970,M,8.314,M,01,0004*69
$GPHPD,0,0.000,83.07,0.24,-13.68,31.5924066,120.7776348,2.897,13630638.417,24924986.149,2.897,0.000,0.000,0.000,0.000,0.000,0.000,0.000,17,17,4*69
$GPGGA,070743.60,3135.5444012,N,12046.6582070,E,4,17,1.4,2.9012,M,8.314,M,00,0004*60
$GPHPD,0,0.000,84.01,0.11,-13.63,31.5924067,120.7776368,2.901,13630638.589,24924987.585,2.901,0.000,0.000,0.000,0.000,0.000,0.000,0.000,17,17,4*65
$GPGGA,070743.80,3135.5444082,N,12046.6583259,E,4,17,1.4,2.8917,M,8.314,M,00,0004*62
$GPHPD,0,0.000,84.87,0.07,-13.62,31.5924068,120.7776388,2.892,13630638.729,24924988.978,2.892,0.000,0.000,0.000,0.000,0.000,0.000,0.000,17,17,4*65
$GPGGA,070744.00,3135.5444110,N,12046.6584458,E,4,17,1.4,2.8899,M,8.314,M,01,0004*61
$GPHPD,0,0.000,85.65,0.24,-13.60,31.5924069,120.7776408,2.890,13630638.930,24924990.408,2.890,0.000,0.000,0.000,0.000,0.000,0.000,0.000,17,17,4*60
$GPGGA,070744.20,3135.5444147,N,12046.6585639,E,4,17,1.4,2.8984,M,8.314,M,01,0004*68
$GPHPD,0,0.000,86.38,0.01,-13.56,31.5924069,120.7776427,2.898,13630639.115,24924991.810,2.898,0.000,0.000,0.000,0.000,0.000,0.000,0.000,17,17,4*6E
$GPGGA,070744.40,3135.5444153,N,12046.6586862,E,4,17,1.4,2.8936,M,8.314,M,01,0004*61
$GPHPD,0,0.000,87.07,-0.33,-13.54,31.5924069,120.7776448,2.894,13630639.353,24924993.282,2.894,0.000,0.000,0.000,0.000,0.000,0.000,0.000,17,17,4*47
$GPGGA,070744.60,3135.5444168,N,12046.6588074,E,4,17,1.4,2.8934,M,8.314,M,00,0004*69
$GPHPD,0,0.000,87.71,-0.14,-13.51,31.5924069,120.7776468,2.893,13630639.575,24924994.734,2.893,0.000,0.000,0.000,0.000,0.000,0.000,0.000,17,17,4*49
$GPGGA,070744.80,3135.5444181,N,12046.6589283,E,4,17,1.4,2.8974,M,8.314,M,00,0004*6F
$GPHPD,0,0.000,88.08,0.01,-13.50,31.5924070,120.7776488,2.897,13630639.800,24924996.185,2.897,0.000,0.000,0.000,0.000,0.000,0.000,0.000,17,17,4*67
$GPGGA,070745.00,3135.5444184,N,12046.6590534,E,4,17,1.4,2.8941,M,8.314,M,01,0004*67
$GPHPD,0,0.000,88.64,-0.01,-13.50,31.5924070,120.7776509,2.894,13630640.048,24924997.691,2.894,0.000,0.000,0.000,0.000,0.000,0.000,0.000,17,17,4*41
$GPGGA,070745.20,3135.5444203,N,12046.6591818,E,4,17,1.4,2.8916,M,8.314,M,01,0004*69
$GPHPD,0,0.000,88.90,-0.02,-13.48,31.5924070,120.7776530,2.892,13630640.279,24924999.229,2.892,0.000,0.000,0.000,0.000,0.000,0.000,0.000,17,17,4*43
$GPGGA,070745.40,3135.5444207,N,12046.6593102,E,4,17,1.4,2.9004,M,8.314,M,01,0004*60
$GPHPD,0,0.000,89.28,-0.04,-13.45,31.5924070,120.7776552,2.900,13630640.532,24925000.775,2.900,0.000,0.000,0.000,0.000,0.000,0.000,0.000,17,17,4*42
$GPGGA,070745.60,3135.5444199,N,12046.6594459,E,4,17,1.4,2.8991,M,8.314,M,00,0004*6F
$GPHPD,0,0.000,89.55,-0.23,-13.47,31.5924070,120.7776574,2.899,13630640.816,24925002.416,2.899,0.000,0.000,0.000,0.000,0.000,0.000,0.000,17,17,4*44
$GPGGA,070745.80,3135.5444145,N,12046.6595844,E,4,17,1.4,2.8988,M,8.314,M,00,0004*69
$GPHPD,0,0.000,89.89,-0.21,-13.48,31.5924069,120.7776597,2.899,13630641.172,24925004.117,2.899,0.000,0.000,0.000,0.000,0.000,0.000,0.000,17,17,4*45
$GPGGA,070746.00,3135.5444097,N,12046.6597277,E,4,17,1.4,2.9027,M,8.314,M,01,0004*68
$GPHPD,0,0.000,90.30,-0.47,-13.47,31.5924068,120.7776621,2.903,13630641.528,24925005.873,2.903,0.000,0.000,0.000,0.000,0.000,0.000,0.000,17,17,4*4E
$GPGGA,070746.20,3135.5444060,N,12046.6598720,E,4,17,1.4,2.9003,M,8.314,M,01,0004*6C
$GPHPD,0,0.000,90.65,-0.17,-13.46,31.5924068,120.7776645,2.900,13630641.871,24925007.635,2.900,0.000,0.000,0.000,0.000,0.000,0.000,0.000,17,17,4*47
$GPGGA,070746.40,3135.5444007,N,12046.6600162,E,4,17,1.4,2.8955,M,8.314,M,01,0004*62
$GPHPD,0,0.000,90.84,-0.33,-13.41,31.5924067,120.7776669,2.896,13630642.237,24925009.404,2.896,0.000,0.000,0.000,0.000,0.000,0.000,0.000,17,17,4*4D
$GPGGA,070746.60,3135.5443964,N,12046.6601586,E,4,17,1.4,2.9050,M,8.314,M,00,0004*68
$GPHPD,0,0.000,91.08,-0.56,-13.31,31.5924066,120.7776693,2.905,13630642.584,24925011.146,2.905,0.000,0.000,0.000,0.000,0.000,0.000,0.000,17,17,4*4D
$GPGGA,070746.80,3135.5443924,N,12046.6602996,E,4,17,1.4,2.8946,M,8.314,M,00,0004*63
$GPHPD,0,0.000,91.46,-0.50,-13.23,31.5924065,120.7776717,2.895,13630642.925,24925012.870,2.895,0.000,0.000,0.000,0.000,0.000,0.000,0.000,17,17,4*44
$GPGGA,070747.00,3135.5443859,N,12046.6604365,E,4,17,1.4,2.8934,M,8.314,M,01,0004*65
$GPHPD,0,0.000,92.16,-0.54,-13.19,31.5924064,120.7776739,2.893,13630643.293,24925014.559,2.893,0.000,0.000,0.000,0.000,0.000,0.000,0.000,17,17,4*45
$GPGGA,070747.20,3135.5443776,N,12046.6605728,E,4,17,1.4,2.8898,M,8.314,M,01,0004*6E
$GPHPD,0,0.000,92.46,-0.51,-13.15,31.5924063,120.7776762,2.890,13630643.685,24925016.251,2.890,0.000,0.000,0.000,0.000,0.000,0.000,0.000,17,17,4*4E
$GPGGA,070747.40,3135.5443663,N,12046.6607100,E,4,17,1.4,2.8903,M,8.314,M,01,0004*60
$GPHPD,0,0.000,93.04,-0.28,-13.10,31.5924061,120.7776785,2.890,13630644.122,24925017.971,2.890,0.000,0.000,0.000,0.000,0.000,0.000,0.000,17,17,4*4C
$GPGGA,070747.60,3135.5443550,N,12046.6608435,E,4,17,1.4,2.8922,M,8.314,M,00,0004*6F
$GPHPD,0,0.000,93.56,-0.42,-13.08,31.5924059,120.7776807,2.892,13630644.551,24925019.646,2.892,0.000,0.000,0.000,0.000,0.000,0.000,0.000,17,17,4*45
$GPGGA,070747.80,3135.5443410,N,12046.6609817,E,4,17,1.4,2.8866,M,8.314,M,00,0004*68
$GPHPD,0,0.000,94.18,-0.65,-13.03,31.5924057,120.7776830,2.887,13630645.028,24925021.394,2.887,0.000,0.000,0.000,0.000,0.000,0.000,0.000,17,17,4*47
$GPGGA,070748.00,3135.5443286,N,12046.6611132,E,4,17,1.4,2.8927,M,8.314,M,01,0004*64
$GPHPD,0,0.000,94.90,-0.54,-12.94,31.5924055,120.7776852,2.893,13630645.469,24925023.052,2.893,0.000,0.000,0.000,0.000,0.000,0.000,0.000,17,17,4*46
$GPGGA,070748.20,3135.5443116,N,12046.6612422,E,4,17,1.4,2.8874,M,8.314,M,01,0004*6C
$GPHPD,0,0.000,95.86,-0.52,-12.88,31.5924052,120.7776874,2.887,13630645.970,24925024.707,2.887,0.000,0.000,0.000,0.000,0.000,0.000,0.000,17,17,4*4D
$GPGGA,070748.40,3135.5442932,N,12046.6613722,E,4,17,1.4,2.8894,M,8.314,M,01,0004*69
$GPHPD,0,0.000,96.75,-0.50,-12.89,31.5924049,120.7776895,2.889,13630646.493,24925026.382,2.889,0.000,0.000,0.000,0.000,0.000,0.000,0.000,17,17,4*4C
$GPGGA,070748.60,3135.5442732,N,12046.6614995,E,4,17,1.4,2.8865,M,8.314,M,00,0004*6F
$GPHPD,0,0.000,97.85,-0.56,-12.91,31.5924046,120.7776917,2.887,13630647.033,24925028.033,2.887,0.000,0.000,0.000,0.000,0.000,0.000,0.000,17,17,4*41
$GPGGA,070748.80,3135.5442516,N,12046.6616266,E,4,17,1.4,2.8826,M,8.314,M,00,0004*67
$GPHPD,0,0.000,99.14,-0.52,-12.83,31.5924042,120.7776938,2.883,13630647.596,24925029.691,2.883,0.000,0.000,0.000,0.000,0.000,0.000,0.000,17,17,4*4C
$GPGGA,070749.00,3135.5442274,N,12046.6617556,E,4,17,1.4,2.8832,M,8.314,M,01,0004*6C
$GPHPD,0,0.000,100.35,-0.58,-12.78,31.5924038,120.7776959,2.883,13630648.200,24925031.388,2.883,0.000,0.000,0.000,0.000,0.000,0.000,0.000,17,17,4*79
$GPGGA,070749.20,3135.5442009,N,12046.6618785,E,4,17,1.4,2.8827,M,8.314,M,01,0004*61
$GPHPD,0,0.000,101.53,-0.63,-12.73,31.5924033,120.7776980,2.883,13630648.824,24925033.024,2.883,0.000,0.000,0.000,0.000,0.000,0.000,0.000,17,17,4*7F
$GPGGA,070749.40,3135.5441730,N,12046.6619972,E,4,17,1.4,2.8746,M,8.314,M,01,0004*66
$GPHPD,0,0.000,102.82,-0.68,-12.66,31.5924029,120.7777000,2.875,13630649.459,24925034.618,2.875,0.000,0.000,0.000,0.000,0.000,0.000,0.000,17,17,4*7D
$GPGGA,070749.60,3135.5441439,N,12046.6621122,E,4,17,1.4,2.8788,M,8.314,M,00,0004*6B
$GPHPD,0,0.000,104.18,-0.46,-12.57,31.5924024,120.7777019,2.879,13630650.104,24925036.174,2.879,0.000,0.000,0.000,0.000,0.000,0.000,0.000,17,17,4*79
$GPGGA,070749.80,3135.5441116,N,12046.6622203,E,4,17,1.4,2.8782,M,8.314,M,00,0004*64
$GPHPD,0,0.000,105.49,-0.54,-12.52,31.5924019,120.7777037,2.878,13630650.781,24925037.666,2.878,0.000,0.000,0.000,0.000,0.000,0.000,0.000,17,17,4*76
$GPGGA,070750.00,3135.5440801,N,12046.6623274,E,4,17,1.4,2.8769,M,8.314,M,01,0004*6F
$GPHPD,0,0.000,106.77,-0.68,-12.52,31.5924013,120.7777055,2.877,13630651.444,24925039.141,2.877,0.000,0.000,0.000,0.000,0.000,0.000,0.000,17,17,4*7E
$GPGGA,070750.20,3135.5440471,N,12046.6624301,E,4,17,1.4,2.8714,M,8.314,M,01,0004*68
$GPHPD,0,0.000,107.83,-0.85,-12.53,31.5924008,120.7777072,2.871,13630652.120,24925040.571,2.871,0.000,0.000,0.000,0.000,0.000,0.000,0.000,17,17,4*74
$GPGGA,070750.40,3135.5440114,N,12046.6625301,E,4,17,1.4,2.8757,M,8.314,M,01,0004*6E
$GPHPD,0,0.000,109.24,-0.60,-12.52,31.5924002,120.7777088,2.876,13630652.828,24925041.985,2.876,0.000,0.000,0.000,0.000,0.000,0.000,0.000,17,17,4*75
$GPGGA,070750.60,3135.5439786,N,12046.6626286,E,4,17,1.4,2.8671,M,8.314,M,00,0004*66
$GPHPD,0,0.000,110.29,-0.77,-12.52,31.5923996,120.7777105,2.867,13630653.493,24925043.363,2.867,0.000,0.000,0.000,0.000,0.000,0.000,0.000,17,17,4*7C
$GPGGA,070750.80,3135.5439407,N,12046.6627198,E,4,17,1.4,2.8698,M,8.314,M,00,0004*68
$GPHPD,0,0.000,111.56,-0.72,-12.52,31.5923990,120.7777120,2.870,13630654.215,24925044.684,2.870,0.000,0.000,0.000,0.000,0.000,0.000,0.000,17,17,4*75
$GPGGA,070751.00,3135.5439030,N,12046.6628086,E,4,17,1.4,2.8677,M,8.314,M,01,0004*60
$GPHPD,0,0.000,112.74,-0.77,-12.51,31.5923984,120.7777135,2.868,13630654.929,24925045.974,2.868,0.000,0.000,0.000,0.000,0.000,0.000,0.000,17,17,4*74
$GPGGA,070751.20,3135.5438678,N,12046.6628945,E,4,17,1.4,2.8699,M,8.314,M,01,0004*6F
$GPHPD,0,0.000,113.87,-0.94,-12.49,31.5923978,120.7777149,2.870,13630655.603,24925047.215,2.870,0.000,0.000,0.000,0.000,0.000,0.000,0.000,17,17,4*7D
$GPGGA,070751.40,3135.5438305,N,12046.6629797,E,4,17,1.4,2.8705,M,8.314,M,01,0004*62
$GPHPD,0,0.000,114.91,-1.03,-12.49,31.5923972,120.7777163,2.871,13630656.304,24925048.460,2.871,0.000,0.000,0.000,0.000,0.000,0.000,0.000,17,17,4*7A
$GPGGA,070751.60,3135.5437933,N,12046.6630596,E,4,17,1.4,2.8615,M,8.314,M,00,0004*6A
$GPHPD,0,0.000,115.99,-0.84,-12.54,31.5923966,120.7777177,2.862,13630656.994,24925049.640,2.862,0.000,0.000,0.000,0.000,0.000,0.000,0.000,17,17,4*73
$GPGGA,070751.80,3135.5437564,N,12046.6631361,E,4,17,1.4,2.8649,M,8.314,M,00,0004*6C
$GPHPD,0,0.000,116.93,-0.39,-12.57,31.5923959,120.7777189,2.865,13630657.672,24925050.777,2.865,0.000,0.000,0.000,0.000,0.000,0.000,0.000,17,17,4*79
$GPGGA,070752.00,3135.5437192,N,12046.6632128,E,4,17,1.4,2.8685,M,8.314,M,01,0004*67
$GPHPD,0,0.000,117.53,-0.69,-12.63,31.5923953,120.7777202,2.869,13630658.355,24925051.918,2.869,0.000,0.000,0.000,0.000,0.000,0.000,0.000,17,17,4*75
$GPGGA,070752.20,3135.5436817,N,12046.6632900,E,4,17,1.4,2.8624,M,8.314,M,01,0004*69
$GPHPD,0,0.000,118.13,-0.64,-12.65,31.5923947,120.7777215,2.862,13630659.044,24925053.068,2.862,0.000,0.000,0.000,0.000,0.000,0.000,0.000,17,17,4*78
$GPGGA,070752.40,3135.5436433,N,12046.6633656,E,4,17,1.4,2.8545,M,8.314,M,01,0004*6C
$GPHPD,0,0.000,118.59,-0.64,-12.67,31.5923941,120.7777228,2.855,13630659.741,24925054.203,2.855,0.000,0.000,0.000,0.000,0.000,0.000,0.000,17,17,4*76
$GPGGA,070752.60,3135.5436027,N,12046.6634425,E,4,17,1.4,2.8517,M,8.314,M,00,0004*68
$GPHPD,0,0.000,119.23,-0.49,-12.71,31.5923934,120.7777240,2.852,13630660.473,24925055.367,2.852,0.000,0.000,0.000,0.000,0.000,0.000,0.000,17,17,4*74
$GPGGA,070752.80,3135.5435626,N,12046.6635216,E,4,17,1.4,2.8509,M,8.314,M,00,0004*6A
$GPHPD,0,0.000,119.49,-0.40,-12.76,31.5923927,120.7777254,2.851,13630661.202,24925056.554,2.851,0.000,0.000,0.000,0.000,0.000,0.000,0.000,17,17,4*75
$GPGGA,070753.00,3135.5435191,N,12046.6636015,E,4,17,1.4,2.8529,M,8.314,M,01,0004*69
$GPHPD,0,0.000,120.28,-0.47,-12.80,31.5923920,120.7777267,2.853,13630661.981,24925057.771,2.853,0.000,0.000,0.000,0.000,0.000,0.000,0.000,17,17,4*75
$GPGGA,070753.20,3135.5434751,N,12046.6636841,E,4,17,1.4,2.8500,M,8.314,M,01,0004*62
$GPHPD,0,0.000,120.53,-0.58,-12.83,31.5923913,120.7777281,2.850,13630662.773,24925059.023,2.850,0.000,0.000,0.000,0.000,0.000,0.000,0.000,17,17,4*72
$GPGGA,070753.40,3135.5434296,N,12046.6637679,E,4,17,1.4,2.8468,M,8.314,M,01,0004*61
$GPHPD,0,0.000,120.99,-0.46,-12.86,31.5923905,120.7777295,2.847,13630663.588,24925060.298,2.847,0.000,0.000,0.000,0.000,0.000,0.000,0.000,17,17,4*73
$GPGGA,070753.60,3135.5433826,N,12046.6638535,E,4,17,1.4,2.8447,M,8.315,M,00,0004*6C
$GPHPD,0,0.000,121.32,-0.21,-12.88,31.5923897,120.7777309,2.845,13630664.429,24925061.604,2.845,0.000,0.000,0.000,0.000,0.000,0.000,0.000,17,17,4*7F
$GPGGA,070753.80,3135.5433336,N,12046.6639433,E,4,17,1.4,2.8476,M,8.315,M,00,0004*6C
$GPHPD,0,0.000,121.60,-0.38,-12.88,31.5923889,120.7777324,2.848,13630665.306,24925062.972,2.848,0.000,0.000,0.000,0.000,0.000,0.000,0.000,17,17,4*76
$GPGGA,070754.00,3135.5432818,N,12046.6640341,E,4,17,1.4,2.8461,M,8.315,M,01,0004*6E
$GPHPD,0,0.000,122.12,-0.67,-12.90,31.5923880,120.7777339,2.846,13630666.225,24925064.369,2.846,0.000,0.000,0.000,0.000,0.000,0.000,0.000,17,17,4*73
$GPGGA,070754.20,3135.5432285,N,12046.6641284,E,4,17,1.4,2.8436,M,8.315,M,01,0004*69
$GPHPD,0,0.000,122.48,-0.53,-12.92,31.5923871,120.7777355,2.844,13630667.172,24925065.816,2.844,0.000,0.000,0.000,0.000,0.000,0.000,0.000,17,17,4*7F
$GPGGA,070754.40,3135.5431736,N,12046.6642210,E,4,17,1.4,2.8383,M,8.315,M,01,0004*66
$GPHPD,0,0.000,122.68,-0.60,-12.91,31.5923862,120.7777370,2.838,13630668.139,24925067.252,2.838,0.000,0.000,0.000,0.000,0.000,0.000,0.000,17,17,4*73
$GPGGA,070754.60,3135.5431224,N,12046.6643135,E,4,17,1.4,2.8349,M,8.315,M,00,0004*60
$GPHPD,0,0.000,122.95,-0.44,-12.90,31.5923854,120.7777386,2.835,13630669.053,24925068.666,2.835,0.000,0.000,0.000,0.000,0.000,0.000,0.000,17,17,4*7A
$GPGGA,070754.80,3135.5430672,N,12046.6644066,E,4,17,1.4,2.8408,M,8.315,M,00,0004*6A
$GPHPD,0,0.000,123.31,-0.25,-12.87,31.5923845,120.7777401,2.841,13630670.025,24925070.110,2.841,0.000,0.000,0.000,0.000,0.000,0.000,0.000,17,17,4*7A
$GPGGA,070755.00,3135.5430120,N,12046.6644964,E,4,17,1.4,2.8409,M,8.315,M,01,0004*68
$GPHPD,0,0.000,123.59,-0.56,-12.85,31.5923835,120.7777416,2.841,13630670.990,24925071.514,2.841,0.000,0.000,0.000,0.000,0.000,0.000,0.000,17,17,4*75
$GPGGA,070755.20,3135.5429577,N,12046.6645883,E,4,17,1.4,2.8448,M,8.315,M,01,0004*68
$GPHPD,0,0.000,123.78,-0.60,-12.82,31.5923826,120.7777431,2.845,13630671.947,24925072.939,2.845,0.000,0.000,0.000,0.000,0.000,0.000,0.000,17,17,4*78
$GPGGA,070755.40,3135.5429035,N,12046.6646780,E,4,17,1.4,2.8410,M,8.315,M,01,0004*6F
$GPHPD,0,0.000,123.86,-0.61,-12.80,31.5923817,120.7777446,2.841,13630672.897,24925074.336,2.841,0.000,0.000,0.000,0.000,0.000,0.000,0.000,17,17,4*74
$GPGGA,070755.60,3135.5428500,N,12046.6647654,E,4,17,1.4,2.8424,M,8.315,M,00,0004*60
$GPHPD,0,0.000,123.95,-0.51,-12.78,31.5923808,120.7777461,2.842,13630673.834,24925075.701,2.842,0.000,0.000,0.000,0.000,0.000,0.000,0.000,17,17,4*70
$GPGGA,070755.80,3135.5427997,N,12046.6648495,E,4,17,1.4,2.8461,M,8.315,M,00,0004*62
$GPHPD,0,0.000,123.79,-0.71,-12.76,31.5923800,120.7777475,2.846,13630674.718,24925077.008,2.846,0.000,0.000,0.000,0.000,0.000,0.000,0.000,17,17,4*79
$GPGGA,070756.00,3135.5427513,N,12046.6649331,E,4,17,1.4,2.8417,M,8.315,M,01,0004*61
$GPHPD,0,0.000,123.66,-0.54,-12.73,31.5923792,120.7777489,2.842,13630675.574,24925078.298,2.842,0.000,0.000,0.000,0.000,0.000,0.000,0.000,17,17,4*7F
$GPGGA,070756.20,3135.5427045,N,12046.6650104,E,4,17,1.4,2.8405,M,8.315,M,01,0004*6A
$GPHPD,0,0.000,123.82,-0.41,-12.70,31.5923784,120.7777502,2.841,13630676.395,24925079.503,2.841,0.000,0.000,0.000,0.000,0.000,0.000,0.000,17,17,4*79
$GPGGA,070756.40,3135.5426583,N,12046.6650905,E,4,17,1.4,2.8342,M,8.315,M,01,0004*6F
$GPHPD,0,0.000,123.84,-0.34,-12.68,31.5923776,120.7777515,2.834,13630677.213,24925080.738,2.834,0.000,0.000,0.000,0.000,0.000,0.000,0.000,17,17,4*7D
$GPGGA,070756.60,3135.5426130,N,12046.6651650,E,4,17,1.4,2.8375,M,8.315,M,00,0004*6A
$GPHPD,0,0.000,124.03,-0.44,-12.71,31.5923769,120.7777528,2.838,13630678.006,24925081.900,2.838,0.000,0.000,0.000,0.000,0.000,0.000,0.000,17,17,4*77
$GPGGA,070756.80,3135.5425674,N,12046.6652415,E,4,17,1.4,2.8394,M,8.315,M,00,0004*6F
$GPHPD,0,0.000,124.04,-0.57,-12.73,31.5923761,120.7777540,2.839,13630678.809,24925083.088,2.839,0.000,0.000,0.000,0.000,0.000,0.000,0.000,17,17,4*7A
$GPGGA,070757.00,3135.5425229,N,12046.6653121,E,4,17,1.4,2.8365,M,8.315,M,01,0004*66
$GPHPD,0,0.000,124.20,-0.24,-12.78,31.5923754,120.7777552,2.837,13630679.583,24925084.198,2.837,0.000,0.000,0.000,0.000,0.000,0.000,0.000,17,17,4*7F
$GPGGA,070757.20,3135.5424805,N,12046.6653852,E,4,17,1.4,2.8389,M,8.315,M,01,0004*6E
$GPHPD,0,0.000,124.25,-0.44,-12.83,31.5923747,120.7777564,2.839,13630680.333,24925085.326,2.839,0.000,0.000,0.000,0.000,0.000,0.000,0.000,17,17,4*72
$GPGGA,070757.40,3135.5424362,N,12046.6654585,E,4,17,1.4,2.8354,M,8.315,M,01,0004*62
$GPHPD,0,0.000,124.30,-0.65,-12.89,31.5923739,120.7777576,2.835,13630681.110,24925086.468,2.835,0.000,0.000,0.000,0.000,0.000,0.000,0.000,17,17,4*79
$GPGGA,070757.60,3135.5423921,N,12046.6655338,E,4,17,1.4,2.8466,M,8.315,M,00,0004*6C
$GPHPD,0,0.000,124.38,-0.31,-12.94,31.5923732,120.7777589,2.847,13630681.888,24925087.633,2.847,0.000,0.000,0.000,0.000,0.000,0.000,0.000,17,17,4*72
$GPGGA,070757.80,3135.5423471,N,12046.6656080,E,4,17,1.4,2.8491,M,8.315,M,00,0004*61
$GPHPD,0,0.000,124.30,-0.46,-13.01,31.5923725,120.7777601,2.849,13630682.677,24925088.790,2.849,0.000,0.000,0.000,0.000,0.000,0.000,0.000,17,17,4*78
$GPGGA,070758.00,3135.5423014,N,12046.6656845,E,4,17,1.4,2.8454,M,8.315,M,01,0004*68
$GPHPD,0,0.000,124.39,-0.26,-13.08,31.5923717,120.7777614,2.845,13630683.481,24925089.978,2.845,0.000,0.000,0.000,0.000,0.000,0.000,0.000,17,17,4*78
$GPGGA,070758.20,3135.5422552,N,12046.6657607,E,4,17,1.4,2.8402,M,8.315,M,01,0004*66
$GPHPD,0,0.000,124.69,0.03,-13.13,31.5923709,120.7777627,2.840,13630684.291,24925091.166,2.840,0.000,0.000,0.000,0.000,0.000,0.000,0.000,17,17,4*5C
$GPGGA,070758.40,3135.5422052,N,12046.6658385,E,4,17,1.4,2.8433,M,8.315,M,01,0004*67
$GPHPD,0,0.000,124.90,0.03,-13.20,31.5923701,120.7777640,2.843,13630685.158,24925092.395,2.843,0.000,0.000,0.000,0.000,0.000,0.000,0.000,17,17,4*59
$GPGGA,070758.60,3135.5421557,N,12046.6659185,E,4,17,1.4,2.8368,M,8.315,M,00,0004*6D
$GPHPD,0,0.000,125.08,-0.07,-13.25,31.5923693,120.7777653,2.837,13630686.023,24925093.648,2.837,0.000,0.000,0.000,0.000,0.000,0.000,0.000,17,17,4*77
$GPGGA,070758.80,3135.5421056,N,12046.6659939,E,4,17,1.4,2.8271,M,8.315,M,00,0004*61
$GPHPD,0,0.000,125.62,0.01,-13.28,31.5923684,120.7777666,2.827,13630686.886,24925094.849,2.827,0.000,0.000,0.000,0.000,0.000,0.000,0.000,17,17,4*52
$GPGGA,070759.00,3135.5420548,N,12046.6660703,E,4,17,1.4,2.8304,M,8.315,M,01,0004*6C
$GPHPD,0,0.000,126.29,0.26,-13.32,31.5923676,120.7777678,2.830,13630687.762,24925096.066,2.830,0.000,0.000,0.000,0.000,0.000,0.000,0.000,17,17,4*51
$GPGGA,070759.20,3135.5420023,N,12046.6661440,E,4,17,1.4,2.8277,M,8.315,M,01,0004*66
$GPHPD,0,0.000,126.94,0.04,-13.36,31.5923667,120.7777691,2.828,13630688.657,24925097.261,2.828,0.000,0.000,0.000,0.000,0.000,0.000,0.000,17,17,4*58
$GPGGA,070759.40,3135.5419488,N,12046.6662168,E,4,17,1.4,2.8302,M,8.315,M,01,0004*60
$GPHPD,0,0.000,127.96,0.39,-13.39,31.5923658,120.7777703,2.830,13630689.564,24925098.450,2.830,0.000,0.000,0.000,0.000,0.000,0.000,0.000,17,17,4*55
$GPGGA,070759.60,3135.5418958,N,12046.6662890,E,4,17,1.4,2.8308,M,8.315,M,00,0004*66
$GPHPD,0,0.000,128.93,0.14,-13.40,31.5923649,120.7777715,2.831,13630690.462,24925099.629,2.831,0.000,0.000,0.000,0.000,0.000,0.000,0.000,17,17,4*5B
$GPGGA,070759.80,3135.5418399,N,12046.6663595,E,4,17,1.4,2.8366,M,8.315,M,00,0004*6E
$GPHPD,0,0.000,130.10,0.20,-13.40,31.5923640,120.7777727,2.837,13630691.399,24925100.805,2.837,0.000,0.000,0.000,0.000,0.000,0.000,0.000,17,17,4*55
$GPGGA,070800.00,3135.5417865,N,12046.6664265,E,4,17,1.4,2.8315,M,8.315,M,01,0004*68
$GPHPD,0,0.000,131.34,-0.15,-13.38,31.5923631,120.7777738,2.832,13630692.292,24925101.924,2.832,0.000,0.000,0.000,0.000,0.000,0.000,0.000,17,17,4*74
$GPGGA,070800.20,3135.5417296,N,12046.6664914,E,4,17,1.4,2.8287,M,8.315,M,01,0004*6B
$GPHPD,0,0.000,132.35,0.12,-13.36,31.5923622,120.7777749,2.829,13630693.232,24925103.037,2.829,0.000,0.000,0.000,0.000,0.000,0.000,0.000,17,17,4*54
$GPGGA,070800.40,3135.5416731,N,12046.6665552,E,4,17,1.4,2.8266,M,8.315,M,01,0004*64
$GPHPD,0,0.000,133.55,0.15,-13.33,31.5923612,120.7777759,2.827,13630694.163,24925104.136,2.827,0.000,0.000,0.000,0.000,0.000,0.000,0.000,17,17,4*54
$GPGGA,070800.60,3135.5416162,N,12046.6666156,E,4,17,1.4,2.8282,M,8.315,M,00,0004*6E
$GPHPD,0,0.000,134.49,0.03,-13.30,31.5923603,120.7777769,2.828,13630695.093,24925105.195,2.828,0.000,0.000,0.000,0.000,0.000,0.000,0.000,17,17,4*5E
$GPGGA,070800.80,3135.5415592,N,12046.6666754,E,4,17,1.4,2.8378,M,8.315,M,00,0004*68
$GPHPD,0,0.000,135.62,0.04,-13.27,31.5923593,120.7777779,2.838,13630696.024,24925106.248,2.838,0.000,0.000,0.000,0.000,0.000,0.000,0.000,17,17,4*53
$GPGGA,070801.00,3135.5415021,N,12046.6667317,E,4,17,1.4,2.8432,M,8.315,M,01,0004*66
$GPHPD,0,0.000,136.68,0.11,-13.23,31.5923584,120.7777789,2.843,13630696.949,24925107.260,2.843,0.000,0.000,0.000,0.000,0.000,0.000,0.000,17,17,4*5A
$GPGGA,070801.20,3135.5414467,N,12046.6667895,E,4,17,1.4,2.8324,M,8.315,M,01,0004*62
$GPHPD,0,0.000,137.45,-0.25,-13.23,31.5923574,120.7777798,2.832,13630697.853,24925108.279,2.832,0.000,0.000,0.000,0.000,0.000,0.000,0.000,17,17,4*7D
$GPGGA,070801.40,3135.5413852,N,12046.6668450,E,4,17,1.4,2.8486,M,8.315,M,01,0004*6C
$GPHPD,0,0.000,138.48,0.42,-13.24,31.5923564,120.7777808,2.849,13630698.838,24925109.307,2.849,0.000,0.000,0.000,0.000,0.000,0.000,0.000,17,17,4*58
$GPGGA,070801.60,3135.5413265,N,12046.6669041,E,4,17,1.4,2.8347,M,8.315,M,00,0004*6E
$GPHPD,0,0.000,139.00,-0.18,-13.24,31.5923554,120.7777817,2.835,13630699.792,24925110.361,2.835,0.000,0.000,0.000,0.000,0.000,0.000,0.000,17,17,4*7C
$GPGGA,070801.80,3135.5412648,N,12046.6669645,E,4,17,1.4,2.8345,M,8.315,M,00,0004*6A
$GPHPD,0,0.000,139.60,0.31,-13.22,31.5923544,120.7777827,2.835,13630700.790,24925111.449,2.835,0.000,0.000,0.000,0.000,0.000,0.000,0.000,17,17,4*57
$GPGGA,070802.00,3135.5411999,N,12046.6670221,E,4,17,1.4,2.8409,M,8.315,M,01,0004*61
$GPHPD,0,0.000,140.10,0.01,-13.23,31.5923533,120.7777837,2.841,13630701.829,24925112.521,2.841,0.000,0.000,0.000,0.000,0.000,0.000,0.000,17,17,4*5D
$GPGGA,070802.20,3135.5411364,N,12046.6670846,E,4,17,1.4,2.8374,M,8.315,M,01,0004*6D
$GPHPD,0,0.000,140.39,-0.18,-13.21,31.5923523,120.7777847,2.837,13630702.857,24925113.644,2.837,0.000,0.000,0.000,0.000,0.000,0.000,0.000,17,17,4*7C
$GPGGA,070802.40,3135.5410685,N,12046.6671486,E,4,17,1.4,2.8436,M,8.315,M,01,0004*60
$GPHPD,0,0.000,140.71,-0.02,-13.17,31.5923511,120.7777858,2.844,13630703.951,24925114.811,2.844,0.000,0.000,0.000,0.000,0.000,0.000,0.000,17,17,4*7E
$GPGGA,070802.60,3135.5410002,N,12046.6672100,E,4,17,1.4,2.8297,M,8.315,M,00,0004*6F
$GPHPD,0,0.000,140.91,-0.34,-13.15,31.5923500,120.7777868,2.830,13630705.045,24925115.950,2.830,0.000,0.000,0.000,0.000,0.000,0.000,0.000,17,17,4*7B
$GPGGA,070802.80,3135.5409286,N,12046.6672725,E,4,17,1.4,2.8392,M,8.315,M,00,0004*62
$GPHPD,0,0.000,141.13,-0.16,-13.11,31.5923488,120.7777879,2.839,13630706.189,24925117.120,2.839,0.000,0.000,0.000,0.000,0.000,0.000,0.000,17,17,4*7A
$GPGGA,070803.00,3135.5408608,N,12046.6673362,E,4,17,1.4,2.8348,M,8.315,M,01,0004*68
$GPHPD,0,0.000,141.08,-0.16,-13.06,31.5923477,120.7777889,2.835,13630707.280,24925118.283,2.835,0.000,0.000,0.000,0.000,0.000,0.000,0.000,17,17,4*77
$GPGGA,070803.20,3135.5407907,N,12046.6674003,E,4,17,1.4,2.8372,M,8.315,M,01,0004*6F
$GPHPD,0,0.000,141.33,-0.22,-13.01,31.5923465,120.7777900,2.837,13630708.406,24925119.464,2.837,0.000,0.000,0.000,0.000,0.000,0.000,0.000,17,17,4*75
$GPGGA,070803.40,3135.5407218,N,12046.6674645,E,4,17,1.4,2.8393,M,8.315,M,01,0004*67
$GPHPD,0,0.000,141.18,-0.05,-12.93,31.5923454,120.7777911,2.839,13630709.514,24925120.639,2.839,0.000,0.000,0.000,0.000,0.000,0.000,0.000,17,17,4*72
$GPGGA,070803.60,3135.5406575,N,12046.6675236,E,4,17,1.4,2.8379,M,8.315,M,00,0004*6C
$GPHPD,0,0.000,141.23,-0.41,-12.83,31.5923443,120.7777921,2.838,13630710.547,24925121.726,2.838,0.000,0.000,0.000,0.000,0.000,0.000,0.000,17,17,4*7E
$GPGGA,070803.80,3135.5405928,N,12046.6675831,E,4,17,1.4,2.8405,M,8.315,M,00,0004*64
$GPHPD,0,0.000,141.30,-0.21,-12.76,31.5923432,120.7777931,2.841,13630711.586,24925122.821,2.841,0.000,0.000,0.000,0.000,0.000,0.000,0.000,17,17,4*70
$GPGGA,070804.00,3135.5405306,N,12046.6676401,E,4,17,1.4,2.8498,M,8.315,M,01,0004*64
$GPHPD,0,0.000,141.38,-0.49,-12.69,31.5923422,120.7777940,2.850,13630712.585,24925123.870,2.850,0.000,0.000,0.000,0.000,0.000,0.000,0.000,17,17,4*7A
$GPGGA,070804.20,3135.5404699,N,12046.6676950,E,4,17,1.4,2.8411,M,8.315,M,01,0004*6C
$GPHPD,0,0.000,141.48,-0.59,-12.65,31.5923412,120.7777949,2.841,13630713.559,24925124.886,2.841,0.000,0.000,0.000,0.000,0.000,0.000,0.000,17,17,4*74
$GPGGA,070804.40,3135.5404068,N,12046.6677518,E,4,17,1.4,2.8392,M,8.315,M,01,0004*6F
$GPHPD,0,0.000,141.50,-0.45,-12.62,31.5923401,120.7777959,2.839,13630714.570,24925125.938,2.839,0.000,0.000,0.000,0.000,0.000,0.000,0.000,17,17,4*7D
$GPGGA,070804.60,3135.5403439,N,12046.6678095,E,4,17,1.4,2.8480,M,8.315,M,00,0004*60
$GPHPD,0,0.000,141.47,-0.53,-12.59,31.5923391,120.7777968,2.848,13630715.580,24925127.000,2.848,0.000,0.000,0.000,0.000,0.000,0.000,0.000,17,17,4*76
$GPGGA,070804.80,3135.5402807,N,12046.6678704,E,4,17,1.4,2.8390,M,8.315,M,00,0004*67
$GPHPD,0,0.000,141.44,-0.53,-12.57,31.5923380,120.7777978,2.839,13630716.601,24925128.102,2.839,0.000,0.000,0.000,0.000,0.000,0.000,0.000,17,17,4*7F
$GPGGA,070805.00,3135.5402095,N,12046.6679298,E,4,17,1.4,2.8468,M,8.315,M,01,0004*6D
$GPHPD,0,0.000,141.42,-0.59,-12.52,31.5923368,120.7777988,2.847,13630717.732,24925129.233,2.847,0.000,0.000,0.000,0.000,0.000,0.000,0.000,17,17,4*7F
$GPGGA,070805.20,3135.5401390,N,12046.6679944,E,4,17,1.4,2.8486,M,8.315,M,01,0004*60
$GPHPD,0,0.000,141.44,-0.93,-12.49,31.5923357,120.7777999,2.849,13630718.864,24925130.422,2.849,0.000,0.000,0.000,0.000,0.000,0.000,0.000,17,17,4*74
$GPGGA,070805.40,3135.5400663,N,12046.6680596,E,4,17,1.4,2.8391,M,8.315,M,01,0004*6A
$GPHPD,0,0.000,141.55,-0.85,-12.46,31.5923344,120.7778010,2.839,13630720.029,24925131.632,2.839,0.000,0.000,0.000,0.000,0.000,0.000,0.000,17,17,4*71
$GPGGA,070805.60,3135.5399891,N,12046.6681277,E,4,17,1.4,2.8418,M,8.315,M,00,0004*62
$GPHPD,0,0.000,141.58,-0.44,-12.42,31.5923332,120.7778021,2.842,13630721.263,24925132.903,2.842,0.000,0.000,0.000,0.000,0.000,0.000,0.000,17,17,4*75
$GPGGA,070805.80,3135.5399136,N,12046.6681990,E,4,17,1.4,2.8386,M,8.315,M,00,0004*6A
$GPHPD,0,0.000,141.37,-0.53,-12.38,31.5923319,120.7778033,2.839,13630722.480,24925134.202,2.839,0.000,0.000,0.000,0.000,0.000,0.000,0.000,17,17,4*79
$GPGGA,070806.00,3135.5398346,N,12046.6682698,E,4,17,1.4,2.8438,M,8.315,M,01,0004*62
$GPHPD,0,0.000,141.39,-0.96,-12.33,31.5923306,120.7778045,2.844,13630723.745,24925135.516,2.844,0.000,0.000,0.000,0.000,0.000,0.000,0.000,17,17,4*72
$GPGGA,070806.20,3135.5397581,N,12046.6683413,E,4,17,1.4,2.8409,M,8.315,M,01,0004*60
$GPHPD,0,0.000,141.29,-0.94,-12.28,31.5923293,120.7778057,2.841,13630724.976,24925136.823,2.841,0.000,0.000,0.000,0.000,0.000,0.000,0.000,17,17,4*74
$GPGGA,070806.40,3135.5396817,N,12046.6684118,E,4,17,1.4,2.8411,M,8.315,M,01,0004*65
$GPHPD,0,0.000,141.22,-1.11,-12.24,31.5923280,120.7778069,2.841,13630726.204,24925138.118,2.841,0.000,0.000,0.000,0.000,0.000,0.000,0.000,17,17,4*73
$GPGGA,070806.60,3135.5396070,N,12046.6684813,E,4,17,1.4,2.8391,M,8.315,M,00,0004*62
$GPHPD,0,0.000,141.10,-1.33,-12.19,31.5923268,120.7778080,2.839,13630727.406,24925139.391,2.839,0.000,0.000,0.000,0.000,0.000,0.000,0.000,17,17,4*7A
$GPGGA,070806.80,3135.5395326,N,12046.6685462,E,4,17,1.4,2.8355,M,8.315,M,00,0004*6C
$GPHPD,0,0.000,141.39,-1.44,-12.09,31.5923255,120.7778091,2.836,13630728.594,24925140.607,2.836,0.000,0.000,0.000,0.000,0.000,0.000,0.000,17,17,4*7F
$GPGGA,070807.00,3135.5394606,N,12046.6686078,E,4,17,1.4,2.8475,M,8.315,M,01,0004*6B
$GPHPD,0,0.000,141.19,-1.43,-11.96,31.5923243,120.7778101,2.848,13630729.741,24925141.769,2.848,0.000,0.000,0.000,0.000,0.000,0.000,0.000,17,17,4*73
$GPGGA,070807.20,3135.5394003,N,12046.6686644,E,4,17,1.4,2.8469,M,8.315,M,01,0004*6E
$GPHPD,0,0.000,140.59,-2.48,-11.85,31.5923233,120.7778111,2.847,13630730.712,24925142.803,2.847,0.000,0.000,0.000,0.000,0.000,0.000,0.000,17,17,4*74
$GPGGA,070807.40,3135.5393456,N,12046.6687107,E,4,17,1.4,2.8422,M,8.315,M,01,0004*65
$GPHPD,0,0.000,140.70,-2.34,-11.78,31.5923224,120.7778118,2.842,13630731.583,24925143.679,2.842,0.000,0.000,0.000,0.000,0.000,0.000,0.000,17,17,4*70
$GPGGA,070807.60,3135.5392950,N,12046.6687554,E,4,17,1.4,2.8366,M,8.315,M,00,0004*69
$GPHPD,0,0.000,141.15,-2.53,-11.77,31.5923216,120.7778126,2.837,13630732.392,24925144.513,2.837,0.000,0.000,0.000,0.000,0.000,0.000,0.000,17,17,4*7D
$GPGGA,070807.80,3135.5392469,N,12046.6688012,E,4,17,1.4,2.8313,M,8.315,M,00,0004*6A
$GPHPD,0,0.000,141.67,-3.01,-11.77,31.5923208,120.7778134,2.831,13630733.168,24925145.345,2.831,0.000,0.000,0.000,0.000,0.000,0.000,0.000,17,17,4*70
$GPGGA,070808.00,3135.5391966,N,12046.6688421,E,4,17,1.4,2.8247,M,8.315,M,01,0004*69
$GPHPD,0,0.000,142.02,-2.89,-11.77,31.5923199,120.7778140,2.825,13630733.965,24925146.131,2.825,0.000,0.000,0.000,0.000,0.000,0.000,0.000,17,17,4*7E
$GPGGA,070808.20,3135.5391461,N,12046.6688823,E,4,17,1.4,2.8261,M,8.315,M,01,0004*6B
$GPHPD,0,0.000,142.21,-2.25,-11.76,31.5923191,120.7778147,2.826,13630734.764,24925146.910,2.826,0.000,0.000,0.000,0.000,0.000,0.000,0.000,17,17,4*74
$GPGGA,070808.40,3135.5390976,N,12046.6689236,E,4,17,1.4,2.8242,M,8.315,M,01,0004*69
$GPHPD,0,0.000,142.34,-1.99,-11.76,31.5923183,120.7778154,2.824,13630735.536,24925147.691,2.824,0.000,0.000,0.000,0.000,0.000,0.000,0.000,17,17,4*76
$GPGGA,070808.60,3135.5390484,N,12046.6689657,E,4,17,1.4,2.8169,M,8.315,M,00,0004*63
$GPHPD,0,0.000,142.70,-2.20,-11.78,31.5923175,120.7778161,2.817,13630736.320,24925148.485,2.817,0.000,0.000,0.000,0.000,0.000,0.000,0.000,17,17,4*7C
$GPGGA,070808.80,3135.5389966,N,12046.6690090,E,4,17,1.4,2.8222,M,8.315,M,00,0004*6D
$GPHPD,0,0.000,142.97,-1.90,-11.82,31.5923166,120.7778168,2.822,13630737.144,24925149.308,2.822,0.000,0.000,0.000,0.000,0.000,0.000,0.000,17,17,4*71
$GPGGA,070809.00,3135.5389440,N,12046.6690529,E,4,17,1.4,2.8196,M,8.315,M,01,0004*67
$GPHPD,0,0.000,143.01,-1.16,-11.90,31.5923157,120.7778175,2.820,13630737.980,24925150.144,2.820,0.000,0.000,0.000,0.000,0.000,0.000,0.000,17,16,4*7F
$GPGGA,070809.20,3135.5388947,N,12046.6690961,E,4,17,1.5,2.8030,M,8.315,M,01,0004*62
$GPHPD,0,0.000,143.40,-1.31,-11.96,31.5923149,120.7778183,2.803,13630738.767,24925150.952,2.803,0.000,0.000,0.000,0.000,0.000,0.000,0.000,17,15,4*7B
$GPGGA,070809.40,3135.5388370,N,12046.6691434,E,4,17,1.5,2.8043,M,8.315,M,01,0004*62
$GPHPD,0,0.000,143.59,-1.21,-12.07,31.5923140,120.7778191,2.804,13630739.682,24925151.858,2.804,0.000,0.000,0.000,0.000,0.000,0.000,0.000,17,16,4*71
$GPGGA,070809.60,3135.5387772,N,12046.6691978,E,4,17,1.5,2.7751,M,8.315,M,00,0004*66
$GPHPD,0,0.000,143.64,-1.29,-12.17,31.5923130,120.7778200,2.775,13630740.642,24925152.863,2.775,0.000,0.000,0.000,0.000,0.000,0.000,0.000,17,16,4*73
$GPGGA,070809.80,3135.5387114,N,12046.6692552,E,4,17,1.5,2.7832,M,8.315,M,00,0004*63
$GPHPD,0,0.000,143.55,-0.50,-12.26,31.5923119,120.7778209,2.783,13630741.693,24925153.938,2.783,0.000,0.000,0.000,0.000,0.000,0.000,0.000,17,15,4*7E
$GPGGA,070810.00,3135.5386411,N,12046.6693125,E,4,17,1.5,2.7577,M,8.315,M,01,0004*6A
$GPHPD,0,0.000,143.65,-1.05,-12.36,31.5923107,120.7778219,2.758,13630742.807,24925155.038,2.758,0.000,0.000,0.000,0.000,0.000,0.000,0.000,17,15,4*7C
$GPGGA,070810.20,3135.5385605,N,12046.6693802,E,4,17,1.5,2.7665,M,8.315,M,01,0004*60
$GPHPD,0,0.000,143.98,0.21,-12.43,31.5923093,120.7778230,2.767,13630744.089,24925156.324,2.767,0.000,0.000,0.000,0.000,0.000,0.000,0.000,17,15,4*54
$GPGGA,070810.40,3135.5384760,N,12046.6694435,E,4,17,1.5,2.7527,M,8.315,M,01,0004*6F
$GPHPD,0,0.000,144.03,-0.09,-12.50,31.5923079,120.7778241,2.753,13630745.417,24925157.579,2.753,0.000,0.000,0.000,0.000,0.000,0.000,0.000,17,15,4*7B
$GPGGA,070810.60,3135.5383879,N,12046.6695222,E,4,17,1.5,2.7552,M,8.315,M,00,0004*6F
$GPHPD,0,0.000,144.05,-1.77,-12.57,31.5923065,120.7778254,2.755,13630746.828,24925159.041,2.755,0.000,0.000,0.000,0.000,0.000,0.000,0.000,17,15,4*78
$GPGGA,070810.80,3135.5382950,N,12046.6696016,E,4,17,1.5,2.7756,M,8.315,M,00,0004*6A
$GPHPD,0,0.000,144.32,-1.68,-12.66,31.5923049,120.7778267,2.776,13630748.308,24925160.539,2.776,0.000,0.000,0.000,0.000,0.000,0.000,0.000,17,15,4*79
$GPGGA,070811.00,3135.5381975,N,12046.6696786,E,4,17,1.5,2.7786,M,8.315,M,01,0004*65
$GPHPD,0,0.000,145.03,-3.40,-12.74,31.5923033,120.7778280,2.779,13630749.849,24925162.035,2.779,0.000,0.000,0.000,0.000,0.000,0.000,0.000,17,15,4*71
$GPGGA,070811.20,3135.5380901,N,12046.6697624,E,4,17,1.5,2.7576,M,8.315,M,01,0004*60
$GPHPD,0,0.000,144.01,0.07,-12.83,31.5923015,120.7778294,2.758,13630751.544,24925163.671,2.758,0.000,0.000,0.000,0.000,0.000,0.000,0.000,17,15,4*58
$GPGGA,070811.40,3135.5379871,N,12046.6698498,E,4,17,1.5,2.7534,M,8.315,M,01,0004*6A
$GPHPD,0,0.000,143.45,0.80,-12.88,31.5922998,120.7778308,2.753,13630753.184,24925165.325,2.753,0.000,0.000,0.000,0.000,0.000,0.000,0.000,17,15,4*5A
$GPGGA,070811.60,3135.5378745,N,12046.6699434,E,4,17,1.5,2.7789,M,8.315,M,00,0004*63
$GPHPD,0,0.000,143.93,0.71,-12.92,31.5922979,120.7778324,2.779,13630754.973,24925167.109,2.779,0.000,0.000,0.000,0.000,0.000,0.000,0.000,17,15,4*5C
$GPGGA,070811.80,3135.5377663,N,12046.6700333,E,4,16,1.5,2.7714,M,8.315,M,00,0004*63
$GPHPD,0,0.000,143.92,-0.34,-12.98,31.5922961,120.7778339,2.771,13630756.692,24925168.823,2.771,0.000,0.000,0.000,0.000,0.000,0.000,0.000,16,15,4*73
$GPGGA,070812.00,3135.5376472,N,12046.6701281,E,4,16,1.5,2.7792,M,8.315,M,01,0004*6D
$GPHPD,0,0.000,144.06,0.63,-12.97,31.5922941,120.7778355,2.779,13630758.575,24925170.660,2.779,0.000,0.000,0.000,0.000,0.000,0.000,0.000,16,15,4*55
$GPGGA,070812.20,3135.5375300,N,12046.6702257,E,4,16,1.5,2.7861,M,8.315,M,01,0004*65
$GPHPD,0,0.000,143.90,-0.22,-13.00,31.5922922,120.7778371,2.786,13630760.438,24925172.519,2.786,0.000,0.000,0.000,0.000,0.000,0.000,0.000,16,14,4*74
$GPGGA,070812.40,3135.5374183,N,12046.6703168,E,4,16,1.5,2.7809,M,8.315,M,01,0004*6B
$GPHPD,0,0.000,143.78,-0.71,-13.00,31.5922903,120.7778386,2.781,13630762.209,24925174.268,2.781,0.000,0.000,0.000,0.000,0.000,0.000,0.000,16,14,4*7E
$GPGGA,070812.60,3135.5373021,N,12046.6704170,E,4,16,1.8,2.7669,M,8.315,M,00,0004*6D
$GPHPD,0,0.000,143.52,-0.72,-12.97,31.5922884,120.7778403,2.767,13630764.062,24925176.153,2.767,0.000,0.000,0.000,0.000,0.000,0.000,0.000,16,14,4*7E
$GPGGA,070812.80,3135.5371850,N,12046.6705099,E,4,16,1.8,2.7746,M,8.315,M,00,0004*64
$GPHPD,0,0.000,144.33,-0.03,-12.98,31.5922864,120.7778418,2.775,13630765.913,24925177.955,2.775,0.000,0.000,0.000,0.000,0.000,0.000,0.000,16,14,4*72
$GPGGA,070813.00,3135.5370660,N,12046.6706098,E,4,16,1.8,2.7888,M,8.315,M,01,0004*6F
$GPHPD,0,0.000,144.15,0.16,-12.95,31.5922844,120.7778435,2.789,13630767.806,24925179.852,2.789,0.000,0.000,0.000,0.000,0.000,0.000,0.000,16,14,4*50
$GPGGA,070813.20,3135.5369480,N,12046.6707099,E,4,15,1.9,2.7746,M,8.315,M,01,0004*66
$GPHPD,0,0.000,143.92,1.55,-12.92,31.5922825,120.7778452,2.775,13630769.684,24925181.746,2.775,0.000,0.000,0.000,0.000,0.000,0.000,0.000,15,14,4*5B
$GPGGA,070813.40,3135.5368314,N,12046.6708030,E,4,15,1.9,2.7861,M,8.315,M,01,0004*6D
$GPHPD,0,0.000,144.04,1.70,-12.91,31.5922805,120.7778467,2.786,13630771.529,24925183.548,2.786,0.000,0.000,0.000,0.000,0.000,0.000,0.000,15,14,4*50
$GPGGA,070813.60,3135.5367160,N,12046.6708976,E,4,15,1.9,2.7919,M,8.315,M,00,0004*65
$GPHPD,0,0.000,143.85,0.38,-12.89,31.5922786,120.7778483,2.792,13630773.360,24925185.361,2.792,0.000,0.000,0.000,0.000,0.000,0.000,0.000,15,14,4*56
$GPGGA,070813.80,3135.5365948,N,12046.6709932,E,4,15,1.9,2.7941,M,8.315,M,00,0004*67
$GPHPD,0,0.000,144.23,-0.20,-12.88,31.5922766,120.7778499,2.794,13630775.275,24925187.219,2.794,0.000,0.000,0.000,0.000,0.000,0.000,0.000,15,14,4*72
$GPGGA,070814.00,3135.5364684,N,12046.6710885,E,4,15,1.9,2.7916,M,8.315,M,01,0004*60
$GPHPD,0,0.000,145.03,-3.75,-12.89,31.5922745,120.7778515,2.792,13630777.263,24925189.104,2.792,0.000,0.000,0.000,0.000,0.000,0.000,0.000,15,14,4*73
$GPGGA,070814.20,3135.5363469,N,12046.6711938,E,4,14,1.9,2.8249,M,8.315,M,01,0004*6D
$GPHPD,0,0.000,143.90,-1.92,-12.88,31.5922724,120.7778532,2.825,13630779.202,24925191.081,2.825,0.000,0.000,0.000,0.000,0.000,0.000,0.000,14,13,4*7D
$GPGGA,070814.40,3135.5362318,N,12046.6712917,E,4,14,1.9,2.8330,M,8.315,M,01,0004*6A
$GPHPD,0,0.000,143.91,-3.61,-12.87,31.5922705,120.7778549,2.833,13630781.035,24925192.932,2.833,0.000,0.000,0.000,0.000,0.000,0.000,0.000,14,14,4*76
$GPGGA,070814.60,3135.5361161,N,12046.6713899,E,4,14,1.9,2.8024,M,8.315,M,00,0004*66
$GPHPD,0,0.000,143.61,-2.18,-12.87,31.5922686,120.7778565,2.802,13630782.877,24925194.790,2.802,0.000,0.000,0.000,0.000,0.000,0.000,0.000,14,14,4*7F
$GPGGA,070814.80,3135.5359927,N,12046.6714847,E,4,14,1.9,2.7845,M,8.315,M,00,0004*6D
$GPHPD,0,0.000,143.33,-1.31,-12.88,31.5922665,120.7778581,2.785,13630784.822,24925196.651,2.785,0.000,0.000,0.000,0.000,0.000,0.000,0.000,14,14,4*70
$GPGGA,070815.00,3135.5358663,N,12046.6715852,E,4,14,2.0,2.7742,M,8.315,M,01,0004*6C
$GPHPD,0,0.000,144.09,-2.61,-12.88,31.5922644,120.7778598,2.774,13630786.821,24925198.599,2.774,0.000,0.000,0.000,0.000,0.000,0.000,0.000,14,14,4*7B
$GPGGA,070815.20,3135.5357485,N,12046.6716930,E,4,14,1.9,2.7778,M,8.315,M,01,0004*6E
$GPHPD,0,0.000,144.35,-1.86,-12.87,31.5922625,120.7778616,2.778,13630788.712,24925200.585,2.778,0.000,0.000,0.000,0.000,0.000,0.000,0.000,14,14,4*7D
$GPGGA,070815.40,3135.5356291,N,12046.6718013,E,4,16,1.9,2.8168,M,8.315,M,01,0004*66
$GPHPD,0,0.000,144.26,-1.90,-12.87,31.5922605,120.7778634,2.817,13630790.627,24925202.586,2.817,0.000,0.000,0.000,0.000,0.000,0.000,0.000,16,15,4*76
$GPGGA,070815.60,3135.5354972,N,12046.6719058,E,4,16,1.8,2.8125,M,8.315,M,00,0004*67
$GPHPD,0,0.000,145.06,-5.05,-12.85,31.5922583,120.7778651,2.813,13630792.712,24925204.614,2.813,0.000,0.000,0.000,0.000,0.000,0.000,0.000,16,15,4*7A
$GPGGA,070815.80,3135.5353714,N,12046.6720145,E,4,16,2.0,2.7937,M,8.315,M,00,0004*68
$GPHPD,0,0.000,145.03,-5.07,-12.85,31.5922562,120.7778669,2.794,13630794.719,24925206.657,2.794,0.000,0.000,0.000,0.000,0.000,0.000,0.000,16,15,4*71
$GPGGA,070816.00,3135.5352437,N,12046.6721065,E,4,15,1.8,2.7458,M,8.315,M,01,0004*6F
$GPHPD,0,0.000,145.09,-4.67,-12.83,31.5922541,120.7778684,2.746,13630796.719,24925208.510,2.746,0.000,0.000,0.000,0.000,0.000,0.000,0.000,15,15,4*77
$GPGGA,070816.20,3135.5351166,N,12046.6722132,E,4,15,1.8,2.7444,M,8.315,M,01,0004*62
$GPHPD,0,0.000,145.04,-4.51,-12.82,31.5922519,120.7778702,2.744,13630798.740,24925210.537,2.744,0.000,0.000,0.000,0.000,0.000,0.000,0.000,15,15,4*72
$GPGGA,070816.40,3135.5349874,N,12046.6723161,E,4,15,2.0,2.7377,M,8.315,M,01,0004*6C
$GPHPD,0,0.000,144.37,-1.91,-12.80,31.5922498,120.7778719,2.738,13630800.784,24925212.530,2.738,0.000,0.000,0.000,0.000,0.000,0.000,0.000,15,15,4*79
$GPGGA,070816.60,3135.5348575,N,12046.6724168,E,4,15,2.0,2.7277,M,8.315,M,00,0004*6D
$GPHPD,0,0.000,144.86,-0.64,-12.79,31.5922476,120.7778736,2.728,13630802.833,24925214.501,2.728,0.000,0.000,0.000,0.000,0.000,0.000,0.000,15,15,4*76
$GPGGA,070816.80,3135.5347251,N,12046.6725288,E,4,15,2.0,2.7668,M,8.315,M,00,0004*6B
$GPHPD,0,0.000,144.36,0.26,-12.77,31.5922454,120.7778755,2.767,13630804.940,24925216.622,2.767,0.000,0.000,0.000,0.000,0.000,0.000,0.000,15,15,4*5E
$GPGGA,070817.00,3135.5345986,N,12046.6726247,E,4,15,2.0,2.7254,M,8.315,M,01,0004*6B
$GPHPD,0,0.000,143.90,-0.81,-12.77,31.5922433,120.7778771,2.725,13630806.931,24925218.515,2.725,0.000,0.000,0.000,0.000,0.000,0.000,0.000,15,15,4*7F
$GPGGA,070817.20,3135.5344698,N,12046.6727316,E,4,15,2.0,2.7537,M,8.315,M,01,0004*6E
$GPHPD,0,0.000,144.03,-0.13,-12.76,31.5922412,120.7778789,2.754,13630808.977,24925220.554,2.754,0.000,0.000,0.000,0.000,0.000,0.000,0.000,15,15,4*7E
