$GPGGA,071147.60,3135.4688562,N,12046.7267470,E,4,17,1.4,2.8068,M,8.319,M,00,0004*6A
$GPHPD,0,0.000,146.72,-0.62,-13.44,31.5911476,120.7787791,2.807,13631850.321,24926253.928,2.807,0.000,0.000,0.000,0.000,0.000,0.000,0.000,17,17,4*72
$GPGGA,071147.80,3135.4688509,N,12046.7267515,E,4,17,1.4,2.8127,M,8.319,M,00,0004*61
$GPHPD,0,0.000,146.74,-0.40,-13.52,31.5911475,120.7787792,2.813,13631850.405,24926254.013,2.813,0.000,0.000,0.000,0.000,0.000,0.000,0.000,17,17,4*74
$GPGGA,071148.00,3135.4688404,N,12046.7267597,E,4,17,1.4,2.8142,M,8.319,M,01,0004*62
$GPHPD,0,0.000,146.88,-0.71,-13.63,31.5911473,120.7787793,2.814,13631850.571,24926254.173,2.814,0.000,0.000,0.000,0.000,0.000,0.000,0.000,17,17,4*75
$GPGGA,071148.20,3135.4688183,N,12046.7267745,E,4,17,1.4,2.8183,M,8.319,M,01,0004*6A
$GPHPD,0,0.000,147.01,-0.84,-13.73,31.5911470,120.7787796,2.818,13631850.915,24926254.480,2.818,0.000,0.000,0.000,0.000,0.000,0.000,0.000,17,17,4*7F
$GPGGA,071148.40,3135.4687910,N,12046.7267926,E,4,17,1.4,2.8181,M,8.319,M,01,0004*68
$GPHPD,0,0.000,146.92,-1.12,-13.86,31.5911465,120.7787799,2.818,13631851.339,24926254.858,2.818,0.000,0.000,0.000,0.000,0.000,0.000,0.000,17,17,4*77
$GPGGA,071148.60,3135.4687531,N,12046.7268199,E,4,17,1.4,2.7977,M,8.319,M,00,0004*69
$GPHPD,0,0.000,146.85,-1.24,-14.00,31.5911459,120.7787803,2.798,13631851.933,24926255.407,2.798,0.000,0.000,0.000,0.000,0.000,0.000,0.000,17,17,4*79
$GPGGA,071148.80,3135.4687011,N,12046.7268579,E,4,17,1.4,2.8194,M,8.319,M,00,0004*60
$GPHPD,0,0.000,147.06,-0.54,-14.11,31.5911450,120.7787810,2.819,13631852.749,24926256.168,2.819,0.000,0.000,0.000,0.000,0.000,0.000,0.000,17,17,4*71
$GPGGA,071149.00,3135.4686493,N,12046.7268967,E,4,17,1.4,2.8105,M,8.319,M,01,0004*6C
$GPHPD,0,0.000,146.86,-0.92,-14.19,31.5911442,120.7787816,2.811,13631853.563,24926256.938,2.811,0.000,0.000,0.000,0.000,0.000,0.000,0.000,17,17,4*79
$GPGGA,071149.20,3135.4685841,N,12046.7269471,E,4,17,1.4,2.8042,M,8.319,M,01,0004*67
$GPHPD,0,0.000,147.09,-0.75,-14.32,31.5911431,120.7787825,2.804,13631854.591,24926257.925,2.804,0.000,0.000,0.000,0.000,0.000,0.000,0.000,17,17,4*7C
$GPGGA,071149.40,3135.4685136,N,12046.7269998,E,4,17,1.4,2.8062,M,8.319,M,01,0004*60
$GPHPD,0,0.000,147.17,-0.29,-14.44,31.5911419,120.7787833,2.806,13631855.699,24926258.971,2.806,0.000,0.000,0.000,0.000,0.000,0.000,0.000,17,17,4*72
$GPGGA,071149.60,3135.4684345,N,12046.7270601,E,4,17,1.4,2.8145,M,8.319,M,00,0004*67
$GPHPD,0,0.000,147.15,-0.18,-14.53,31.5911406,120.7787843,2.815,13631856.945,24926260.159,2.815,0.000,0.000,0.000,0.000,0.000,0.000,0.000,17,17,4*79
$GPGGA,071149.80,3135.4683517,N,12046.7271171,E,4,17,1.4,2.7904,M,8.319,M,00,0004*6C
$GPHPD,0,0.000,147.31,-0.52,-14.59,31.5911392,120.7787853,2.790,13631858.237,24926261.328,2.790,0.000,0.000,0.000,0.000,0.000,0.000,0.000,17,17,4*75
$GPGGA,071150.00,3135.4682624,N,12046.7271825,E,4,17,1.4,2.7957,M,8.319,M,01,0004*61
$GPHPD,0,0.000,147.41,0.43,-14.57,31.5911377,120.7787864,2.796,13631859.638,24926262.637,2.796,0.000,0.000,0.000,0.000,0.000,0.000,0.000,17,17,4*5C
$GPGGA,071150.20,3135.4681832,N,12046.7272376,E,4,17,1.4,2.8073,M,8.319,M,01,0004*67
$GPHPD,0,0.000,147.62,0.37,-14.39,31.5911364,120.7787873,2.807,13631860.875,24926263.762,2.807,0.000,0.000,0.000,0.000,0.000,0.000,0.000,17,17,4*5F
$GPGGA,071150.40,3135.4681161,N,12046.7272859,E,4,17,1.4,2.8127,M,8.319,M,01,0004*68
$GPHPD,0,0.000,147.64,-0.20,-14.18,31.5911353,120.7787881,2.813,13631861.926,24926264.736,2.813,0.000,0.000,0.000,0.000,0.000,0.000,0.000,17,17,4*78
$GPGGA,071150.60,3135.4680633,N,12046.7273231,E,4,17,1.4,2.7920,M,8.319,M,01,0004*6E
$GPHPD,0,0.000,147.87,-0.25,-14.08,31.5911344,120.7787887,2.792,13631862.751,24926265.492,2.792,0.000,0.000,0.000,0.000,0.000,0.000,0.000,17,17,4*70
$GPGGA,071150.80,3135.4680117,N,12046.7273551,E,4,17,1.4,2.8087,M,8.319,M,00,0004*6A
$GPHPD,0,0.000,148.03,0.59,-14.05,31.5911335,120.7787893,2.809,13631863.549,24926266.178,2.809,0.000,0.000,0.000,0.000,0.000,0.000,0.000,17,17,4*53
$GPGGA,071151.00,3135.4679684,N,12046.7273882,E,4,17,1.4,2.8051,M,8.319,M,01,0004*61
$GPHPD,0,0.000,148.05,0.35,-13.97,31.5911328,120.7787898,2.805,13631864.231,24926266.829,2.805,0.000,0.000,0.000,0.000,0.000,0.000,0.000,17,17,4*56
$GPGGA,071151.20,3135.4679319,N,12046.7274148,E,4,17,1.4,2.8034,M,8.319,M,01,0004*69
$GPHPD,0,0.000,148.38,0.39,-13.91,31.5911322,120.7787902,2.803,13631864.803,24926267.362,2.803,0.000,0.000,0.000,0.000,0.000,0.000,0.000,17,17,4*54
$GPGGA,071151.40,3135.4679012,N,12046.7274368,E,4,17,1.4,2.8186,M,8.319,M,01,0004*6F
$GPHPD,0,0.000,148.48,0.34,-13.84,31.5911317,120.7787906,2.819,13631865.284,24926267.806,2.819,0.000,0.000,0.000,0.000,0.000,0.000,0.000,17,17,4*55
$GPGGA,071151.60,3135.4678701,N,12046.7274565,E,4,17,1.4,2.8034,M,8.319,M,00,0004*6B
$GPHPD,0,0.000,148.72,0.05,-13.80,31.5911312,120.7787909,2.803,13631865.766,24926268.225,2.803,0.000,0.000,0.000,0.000,0.000,0.000,0.000,17,17,4*5D
$GPGGA,071151.80,3135.4678459,N,12046.7274733,E,4,17,1.4,2.8060,M,8.319,M,00,0004*6B
$GPHPD,0,0.000,148.82,0.21,-13.81,31.5911308,120.7787912,2.806,13631866.144,24926268.568,2.806,0.000,0.000,0.000,0.000,0.000,0.000,0.000,17,17,4*5F
$GPGGA,071152.00,3135.4678166,N,12046.7274925,E,4,17,1.4,2.8032,M,8.319,M,01,0004*66
$GPHPD,0,0.000,148.74,0.27,-13.87,31.5911303,120.7787915,2.803,13631866.599,24926268.971,2.803,0.000,0.000,0.000,0.000,0.000,0.000,0.000,17,17,4*5A
$GPGGA,071152.20,3135.4677870,N,12046.7275111,E,4,17,1.4,2.7951,M,8.319,M,01,0004*68
$GPHPD,0,0.000,148.82,0.55,-13.94,31.5911298,120.7787919,2.795,13631867.057,24926269.367,2.795,0.000,0.000,0.000,0.000,0.000,0.000,0.000,17,17,4*51
$GPGGA,071152.40,3135.4677489,N,12046.7275343,E,4,17,1.4,2.7964,M,8.319,M,01,0004*67
$GPHPD,0,0.000,148.96,0.79,-14.00,31.5911291,120.7787922,2.796,13631867.645,24926269.869,2.796,0.000,0.000,0.000,0.000,0.000,0.000,0.000,17,17,4*51
$GPGGA,071152.60,3135.4677092,N,12046.7275604,E,4,17,1.4,2.7913,M,8.319,M,00,0004*6C
$GPHPD,0,0.000,149.05,0.77,-14.04,31.5911285,120.7787927,2.791,13631868.262,24926270.415,2.791,0.000,0.000,0.000,0.000,0.000,0.000,0.000,17,17,4*51
$GPGGA,071152.80,3135.4676674,N,12046.7275870,E,4,17,1.4,2.7960,M,8.319,M,00,0004*64
$GPHPD,0,0.000,149.10,0.97,-14.03,31.5911278,120.7787931,2.796,13631868.910,24926270.979,2.796,0.000,0.000,0.000,0.000,0.000,0.000,0.000,17,17,4*50
$GPGGA,071153.00,3135.4676254,N,12046.7276161,E,4,17,1.4,2.7935,M,8.319,M,01,0004*60
$GPHPD,0,0.000,149.32,0.48,-13.97,31.5911271,120.7787936,2.794,13631869.565,24926271.574,2.794,0.000,0.000,0.000,0.000,0.000,0.000,0.000,17,17,4*59
$GPGGA,071153.20,3135.4675863,N,12046.7276411,E,4,17,1.4,2.8009,M,8.319,M,01,0004*64
$GPHPD,0,0.000,149.57,0.94,-13.88,31.5911264,120.7787940,2.801,13631870.171,24926272.103,2.801,0.000,0.000,0.000,0.000,0.000,0.000,0.000,17,17,4*5E
$GPGGA,071153.40,3135.4675538,N,12046.7276632,E,4,17,1.4,2.8087,M,8.319,M,01,0004*64
$GPHPD,0,0.000,149.73,0.60,-13.77,31.5911259,120.7787944,2.809,13631870.678,24926272.559,2.809,0.000,0.000,0.000,0.000,0.000,0.000,0.000,17,17,4*5C
$GPGGA,071153.60,3135.4675289,N,12046.7276797,E,4,17,1.4,2.8008,M,8.319,M,00,0004*63
$GPHPD,0,0.000,149.97,0.52,-13.69,31.5911255,120.7787947,2.801,13631871.065,24926272.903,2.801,0.000,0.000,0.000,0.000,0.000,0.000,0.000,17,17,4*5F
$GPGGA,071153.80,3135.4675092,N,12046.7276914,E,4,17,1.4,2.8039,M,8.319,M,00,0004*62
$GPHPD,0,0.000,150.04,0.54,-13.63,31.5911252,120.7787949,2.804,13631871.369,24926273.159,2.804,0.000,0.000,0.000,0.000,0.000,0.000,0.000,17,17,4*51
$GPGGA,071154.00,3135.4674957,N,12046.7276995,E,4,17,1.4,2.8056,M,8.319,M,01,0004*6D
$GPHPD,0,0.000,150.01,0.69,-13.58,31.5911249,120.7787950,2.806,13631871.577,24926273.335,2.806,0.000,0.000,0.000,0.000,0.000,0.000,0.000,17,17,4*51
$GPGGA,071154.20,3135.4674812,N,12046.7277081,E,4,17,1.4,2.8094,M,8.319,M,01,0004*6C
$GPHPD,0,0.000,150.07,0.70,-13.57,31.5911247,120.7787951,2.809,13631871.800,24926273.523,2.809,0.000,0.000,0.000,0.000,0.000,0.000,0.000,17,17,4*53
$GPGGA,071154.40,3135.4674688,N,12046.7277168,E,4,17,1.4,2.8011,M,8.319,M,01,0004*6C
$GPHPD,0,0.000,150.09,0.59,-13.58,31.5911245,120.7787953,2.801,13631871.994,24926273.700,2.801,0.000,0.000,0.000,0.000,0.000,0.000,0.000,17,17,4*56
$GPGGA,071154.60,3135.4674537,N,12046.7277254,E,4,17,1.4,2.8003,M,8.319,M,00,0004*67
$GPHPD,0,0.000,150.14,0.84,-13.62,31.5911242,120.7787954,2.800,13631872.226,24926273.892,2.800,0.000,0.000,0.000,0.000,0.000,0.000,0.000,17,17,4*56
$GPGGA,071154.80,3135.4674353,N,12046.7277360,E,4,17,1.4,2.8001,M,8.319,M,00,0004*69
$GPHPD,0,0.000,150.12,0.99,-13.70,31.5911239,120.7787956,2.800,13631872.509,24926274.127,2.800,0.000,0.000,0.000,0.000,0.000,0.000,0.000,17,17,4*5B
$GPGGA,071155.00,3135.4674113,N,12046.7277524,E,4,17,1.4,2.8047,M,8.319,M,01,0004*63
$GPHPD,0,0.000,150.27,1.02,-13.78,31.5911235,120.7787959,2.805,13631872.883,24926274.464,2.805,0.000,0.000,0.000,0.000,0.000,0.000,0.000,17,17,4*58
$GPGGA,071155.20,3135.4673789,N,12046.7277737,E,4,17,1.4,2.8010,M,8.319,M,01,0004*61
$GPHPD,0,0.000,150.55,0.79,-13.88,31.5911230,120.7787962,2.801,13631873.386,24926274.910,2.801,0.000,0.000,0.000,0.000,0.000,0.000,0.000,17,17,4*53
$GPGGA,071155.40,3135.4673392,N,12046.7277983,E,4,17,1.4,2.8007,M,8.319,M,01,0004*6E
$GPHPD,0,0.000,150.64,0.89,-13.98,31.5911223,120.7787966,2.801,13631874.000,24926275.438,2.801,0.000,0.000,0.000,0.000,0.000,0.000,0.000,17,17,4*55
$GPGGA,071155.60,3135.4672892,N,12046.7278299,E,4,17,1.4,2.8153,M,8.319,M,00,0004*68
$GPHPD,0,0.000,150.91,0.65,-14.05,31.5911215,120.7787972,2.815,13631874.774,24926276.110,2.815,0.000,0.000,0.000,0.000,0.000,0.000,0.000,17,17,4*56
$GPGGA,071155.80,3135.4672362,N,12046.7278608,E,4,17,1.4,2.8006,M,8.319,M,00,0004*6F
$GPHPD,0,0.000,151.08,0.53,-14.07,31.5911206,120.7787977,2.801,13631875.590,24926276.791,2.801,0.000,0.000,0.000,0.000,0.000,0.000,0.000,17,17,4*51
$GPGGA,071156.00,3135.4671820,N,12046.7278943,E,4,17,1.4,2.8054,M,8.319,M,01,0004*6C
$GPHPD,0,0.000,151.40,0.70,-14.01,31.5911197,120.7787982,2.805,13631876.428,24926277.511,2.805,0.000,0.000,0.000,0.000,0.000,0.000,0.000,17,17,4*51
$GPGGA,071156.20,3135.4671315,N,12046.7279253,E,4,17,1.4,2.8019,M,8.319,M,01,0004*61
$GPHPD,0,0.000,151.67,0.50,-13.88,31.5911189,120.7787988,2.802,13631877.208,24926278.178,2.802,0.000,0.000,0.000,0.000,0.000,0.000,0.000,17,17,4*54
$GPGGA,071156.40,3135.4670861,N,12046.7279531,E,4,17,1.4,2.8161,M,8.319,M,01,0004*63
$GPHPD,0,0.000,151.89,0.87,-13.77,31.5911181,120.7787992,2.816,13631877.909,24926278.778,2.816,0.000,0.000,0.000,0.000,0.000,0.000,0.000,17,17,4*51
$GPGGA,071156.60,3135.4670471,N,12046.7279784,E,4,17,1.4,2.8181,M,8.319,M,00,0004*6F
$GPHPD,0,0.000,152.07,0.24,-13.70,31.5911175,120.7787996,2.818,13631878.515,24926279.310,2.818,0.000,0.000,0.000,0.000,0.000,0.000,0.000,17,17,4*50
$GPGGA,071156.80,3135.4670109,N,12046.7279973,E,4,17,1.4,2.8219,M,8.319,M,00,0004*6F
$GPHPD,0,0.000,152.36,0.27,-13.64,31.5911168,120.7788000,2.822,13631879.067,24926279.749,2.822,0.000,0.000,0.000,0.000,0.000,0.000,0.000,17,17,4*58
$GPGGA,071157.00,3135.4669772,N,12046.7280158,E,4,17,1.4,2.8223,M,8.319,M,01,0004*6B
$GPHPD,0,0.000,152.62,0.14,-13.62,31.5911163,120.7788003,2.822,13631879.584,24926280.168,2.822,0.000,0.000,0.000,0.000,0.000,0.000,0.000,17,17,4*5C
$GPGGA,071157.20,3135.4669432,N,12046.7280363,E,4,17,1.4,2.8160,M,8.319,M,01,0004*60
$GPHPD,0,0.000,152.65,0.33,-13.61,31.5911157,120.7788006,2.816,13631880.108,24926280.613,2.816,0.000,0.000,0.000,0.000,0.000,0.000,0.000,17,17,4*52
$GPGGA,071157.40,3135.4669051,N,12046.7280573,E,4,17,1.4,2.8223,M,8.319,M,01,0004*64
$GPHPD,0,0.000,152.94,0.36,-13.64,31.5911151,120.7788010,2.822,13631880.692,24926281.088,2.822,0.000,0.000,0.000,0.000,0.000,0.000,0.000,17,17,4*5C
$GPGGA,071157.60,3135.4668664,N,12046.7280772,E,4,17,1.4,2.8254,M,8.319,M,01,0004*64
$GPHPD,0,0.000,152.94,0.24,-13.68,31.5911144,120.7788013,2.825,13631881.282,24926281.554,2.825,0.000,0.000,0.000,0.000,0.000,0.000,0.000,17,17,4*54
$GPGGA,071157.80,3135.4668224,N,12046.7281021,E,4,17,1.4,2.8192,M,8.319,M,00,0004*62
$GPHPD,0,0.000,153.17,0.03,-13.74,31.5911137,120.7788017,2.819,13631881.958,24926282.110,2.819,0.000,0.000,0.000,0.000,0.000,0.000,0.000,17,17,4*5D
$GPGGA,071158.00,3135.4667716,N,12046.7281331,E,4,17,1.4,2.8191,M,8.319,M,01,0004*6E
$GPHPD,0,0.000,153.35,0.23,-13.80,31.5911129,120.7788022,2.819,13631882.742,24926282.780,2.819,0.000,0.000,0.000,0.000,0.000,0.000,0.000,17,17,4*54
$GPGGA,071158.20,3135.4667119,N,12046.7281670,E,4,17,1.4,2.8319,M,8.319,M,01,0004*67
$GPHPD,0,0.000,153.70,0.24,-13.85,31.5911119,120.7788028,2.832,13631883.659,24926283.536,2.832,0.000,0.000,0.000,0.000,0.000,0.000,0.000,17,17,4*5A
$GPGGA,071158.40,3135.4666457,N,12046.7282013,E,4,17,1.4,2.8305,M,8.319,M,01,0004*62
$GPHPD,0,0.000,153.80,0.09,-13.91,31.5911108,120.7788034,2.831,13631884.669,24926284.335,2.831,0.000,0.000,0.000,0.000,0.000,0.000,0.000,17,17,4*54
$GPGGA,071158.60,3135.4665710,N,12046.7282431,E,4,17,1.4,2.8332,M,8.319,M,00,0004*62
$GPHPD,0,0.000,154.07,0.19,-13.95,31.5911095,120.7788041,2.833,13631885.815,24926285.274,2.833,0.000,0.000,0.000,0.000,0.000,0.000,0.000,17,17,4*5F
$GPGGA,071158.80,3135.4664919,N,12046.7282847,E,4,17,1.4,2.8399,M,8.319,M,00,0004*66
$GPHPD,0,0.000,154.32,0.44,-13.95,31.5911082,120.7788047,2.840,13631887.023,24926286.236,2.840,0.000,0.000,0.000,0.000,0.000,0.000,0.000,17,17,4*5B
$GPGGA,071159.00,3135.4664012,N,12046.7283301,E,4,17,1.4,2.8489,M,8.319,M,01,0004*62
$GPHPD,0,0.000,154.74,-0.06,-13.93,31.5911067,120.7788055,2.849,13631888.404,24926287.312,2.849,0.000,0.000,0.000,0.000,0.000,0.000,0.000,17,17,4*74
$GPGGA,071159.20,3135.4663107,N,12046.7283733,E,4,17,1.4,2.8371,M,8.319,M,01,0004*67
$GPHPD,0,0.000,155.39,-0.32,-13.91,31.5911052,120.7788062,2.837,13631889.777,24926288.359,2.837,0.000,0.000,0.000,0.000,0.000,0.000,0.000,17,17,4*7D
$GPGGA,071159.40,3135.4662175,N,12046.7284180,E,4,17,1.4,2.8538,M,8.319,M,01,0004*67
$GPHPD,0,0.000,155.85,0.23,-13.82,31.5911036,120.7788070,2.854,13631891.192,24926289.441,2.854,0.000,0.000,0.000,0.000,0.000,0.000,0.000,17,17,4*5F
$GPGGA,071159.60,3135.4661280,N,12046.7284588,E,4,17,1.4,2.8425,M,8.319,M,00,0004*6F
$GPHPD,0,0.000,156.38,-0.38,-13.68,31.5911021,120.7788076,2.843,13631892.546,24926290.454,2.843,0.000,0.000,0.000,0.000,0.000,0.000,0.000,17,17,4*7B
$GPGGA,071159.80,3135.4660478,N,12046.7284930,E,4,17,1.4,2.8456,M,8.319,M,00,0004*6A
$GPHPD,0,0.000,157.01,-0.04,-13.56,31.5911008,120.7788082,2.846,13631893.755,24926291.333,2.846,0.000,0.000,0.000,0.000,0.000,0.000,0.000,17,17,4*74
$GPGGA,071200.00,3135.4659734,N,12046.7285244,E,4,17,1.4,2.8470,M,8.319,M,01,0004*60
$GPHPD,0,0.000,157.54,-0.27,-13.45,31.5910996,120.7788087,2.847,13631894.876,24926292.145,2.847,0.000,0.000,0.000,0.000,0.000,0.000,0.000,17,17,4*74
$GPGGA,071200.20,3135.4659065,N,12046.7285549,E,4,17,1.4,2.8419,M,8.319,M,01,0004*64
$GPHPD,0,0.000,158.02,-0.37,-13.39,31.5910984,120.7788092,2.842,13631895.888,24926292.903,2.842,0.000,0.000,0.000,0.000,0.000,0.000,0.000,17,17,4*7F
$GPGGA,071200.40,3135.4658436,N,12046.7285801,E,4,17,1.4,2.8473,M,8.319,M,01,0004*6C
$GPHPD,0,0.000,158.40,-0.27,-13.32,31.5910974,120.7788097,2.847,13631896.833,24926293.573,2.847,0.000,0.000,0.000,0.000,0.000,0.000,0.000,17,17,4*70
$GPGGA,071200.60,3135.4657864,N,12046.7286064,E,4,17,1.4,2.8506,M,8.319,M,00,0004*60
$GPHPD,0,0.000,158.54,-0.21,-13.25,31.5910964,120.7788101,2.851,13631897.699,24926294.223,2.851,0.000,0.000,0.000,0.000,0.000,0.000,0.000,17,17,4*70
$GPGGA,071200.80,3135.4657328,N,12046.7286274,E,4,17,1.4,2.8502,M,8.319,M,00,0004*6A
$GPHPD,0,0.000,159.17,-0.21,-13.19,31.5910955,120.7788105,2.850,13631898.503,24926294.788,2.850,0.000,0.000,0.000,0.000,0.000,0.000,0.000,17,17,4*74
$GPGGA,071201.00,3135.4656868,N,12046.7286464,E,4,17,1.4,2.8460,M,8.319,M,01,0004*6E
$GPHPD,0,0.000,159.31,-0.26,-13.12,31.5910948,120.7788108,2.846,13631899.195,24926295.285,2.846,0.000,0.000,0.000,0.000,0.000,0.000,0.000,17,17,4*7E
$GPGGA,071201.20,3135.4656392,N,12046.7286653,E,4,17,1.4,2.8552,M,8.319,M,01,0004*64
$GPHPD,0,0.000,159.71,-0.17,-13.09,31.5910940,120.7788111,2.855,13631899.910,24926295.790,2.855,0.000,0.000,0.000,0.000,0.000,0.000,0.000,17,17,4*76
$GPGGA,071201.40,3135.4655986,N,12046.7286831,E,4,17,1.4,2.8486,M,8.319,M,01,0004*6C
$GPHPD,0,0.000,159.78,-0.36,-13.08,31.5910933,120.7788114,2.849,13631900.523,24926296.241,2.849,0.000,0.000,0.000,0.000,0.000,0.000,0.000,17,17,4*7B
$GPGGA,071201.60,3135.4655540,N,12046.7286984,E,4,17,1.4,2.8581,M,8.319,M,00,0004*60
$GPHPD,0,0.000,160.12,-0.34,-13.09,31.5910926,120.7788116,2.858,13631901.188,24926296.685,2.858,0.000,0.000,0.000,0.000,0.000,0.000,0.000,17,17,4*70
$GPGGA,071201.80,3135.4655151,N,12046.7287146,E,4,17,1.4,2.8504,M,8.319,M,00,0004*60
$GPHPD,0,0.000,160.24,-0.05,-13.11,31.5910919,120.7788119,2.850,13631901.773,24926297.107,2.850,0.000,0.000,0.000,0.000,0.000,0.000,0.000,17,17,4*73
$GPGGA,071202.00,3135.4654712,N,12046.7287269,E,4,17,1.4,2.8558,M,8.319,M,01,0004*6D
$GPHPD,0,0.000,160.59,-0.09,-13.14,31.5910912,120.7788121,2.856,13631902.422,24926297.511,2.856,0.000,0.000,0.000,0.000,0.000,0.000,0.000,17,17,4*77
$GPGGA,071202.20,3135.4654246,N,12046.7287496,E,4,17,1.4,2.8567,M,8.319,M,01,0004*61
$GPHPD,0,0.000,160.58,-0.28,-13.18,31.5910904,120.7788125,2.857,13631903.130,24926298.056,2.857,0.000,0.000,0.000,0.000,0.000,0.000,0.000,17,17,4*74
$GPGGA,071202.40,3135.4653751,N,12046.7287667,E,4,17,1.4,2.8525,M,8.319,M,01,0004*69
$GPHPD,0,0.000,160.93,-0.38,-13.24,31.5910896,120.7788128,2.853,13631903.868,24926298.550,2.853,0.000,0.000,0.000,0.000,0.000,0.000,0.000,17,17,4*7D
$GPGGA,071202.60,3135.4653208,N,12046.7287864,E,4,17,1.4,2.8514,M,8.319,M,00,0004*6C
$GPHPD,0,0.000,161.15,-0.42,-13.25,31.5910887,120.7788131,2.851,13631904.680,24926299.104,2.851,0.000,0.000,0.000,0.000,0.000,0.000,0.000,17,17,4*7D
$GPGGA,071202.80,3135.4652655,N,12046.7288069,E,4,17,1.4,2.8503,M,8.319,M,00,0004*63
$GPHPD,0,0.000,161.12,-0.11,-13.26,31.5910878,120.7788134,2.850,13631905.507,24926299.673,2.850,0.000,0.000,0.000,0.000,0.000,0.000,0.000,17,17,4*70
$GPGGA,071203.00,3135.4652062,N,12046.7288275,E,4,17,1.4,2.8494,M,8.319,M,01,0004*69
$GPHPD,0,0.000,161.37,-0.07,-13.30,31.5910868,120.7788138,2.849,13631906.391,24926300.267,2.849,0.000,0.000,0.000,0.000,0.000,0.000,0.000,17,17,4*70
$GPGGA,071203.20,3135.4651431,N,12046.7288504,E,4,17,1.4,2.8477,M,8.319,M,01,0004*66
$GPHPD,0,0.000,161.66,-0.02,-13.33,31.5910857,120.7788142,2.848,13631907.334,24926300.910,2.848,0.000,0.000,0.000,0.000,0.000,0.000,0.000,17,17,4*76
$GPGGA,071203.40,3135.4650756,N,12046.7288759,E,4,17,1.4,2.8454,M,8.319,M,01,0004*68
$GPHPD,0,0.000,161.71,-0.08,-13.33,31.5910846,120.7788146,2.845,13631908.345,24926301.611,2.845,0.000,0.000,0.000,0.000,0.000,0.000,0.000,17,17,4*78
$GPGGA,071203.60,3135.4650077,N,12046.7288991,E,4,17,1.4,2.8485,M,8.319,M,00,0004*69
$GPHPD,0,0.000,161.70,-0.26,-13.31,31.5910835,120.7788150,2.849,13631909.357,24926302.286,2.849,0.000,0.000,0.000,0.000,0.000,0.000,0.000,17,17,4*7F
$GPGGA,071203.80,3135.4649411,N,12046.7289253,E,4,17,1.4,2.8467,M,8.319,M,00,0004*63
$GPHPD,0,0.000,161.63,-0.83,-13.29,31.5910824,120.7788154,2.847,13631910.356,24926302.990,2.847,0.000,0.000,0.000,0.000,0.000,0.000,0.000,17,17,4*7A
$GPGGA,071204.00,3135.4648759,N,12046.7289484,E,4,17,1.4,2.8465,M,8.319,M,01,0004*6D
$GPHPD,0,0.000,161.82,-0.28,-13.29,31.5910813,120.7788158,2.847,13631911.330,24926303.648,2.847,0.000,0.000,0.000,0.000,0.000,0.000,0.000,17,17,4*76
$GPGGA,071204.20,3135.4648097,N,12046.7289713,E,4,17,1.4,2.8492,M,8.319,M,01,0004*6F
$GPHPD,0,0.000,161.88,-0.25,-13.28,31.5910802,120.7788162,2.849,13631912.317,24926304.309,2.849,0.000,0.000,0.000,0.000,0.000,0.000,0.000,17,17,4*78
$GPGGA,071204.40,3135.4647441,N,12046.7289947,E,4,17,1.4,2.8469,M,8.319,M,01,0004*62
$GPHPD,0,0.000,161.91,-0.27,-13.27,31.5910791,120.7788166,2.847,13631913.296,24926304.973,2.847,0.000,0.000,0.000,0.000,0.000,0.000,0.000,17,17,4*72
$GPGGA,071204.60,3135.4646785,N,12046.7290156,E,4,17,1.4,2.8593,M,8.319,M,00,0004*6F
$GPHPD,0,0.000,162.19,-0.32,-13.28,31.5910780,120.7788169,2.859,13631914.271,24926305.607,2.859,0.000,0.000,0.000,0.000,0.000,0.000,0.000,17,17,4*76
$GPGGA,071204.80,3135.4646149,N,12046.7290366,E,4,17,1.4,2.8415,M,8.319,M,00,0004*69
$GPHPD,0,0.000,161.74,-0.48,-13.30,31.5910769,120.7788173,2.842,13631915.217,24926306.231,2.842,0.000,0.000,0.000,0.000,0.000,0.000,0.000,17,17,4*75
$GPGGA,071205.00,3135.4645466,N,12046.7290608,E,4,17,1.4,2.8478,M,8.319,M,01,0004*6C
$GPHPD,0,0.000,161.99,-0.21,-13.32,31.5910758,120.7788177,2.848,13631916.237,24926306.920,2.848,0.000,0.000,0.000,0.000,0.000,0.000,0.000,17,17,4*77
$GPGGA,071205.20,3135.4644838,N,12046.7290844,E,4,17,1.4,2.8389,M,8.319,M,01,0004*67
$GPHPD,0,0.000,161.94,-0.53,-13.32,31.5910747,120.7788181,2.839,13631917.177,24926307.571,2.839,0.000,0.000,0.000,0.000,0.000,0.000,0.000,17,17,4*77
$GPGGA,071205.40,3135.4644156,N,12046.7291077,E,4,17,1.4,2.8542,M,8.319,M,01,0004*68
$GPHPD,0,0.000,162.25,-0.31,-13.31,31.5910736,120.7788185,2.854,13631918.193,24926308.249,2.854,0.000,0.000,0.000,0.000,0.000,0.000,0.000,17,17,4*7D
$GPGGA,071205.60,3135.4643522,N,12046.7291325,E,4,17,1.4,2.8528,M,8.319,M,00,0004*63
$GPHPD,0,0.000,162.21,-0.54,-13.30,31.5910725,120.7788189,2.853,13631919.144,24926308.917,2.853,0.000,0.000,0.000,0.000,0.000,0.000,0.000,17,17,4*7E
$GPGGA,071205.80,3135.4642906,N,12046.7291538,E,4,17,1.4,2.8556,M,8.319,M,00,0004*65
$GPHPD,0,0.000,162.28,-0.21,-13.30,31.5910715,120.7788192,2.856,13631920.063,24926309.532,2.856,0.000,0.000,0.000,0.000,0.000,0.000,0.000,17,17,4*78
$GPGGA,071206.00,3135.4642301,N,12046.7291750,E,4,17,1.4,2.8564,M,8.319,M,01,0004*6F
$GPHPD,0,0.000,162.34,-0.15,-13.32,31.5910705,120.7788196,2.856,13631920.965,24926310.140,2.856,0.000,0.000,0.000,0.000,0.000,0.000,0.000,17,17,4*73
$GPGGA,071206.20,3135.4641713,N,12046.7291959,E,4,17,1.4,2.8459,M,8.319,M,01,0004*61
$GPHPD,0,0.000,162.45,0.12,-13.31,31.5910695,120.7788199,2.846,13631921.843,24926310.734,2.846,0.000,0.000,0.000,0.000,0.000,0.000,0.000,17,17,4*5A
$GPGGA,071206.40,3135.4641162,N,12046.7292159,E,4,17,1.4,2.8539,M,8.319,M,01,0004*6B
$GPHPD,0,0.000,162.41,0.05,-13.26,31.5910686,120.7788203,2.854,13631922.667,24926311.296,2.854,0.000,0.000,0.000,0.000,0.000,0.000,0.000,17,17,4*5B
$GPGGA,071206.60,3135.4640668,N,12046.7292321,E,4,17,1.4,2.8594,M,8.319,M,00,0004*6E
$GPHPD,0,0.000,162.49,0.23,-13.23,31.5910678,120.7788205,2.859,13631923.402,24926311.779,2.859,0.000,0.000,0.000,0.000,0.000,0.000,0.000,17,17,4*51
$GPGGA,071206.80,3135.4640216,N,12046.7292470,E,4,17,1.4,2.8575,M,8.319,M,00,0004*61
$GPHPD,0,0.000,162.51,0.01,-13.23,31.5910670,120.7788208,2.858,13631924.074,24926312.222,2.858,0.000,0.000,0.000,0.000,0.000,0.000,0.000,17,17,4*57
$GPGGA,071207.00,3135.4639763,N,12046.7292634,E,4,17,1.4,2.8698,M,8.319,M,01,0004*62
$GPHPD,0,0.000,162.86,-0.35,-13.24,31.5910663,120.7788211,2.870,13631924.751,24926312.684,2.870,0.000,0.000,0.000,0.000,0.000,0.000,0.000,17,17,4*72
$GPGGA,071207.20,3135.4639358,N,12046.7292776,E,4,17,1.4,2.8645,M,8.319,M,01,0004*6B
$GPHPD,0,0.000,162.68,0.01,-13.28,31.5910656,120.7788213,2.865,13631925.355,24926313.091,2.865,0.000,0.000,0.000,0.000,0.000,0.000,0.000,17,17,4*52
$GPGGA,071207.40,3135.4638901,N,12046.7292920,E,4,17,1.4,2.8627,M,8.319,M,01,0004*63
$GPHPD,0,0.000,163.05,0.04,-13.37,31.5910648,120.7788215,2.863,13631926.034,24926313.530,2.863,0.000,0.000,0.000,0.000,0.000,0.000,0.000,17,17,4*53
$GPGGA,071207.60,3135.4638419,N,12046.7293058,E,4,17,1.4,2.8483,M,8.319,M,00,0004*6F
$GPHPD,0,0.000,163.42,-0.23,-13.47,31.5910640,120.7788218,2.848,13631926.747,24926313.977,2.848,0.000,0.000,0.000,0.000,0.000,0.000,0.000,17,17,4*76
$GPGGA,071207.80,3135.4637864,N,12046.7293254,E,4,17,1.4,2.8441,M,8.319,M,00,0004*68
$GPHPD,0,0.000,163.96,-0.06,-13.58,31.5910631,120.7788221,2.844,13631927.575,24926314.537,2.844,0.000,0.000,0.000,0.000,0.000,0.000,0.000,17,17,4*77
$GPGGA,071208.00,3135.4637293,N,12046.7293402,E,4,17,1.4,2.8423,M,8.319,M,01,0004*6D
$GPHPD,0,0.000,164.46,0.19,-13.69,31.5910622,120.7788223,2.842,13631928.417,24926315.048,2.842,0.000,0.000,0.000,0.000,0.000,0.000,0.000,17,17,4*5A
$GPGGA,071208.20,3135.4636626,N,12046.7293566,E,4,17,1.4,2.8421,M,8.319,M,01,0004*65
$GPHPD,0,0.000,165.10,0.33,-13.79,31.5910610,120.7788226,2.842,13631929.398,24926315.634,2.842,0.000,0.000,0.000,0.000,0.000,0.000,0.000,17,17,4*59
$GPGGA,071208.40,3135.4635867,N,12046.7293751,E,4,17,1.4,2.8491,M,8.319,M,01,0004*66
$GPHPD,0,0.000,165.99,0.49,-13.89,31.5910598,120.7788229,2.849,13631930.514,24926316.299,2.849,0.000,0.000,0.000,0.000,0.000,0.000,0.000,17,17,4*5C
$GPGGA,071208.60,3135.4635070,N,12046.7293921,E,4,17,1.4,2.8576,M,8.319,M,00,0004*6A
$GPHPD,0,0.000,167.03,-0.06,-13.93,31.5910585,120.7788232,2.858,13631931.681,24926316.968,2.858,0.000,0.000,0.000,0.000,0.000,0.000,0.000,17,17,4*7D
$GPGGA,071208.80,3135.4634303,N,12046.7294064,E,4,17,1.4,2.8554,M,8.319,M,00,0004*6D
$GPHPD,0,0.000,168.16,0.12,-13.91,31.5910572,120.7788234,2.855,13631932.800,24926317.587,2.855,0.000,0.000,0.000,0.000,0.000,0.000,0.000,17,17,4*5A
$GPGGA,071209.00,3135.4633558,N,12046.7294180,E,4,17,1.4,2.8608,M,8.319,M,01,0004*6B
$GPHPD,0,0.000,169.32,0.24,-13.87,31.5910559,120.7788236,2.861,13631933.882,24926318.160,2.861,0.000,0.000,0.000,0.000,0.000,0.000,0.000,17,17,4*5D
$GPGGA,071209.20,3135.4632859,N,12046.7294288,E,4,17,1.4,2.8566,M,8.319,M,01,0004*64
$GPHPD,0,0.000,170.34,0.38,-13.83,31.5910548,120.7788238,2.857,13631934.898,24926318.698,2.857,0.000,0.000,0.000,0.000,0.000,0.000,0.000,17,17,4*58
$GPGGA,071209.40,3135.4632209,N,12046.7294354,E,4,17,1.4,2.8573,M,8.319,M,01,0004*69
$GPHPD,0,0.000,171.39,0.37,-13.77,31.5910537,120.7788239,2.857,13631935.835,24926319.156,2.857,0.000,0.000,0.000,0.000,0.000,0.000,0.000,17,17,4*5B
$GPGGA,071209.60,3135.4631572,N,12046.7294430,E,4,17,1.4,2.8585,M,8.319,M,00,0004*6E
$GPHPD,0,0.000,172.26,0.14,-13.73,31.5910526,120.7788241,2.859,13631936.756,24926319.618,2.859,0.000,0.000,0.000,0.000,0.000,0.000,0.000,17,17,4*58
$GPGGA,071209.80,3135.4630958,N,12046.7294475,E,4,17,1.4,2.8663,M,8.319,M,00,0004*6F
$GPHPD,0,0.000,173.16,0.12,-13.72,31.5910516,120.7788241,2.866,13631937.638,24926320.030,2.866,0.000,0.000,0.000,0.000,0.000,0.000,0.000,17,17,4*50
$GPGGA,071210.00,3135.4630352,N,12046.7294527,E,4,17,1.4,2.8566,M,8.319,M,01,0004*6E
$GPHPD,0,0.000,173.96,0.05,-13.73,31.5910506,120.7788242,2.857,13631938.509,24926320.445,2.857,0.000,0.000,0.000,0.000,0.000,0.000,0.000,17,17,4*55
$GPGGA,071210.20,3135.4629747,N,12046.7294557,E,4,17,1.4,2.8517,M,8.319,M,01,0004*65
$GPHPD,0,0.000,174.93,0.25,-13.73,31.5910496,120.7788243,2.852,13631939.375,24926320.834,2.852,0.000,0.000,0.000,0.000,0.000,0.000,0.000,17,17,4*5A
$GPGGA,071210.40,3135.4629081,N,12046.7294603,E,4,17,1.4,2.8639,M,8.319,M,01,0004*63
$GPHPD,0,0.000,175.88,0.53,-13.74,31.5910485,120.7788243,2.864,13631940.331,24926321.277,2.864,0.000,0.000,0.000,0.000,0.000,0.000,0.000,17,17,4*57
$GPGGA,071210.60,3135.4628416,N,12046.7294615,E,4,17,1.4,2.8678,M,8.319,M,00,0004*69
$GPHPD,0,0.000,176.95,1.23,-13.76,31.5910474,120.7788244,2.868,13631941.279,24926321.679,2.868,0.000,0.000,0.000,0.000,0.000,0.000,0.000,17,17,4*53
$GPGGA,071210.80,3135.4627693,N,12046.7294586,E,4,17,1.4,2.8635,M,8.319,M,00,0004*67
$GPHPD,0,0.000,178.10,1.01,-13.79,31.5910462,120.7788243,2.864,13631942.301,24926322.064,2.864,0.000,0.000,0.000,0.000,0.000,0.000,0.000,17,17,4*5B
$GPGGA,071211.00,3135.4626908,N,12046.7294549,E,4,17,1.4,2.8656,M,8.319,M,01,0004*65
$GPHPD,0,0.000,179.41,0.17,-13.83,31.5910448,120.7788242,2.866,13631943.409,24926322.477,2.866,0.000,0.000,0.000,0.000,0.000,0.000,0.000,17,17,4*5C
$GPGGA,071211.20,3135.4626086,N,12046.7294493,E,4,17,1.4,2.8689,M,8.319,M,01,0004*6C
$GPHPD,0,0.000,180.70,0.50,-13.82,31.5910435,120.7788242,2.869,13631944.567,24926322.888,2.869,0.000,0.000,0.000,0.000,0.000,0.000,0.000,17,17,4*52
$GPGGA,071211.40,3135.4625262,N,12046.7294400,E,4,17,1.4,2.8741,M,8.319,M,01,0004*6E
$GPHPD,0,0.000,182.02,0.71,-13.72,31.5910421,120.7788240,2.874,13631945.719,24926323.255,2.874,0.000,0.000,0.000,0.000,0.000,0.000,0.000,17,17,4*5F
$GPGGA,071211.60,3135.4624506,N,12046.7294301,E,4,17,1.4,2.8761,M,8.319,M,00,0004*6D
$GPHPD,0,0.000,183.24,0.27,-13.58,31.5910408,120.7788238,2.876,13631946.774,24926323.576,2.876,0.000,0.000,0.000,0.000,0.000,0.000,0.000,17,17,4*5B
$GPGGA,071211.80,3135.4623776,N,12046.7294191,E,4,17,1.4,2.8722,M,8.319,M,00,0004*6D
$GPHPD,0,0.000,184.60,0.43,-13.50,31.5910396,120.7788237,2.872,13631947.789,24926323.868,2.872,0.000,0.000,0.000,0.000,0.000,0.000,0.000,17,17,4*58
$GPGGA,071212.00,3135.4623095,N,12046.7294060,E,4,17,1.4,2.8785,M,8.319,M,01,0004*6F
$GPHPD,0,0.000,186.05,0.04,-13.42,31.5910385,120.7788234,2.879,13631948.731,24926324.107,2.879,0.000,0.000,0.000,0.000,0.000,0.000,0.000,17,17,4*53
$GPGGA,071212.20,3135.4622464,N,12046.7293937,E,4,17,1.4,2.8797,M,8.319,M,01,0004*69
$GPHPD,0,0.000,187.21,0.14,-13.39,31.5910374,120.7788232,2.880,13631949.603,24926324.326,2.880,0.000,0.000,0.000,0.000,0.000,0.000,0.000,17,17,4*51
$GPGGA,071212.40,3135.4621804,N,12046.7293823,E,4,17,1.4,2.8662,M,8.319,M,01,0004*69
$GPHPD,0,0.000,188.32,0.12,-13.34,31.5910363,120.7788230,2.866,13631950.518,24926324.573,2.866,0.000,0.000,0.000,0.000,0.000,0.000,0.000,17,17,4*54
$GPGGA,071212.60,3135.4621227,N,12046.7293681,E,4,17,1.4,2.8772,M,8.319,M,00,0004*67
$GPHPD,0,0.000,189.02,0.35,-13.31,31.5910354,120.7788228,2.877,13631951.310,24926324.737,2.877,0.000,0.000,0.000,0.000,0.000,0.000,0.000,17,17,4*56
$GPGGA,071212.80,3135.4620626,N,12046.7293529,E,4,17,1.4,2.8737,M,8.319,M,00,0004*6D
$GPHPD,0,0.000,189.55,-0.31,-13.33,31.5910344,120.7788225,2.874,13631952.134,24926324.904,2.874,0.000,0.000,0.000,0.000,0.000,0.000,0.000,17,17,4*7A
$GPGGA,071213.00,3135.4619964,N,12046.7293367,E,4,17,1.4,2.8666,M,8.319,M,01,0004*6F
$GPHPD,0,0.000,190.19,-0.54,-13.37,31.5910333,120.7788223,2.867,13631953.042,24926325.094,2.867,0.000,0.000,0.000,0.000,0.000,0.000,0.000,17,17,4*7B
$GPGGA,071213.20,3135.4619291,N,12046.7293210,E,4,17,1.4,2.8699,M,8.319,M,01,0004*6D
$GPHPD,0,0.000,190.88,0.40,-13.41,31.5910322,120.7788220,2.870,13631953.967,24926325.296,2.870,0.000,0.000,0.000,0.000,0.000,0.000,0.000,17,17,4*57
$GPGGA,071213.40,3135.4618583,N,12046.7292999,E,4,17,1.4,2.8755,M,8.319,M,01,0004*64
$GPHPD,0,0.000,191.48,0.40,-13.45,31.5910310,120.7788217,2.876,13631954.931,24926325.454,2.876,0.000,0.000,0.000,0.000,0.000,0.000,0.000,17,17,4*57
$GPGGA,071213.60,3135.4617790,N,12046.7292803,E,4,17,1.4,2.8771,M,8.319,M,00,0004*6C
$GPHPD,0,0.000,191.97,0.27,-13.50,31.5910297,120.7788213,2.877,13631956.019,24926325.679,2.877,0.000,0.000,0.000,0.000,0.000,0.000,0.000,17,17,4*56
$GPGGA,071213.80,3135.4616970,N,12046.7292597,E,4,17,1.4,2.8757,M,8.319,M,00,0004*67
$GPHPD,0,0.000,192.65,0.77,-13.57,31.5910283,120.7788210,2.876,13631957.143,24926325.908,2.876,0.000,0.000,0.000,0.000,0.000,0.000,0.000,17,17,4*5A
$GPGGA,071214.00,3135.4616124,N,12046.7292336,E,4,17,1.4,2.8659,M,8.319,M,01,0004*62
$GPHPD,0,0.000,193.06,0.43,-13.61,31.5910269,120.7788206,2.866,13631958.293,24926326.086,2.866,0.000,0.000,0.000,0.000,0.000,0.000,0.000,17,17,4*52
$GPGGA,071214.20,3135.4615262,N,12046.7292057,E,4,17,1.4,2.8811,M,8.319,M,01,0004*64
$GPHPD,0,0.000,193.51,0.48,-13.56,31.5910254,120.7788201,2.881,13631959.462,24926326.251,2.881,0.000,0.000,0.000,0.000,0.000,0.000,0.000,17,17,4*57
$GPGGA,071214.40,3135.4614514,N,12046.7291832,E,4,17,1.4,2.8702,M,8.319,M,01,0004*60
$GPHPD,0,0.000,193.82,-0.15,-13.42,31.5910242,120.7788197,2.870,13631960.480,24926326.416,2.870,0.000,0.000,0.000,0.000,0.000,0.000,0.000,17,17,4*71
$GPGGA,071214.60,3135.4613786,N,12046.7291621,E,4,17,1.4,2.8848,M,8.319,M,00,0004*60
$GPHPD,0,0.000,194.19,-0.14,-13.39,31.5910230,120.7788194,2.885,13631961.472,24926326.585,2.885,0.000,0.000,0.000,0.000,0.000,0.000,0.000,17,17,4*78
$GPGGA,071214.80,3135.4613074,N,12046.7291394,E,4,17,1.4,2.8644,M,8.319,M,00,0004*6D
$GPHPD,0,0.000,194.43,-0.03,-13.37,31.5910218,120.7788190,2.864,13631962.439,24926326.726,2.864,0.000,0.000,0.000,0.000,0.000,0.000,0.000,17,17,4*76
$GPGGA,071215.00,3135.4612403,N,12046.7291202,E,4,17,1.4,2.8730,M,8.319,M,01,0004*6C
$GPHPD,0,0.000,194.79,0.75,-13.37,31.5910207,120.7788187,2.873,13631963.354,24926326.885,2.873,0.000,0.000,0.000,0.000,0.000,0.000,0.000,17,17,4*50
$GPGGA,071215.20,3135.4611780,N,12046.7290977,E,4,17,1.4,2.8910,M,8.319,M,01,0004*61
$GPHPD,0,0.000,195.21,0.46,-13.40,31.5910196,120.7788183,2.891,13631964.194,24926326.976,2.891,0.000,0.000,0.000,0.000,0.000,0.000,0.000,17,17,4*57
$GPGGA,071215.40,3135.4611112,N,12046.7290751,E,4,17,1.4,2.8886,M,8.319,M,01,0004*6E
$GPHPD,0,0.000,195.35,0.14,-13.46,31.5910185,120.7788179,2.889,13631965.098,24926327.093,2.889,0.000,0.000,0.000,0.000,0.000,0.000,0.000,17,17,4*5B
$GPGGA,071215.60,3135.4610443,N,12046.7290530,E,4,17,1.4,2.8984,M,8.319,M,00,0004*6B
$GPHPD,0,0.000,195.60,-0.05,-13.55,31.5910174,120.7788176,2.898,13631966.005,24926327.215,2.898,0.000,0.000,0.000,0.000,0.000,0.000,0.000,17,17,4*7E
$GPGGA,071215.80,3135.4609747,N,12046.7290259,E,4,17,1.4,2.8871,M,8.319,M,00,0004*69
$GPHPD,0,0.000,195.66,0.03,-13.69,31.5910162,120.7788171,2.887,13631966.940,24926327.294,2.887,0.000,0.000,0.000,0.000,0.000,0.000,0.000,17,17,4*5D
$GPGGA,071216.00,3135.4608912,N,12046.7289991,E,4,17,1.4,2.8882,M,8.319,M,01,0004*67
$GPHPD,0,0.000,195.53,0.11,-13.79,31.5910149,120.7788167,2.888,13631968.072,24926327.457,2.888,0.000,0.000,0.000,0.000,0.000,0.000,0.000,17,17,4*58
$GPGGA,071216.20,3135.4608084,N,12046.7289708,E,4,17,1.4,2.8768,M,8.319,M,01,0004*66
$GPHPD,0,0.000,195.92,0.33,-13.76,31.5910135,120.7788162,2.877,13631969.192,24926327.597,2.877,0.000,0.000,0.000,0.000,0.000,0.000,0.000,17,17,4*57
$GPGGA,071216.40,3135.4607298,N,12046.7289488,E,4,17,1.4,2.8825,M,8.319,M,01,0004*6D
$GPHPD,0,0.000,195.90,1.03,-13.60,31.5910122,120.7788158,2.883,13631970.265,24926327.790,2.883,0.000,0.000,0.000,0.000,0.000,0.000,0.000,17,17,4*59
$GPGGA,071216.60,3135.4606620,N,12046.7289253,E,4,17,1.4,2.8750,M,8.319,M,00,0004*65
$GPHPD,0,0.000,196.21,0.83,-13.52,31.5910110,120.7788154,2.875,13631971.182,24926327.901,2.875,0.000,0.000,0.000,0.000,0.000,0.000,0.000,17,17,4*58
$GPGGA,071216.80,3135.4606015,N,12046.7289023,E,4,17,1.4,2.8727,M,8.319,M,00,0004*6E
$GPHPD,0,0.000,196.56,0.73,-13.55,31.5910100,120.7788150,2.873,13631971.996,24926327.976,2.873,0.000,0.000,0.000,0.000,0.000,0.000,0.000,17,17,4*58
$GPGGA,071217.00,3135.4605441,N,12046.7288806,E,4,17,1.4,2.8767,M,8.319,M,01,0004*6A
$GPHPD,0,0.000,197.12,0.78,-13.55,31.5910091,120.7788147,2.877,13631972.768,24926328.048,2.877,0.000,0.000,0.000,0.000,0.000,0.000,0.000,17,17,4*5A
$GPGGA,071217.20,3135.4604901,N,12046.7288565,E,4,17,1.4,2.8678,M,8.319,M,01,0004*67
$GPHPD,0,0.000,197.34,0.70,-13.55,31.5910082,120.7788143,2.868,13631973.487,24926328.072,2.868,0.000,0.000,0.000,0.000,0.000,0.000,0.000,17,17,4*5A
$GPGGA,071217.40,3135.4604353,N,12046.7288345,E,4,17,1.4,2.8741,M,8.319,M,01,0004*63
$GPHPD,0,0.000,197.76,1.01,-13.55,31.5910073,120.7788139,2.874,13631974.222,24926328.126,2.874,0.000,0.000,0.000,0.000,0.000,0.000,0.000,17,17,4*56
$GPGGA,071217.60,3135.4603780,N,12046.7288112,E,4,17,1.4,2.8696,M,8.319,M,00,0004*66
$GPHPD,0,0.000,198.31,0.83,-13.59,31.5910063,120.7788135,2.870,13631974.989,24926328.178,2.870,0.000,0.000,0.000,0.000,0.000,0.000,0.000,17,17,4*51
$GPGGA,071217.80,3135.4603169,N,12046.7287845,E,4,17,1.4,2.8809,M,8.319,M,00,0004*65
$GPHPD,0,0.000,198.87,0.88,-13.62,31.5910053,120.7788131,2.881,13631975.804,24926328.212,2.881,0.000,0.000,0.000,0.000,0.000,0.000,0.000,17,17,4*52
$GPGGA,071218.00,3135.4602545,N,12046.7287560,E,4,17,1.4,2.8797,M,8.319,M,01,0004*6A
$GPHPD,0,0.000,199.49,0.78,-13.66,31.5910042,120.7788126,2.880,13631976.634,24926328.232,2.880,0.000,0.000,0.000,0.000,0.000,0.000,0.000,17,17,4*50
$GPGGA,071218.20,3135.4601884,N,12046.7287238,E,4,17,1.4,2.8749,M,8.319,M,01,0004*62
$GPHPD,0,0.000,199.88,1.03,-13.69,31.5910031,120.7788121,2.875,13631977.508,24926328.228,2.875,0.000,0.000,0.000,0.000,0.000,0.000,0.000,17,17,4*5A
$GPGGA,071218.40,3135.4601159,N,12046.7286924,E,4,17,1.4,2.8853,M,8.319,M,01,0004*6E
$GPHPD,0,0.000,200.52,1.00,-13.71,31.5910019,120.7788115,2.885,13631978.476,24926328.272,2.885,0.000,0.000,0.000,0.000,0.000,0.000,0.000,17,17,4*51
$GPGGA,071218.60,3135.4600422,N,12046.7286547,E,4,17,1.4,2.8897,M,8.319,M,00,0004*64
$GPHPD,0,0.000,201.12,0.51,-13.68,31.5910007,120.7788109,2.890,13631979.447,24926328.246,2.890,0.000,0.000,0.000,0.000,0.000,0.000,0.000,17,17,4*5F
$GPGGA,071218.80,3135.4599663,N,12046.7286120,E,4,17,1.4,2.8816,M,8.319,M,00,0004*62
$GPHPD,0,0.000,201.67,0.53,-13.63,31.5909994,120.7788102,2.882,13631980.440,24926328.173,2.882,0.000,0.000,0.000,0.000,0.000,0.000,0.000,17,17,4*50
$GPGGA,071219.00,3135.4598878,N,12046.7285737,E,4,17,1.4,2.8865,M,8.319,M,01,0004*68
$GPHPD,0,0.000,202.27,0.45,-13.56,31.5909981,120.7788096,2.887,13631981.479,24926328.168,2.887,0.000,0.000,0.000,0.000,0.000,0.000,0.000,17,17,4*5F
$GPGGA,071219.20,3135.4598082,N,12046.7285343,E,4,17,1.4,2.8921,M,8.319,M,01,0004*61
$GPHPD,0,0.000,202.94,0.49,-13.50,31.5909968,120.7788089,2.892,13631982.531,24926328.156,2.892,0.000,0.000,0.000,0.000,0.000,0.000,0.000,17,17,4*57
$GPGGA,071219.40,3135.4597326,N,12046.7284905,E,4,17,1.4,2.8898,M,8.319,M,01,0004*6F
$GPHPD,0,0.000,203.53,0.23,-13.46,31.5909955,120.7788082,2.890,13631983.518,24926328.068,2.890,0.000,0.000,0.000,0.000,0.000,0.000,0.000,17,17,4*55
$GPGGA,071219.60,3135.4596527,N,12046.7284512,E,4,17,1.4,2.8842,M,8.319,M,00,0004*67
$GPHPD,0,0.000,203.51,0.48,-13.43,31.5909942,120.7788075,2.884,13631984.574,24926328.059,2.884,0.000,0.000,0.000,0.000,0.000,0.000,0.000,17,17,4*5E
$GPGGA,071219.80,3135.4595764,N,12046.7284122,E,4,17,1.4,2.8909,M,8.319,M,00,0004*66
$GPHPD,0,0.000,203.47,0.58,-13.40,31.5909929,120.7788069,2.891,13631985.581,24926328.033,2.891,0.000,0.000,0.000,0.000,0.000,0.000,0.000,17,17,4*5C
$GPGGA,071220.00,3135.4594992,N,12046.7283773,E,4,17,1.4,2.8831,M,8.319,M,01,0004*6C
$GPHPD,0,0.000,203.12,0.32,-13.34,31.5909917,120.7788063,2.883,13631986.608,24926328.062,2.883,0.000,0.000,0.000,0.000,0.000,0.000,0.000,17,17,4*51
$GPGGA,071220.20,3135.4594259,N,12046.7283425,E,4,17,1.4,2.8883,M,8.319,M,01,0004*6B
$GPHPD,0,0.000,202.48,0.37,-13.29,31.5909904,120.7788057,2.888,13631987.580,24926328.069,2.888,0.000,0.000,0.000,0.000,0.000,0.000,0.000,17,17,4*5A
$GPGGA,071220.40,3135.4593521,N,12046.7283105,E,4,17,1.4,2.8947,M,8.319,M,01,0004*6C
$GPHPD,0,0.000,201.93,0.31,-13.24,31.5909892,120.7788052,2.895,13631988.564,24926328.113,2.895,0.000,0.000,0.000,0.000,0.000,0.000,0.000,17,17,4*56
$GPGGA,071220.60,3135.4592755,N,12046.7282756,E,4,17,1.4,2.9007,M,8.319,M,00,0004*62
$GPHPD,0,0.000,201.55,0.15,-13.19,31.5909879,120.7788046,2.901,13631989.583,24926328.138,2.901,0.000,0.000,0.000,0.000,0.000,0.000,0.000,17,17,4*55
$GPGGA,071220.80,3135.4591987,N,12046.7282426,E,4,17,1.4,2.9023,M,8.319,M,00,0004*6C
$GPHPD,0,0.000,200.80,0.25,-13.14,31.5909866,120.7788040,2.902,13631990.608,24926328.187,2.902,0.000,0.000,0.000,0.000,0.000,0.000,0.000,17,17,4*56
$GPGGA,071221.00,3135.4591219,N,12046.7282071,E,4,17,1.4,2.9057,M,8.319,M,01,0004*6D
$GPHPD,0,0.000,200.50,0.11,-13.10,31.5909854,120.7788035,2.906,13631991.628,24926328.206,2.906,0.000,0.000,0.000,0.000,0.000,0.000,0.000,17,17,4*52
$GPGGA,071221.20,3135.4590475,N,12046.7281710,E,4,17,1.4,2.9050,M,8.319,M,01,0004*66
$GPHPD,0,0.000,200.12,0.14,-13.08,31.5909841,120.7788029,2.905,13631992.613,24926328.204,2.905,0.000,0.000,0.000,0.000,0.000,0.000,0.000,17,17,4*58
$GPGGA,071221.40,3135.4589694,N,12046.7281333,E,4,17,1.4,2.9092,M,8.319,M,01,0004*6E
$GPHPD,0,0.000,199.84,-0.09,-13.07,31.5909828,120.7788022,2.909,13631993.647,24926328.204,2.909,0.000,0.000,0.000,0.000,0.000,0.000,0.000,17,17,4*7E
$GPGGA,071221.60,3135.4588902,N,12046.7280956,E,4,17,1.4,2.9127,M,8.319,M,00,0004*6B
$GPHPD,0,0.000,199.78,-0.24,-13.04,31.5909815,120.7788016,2.913,13631994.697,24926328.210,2.913,0.000,0.000,0.000,0.000,0.000,0.000,0.000,17,17,4*77
$GPGGA,071221.80,3135.4588106,N,12046.7280617,E,4,17,1.4,2.9085,M,8.319,M,00,0004*6A
$GPHPD,0,0.000,199.74,-0.09,-12.94,31.5909802,120.7788010,2.909,13631995.761,24926328.265,2.909,0.000,0.000,0.000,0.000,0.000,0.000,0.000,17,17,4*77
$GPGGA,071222.00,3135.4587380,N,12046.7280310,E,4,17,1.4,2.9090,M,8.319,M,01,0004*65
$GPHPD,0,0.000,199.88,0.08,-12.77,31.5909790,120.7788005,2.909,13631996.731,24926328.317,2.909,0.000,0.000,0.000,0.000,0.000,0.000,0.000,17,17,4*57
$GPGGA,071222.20,3135.4586752,N,12046.7280024,E,4,17,1.4,2.9118,M,8.319,M,01,0004*68
$GPHPD,0,0.000,199.99,-0.09,-12.67,31.5909779,120.7788000,2.912,13631997.566,24926328.338,2.912,0.000,0.000,0.000,0.000,0.000,0.000,0.000,17,17,4*74
$GPGGA,071222.40,3135.4586173,N,12046.7279746,E,4,17,1.4,2.9106,M,8.319,M,01,0004*61
$GPHPD,0,0.000,200.16,-0.32,-12.67,31.5909770,120.7787996,2.911,13631998.333,24926328.340,2.911,0.000,0.000,0.000,0.000,0.000,0.000,0.000,17,17,4*7E
$GPGGA,071222.60,3135.4585593,N,12046.7279487,E,4,17,1.4,2.9041,M,8.319,M,01,0004*66
$GPHPD,0,0.000,200.25,-0.39,-12.66,31.5909760,120.7787991,2.904,13631999.105,24926328.365,2.904,0.000,0.000,0.000,0.000,0.000,0.000,0.000,17,17,4*73
$GPGGA,071222.80,3135.4585025,N,12046.7279212,E,4,17,1.4,2.9096,M,8.319,M,00,0004*61
$GPHPD,0,0.000,200.50,-0.53,-12.60,31.5909750,120.7787987,2.910,13631999.857,24926328.364,2.910,0.000,0.000,0.000,0.000,0.000,0.000,0.000,17,17,4*70
$GPGGA,071223.00,3135.4584523,N,12046.7278991,E,4,17,1.4,2.9095,M,8.319,M,01,0004*69
$GPHPD,0,0.000,200.69,-0.27,-12.55,31.5909742,120.7787983,2.910,13632000.526,24926328.390,2.910,0.000,0.000,0.000,0.000,0.000,0.000,0.000,17,17,4*72
$GPGGA,071223.20,3135.4584028,N,12046.7278733,E,4,17,1.4,2.9072,M,8.319,M,01,0004*6A
$GPHPD,0,0.000,200.94,-0.31,-12.54,31.5909734,120.7787979,2.907,13632001.178,24926328.367,2.907,0.000,0.000,0.000,0.000,0.000,0.000,0.000,17,17,4*74
$GPGGA,071223.40,3135.4583580,N,12046.7278484,E,4,17,1.4,2.9139,M,8.319,M,01,0004*6D
$GPHPD,0,0.000,201.11,0.13,-12.54,31.5909726,120.7787975,2.914,13632001.765,24926328.327,2.914,0.000,0.000,0.000,0.000,0.000,0.000,0.000,17,17,4*54
$GPGGA,071223.60,3135.4583078,N,12046.7278246,E,4,17,1.4,2.9092,M,8.319,M,00,0004*64
$GPHPD,0,0.000,201.41,0.03,-12.52,31.5909718,120.7787971,2.909,13632002.430,24926328.332,2.909,0.000,0.000,0.000,0.000,0.000,0.000,0.000,17,17,4*5B
$GPGGA,071223.80,3135.4582597,N,12046.7277974,E,4,17,1.4,2.8993,M,8.319,M,00,0004*63
$GPHPD,0,0.000,201.86,-0.01,-12.53,31.5909710,120.7787966,2.899,13632003.059,24926328.284,2.899,0.000,0.000,0.000,0.000,0.000,0.000,0.000,17,17,4*76
$GPGGA,071224.00,3135.4582076,N,12046.7277715,E,4,17,1.4,2.8972,M,8.319,M,01,0004*61
$GPHPD,0,0.000,202.27,0.04,-12.55,31.5909701,120.7787962,2.897,13632003.748,24926328.275,2.897,0.000,0.000,0.000,0.000,0.000,0.000,0.000,17,17,4*5D
$GPGGA,071224.20,3135.4581528,N,12046.7277415,E,4,17,1.4,2.9039,M,8.319,M,01,0004*6A
$GPHPD,0,0.000,202.94,0.05,-12.58,31.5909692,120.7787957,2.904,13632004.466,24926328.233,2.904,0.000,0.000,0.000,0.000,0.000,0.000,0.000,17,17,4*5E
$GPGGA,071224.40,3135.4580968,N,12046.7277124,E,4,17,1.4,2.8963,M,8.319,M,01,0004*65
$GPHPD,0,0.000,203.33,-0.02,-12.62,31.5909683,120.7787952,2.896,13632005.204,24926328.208,2.896,0.000,0.000,0.000,0.000,0.000,0.000,0.000,17,17,4*7F
$GPGGA,071224.60,3135.4580370,N,12046.7276805,E,4,17,1.4,2.8957,M,8.319,M,00,0004*69
$GPHPD,0,0.000,204.00,-0.05,-12.65,31.5909673,120.7787947,2.896,13632005.990,24926328.171,2.896,0.000,0.000,0.000,0.000,0.000,0.000,0.000,17,17,4*78
$GPGGA,071224.80,3135.4579743,N,12046.7276432,E,4,17,1.4,2.9010,M,8.319,M,00,0004*66
$GPHPD,0,0.000,204.47,0.04,-12.68,31.5909662,120.7787941,2.901,13632006.806,24926328.086,2.901,0.000,0.000,0.000,0.000,0.000,0.000,0.000,17,17,4*58
$GPGGA,071225.00,3135.4579086,N,12046.7276061,E,4,17,1.4,2.9054,M,8.319,M,01,0004*62
$GPHPD,0,0.000,205.12,-0.04,-12.67,31.5909651,120.7787934,2.905,13632007.665,24926328.021,2.905,0.000,0.000,0.000,0.000,0.000,0.000,0.000,17,17,4*7E
$GPGGA,071225.20,3135.4578448,N,12046.7275626,E,4,17,1.4,2.9028,M,8.319,M,01,0004*6A
$GPHPD,0,0.000,205.87,-0.11,-12.64,31.5909641,120.7787927,2.903,13632008.484,24926327.868,2.903,0.000,0.000,0.000,0.000,0.000,0.000,0.000,17,17,4*7E
$GPGGA,071225.40,3135.4577861,N,12046.7275224,E,4,17,1.4,2.9018,M,8.319,M,01,0004*61
$GPHPD,0,0.000,206.59,-0.23,-12.59,31.5909631,120.7787920,2.902,13632009.238,24926327.725,2.902,0.000,0.000,0.000,0.000,0.000,0.000,0.000,17,17,4*77
$GPGGA,071225.60,3135.4577313,N,12046.7274846,E,4,17,1.4,2.9098,M,8.319,M,00,0004*6B
$GPHPD,0,0.000,207.39,0.02,-12.52,31.5909622,120.7787914,2.910,13632009.941,24926327.588,2.910,0.000,0.000,0.000,0.000,0.000,0.000,0.000,17,17,4*50
$GPGGA,071225.80,3135.4576843,N,12046.7274517,E,4,17,1.4,2.9043,M,8.319,M,00,0004*65
$GPHPD,0,0.000,207.98,-0.16,-12.45,31.5909614,120.7787909,2.904,13632010.543,24926327.465,2.904,0.000,0.000,0.000,0.000,0.000,0.000,0.000,17,17,4*78
$GPGGA,071226.00,3135.4576433,N,12046.7274208,E,4,17,1.4,2.8997,M,8.319,M,01,0004*6C
$GPHPD,0,0.000,208.61,-0.33,-12.42,31.5909607,120.7787903,2.900,13632011.063,24926327.331,2.900,0.000,0.000,0.000,0.000,0.000,0.000,0.000,17,17,4*79
$GPGGA,071226.20,3135.4576087,N,12046.7273952,E,4,17,1.4,2.8993,M,8.319,M,01,0004*62
$GPHPD,0,0.000,208.99,0.02,-12.39,31.5909601,120.7787899,2.899,13632011.504,24926327.224,2.899,0.000,0.000,0.000,0.000,0.000,0.000,0.000,17,17,4*58
$GPGGA,071226.40,3135.4575735,N,12046.7273697,E,4,17,1.4,2.9021,M,8.319,M,01,0004*6E
$GPHPD,0,0.000,209.58,-0.12,-12.37,31.5909596,120.7787895,2.902,13632011.953,24926327.121,2.902,0.000,0.000,0.000,0.000,0.000,0.000,0.000,17,17,4*7F
$GPGGA,071226.60,3135.4575437,N,12046.7273489,E,4,17,1.4,2.9047,M,8.319,M,00,0004*61
$GPHPD,0,0.000,210.10,-0.35,-12.36,31.5909591,120.7787891,2.905,13632012.334,24926327.044,2.905,0.000,0.000,0.000,0.000,0.000,0.000,0.000,17,17,4*76
$GPGGA,071226.80,3135.4575192,N,12046.7273274,E,4,17,1.4,2.9074,M,8.319,M,00,0004*61
$GPHPD,0,0.000,210.41,-0.45,-12.34,31.5909587,120.7787888,2.907,13632012.639,24926326.927,2.907,0.000,0.000,0.000,0.000,0.000,0.000,0.000,17,17,4*7D
$GPGGA,071227.00,3135.4574945,N,12046.7273120,E,4,17,1.4,2.9059,M,8.319,M,01,0004*67
$GPHPD,0,0.000,210.86,-0.32,-12.32,31.5909582,120.7787885,2.906,13632012.959,24926326.885,2.906,0.000,0.000,0.000,0.000,0.000,0.000,0.000,17,17,4*78
$GPGGA,071227.20,3135.4574740,N,12046.7272954,E,4,17,1.4,2.9076,M,8.319,M,01,0004*69
$GPHPD,0,0.000,211.30,-0.84,-12.32,31.5909579,120.7787883,2.908,13632013.217,24926326.805,2.908,0.000,0.000,0.000,0.000,0.000,0.000,0.000,17,17,4*73
$GPGGA,071227.40,3135.4574519,N,12046.7272795,E,4,17,1.6,2.9075,M,8.319,M,01,0004*63
$GPHPD,0,0.000,211.37,-0.98,-12.34,31.5909575,120.7787880,2.908,13632013.500,24926326.741,2.908,0.000,0.000,0.000,0.000,0.000,0.000,0.000,17,17,4*7E
$GPGGA,071227.60,3135.4574307,N,12046.7272603,E,4,17,1.6,2.9040,M,8.319,M,00,0004*61
$GPHPD,0,0.000,211.77,-0.64,-12.38,31.5909572,120.7787877,2.904,13632013.762,24926326.633,2.904,0.000,0.000,0.000,0.000,0.000,0.000,0.000,17,17,4*78
$GPGGA,071227.80,3135.4574065,N,12046.7272395,E,4,17,1.6,2.8946,M,8.319,M,00,0004*6C
$GPHPD,0,0.000,212.10,-0.65,-12.43,31.5909568,120.7787873,2.895,13632014.064,24926326.523,2.895,0.000,0.000,0.000,0.000,0.000,0.000,0.000,17,17,4*7C
$GPGGA,071228.00,3135.4573794,N,12046.7272190,E,4,17,1.6,2.8964,M,8.319,M,01,0004*63
$GPHPD,0,0.000,212.42,-0.83,-12.49,31.5909563,120.7787870,2.896,13632014.408,24926326.434,2.896,0.000,0.000,0.000,0.000,0.000,0.000,0.000,17,17,4*78
$GPGGA,071228.20,3135.4573500,N,12046.7271965,E,4,17,1.6,2.8958,M,8.319,M,01,0004*60
$GPHPD,0,0.000,212.75,-0.78,-12.55,31.5909558,120.7787866,2.896,13632014.781,24926326.334,2.896,0.000,0.000,0.000,0.000,0.000,0.000,0.000,17,17,4*7F
$GPGGA,071228.40,3135.4573163,N,12046.7271701,E,4,17,1.6,2.8972,M,8.319,M,01,0004*63
$GPHPD,0,0.000,213.22,-0.45,-12.60,31.5909553,120.7787862,2.897,13632015.207,24926326.212,2.897,0.000,0.000,0.000,0.000,0.000,0.000,0.000,17,17,4*74
$GPGGA,071228.60,3135.4572860,N,12046.7271420,E,4,17,1.6,2.9013,M,8.319,M,00,0004*64
$GPHPD,0,0.000,213.73,-0.60,-12.65,31.5909548,120.7787857,2.901,13632015.581,24926326.049,2.901,0.000,0.000,0.000,0.000,0.000,0.000,0.000,17,17,4*7B
$GPGGA,071228.80,3135.4572501,N,12046.7271093,E,4,17,1.6,2.8924,M,8.319,M,00,0004*60
$GPHPD,0,0.000,214.17,-0.50,-12.73,31.5909542,120.7787852,2.892,13632016.025,24926325.864,2.892,0.000,0.000,0.000,0.000,0.000,0.000,0.000,17,17,4*79
$GPGGA,071229.00,3135.4572063,N,12046.7270743,E,4,17,1.6,2.8962,M,8.319,M,01,0004*60
$GPHPD,0,0.000,214.54,-0.97,-12.81,31.5909534,120.7787846,2.896,13632016.578,24926325.697,2.896,0.000,0.000,0.000,0.000,0.000,0.000,0.000,17,17,4*73
$GPGGA,071229.20,3135.4571599,N,12046.7270324,E,4,17,1.6,2.8956,M,8.319,M,01,0004*63
$GPHPD,0,0.000,215.41,-0.71,-12.86,31.5909527,120.7787839,2.896,13632017.153,24926325.461,2.896,0.000,0.000,0.000,0.000,0.000,0.000,0.000,17,17,4*74
$GPGGA,071229.40,3135.4571088,N,12046.7269874,E,4,17,1.6,2.8951,M,8.319,M,01,0004*61
$GPHPD,0,0.000,215.97,-0.52,-12.91,31.5909518,120.7787831,2.895,13632017.789,24926325.216,2.895,0.000,0.000,0.000,0.000,0.000,0.000,0.000,17,17,4*7B
$GPGGA,071229.60,3135.4570534,N,12046.7269344,E,4,17,1.6,2.8967,M,8.319,M,00,0004*6C
$GPHPD,0,0.000,216.79,-0.63,-12.98,31.5909509,120.7787822,2.897,13632018.469,24926324.900,2.897,0.000,0.000,0.000,0.000,0.000,0.000,0.000,17,17,4*7E
$GPGGA,071229.80,3135.4569968,N,12046.7268789,E,4,17,1.6,2.8927,M,8.319,M,00,0004*6F
$GPHPD,0,0.000,217.59,-1.03,-13.03,31.5909499,120.7787813,2.893,13632019.162,24926324.560,2.893,0.000,0.000,0.000,0.000,0.000,0.000,0.000,17,17,4*76
$GPGGA,071230.00,3135.4569364,N,12046.7268163,E,4,17,1.6,2.8902,M,8.319,M,01,0004*6D
$GPHPD,0,0.000,218.62,-1.16,-13.09,31.5909489,120.7787803,2.890,13632019.895,24926324.156,2.890,0.000,0.000,0.000,0.000,0.000,0.000,0.000,17,17,4*7F
$GPGGA,071230.20,3135.4568730,N,12046.7267465,E,4,17,1.6,2.8847,M,8.319,M,01,0004*67
$GPHPD,0,0.000,219.86,-0.68,-13.17,31.5909479,120.7787791,2.885,13632020.656,24926323.684,2.885,0.000,0.000,0.000,0.000,0.000,0.000,0.000,17,17,4*7C
$GPGGA,071230.40,3135.4568058,N,12046.7266761,E,4,17,1.6,2.8889,M,8.319,M,01,0004*6C
$GPHPD,0,0.000,220.91,-0.76,-13.20,31.5909468,120.7787779,2.889,13632021.469,24926323.226,2.889,0.000,0.000,0.000,0.000,0.000,0.000,0.000,17,17,4*7E
$GPGGA,071230.60,3135.4567410,N,12046.7265992,E,4,17,1.6,2.8878,M,8.319,M,00,0004*67
$GPHPD,0,0.000,222.11,-0.67,-13.18,31.5909457,120.7787767,2.888,13632022.235,24926322.676,2.888,0.000,0.000,0.000,0.000,0.000,0.000,0.000,17,17,4*70
$GPGGA,071230.80,3135.4566791,N,12046.7265188,E,4,17,1.6,2.8802,M,8.319,M,00,0004*6C
$GPHPD,0,0.000,222.92,-0.47,-13.14,31.5909447,120.7787753,2.880,13632022.953,24926322.067,2.880,0.000,0.000,0.000,0.000,0.000,0.000,0.000,17,17,4*7E
$GPGGA,071231.00,3135.4566118,N,12046.7264427,E,4,17,1.6,2.8820,M,8.319,M,01,0004*62
$GPHPD,0,0.000,223.46,-0.18,-13.07,31.5909435,120.7787740,2.882,13632023.757,24926321.541,2.882,0.000,0.000,0.000,0.000,0.000,0.000,0.000,17,17,4*70
$GPGGA,071231.20,3135.4565483,N,12046.7263674,E,4,17,1.6,2.8820,M,8.319,M,01,0004*67
$GPHPD,0,0.000,223.99,0.33,-13.04,31.5909425,120.7787728,2.882,13632024.508,24926321.002,2.882,0.000,0.000,0.000,0.000,0.000,0.000,0.000,17,17,4*57
$GPGGA,071231.40,3135.4564848,N,12046.7262944,E,4,17,1.6,2.8814,M,8.319,M,01,0004*61
$GPHPD,0,0.000,224.16,0.37,-13.07,31.5909414,120.7787716,2.881,13632025.264,24926320.492,2.881,0.000,0.000,0.000,0.000,0.000,0.000,0.000,17,17,4*5F
$GPGGA,071231.60,3135.4564249,N,12046.7262221,E,4,16,1.6,2.8797,M,8.319,M,00,0004*64
$GPHPD,0,0.000,224.43,0.58,-13.08,31.5909404,120.7787704,2.880,13632025.970,24926319.968,2.880,0.000,0.000,0.000,0.000,0.000,0.000,0.000,16,16,4*57
$GPGGA,071231.80,3135.4563712,N,12046.7261585,E,4,16,1.6,2.8809,M,8.319,M,00,0004*64
$GPHPD,0,0.000,224.39,0.63,-12.89,31.5909395,120.7787693,2.881,13632026.605,24926319.514,2.881,0.000,0.000,0.000,0.000,0.000,0.000,0.000,16,16,4*53
$GPGGA,071232.00,3135.4563312,N,12046.7261116,E,4,16,1.6,2.8854,M,8.319,M,01,0004*6C
$GPHPD,0,0.000,224.44,0.84,-12.62,31.5909389,120.7787685,2.885,13632027.079,24926319.181,2.885,0.000,0.000,0.000,0.000,0.000,0.000,0.000,16,16,4*5B
$GPGGA,071232.20,3135.4563034,N,12046.7260788,E,4,16,1.6,2.8748,M,8.319,M,01,0004*6B
$GPHPD,0,0.000,224.40,0.68,-12.48,31.5909384,120.7787680,2.875,13632027.408,24926318.948,2.875,0.000,0.000,0.000,0.000,0.000,0.000,0.000,16,16,4*53
$GPGGA,071232.40,3135.4562859,N,12046.7260588,E,4,16,1.6,2.8740,M,8.319,M,01,0004*65
$GPHPD,0,0.000,224.49,0.78,-12.42,31.5909381,120.7787676,2.874,13632027.617,24926318.808,2.874,0.000,0.000,0.000,0.000,0.000,0.000,0.000,16,16,4*54
$GPGGA,071232.60,3135.4562745,N,12046.7260462,E,4,16,1.6,2.8701,M,8.319,M,00,0004*64
$GPHPD,0,0.000,224.39,0.68,-12.44,31.5909379,120.7787674,2.870,13632027.753,24926318.723,2.870,0.000,0.000,0.000,0.000,0.000,0.000,0.000,16,16,4*56
$GPGGA,071232.80,3135.4562638,N,12046.7260303,E,4,16,1.6,2.8623,M,8.319,M,00,0004*60
$GPHPD,0,0.000,224.30,0.89,-12.45,31.5909377,120.7787672,2.862,13632027.874,24926318.593,2.862,0.000,0.000,0.000,0.000,0.000,0.000,0.000,16,16,4*5A
$GPGGA,071233.00,3135.4562542,N,12046.7260210,E,4,16,1.6,2.8632,M,8.319,M,01,0004*65
$GPHPD,0,0.000,224.16,0.75,-12.43,31.5909376,120.7787670,2.863,13632027.991,24926318.537,2.863,0.000,0.000,0.000,0.000,0.000,0.000,0.000,16,16,4*5C
$GPGGA,071233.20,3135.4562470,N,12046.7260129,E,4,16,1.6,2.8606,M,8.319,M,01,0004*69
$GPHPD,0,0.000,224.10,0.77,-12.41,31.5909375,120.7787669,2.861,13632028.077,24926318.481,2.861,0.000,0.000,0.000,0.000,0.000,0.000,0.000,16,16,4*53
$GPGGA,071233.40,3135.4562427,N,12046.7260115,E,4,16,1.6,2.8638,M,8.319,M,01,0004*6F
$GPHPD,0,0.000,224.07,0.54,-12.38,31.5909374,120.7787669,2.864,13632028.136,24926318.489,2.864,0.000,0.000,0.000,0.000,0.000,0.000,0.000,16,16,4*57
$GPGGA,071233.60,3135.4562427,N,12046.7260109,E,4,16,1.6,2.8689,M,8.319,M,00,0004*6B
$GPHPD,0,0.000,224.08,0.71,-12.34,31.5909374,120.7787668,2.869,13632028.134,24926318.482,2.869,0.000,0.000,0.000,0.000,0.000,0.000,0.000,16,16,4*5B
$GPGGA,071233.80,3135.4562455,N,12046.7260120,E,4,16,1.6,2.8662,M,8.319,M,00,0004*6E
$GPHPD,0,0.000,224.00,0.68,-12.30,31.5909374,120.7787669,2.866,13632028.097,24926318.479,2.866,0.000,0.000,0.000,0.000,0.000,0.000,0.000,16,16,4*52
$GPGGA,071234.00,3135.4562542,N,12046.7260226,E,4,16,1.6,2.8631,M,8.319,M,01,0004*64
$GPHPD,0,0.000,223.93,0.87,-12.18,31.5909376,120.7787670,2.863,13632027.995,24926318.556,2.863,0.000,0.000,0.000,0.000,0.000,0.000,0.000,16,16,4*56
$GPGGA,071234.20,3135.4562690,N,12046.7260390,E,4,16,1.6,2.8716,M,8.319,M,01,0004*62
$GPHPD,0,0.000,224.20,0.78,-11.97,31.5909378,120.7787673,2.872,13632027.817,24926318.668,2.872,0.000,0.000,0.000,0.000,0.000,0.000,0.000,16,16,4*55
$GPGGA,071234.40,3135.4562992,N,12046.7260735,E,4,16,1.6,2.8809,M,8.319,M,01,0004*63
$GPHPD,0,0.000,224.44,0.67,-11.80,31.5909383,120.7787679,2.881,13632027.457,24926318.908,2.881,0.000,0.000,0.000,0.000,0.000,0.000,0.000,16,16,4*50
$GPGGA,071234.60,3135.4563398,N,12046.7261204,E,4,16,1.6,2.8854,M,8.319,M,00,0004*6F
$GPHPD,0,0.000,224.74,0.69,-11.67,31.5909390,120.7787687,2.885,13632026.975,24926319.237,2.885,0.000,0.000,0.000,0.000,0.000,0.000,0.000,16,16,4*5D
$GPGGA,071234.80,3135.4563888,N,12046.7261763,E,4,16,1.6,2.8834,M,8.319,M,00,0004*69
$GPHPD,0,0.000,225.25,0.84,-11.54,31.5909398,120.7787696,2.883,13632026.391,24926319.626,2.883,0.000,0.000,0.000,0.000,0.000,0.000,0.000,16,16,4*57
$GPGGA,071235.00,3135.4564464,N,12046.7262439,E,4,16,1.6,2.8745,M,8.319,M,01,0004*6E
$GPHPD,0,0.000,226.09,0.28,-11.46,31.5909408,120.7787707,2.875,13632025.708,24926320.106,2.875,0.000,0.000,0.000,0.000,0.000,0.000,0.000,16,16,4*50
$GPGGA,071235.20,3135.4565016,N,12046.7263212,E,4,16,1.6,2.8856,M,8.319,M,01,0004*6F
$GPHPD,0,0.000,226.89,0.46,-11.44,31.5909417,120.7787720,2.886,13632025.079,24926320.717,2.886,0.000,0.000,0.000,0.000,0.000,0.000,0.000,16,16,4*5E
$GPGGA,071235.40,3135.4565613,N,12046.7263917,E,4,16,1.6,2.8773,M,8.319,M,01,0004*6C
$GPHPD,0,0.000,228.04,0.65,-11.41,31.5909427,120.7787732,2.877,13632024.372,24926321.220,2.877,0.000,0.000,0.000,0.000,0.000,0.000,0.000,16,16,4*58
$GPGGA,071235.60,3135.4566158,N,12046.7264654,E,4,16,1.6,2.8788,M,8.319,M,00,0004*6F
$GPHPD,0,0.000,228.84,0.61,-11.42,31.5909436,120.7787744,2.879,13632023.746,24926321.791,2.879,0.000,0.000,0.000,0.000,0.000,0.000,0.000,16,16,4*5D
$GPGGA,071235.80,3135.4566730,N,12046.7265442,E,4,16,1.6,2.8825,M,8.319,M,00,0004*65
$GPHPD,0,0.000,230.06,0.20,-11.46,31.5909446,120.7787757,2.883,13632023.091,24926322.408,2.883,0.000,0.000,0.000,0.000,0.000,0.000,0.000,16,16,4*57
$GPGGA,071236.00,3135.4567236,N,12046.7266216,E,4,16,1.6,2.8896,M,8.319,M,01,0004*61
$GPHPD,0,0.000,230.93,-0.80,-11.54,31.5909454,120.7787770,2.890,13632022.528,24926323.047,2.890,0.000,0.000,0.000,0.000,0.000,0.000,0.000,16,16,4*71
$GPGGA,071236.20,3135.4567711,N,12046.7266946,E,4,16,1.6,2.8909,M,8.319,M,01,0004*6A
$GPHPD,0,0.000,231.75,-1.05,-11.60,31.5909462,120.7787782,2.891,13632022.000,24926323.651,2.891,0.000,0.000,0.000,0.000,0.000,0.000,0.000,16,16,4*75
$GPGGA,071236.40,3135.4568163,N,12046.7267639,E,4,16,1.6,2.8844,M,8.319,M,01,0004*6E
$GPHPD,0,0.000,232.56,-0.84,-11.64,31.5909469,120.7787794,2.884,13632021.497,24926324.224,2.884,0.000,0.000,0.000,0.000,0.000,0.000,0.000,16,16,4*7F
$GPGGA,071236.60,3135.4568618,N,12046.7268320,E,4,16,1.6,2.8878,M,8.319,M,00,0004*6B
$GPHPD,0,0.000,233.21,-0.99,-11.64,31.5909477,120.7787805,2.888,13632020.987,24926324.780,2.888,0.000,0.000,0.000,0.000,0.000,0.000,0.000,16,16,4*7C
$GPGGA,071236.80,3135.4569030,N,12046.7269017,E,4,16,1.6,2.8968,M,8.319,M,00,0004*6E
$GPHPD,0,0.000,233.68,-1.00,-11.63,31.5909484,120.7787817,2.897,13632020.542,24926325.381,2.897,0.000,0.000,0.000,0.000,0.000,0.000,0.000,16,16,4*79
$GPGGA,071237.00,3135.4569421,N,12046.7269690,E,4,16,1.6,2.8965,M,8.319,M,01,0004*66
$GPHPD,0,0.000,233.92,-1.28,-11.65,31.5909490,120.7787828,2.897,13632020.121,24926325.965,2.897,0.000,0.000,0.000,0.000,0.000,0.000,0.000,16,16,4*78
$GPGGA,071237.20,3135.4569828,N,12046.7270369,E,4,16,1.6,2.9025,M,8.319,M,01,0004*66
$GPHPD,0,0.000,233.96,-0.97,-11.64,31.5909497,120.7787839,2.903,13632019.679,24926326.547,2.903,0.000,0.000,0.000,0.000,0.000,0.000,0.000,16,16,4*70
$GPGGA,071237.40,3135.4570252,N,12046.7271050,E,4,16,1.6,2.9003,M,8.319,M,01,0004*63
$GPHPD,0,0.000,233.91,-1.50,-11.59,31.5909504,120.7787851,2.900,13632019.214,24926327.121,2.900,0.000,0.000,0.000,0.000,0.000,0.000,0.000,16,16,4*7C
$GPGGA,071237.60,3135.4570675,N,12046.7271797,E,4,16,1.6,2.9069,M,8.319,M,00,0004*61
$GPHPD,0,0.000,233.82,-1.29,-11.56,31.5909511,120.7787863,2.907,13632018.763,24926327.776,2.907,0.000,0.000,0.000,0.000,0.000,0.000,0.000,16,16,4*7A
$GPGGA,071237.80,3135.4571161,N,12046.7272524,E,4,16,1.6,2.9066,M,8.319,M,00,0004*6A
$GPHPD,0,0.000,233.95,-1.19,-11.55,31.5909519,120.7787875,2.907,13632018.218,24926328.370,2.907,0.000,0.000,0.000,0.000,0.000,0.000,0.000,16,16,4*77
$GPGGA,071238.00,3135.4571656,N,12046.7273326,E,4,16,1.6,2.9052,M,8.319,M,01,0004*6D
$GPHPD,0,0.000,233.89,-1.03,-11.50,31.5909528,120.7787889,2.905,13632017.676,24926329.049,2.905,0.000,0.000,0.000,0.000,0.000,0.000,0.000,16,16,4*7E
$GPGGA,071238.20,3135.4572175,N,12046.7274167,E,4,16,1.6,2.9016,M,8.319,M,01,0004*6A
$GPHPD,0,0.000,234.33,-0.95,-11.46,31.5909536,120.7787903,2.902,13632017.108,24926329.761,2.902,0.000,0.000,0.000,0.000,0.000,0.000,0.000,16,16,4*7E
$GPGGA,071238.40,3135.4572718,N,12046.7275112,E,4,16,1.6,2.9095,M,8.319,M,01,0004*69
