
$GPGGA,071715.20,3135.4068241,N,12046.6117483,E,4,17,1.7,2.9264,M,8.312,M,01,0004*6E
$GPHPD,0,0.000,144.55,0.59,-14.47,31.5901137,120.7768625,2.926,13632500.579,24925228.208,2.926,0.000,0.000,0.000,0.000,0.000,0.000,0.000,17,17,4*5C
$GPGGA,071715.40,3135.4068362,N,12046.6117381,E,4,17,1.7,2.9246,M,8.312,M,01,0004*6D
$GPHPD,0,0.000,144.42,0.75,-14.56,31.5901139,120.7768623,2.925,13632500.386,24925228.015,2.925,0.000,0.000,0.000,0.000,0.000,0.000,0.000,17,17,4*54
$GPGGA,071715.60,3135.4068374,N,12046.6117367,E,4,17,1.7,2.9175,M,8.312,M,00,0004*62
$GPHPD,0,0.000,144.35,0.37,-14.64,31.5901140,120.7768623,2.918,13632500.366,24925227.991,2.918,0.000,0.000,0.000,0.000,0.000,0.000,0.000,17,17,4*59
$GPGGA,071715.80,3135.4068352,N,12046.6117374,E,4,17,1.7,2.9149,M,8.312,M,00,0004*65
$GPHPD,0,0.000,144.34,0.58,-14.61,31.5901139,120.7768623,2.915,13632500.399,24925228.012,2.915,0.000,0.000,0.000,0.000,0.000,0.000,0.000,17,17,4*57
$GPGGA,071716.00,3135.4068366,N,12046.6117364,E,4,17,1.7,2.9157,M,8.312,M,01,0004*66
$GPHPD,0,0.000,144.36,0.61,-14.54,31.5901139,120.7768623,2.916,13632500.377,24925227.992,2.916,0.000,0.000,0.000,0.000,0.000,0.000,0.000,17,17,4*57
$GPGGA,071716.20,3135.4068366,N,12046.6117369,E,4,17,1.7,2.9135,M,8.312,M,01,0004*6D
$GPHPD,0,0.000,144.35,0.28,-14.51,31.5901139,120.7768623,2.914,13632500.378,24925227.998,2.914,0.000,0.000,0.000,0.000,0.000,0.000,0.000,17,17,4*59
$GPGGA,071716.40,3135.4068362,N,12046.6117351,E,4,17,1.7,2.9096,M,8.312,M,01,0004*6C
$GPHPD,0,0.000,144.47,0.70,-14.48,31.5901139,120.7768623,2.910,13632500.380,24925227.979,2.910,0.000,0.000,0.000,0.000,0.000,0.000,0.000,17,17,4*51
$GPGGA,071716.60,3135.4068357,N,12046.6117381,E,4,17,1.7,2.9145,M,8.312,M,00,0004*6B
$GPHPD,0,0.000,144.15,0.81,-14.44,31.5901139,120.7768623,2.915,13632500.393,24925228.018,2.915,0.000,0.000,0.000,0.000,0.000,0.000,0.000,17,17,4*57
$GPGGA,071716.80,3135.4068369,N,12046.6117356,E,4,17,1.7,2.9170,M,8.312,M,00,0004*64
$GPHPD,0,0.000,144.42,0.34,-14.40,31.5901139,120.7768623,2.917,13632500.371,24925227.981,2.917,0.000,0.000,0.000,0.000,0.000,0.000,0.000,17,17,4*55
$GPGGA,071717.00,3135.4068374,N,12046.6117390,E,4,17,1.6,2.9093,M,8.312,M,01,0004*67
$GPHPD,0,0.000,144.29,0.55,-14.37,31.5901140,120.7768623,2.909,13632500.371,24925228.019,2.909,0.000,0.000,0.000,0.000,0.000,0.000,0.000,17,17,4*56
$GPGGA,071717.20,3135.4068370,N,12046.6117371,E,4,17,1.6,2.9143,M,8.312,M,01,0004*62
$GPHPD,0,0.000,144.51,0.79,-14.34,31.5901140,120.7768623,2.914,13632500.373,24925227.998,2.914,0.000,0.000,0.000,0.000,0.000,0.000,0.000,17,17,4*59
$GPGGA,071717.40,3135.4068365,N,12046.6117373,E,4,17,1.6,2.9142,M,8.312,M,01,0004*63
$GPHPD,0,0.000,144.33,0.36,-14.33,31.5901139,120.7768623,2.914,13632500.380,24925228.004,2.914,0.000,0.000,0.000,0.000,0.000,0.000,0.000,17,17,4*50
$GPGGA,071717.60,3135.4068377,N,12046.6117350,E,4,17,1.6,2.9137,M,8.312,M,00,0004*60
$GPHPD,0,0.000,144.35,0.46,-14.30,31.5901140,120.7768623,2.914,13632500.358,24925227.969,2.914,0.000,0.000,0.000,0.000,0.000,0.000,0.000,17,17,4*54
$GPGGA,071717.80,3135.4068385,N,12046.6117384,E,4,17,1.6,2.9263,M,8.312,M,00,0004*68
$GPHPD,0,0.000,144.23,0.52,-14.28,31.5901140,120.7768623,2.926,13632500.354,24925228.005,2.926,0.000,0.000,0.000,0.000,0.000,0.000,0.000,17,17,4*5F
$GPGGA,071718.00,3135.4068377,N,12046.6117368,E,4,17,1.6,2.9215,M,8.312,M,01,0004*60
$GPHPD,0,0.000,144.40,0.59,-14.26,31.5901140,120.7768623,2.922,13632500.362,24925227.991,2.922,0.000,0.000,0.000,0.000,0.000,0.000,0.000,17,17,4*51
$GPGGA,071718.20,3135.4068380,N,12046.6117379,E,4,17,1.6,2.9252,M,8.312,M,01,0004*69
$GPHPD,0,0.000,144.18,0.76,-14.24,31.5901140,120.7768623,2.925,13632500.360,24925228.002,2.925,0.000,0.000,0.000,0.000,0.000,0.000,0.000,17,17,4*5D
$GPGGA,071718.40,3135.4068375,N,12046.6117380,E,4,17,1.6,2.9235,M,8.312,M,01,0004*62
$GPHPD,0,0.000,144.30,0.49,-14.22,31.5901140,120.7768623,2.924,13632500.367,24925228.006,2.924,0.000,0.000,0.000,0.000,0.000,0.000,0.000,17,17,4*5E
$GPGGA,071718.60,3135.4068389,N,12046.6117348,E,4,17,1.6,2.9210,M,8.312,M,00,0004*61
$GPHPD,0,0.000,144.22,0.60,-14.20,31.5901140,120.7768622,2.921,13632500.341,24925227.959,2.921,0.000,0.000,0.000,0.000,0.000,0.000,0.000,17,17,4*5D
$GPGGA,071718.80,3135.4068382,N,12046.6117375,E,4,17,1.6,2.9124,M,8.312,M,00,0004*6E
$GPHPD,0,0.000,144.25,0.91,-14.18,31.5901140,120.7768623,2.912,13632500.356,24925227.996,2.912,0.000,0.000,0.000,0.000,0.000,0.000,0.000,17,17,4*5B
$GPGGA,071719.00,3135.4068369,N,12046.6117373,E,4,17,1.6,2.9127,M,8.312,M,01,0004*66
$GPHPD,0,0.000,144.34,0.41,-14.16,31.5901139,120.7768623,2.913,13632500.374,24925228.001,2.913,0.000,0.000,0.000,0.000,0.000,0.000,0.000,17,17,4*5E
$GPGGA,071719.20,3135.4068369,N,12046.6117362,E,4,17,1.6,2.9058,M,8.312,M,01,0004*6D
$GPHPD,0,0.000,144.24,0.42,-14.15,31.5901139,120.7768623,2.906,13632500.372,24925227.988,2.906,0.000,0.000,0.000,0.000,0.000,0.000,0.000,17,17,4*5E
$GPGGA,071719.40,3135.4068351,N,12046.6117412,E,4,18,1.6,2.9233,M,8.312,M,01,0004*60
$GPHPD,0,0.000,144.27,0.59,-14.13,31.5901139,120.7768624,2.923,13632500.408,24925228.059,2.923,0.000,0.000,0.000,0.000,0.000,0.000,0.000,18,18,4*56
$GPGGA,071719.60,3135.4068326,N,12046.6117393,E,4,18,1.6,2.9167,M,8.312,M,00,0004*6F
$GPHPD,0,0.000,144.33,0.46,-14.11,31.5901139,120.7768623,2.917,13632500.440,24925228.050,2.917,0.000,0.000,0.000,0.000,0.000,0.000,0.000,18,18,4*5D
$GPGGA,071719.80,3135.4068333,N,12046.6117435,E,4,18,1.6,2.9227,M,8.312,M,00,0004*69
$GPHPD,0,0.000,144.21,0.58,-14.09,31.5901139,120.7768624,2.923,13632500.438,24925228.097,2.923,0.000,0.000,0.000,0.000,0.000,0.000,0.000,18,18,4*5B
$GPGGA,071720.00,3135.4068340,N,12046.6117425,E,4,18,1.6,2.9200,M,8.312,M,01,0004*6A
$GPHPD,0,0.000,144.51,0.24,-14.07,31.5901139,120.7768624,2.920,13632500.426,24925228.081,2.920,0.000,0.000,0.000,0.000,0.000,0.000,0.000,18,18,4*51
$GPGGA,071720.20,3135.4068329,N,12046.6117443,E,4,18,1.6,2.9234,M,8.312,M,01,0004*60
$GPHPD,0,0.000,144.44,0.30,-14.07,31.5901139,120.7768624,2.923,13632500.445,24925228.109,2.923,0.000,0.000,0.000,0.000,0.000,0.000,0.000,18,18,4*54
$GPGGA,071720.40,3135.4068340,N,12046.6117427,E,4,18,1.6,2.9174,M,8.312,M,01,0004*6C
$GPHPD,0,0.000,144.56,-0.05,-14.05,31.5901139,120.7768624,2.917,13632500.427,24925228.083,2.917,0.000,0.000,0.000,0.000,0.000,0.000,0.000,18,18,4*79
$GPGGA,071720.60,3135.4068365,N,12046.6117438,E,4,18,1.6,2.9274,M,8.312,M,00,0004*65
$GPHPD,0,0.000,144.57,0.21,-14.04,31.5901139,120.7768624,2.927,13632500.393,24925228.082,2.927,0.000,0.000,0.000,0.000,0.000,0.000,0.000,18,18,4*5B
$GPGGA,071720.80,3135.4068351,N,12046.6117426,E,4,18,1.6,2.9396,M,8.312,M,00,0004*6E
$GPHPD,0,0.000,144.62,-0.05,-14.03,31.5901139,120.7768624,2.940,13632500.411,24925228.076,2.940,0.000,0.000,0.000,0.000,0.000,0.000,0.000,18,18,4*77
$GPGGA,071721.00,3135.4068350,N,12046.6117418,E,4,18,1.6,2.9342,M,8.312,M,01,0004*63
$GPHPD,0,0.000,144.52,0.07,-14.03,31.5901139,120.7768624,2.934,13632500.411,24925228.067,2.934,0.000,0.000,0.000,0.000,0.000,0.000,0.000,18,18,4*5B
$GPGGA,071721.20,3135.4068359,N,12046.6117427,E,4,18,1.6,2.9301,M,8.312,M,01,0004*63
$GPHPD,0,0.000,144.35,0.43,-14.04,31.5901139,120.7768624,2.930,13632500.400,24925228.072,2.930,0.000,0.000,0.000,0.000,0.000,0.000,0.000,18,18,4*59
$GPGGA,071721.40,3135.4068291,N,12046.6117465,E,4,18,1.6,2.9357,M,8.312,M,01,0004*65
$GPHPD,0,0.000,144.55,0.41,-14.10,31.5901138,120.7768624,2.936,13632500.504,24925228.158,2.936,0.000,0.000,0.000,0.000,0.000,0.000,0.000,18,18,4*55
$GPGGA,071721.60,3135.4068202,N,12046.6117543,E,4,18,1.6,2.9270,M,8.312,M,00,0004*6D
$GPHPD,0,0.000,144.72,0.11,-14.19,31.5901137,120.7768626,2.927,13632500.646,24925228.303,2.927,0.000,0.000,0.000,0.000,0.000,0.000,0.000,18,18,4*58
$GPGGA,071721.80,3135.4068079,N,12046.6117629,E,4,18,1.6,2.9276,M,8.312,M,00,0004*64
$GPHPD,0,0.000,144.55,0.52,-14.30,31.5901135,120.7768627,2.928,13632500.838,24925228.479,2.928,0.000,0.000,0.000,0.000,0.000,0.000,0.000,18,18,4*5F
$GPGGA,071722.00,3135.4067807,N,12046.6117859,E,4,18,1.6,2.9266,M,8.312,M,01,0004*68
$GPHPD,0,0.000,144.66,0.24,-14.44,31.5901130,120.7768631,2.927,13632501.271,24925228.914,2.927,0.000,0.000,0.000,0.000,0.000,0.000,0.000,18,18,4*5F
$GPGGA,071722.20,3135.4067467,N,12046.6118145,E,4,18,1.6,2.9359,M,8.312,M,01,0004*66
$GPHPD,0,0.000,144.50,0.34,-14.53,31.5901124,120.7768636,2.936,13632501.812,24925229.457,2.936,0.000,0.000,0.000,0.000,0.000,0.000,0.000,18,18,4*5B
$GPGGA,071722.40,3135.4067098,N,12046.6118452,E,4,18,1.6,2.9171,M,8.312,M,01,0004*6F
$GPHPD,0,0.000,144.44,0.61,-14.61,31.5901118,120.7768641,2.917,13632502.398,24925230.042,2.917,0.000,0.000,0.000,0.000,0.000,0.000,0.000,18,18,4*52
$GPGGA,071722.60,3135.4066630,N,12046.6118850,E,4,18,1.6,2.9286,M,8.312,M,00,0004*6C
$GPHPD,0,0.000,144.48,0.96,-14.69,31.5901111,120.7768648,2.929,13632503.144,24925230.795,2.929,0.000,0.000,0.000,0.000,0.000,0.000,0.000,18,18,4*51
$GPGGA,071722.80,3135.4066046,N,12046.6119313,E,4,18,1.6,2.9109,M,8.312,M,00,0004*6C
$GPHPD,0,0.000,144.47,1.35,-14.78,31.5901101,120.7768655,2.911,13632504.067,24925231.693,2.911,0.000,0.000,0.000,0.000,0.000,0.000,0.000,18,18,4*5A
$GPGGA,071723.00,3135.4065379,N,12046.6119863,E,4,18,1.6,2.9282,M,8.312,M,01,0004*64
$GPHPD,0,0.000,144.35,1.92,-14.86,31.5901090,120.7768664,2.928,13632505.126,24925232.744,2.928,0.000,0.000,0.000,0.000,0.000,0.000,0.000,18,18,4*55
$GPGGA,071723.20,3135.4064681,N,12046.6120451,E,4,18,1.6,2.9554,M,8.312,M,01,0004*6E
$GPHPD,0,0.000,144.81,0.59,-14.88,31.5901078,120.7768674,2.955,13632506.236,24925233.860,2.955,0.000,0.000,0.000,0.000,0.000,0.000,0.000,18,18,4*5C
$GPGGA,071723.40,3135.4063883,N,12046.6121060,E,4,18,1.6,2.9258,M,8.312,M,01,0004*6F
$GPHPD,0,0.000,144.86,0.98,-14.86,31.5901065,120.7768684,2.926,13632507.493,24925235.058,2.926,0.000,0.000,0.000,0.000,0.000,0.000,0.000,18,18,4*56
$GPGGA,071723.60,3135.4063109,N,12046.6121750,E,4,18,1.6,2.9523,M,8.312,M,00,0004*68
$GPHPD,0,0.000,144.76,1.31,-14.88,31.5901052,120.7768696,2.952,13632508.732,24925236.341,2.952,0.000,0.000,0.000,0.000,0.000,0.000,0.000,18,18,4*5D
$GPGGA,071723.80,3135.4062215,N,12046.6122329,E,4,18,1.6,2.9525,M,8.312,M,00,0004*66
$GPHPD,0,0.000,145.66,0.11,-14.81,31.5901037,120.7768705,2.953,13632510.119,24925237.559,2.953,0.000,0.000,0.000,0.000,0.000,0.000,0.000,18,18,4*57
$GPGGA,071724.00,3135.4061453,N,12046.6123009,E,4,18,1.6,2.9544,M,8.312,M,01,0004*68
$GPHPD,0,0.000,145.77,-0.07,-14.72,31.5901024,120.7768717,2.954,13632511.340,24925238.823,2.954,0.000,0.000,0.000,0.000,0.000,0.000,0.000,18,18,4*70
$GPGGA,071724.20,3135.4060472,N,12046.6123760,E,4,18,1.6,2.9674,M,8.312,M,01,0004*60
$GPHPD,0,0.000,146.37,0.52,-14.66,31.5901008,120.7768729,2.967,13632512.885,24925240.300,2.967,0.000,0.000,0.000,0.000,0.000,0.000,0.000,18,18,4*58
$GPGGA,071724.40,3135.4059544,N,12046.6124367,E,4,18,1.6,2.9286,M,8.312,M,01,0004*65
$GPHPD,0,0.000,146.61,-0.25,-14.56,31.5900992,120.7768739,2.929,13632514.326,24925241.572,2.929,0.000,0.000,0.000,0.000,0.000,0.000,0.000,18,18,4*79
$GPGGA,071724.60,3135.4058765,N,12046.6124962,E,4,18,1.6,2.9572,M,8.312,M,00,0004*65
$GPHPD,0,0.000,146.78,0.15,-14.34,31.5900979,120.7768749,2.957,13632515.553,24925242.743,2.957,0.000,0.000,0.000,0.000,0.000,0.000,0.000,18,18,4*5F
$GPGGA,071724.80,3135.4058014,N,12046.6125505,E,4,18,1.6,2.9494,M,8.312,M,00,0004*6F
$GPHPD,0,0.000,147.32,0.09,-14.11,31.5900967,120.7768758,2.949,13632516.730,24925243.834,2.949,0.000,0.000,0.000,0.000,0.000,0.000,0.000,18,18,4*5F
$GPGGA,071725.00,3135.4057307,N,12046.6126019,E,4,18,1.6,2.9615,M,8.312,M,01,0004*69
$GPHPD,0,0.000,147.62,0.30,-13.97,31.5900955,120.7768767,2.962,13632517.839,24925244.866,2.962,0.000,0.000,0.000,0.000,0.000,0.000,0.000,18,18,4*53
$GPGGA,071725.20,3135.4056658,N,12046.6126463,E,4,18,1.6,2.9458,M,8.312,M,01,0004*67
$GPHPD,0,0.000,148.08,0.18,-13.92,31.5900944,120.7768774,2.946,13632518.850,24925245.779,2.946,0.000,0.000,0.000,0.000,0.000,0.000,0.000,18,18,4*5D
$GPGGA,071725.40,3135.4056013,N,12046.6126916,E,4,18,1.6,2.9761,M,8.312,M,01,0004*6E
$GPHPD,0,0.000,148.62,0.43,-13.90,31.5900934,120.7768782,2.976,13632519.858,24925246.701,2.976,0.000,0.000,0.000,0.000,0.000,0.000,0.000,18,18,4*56
$GPGGA,071725.60,3135.4055374,N,12046.6127267,E,4,18,1.6,2.9545,M,8.312,M,00,0004*64
$GPHPD,0,0.000,149.16,-0.43,-13.88,31.5900923,120.7768788,2.955,13632520.837,24925247.496,2.955,0.000,0.000,0.000,0.000,0.000,0.000,0.000,18,18,4*73
$GPGGA,071725.80,3135.4054727,N,12046.6127721,E,4,18,1.6,2.9829,M,8.312,M,00,0004*69
$GPHPD,0,0.000,149.67,0.22,-13.86,31.5900912,120.7768795,2.983,13632521.848,24925248.420,2.983,0.000,0.000,0.000,0.000,0.000,0.000,0.000,18,18,4*54
$GPGGA,071726.00,3135.4054049,N,12046.6128150,E,4,18,1.6,2.9684,M,8.312,M,01,0004*6A
$GPHPD,0,0.000,150.31,0.12,-13.83,31.5900901,120.7768803,2.968,13632522.899,24925249.332,2.968,0.000,0.000,0.000,0.000,0.000,0.000,0.000,18,18,4*51
$GPGGA,071726.20,3135.4053351,N,12046.6128549,E,4,18,1.6,2.9692,M,8.312,M,01,0004*6E
$GPHPD,0,0.000,150.79,0.72,-13.81,31.5900889,120.7768809,2.969,13632523.971,24925250.219,2.969,0.000,0.000,0.000,0.000,0.000,0.000,0.000,18,18,4*54
$GPGGA,071726.40,3135.4052638,N,12046.6129008,E,4,18,1.6,2.9708,M,8.312,M,01,0004*60
$GPHPD,0,0.000,151.51,0.70,-13.79,31.5900877,120.7768817,2.971,13632525.077,24925251.188,2.971,0.000,0.000,0.000,0.000,0.000,0.000,0.000,18,18,4*57
$GPGGA,071726.60,3135.4051834,N,12046.6129451,E,4,18,1.6,2.9606,M,8.312,M,00,0004*65
$GPHPD,0,0.000,152.34,0.36,-13.77,31.5900864,120.7768824,2.961,13632526.309,24925252.190,2.961,0.000,0.000,0.000,0.000,0.000,0.000,0.000,18,18,4*5A
$GPGGA,071726.80,3135.4051102,N,12046.6129873,E,4,18,1.6,2.9827,M,8.312,M,00,0004*66
$GPHPD,0,0.000,152.85,-0.01,-13.70,31.5900852,120.7768831,2.983,13632527.434,24925253.125,2.983,0.000,0.000,0.000,0.000,0.000,0.000,0.000,18,18,4*78
$GPGGA,071727.00,3135.4050380,N,12046.6130238,E,4,18,1.6,2.9843,M,8.312,M,01,0004*68
$GPHPD,0,0.000,153.48,0.12,-13.56,31.5900840,120.7768837,2.984,13632528.534,24925253.985,2.984,0.000,0.000,0.000,0.000,0.000,0.000,0.000,18,18,4*5A
$GPGGA,071727.20,3135.4049710,N,12046.6130622,E,4,18,1.6,2.9890,M,8.312,M,01,0004*6E
$GPHPD,0,0.000,153.96,0.39,-13.44,31.5900829,120.7768844,2.989,13632529.564,24925254.838,2.989,0.000,0.000,0.000,0.000,0.000,0.000,0.000,18,18,4*5C
$GPGGA,071727.40,3135.4049063,N,12046.6130931,E,4,18,1.6,2.9841,M,8.312,M,01,0004*6A
$GPHPD,0,0.000,154.50,-0.04,-13.37,31.5900818,120.7768849,2.984,13632530.546,24925255.587,2.984,0.000,0.000,0.000,0.000,0.000,0.000,0.000,18,18,4*79
$GPGGA,071727.60,3135.4048490,N,12046.6131291,E,4,18,1.6,3.0039,M,8.312,M,00,0004*6F
$GPHPD,0,0.000,154.74,0.10,-13.32,31.5900808,120.7768855,3.004,13632531.432,24925256.355,3.004,0.000,0.000,0.000,0.000,0.000,0.000,0.000,18,18,4*57
$GPGGA,071727.80,3135.4047852,N,12046.6131529,E,4,18,1.6,2.9801,M,8.312,M,00,0004*63
$GPHPD,0,0.000,155.35,-0.07,-13.30,31.5900798,120.7768859,2.980,13632532.387,24925257.013,2.980,0.000,0.000,0.000,0.000,0.000,0.000,0.000,18,18,4*7A
$GPGGA,071728.00,3135.4047290,N,12046.6131880,E,4,18,1.6,2.9983,M,8.312,M,01,0004*64
$GPHPD,0,0.000,155.66,-0.23,-13.28,31.5900788,120.7768865,2.998,13632533.257,24925257.764,2.998,0.000,0.000,0.000,0.000,0.000,0.000,0.000,18,18,4*77
$GPGGA,071728.20,3135.4046658,N,12046.6132134,E,4,18,1.6,2.9945,M,8.312,M,01,0004*68
$GPHPD,0,0.000,156.06,0.00,-13.29,31.5900778,120.7768869,2.995,13632534.206,24925258.438,2.995,0.000,0.000,0.000,0.000,0.000,0.000,0.000,18,18,4*5A
$GPGGA,071728.40,3135.4046065,N,12046.6132432,E,4,18,1.6,3.0094,M,8.312,M,01,0004*68
$GPHPD,0,0.000,156.70,-0.24,-13.32,31.5900768,120.7768874,3.009,13632535.109,24925259.142,3.009,0.000,0.000,0.000,0.000,0.000,0.000,0.000,18,18,4*73
$GPGGA,071728.60,3135.4045422,N,12046.6132714,E,4,18,1.6,3.0080,M,8.313,M,00,0004*6C
$GPHPD,0,0.000,157.46,-0.35,-13.32,31.5900757,120.7768879,3.008,13632536.080,24925259.856,3.008,0.000,0.000,0.000,0.000,0.000,0.000,0.000,18,18,4*79
$GPGGA,071728.80,3135.4044813,N,12046.6132988,E,4,18,1.6,3.0092,M,8.313,M,00,0004*65
$GPHPD,0,0.000,157.98,-0.41,-13.29,31.5900747,120.7768883,3.009,13632537.001,24925260.541,3.009,0.000,0.000,0.000,0.000,0.000,0.000,0.000,18,18,4*7E
$GPGGA,071729.00,3135.4044193,N,12046.6133200,E,4,18,1.6,2.9983,M,8.313,M,01,0004*67
$GPHPD,0,0.000,158.81,0.03,-13.20,31.5900737,120.7768887,2.998,13632537.925,24925261.158,2.998,0.000,0.000,0.000,0.000,0.000,0.000,0.000,18,18,4*5A
$GPGGA,071729.20,3135.4043672,N,12046.6133411,E,4,18,1.6,3.0007,M,8.313,M,01,0004*61
$GPHPD,0,0.000,159.56,-0.34,-13.11,31.5900728,120.7768890,3.001,13632538.708,24925261.715,3.001,0.000,0.000,0.000,0.000,0.000,0.000,0.000,18,18,4*73
$GPGGA,071729.40,3135.4043194,N,12046.6133556,E,4,18,1.6,2.9962,M,8.313,M,01,0004*68
$GPHPD,0,0.000,160.39,-0.05,-13.04,31.5900720,120.7768893,2.996,13632539.416,24925262.169,2.996,0.000,0.000,0.000,0.000,0.000,0.000,0.000,18,18,4*7E
$GPGGA,071729.60,3135.4042671,N,12046.6133767,E,4,18,1.6,2.9915,M,8.313,M,00,0004*66
$GPHPD,0,0.000,160.84,-0.07,-13.05,31.5900711,120.7768896,2.992,13632540.202,24925262.727,2.992,0.000,0.000,0.000,0.000,0.000,0.000,0.000,18,18,4*7D
$GPGGA,071729.80,3135.4042172,N,12046.6133950,E,4,18,1.6,2.9914,M,8.313,M,00,0004*67
$GPHPD,0,0.000,161.39,-0.02,-13.08,31.5900703,120.7768899,2.991,13632540.948,24925263.238,2.991,0.000,0.000,0.000,0.000,0.000,0.000,0.000,18,18,4*71
$GPGGA,071730.00,3135.4041681,N,12046.6134109,E,4,18,1.6,2.9876,M,8.313,M,01,0004*68
$GPHPD,0,0.000,161.77,-0.25,-13.09,31.5900695,120.7768902,2.988,13632541.678,24925263.716,2.988,0.000,0.000,0.000,0.000,0.000,0.000,0.000,18,18,4*76
$GPGGA,071730.20,3135.4041105,N,12046.6134298,E,4,18,1.6,3.0022,M,8.313,M,01,0004*6B
$GPHPD,0,0.000,162.04,-0.02,-13.10,31.5900685,120.7768905,3.002,13632542.535,24925264.279,3.002,0.000,0.000,0.000,0.000,0.000,0.000,0.000,18,18,4*78
$GPGGA,071730.40,3135.4040566,N,12046.6134457,E,4,18,1.3,2.9914,M,8.313,M,01,0004*69
$GPHPD,0,0.000,162.33,-0.08,-13.09,31.5900676,120.7768908,2.991,13632543.333,24925264.785,2.991,0.000,0.000,0.000,0.000,0.000,0.000,0.000,18,18,4*78
$GPGGA,071730.60,3135.4039948,N,12046.6134644,E,4,18,1.3,3.0014,M,8.313,M,00,0004*65
$GPHPD,0,0.000,162.68,-0.31,-13.09,31.5900666,120.7768911,3.001,13632544.249,24925265.370,3.001,0.000,0.000,0.000,0.000,0.000,0.000,0.000,18,18,4*71
$GPGGA,071730.80,3135.4039275,N,12046.6134836,E,4,18,1.3,2.9863,M,8.313,M,00,0004*65
$GPHPD,0,0.000,163.04,0.19,-13.08,31.5900655,120.7768914,2.986,13632545.244,24925265.993,2.986,0.000,0.000,0.000,0.000,0.000,0.000,0.000,18,18,4*52
$GPGGA,071731.00,3135.4038668,N,12046.6135094,E,4,18,1.3,3.0039,M,8.313,M,01,0004*6A
$GPHPD,0,0.000,163.24,-0.23,-13.04,31.5900644,120.7768918,3.004,13632546.159,24925266.657,3.004,0.000,0.000,0.000,0.000,0.000,0.000,0.000,18,18,4*7C
$GPGGA,071731.20,3135.4037977,N,12046.6135271,E,4,18,1.3,2.9938,M,8.313,M,01,0004*6F
$GPHPD,0,0.000,163.65,-0.53,-13.00,31.5900633,120.7768921,2.994,13632547.177,24925267.273,2.994,0.000,0.000,0.000,0.000,0.000,0.000,0.000,18,18,4*7E
$GPGGA,071731.40,3135.4037324,N,12046.6135498,E,4,18,1.3,3.0006,M,8.313,M,01,0004*68
$GPHPD,0,0.000,163.78,-0.40,-12.94,31.5900622,120.7768925,3.001,13632548.151,24925267.927,3.001,0.000,0.000,0.000,0.000,0.000,0.000,0.000,18,18,4*79
$GPGGA,071731.60,3135.4036631,N,12046.6135649,E,4,18,1.3,2.9942,M,8.313,M,00,0004*64
$GPHPD,0,0.000,164.24,-0.99,-12.83,31.5900611,120.7768927,2.994,13632549.166,24925268.512,2.994,0.000,0.000,0.000,0.000,0.000,0.000,0.000,18,18,4*77
$GPGGA,071731.80,3135.4035978,N,12046.6135896,E,4,18,1.3,2.9937,M,8.313,M,00,0004*65
$GPHPD,0,0.000,164.38,-0.70,-12.74,31.5900600,120.7768932,2.994,13632550.144,24925269.190,2.994,0.000,0.000,0.000,0.000,0.000,0.000,0.000,18,18,4*76
$GPGGA,071732.00,3135.4035411,N,12046.6136047,E,4,18,1.3,3.0050,M,8.313,M,01,0004*6A
$GPHPD,0,0.000,164.68,-0.36,-12.67,31.5900590,120.7768934,3.005,13632550.981,24925269.702,3.005,0.000,0.000,0.000,0.000,0.000,0.000,0.000,18,18,4*73
$GPGGA,071732.20,3135.4034764,N,12046.6136237,E,4,18,1.3,3.0091,M,8.313,M,01,0004*60
$GPHPD,0,0.000,164.83,-0.59,-12.63,31.5900579,120.7768937,3.009,13632551.938,24925270.308,3.009,0.000,0.000,0.000,0.000,0.000,0.000,0.000,18,18,4*7A
$GPGGA,071732.40,3135.4034170,N,12046.6136410,E,4,18,1.3,3.0112,M,8.313,M,01,0004*6C
$GPHPD,0,0.000,165.18,-0.92,-12.59,31.5900570,120.7768940,3.011,13632552.818,24925270.862,3.011,0.000,0.000,0.000,0.000,0.000,0.000,0.000,18,18,4*79
$GPGGA,071732.60,3135.4033506,N,12046.6136607,E,4,18,1.3,3.0089,M,8.313,M,00,0004*6A
$GPHPD,0,0.000,165.25,-0.39,-12.57,31.5900558,120.7768943,3.009,13632553.801,24925271.486,3.009,0.000,0.000,0.000,0.000,0.000,0.000,0.000,18,18,4*7F
$GPGGA,071732.80,3135.4032866,N,12046.6136782,E,4,18,1.3,3.0107,M,8.313,M,00,0004*65
$GPHPD,0,0.000,165.69,-0.62,-12.58,31.5900548,120.7768946,3.011,13632554.746,24925272.070,3.011,0.000,0.000,0.000,0.000,0.000,0.000,0.000,18,18,4*77
$GPGGA,071733.00,3135.4032184,N,12046.6136962,E,4,18,1.3,3.0049,M,8.313,M,01,0004*63
$GPHPD,0,0.000,165.89,-0.68,-12.57,31.5900536,120.7768949,3.005,13632555.752,24925272.684,3.005,0.000,0.000,0.000,0.000,0.000,0.000,0.000,18,18,4*73
$GPGGA,071733.20,3135.4031482,N,12046.6137118,E,4,18,1.3,3.0109,M,8.313,M,01,0004*60
$GPHPD,0,0.000,166.30,-0.97,-12.54,31.5900525,120.7768952,3.011,13632556.781,24925273.280,3.011,0.000,0.000,0.000,0.000,0.000,0.000,0.000,18,18,4*75
$GPGGA,071733.40,3135.4030822,N,12046.6137271,E,4,18,1.3,3.0125,M,8.313,M,01,0004*63
$GPHPD,0,0.000,166.48,-0.98,-12.48,31.5900514,120.7768955,3.013,13632557.750,24925273.849,3.013,0.000,0.000,0.000,0.000,0.000,0.000,0.000,18,18,4*7F
$GPGGA,071733.60,3135.4030175,N,12046.6137451,E,4,18,1.3,3.0115,M,8.313,M,00,0004*6C
$GPHPD,0,0.000,166.65,-0.85,-12.38,31.5900503,120.7768958,3.012,13632558.706,24925274.443,3.012,0.000,0.000,0.000,0.000,0.000,0.000,0.000,18,18,4*7D
$GPGGA,071733.80,3135.4029618,N,12046.6137578,E,4,18,1.3,3.0050,M,8.313,M,00,0004*6C
$GPHPD,0,0.000,166.96,-0.65,-12.33,31.5900494,120.7768960,3.005,13632559.523,24925274.920,3.005,0.000,0.000,0.000,0.000,0.000,0.000,0.000,18,18,4*7C
$GPGGA,071734.00,3135.4029086,N,12046.6137683,E,4,18,1.3,3.0007,M,8.313,M,01,0004*66
$GPHPD,0,0.000,167.15,-1.05,-12.31,31.5900485,120.7768961,3.001,13632560.300,24925275.356,3.001,0.000,0.000,0.000,0.000,0.000,0.000,0.000,18,18,4*75
$GPGGA,071734.20,3135.4028573,N,12046.6137823,E,4,18,1.3,2.9979,M,8.313,M,01,0004*66
$GPHPD,0,0.000,167.28,-0.61,-12.33,31.5900476,120.7768964,2.998,13632561.058,24925275.824,2.998,0.000,0.000,0.000,0.000,0.000,0.000,0.000,18,18,4*72
$GPGGA,071734.40,3135.4028057,N,12046.6137905,E,4,18,1.3,2.9989,M,8.313,M,01,0004*69
$GPHPD,0,0.000,167.54,-0.51,-12.39,31.5900468,120.7768965,2.999,13632561.808,24925276.223,2.999,0.000,0.000,0.000,0.000,0.000,0.000,0.000,18,18,4*7D
$GPGGA,071734.60,3135.4027531,N,12046.6138036,E,4,18,1.3,3.0034,M,8.313,M,00,0004*61
$GPHPD,0,0.000,167.79,-0.57,-12.46,31.5900459,120.7768967,3.003,13632562.582,24925276.687,3.003,0.000,0.000,0.000,0.000,0.000,0.000,0.000,18,18,4*7A
$GPGGA,071734.80,3135.4027003,N,12046.6138135,E,4,18,1.3,2.9908,M,8.313,M,00,0004*67
$GPHPD,0,0.000,168.04,-0.46,-12.58,31.5900450,120.7768969,2.991,13632563.352,24925277.114,2.991,0.000,0.000,0.000,0.000,0.000,0.000,0.000,18,18,4*71
$GPGGA,071735.00,3135.4026379,N,12046.6138247,E,4,18,1.3,2.9838,M,8.313,M,01,0004*64
$GPHPD,0,0.000,168.15,-0.38,-12.70,31.5900440,120.7768971,2.984,13632564.262,24925277.612,2.984,0.000,0.000,0.000,0.000,0.000,0.000,0.000,18,18,4*7E
$GPGGA,071735.20,3135.4025740,N,12046.6138373,E,4,18,1.3,2.9947,M,8.313,M,01,0004*64
$GPHPD,0,0.000,168.55,-0.63,-12.78,31.5900429,120.7768973,2.995,13632565.195,24925278.136,2.995,0.000,0.000,0.000,0.000,0.000,0.000,0.000,18,18,4*75
$GPGGA,071735.40,3135.4024978,N,12046.6138493,E,4,18,1.3,2.9691,M,8.313,M,01,0004*6B
$GPHPD,0,0.000,168.93,-0.55,-12.88,31.5900416,120.7768975,2.969,13632566.303,24925278.724,2.969,0.000,0.000,0.000,0.000,0.000,0.000,0.000,18,18,4*74
$GPGGA,071735.60,3135.4024185,N,12046.6138660,E,4,18,1.3,2.9710,M,8.313,M,00,0004*64
$GPHPD,0,0.000,169.18,-0.56,-13.01,31.5900403,120.7768978,2.971,13632567.463,24925279.387,2.971,0.000,0.000,0.000,0.000,0.000,0.000,0.000,18,18,4*70
$GPGGA,071735.80,3135.4023391,N,12046.6138799,E,4,18,1.3,2.9769,M,8.313,M,00,0004*63
$GPHPD,0,0.000,169.62,-0.66,-13.10,31.5900390,120.7768980,2.977,13632568.620,24925280.017,2.977,0.000,0.000,0.000,0.000,0.000,0.000,0.000,18,18,4*72
$GPGGA,071736.00,3135.4022552,N,12046.6138956,E,4,18,1.3,2.9748,M,8.313,M,01,0004*6F
$GPHPD,0,0.000,170.24,-0.20,-13.07,31.5900376,120.7768983,2.975,13632569.844,24925280.694,2.975,0.000,0.000,0.000,0.000,0.000,0.000,0.000,18,18,4*77
$GPGGA,071736.20,3135.4021729,N,12046.6139084,E,4,18,1.3,2.9765,M,8.313,M,01,0004*68
$GPHPD,0,0.000,171.13,-0.24,-13.03,31.5900362,120.7768985,2.977,13632571.040,24925281.328,2.977,0.000,0.000,0.000,0.000,0.000,0.000,0.000,18,18,4*77
$GPGGA,071736.40,3135.4020970,N,12046.6139174,E,4,18,1.3,2.9737,M,8.313,M,01,0004*64
$GPHPD,0,0.000,171.84,-0.45,-12.96,31.5900350,120.7768986,2.974,13632572.137,24925281.878,2.974,0.000,0.000,0.000,0.000,0.000,0.000,0.000,18,18,4*7D
$GPGGA,071736.60,3135.4020280,N,12046.6139236,E,4,18,1.3,2.9824,M,8.313,M,00,0004*6B
$GPHPD,0,0.000,172.88,-0.51,-12.91,31.5900338,120.7768987,2.982,13632573.130,24925282.354,2.982,0.000,0.000,0.000,0.000,0.000,0.000,0.000,18,18,4*7F
$GPGGA,071736.80,3135.4019619,N,12046.6139292,E,4,18,1.3,2.9878,M,8.313,M,00,0004*6C
$GPHPD,0,0.000,173.93,-0.26,-12.88,31.5900327,120.7768988,2.988,13632574.081,24925282.806,2.988,0.000,0.000,0.000,0.000,0.000,0.000,0.000,18,18,4*7D
$GPGGA,071737.00,3135.4018994,N,12046.6139325,E,4,18,1.3,2.9817,M,8.313,M,01,0004*6B
$GPHPD,0,0.000,175.21,-0.46,-12.85,31.5900317,120.7768989,2.982,13632574.976,24925283.210,2.982,0.000,0.000,0.000,0.000,0.000,0.000,0.000,18,18,4*76
$GPGGA,071737.20,3135.4018434,N,12046.6139285,E,4,18,1.3,2.9892,M,8.313,M,01,0004*68
$GPHPD,0,0.000,176.49,-0.34,-12.85,31.5900307,120.7768988,2.989,13632575.764,24925283.488,2.989,0.000,0.000,0.000,0.000,0.000,0.000,0.000,18,18,4*75
$GPGGA,071737.40,3135.4017851,N,12046.6139283,E,4,18,1.3,2.9878,M,8.313,M,01,0004*6C
$GPHPD,0,0.000,178.03,-0.43,-12.88,31.5900298,120.7768988,2.988,13632576.592,24925283.824,2.988,0.000,0.000,0.000,0.000,0.000,0.000,0.000,18,18,4*7D
$GPGGA,071737.60,3135.4017300,N,12046.6139240,E,4,18,1.3,2.9901,M,8.313,M,00,0004*60
$GPHPD,0,0.000,179.33,-0.36,-12.90,31.5900288,120.7768987,2.990,13632577.366,24925284.093,2.990,0.000,0.000,0.000,0.000,0.000,0.000,0.000,18,18,4*75
$GPGGA,071737.80,3135.4016730,N,12046.6139178,E,4,18,1.3,2.9867,M,8.313,M,00,0004*61
$GPHPD,0,0.000,180.79,-0.26,-12.94,31.5900279,120.7768986,2.987,13632578.164,24925284.350,2.987,0.000,0.000,0.000,0.000,0.000,0.000,0.000,18,18,4*74
$GPGGA,071738.00,3135.4016171,N,12046.6139157,E,4,18,1.3,2.9903,M,8.313,M,01,0004*6A
$GPHPD,0,0.000,182.21,-0.76,-12.98,31.5900270,120.7768986,2.990,13632578.955,24925284.650,2.990,0.000,0.000,0.000,0.000,0.000,0.000,0.000,18,18,4*74
$GPGGA,071738.20,3135.4015596,N,12046.6139038,E,4,18,1.3,2.9826,M,8.313,M,01,0004*68
$GPHPD,0,0.000,183.69,-0.38,-13.01,31.5900260,120.7768984,2.983,13632579.748,24925284.841,2.983,0.000,0.000,0.000,0.000,0.000,0.000,0.000,18,18,4*7C
$GPGGA,071738.40,3135.4014967,N,12046.6138939,E,4,18,1.3,2.9858,M,8.313,M,01,0004*6D
$GPHPD,0,0.000,185.04,-0.34,-13.06,31.5900249,120.7768982,2.986,13632580.622,24925285.088,2.986,0.000,0.000,0.000,0.000,0.000,0.000,0.000,18,18,4*70
$GPGGA,071738.60,3135.4014280,N,12046.6138794,E,4,18,1.3,2.9795,M,8.313,M,00,0004*6B
$GPHPD,0,0.000,186.33,-0.39,-13.11,31.5900238,120.7768980,2.980,13632581.569,24925285.313,2.980,0.000,0.000,0.000,0.000,0.000,0.000,0.000,18,18,4*74
$GPGGA,071738.80,3135.4013611,N,12046.6138630,E,4,18,1.3,2.9794,M,8.313,M,00,0004*60
$GPHPD,0,0.000,187.41,-0.25,-13.15,31.5900227,120.7768977,2.979,13632582.487,24925285.505,2.979,0.000,0.000,0.000,0.000,0.000,0.000,0.000,18,18,4*7C
$GPGGA,071739.00,3135.4012898,N,12046.6138433,E,4,18,1.3,2.9807,M,8.313,M,01,0004*62
$GPHPD,0,0.000,188.63,-0.05,-13.19,31.5900215,120.7768974,2.981,13632583.461,24925285.682,2.981,0.000,0.000,0.000,0.000,0.000,0.000,0.000,18,18,4*7A
$GPGGA,071739.20,3135.4012116,N,12046.6138265,E,4,18,1.3,2.9765,M,8.313,M,01,0004*61
$GPHPD,0,0.000,189.77,-0.20,-13.23,31.5900202,120.7768971,2.977,13632584.539,24925285.935,2.977,0.000,0.000,0.000,0.000,0.000,0.000,0.000,18,18,4*7B
$GPGGA,071739.40,3135.4011314,N,12046.6138071,E,4,18,1.3,2.9814,M,8.313,M,01,0004*6A
$GPHPD,0,0.000,190.66,0.00,-13.21,31.5900189,120.7768968,2.981,13632585.640,24925286.167,2.981,0.000,0.000,0.000,0.000,0.000,0.000,0.000,18,18,4*56
$GPGGA,071739.60,3135.4010497,N,12046.6137833,E,4,18,1.3,2.9802,M,8.313,M,00,0004*62
$GPHPD,0,0.000,191.79,-0.41,-13.19,31.5900175,120.7768964,2.980,13632586.753,24925286.356,2.980,0.000,0.000,0.000,0.000,0.000,0.000,0.000,18,18,4*75
$GPGGA,071739.80,3135.4009682,N,12046.6137568,E,4,18,1.3,2.9741,M,8.313,M,00,0004*69
$GPHPD,0,0.000,192.51,-0.29,-13.26,31.5900161,120.7768959,2.974,13632587.858,24925286.511,2.974,0.000,0.000,0.000,0.000,0.000,0.000,0.000,18,18,4*75
$GPGGA,071740.00,3135.4008864,N,12046.6137279,E,4,18,1.3,2.9828,M,8.313,M,01,0004*6E
$GPHPD,0,0.000,193.49,-0.45,-13.37,31.5900148,120.7768955,2.983,13632588.963,24925286.638,2.983,0.000,0.000,0.000,0.000,0.000,0.000,0.000,18,18,4*7E
$GPGGA,071740.20,3135.4008063,N,12046.6137006,E,4,18,1.3,2.9782,M,8.313,M,01,0004*66
$GPHPD,0,0.000,194.12,-0.42,-13.45,31.5900134,120.7768950,2.978,13632590.046,24925286.775,2.978,0.000,0.000,0.000,0.000,0.000,0.000,0.000,18,18,4*74
$GPGGA,071740.40,3135.4007238,N,12046.6136703,E,4,18,1.3,2.9775,M,8.313,M,01,0004*68
$GPHPD,0,0.000,194.84,-0.04,-13.50,31.5900121,120.7768945,2.978,13632591.158,24925286.890,2.978,0.000,0.000,0.000,0.000,0.000,0.000,0.000,18,18,4*76
$GPGGA,071740.60,3135.4006445,N,12046.6136433,E,4,18,1.3,2.9738,M,8.313,M,00,0004*6F
$GPHPD,0,0.000,195.49,-0.09,-13.45,31.5900107,120.7768941,2.974,13632592.231,24925287.026,2.974,0.000,0.000,0.000,0.000,0.000,0.000,0.000,18,18,4*74
$GPGGA,071740.80,3135.4005703,N,12046.6136141,E,4,18,1.3,2.9804,M,8.313,M,00,0004*63
$GPHPD,0,0.000,196.00,0.25,-13.37,31.5900095,120.7768936,2.980,13632593.227,24925287.106,2.980,0.000,0.000,0.000,0.000,0.000,0.000,0.000,18,18,4*53
$GPGGA,071741.00,3135.4005016,N,12046.6135932,E,4,18,1.3,2.9764,M,8.313,M,01,0004*6E
$GPHPD,0,0.000,196.55,0.22,-13.26,31.5900084,120.7768932,2.976,13632594.161,24925287.253,2.976,0.000,0.000,0.000,0.000,0.000,0.000,0.000,18,18,4*55
$GPGGA,071741.20,3135.4004418,N,12046.6135715,E,4,18,1.3,2.9755,M,8.313,M,01,0004*6E
$GPHPD,0,0.000,196.80,0.11,-13.21,31.5900074,120.7768929,2.976,13632594.967,24925287.340,2.976,0.000,0.000,0.000,0.000,0.000,0.000,0.000,18,18,4*52
$GPGGA,071741.40,3135.4003873,N,12046.6135486,E,4,18,1.3,2.9737,M,8.313,M,01,0004*63
$GPHPD,0,0.000,197.08,0.08,-13.19,31.5900065,120.7768925,2.974,13632595.696,24925287.381,2.974,0.000,0.000,0.000,0.000,0.000,0.000,0.000,18,18,4*51
$GPGGA,071741.60,3135.4003304,N,12046.6135304,E,4,18,1.3,2.9770,M,8.313,M,00,0004*65
$GPHPD,0,0.000,197.35,0.33,-13.20,31.5900055,120.7768922,2.977,13632596.468,24925287.492,2.977,0.000,0.000,0.000,0.000,0.000,0.000,0.000,18,18,4*5C
$GPGGA,071741.80,3135.4002787,N,12046.6135084,E,4,18,1.3,2.9734,M,8.313,M,00,0004*6E
$GPHPD,0,0.000,197.58,-0.21,-13.24,31.5900046,120.7768918,2.973,13632597.159,24925287.528,2.973,0.000,0.000,0.000,0.000,0.000,0.000,0.000,18,18,4*70
$GPGGA,071742.00,3135.4002234,N,12046.6134880,E,4,18,1.3,2.9706,M,8.313,M,01,0004*65
$GPHPD,0,0.000,197.77,0.09,-13.32,31.5900037,120.7768915,2.971,13632597.904,24925287.604,2.971,0.000,0.000,0.000,0.000,0.000,0.000,0.000,18,18,4*5B
$GPGGA,071742.20,3135.4001637,N,12046.6134652,E,4,18,1.3,2.9730,M,8.313,M,01,0004*67
$GPHPD,0,0.000,197.90,0.24,-13.41,31.5900027,120.7768911,2.973,13632598.706,24925287.676,2.973,0.000,0.000,0.000,0.000,0.000,0.000,0.000,18,18,4*5A
$GPGGA,071742.40,3135.4000963,N,12046.6134370,E,4,18,1.3,2.9648,M,8.313,M,01,0004*65
$GPHPD,0,0.000,198.25,-0.01,-13.51,31.5900016,120.7768906,2.965,13632599.608,24925287.729,2.965,0.000,0.000,0.000,0.000,0.000,0.000,0.000,18,18,4*71
$GPGGA,071742.60,3135.4000252,N,12046.6134066,E,4,18,1.3,2.9631,M,8.313,M,00,0004*65
$GPHPD,0,0.000,198.65,0.05,-13.58,31.5900004,120.7768901,2.963,13632600.557,24925287.776,2.963,0.000,0.000,0.000,0.000,0.000,0.000,0.000,18,18,4*51
$GPGGA,071742.80,3135.3999506,N,12046.6133728,E,4,18,1.3,2.9737,M,8.313,M,00,0004*6E
$GPHPD,0,0.000,198.88,0.20,-13.60,31.5899992,120.7768895,2.974,13632601.549,24925287.802,2.974,0.000,0.000,0.000,0.000,0.000,0.000,0.000,18,18,4*57
$GPGGA,071743.00,3135.3998704,N,12046.6133356,E,4,18,1.3,2.9746,M,8.313,M,01,0004*6C
$GPHPD,0,0.000,199.26,0.02,-13.58,31.5899978,120.7768889,2.975,13632602.614,24925287.820,2.975,0.000,0.000,0.000,0.000,0.000,0.000,0.000,18,18,4*58
$GPGGA,071743.20,3135.3997946,N,12046.6132998,E,4,18,1.3,2.9743,M,8.313,M,01,0004*65
$GPHPD,0,0.000,199.40,0.17,-13.48,31.5899966,120.7768883,2.974,13632603.620,24925287.830,2.974,0.000,0.000,0.000,0.000,0.000,0.000,0.000,18,18,4*5F
$GPGGA,071743.40,3135.3997224,N,12046.6132710,E,4,18,1.3,2.9754,M,8.313,M,01,0004*64
$GPHPD,0,0.000,199.79,-0.11,-13.37,31.5899954,120.7768879,2.975,13632604.588,24925287.903,2.975,0.000,0.000,0.000,0.000,0.000,0.000,0.000,18,18,4*75
$GPGGA,071743.60,3135.3996559,N,12046.6132424,E,4,18,1.3,2.9881,M,8.313,M,00,0004*68
$GPHPD,0,0.000,200.16,0.02,-13.27,31.5899943,120.7768874,2.988,13632605.476,24925287.945,2.988,0.000,0.000,0.000,0.000,0.000,0.000,0.000,18,18,4*59
$GPGGA,071743.80,3135.3995974,N,12046.6132143,E,4,18,1.3,2.9798,M,8.313,M,00,0004*65
$GPHPD,0,0.000,200.52,-0.27,-13.23,31.5899933,120.7768869,2.980,13632606.251,24925287.947,2.980,0.000,0.000,0.000,0.000,0.000,0.000,0.000,18,18,4*7E
$GPGGA,071744.00,3135.3995380,N,12046.6131848,E,4,18,1.3,2.9785,M,8.313,M,01,0004*67
$GPHPD,0,0.000,200.89,-0.07,-13.21,31.5899923,120.7768864,2.979,13632607.036,24925287.937,2.979,0.000,0.000,0.000,0.000,0.000,0.000,0.000,18,18,4*71
$GPGGA,071744.20,3135.3994826,N,12046.6131632,E,4,18,1.3,2.9882,M,8.313,M,01,0004*68
$GPHPD,0,0.000,201.24,-0.12,-13.21,31.5899914,120.7768861,2.988,13632607.780,24925287.998,2.988,0.000,0.000,0.000,0.000,0.000,0.000,0.000,18,18,4*7D
$GPGGA,071744.40,3135.3994254,N,12046.6131255,E,4,18,1.3,2.9906,M,8.313,M,01,0004*69
$GPHPD,0,0.000,201.76,-0.16,-13.23,31.5899904,120.7768854,2.991,13632608.517,24925287.877,2.991,0.000,0.000,0.000,0.000,0.000,0.000,0.000,18,18,4*78
$GPGGA,071744.60,3135.3993661,N,12046.6130948,E,4,18,1.3,2.9755,M,8.313,M,00,0004*61
$GPHPD,0,0.000,202.24,-0.03,-13.28,31.5899894,120.7768849,2.976,13632609.298,24925287.852,2.976,0.000,0.000,0.000,0.000,0.000,0.000,0.000,18,18,4*71
$GPGGA,071744.80,3135.3993043,N,12046.6130558,E,4,18,1.3,2.9722,M,8.313,M,00,0004*64
$GPHPD,0,0.000,203.02,-0.15,-13.34,31.5899884,120.7768843,2.972,13632610.098,24925287.741,2.972,0.000,0.000,0.000,0.000,0.000,0.000,0.000,18,18,4*72
$GPGGA,071745.00,3135.3992326,N,12046.6130151,E,4,18,1.3,2.9729,M,8.313,M,01,0004*6B
$GPHPD,0,0.000,203.79,0.02,-13.42,31.5899872,120.7768836,2.973,13632611.035,24925287.667,2.973,0.000,0.000,0.000,0.000,0.000,0.000,0.000,18,18,4*5C
$GPGGA,071745.20,3135.3991590,N,12046.6129712,E,4,18,1.3,2.9706,M,8.313,M,01,0004*65
$GPHPD,0,0.000,204.46,-0.29,-13.46,31.5899860,120.7768829,2.971,13632611.993,24925287.566,2.971,0.000,0.000,0.000,0.000,0.000,0.000,0.000,18,18,4*7D
$GPGGA,071745.40,3135.3990781,N,12046.6129225,E,4,18,1.3,2.9658,M,8.313,M,01,0004*6B
$GPHPD,0,0.000,205.48,-0.01,-13.46,31.5899846,120.7768820,2.966,13632613.045,24925287.450,2.966,0.000,0.000,0.000,0.000,0.000,0.000,0.000,18,18,4*71
$GPGGA,071745.60,3135.3990033,N,12046.6128744,E,4,18,1.3,2.9809,M,8.313,M,00,0004*6F
$GPHPD,0,0.000,206.40,0.13,-13.37,31.5899834,120.7768812,2.981,13632614.011,24925287.305,2.981,0.000,0.000,0.000,0.000,0.000,0.000,0.000,18,18,4*57
$GPGGA,071745.80,3135.3989331,N,12046.6128316,E,4,18,1.3,2.9772,M,8.313,M,00,0004*68
$GPHPD,0,0.000,207.36,-0.02,-13.25,31.5899822,120.7768805,2.977,13632614.923,24925287.198,2.977,0.000,0.000,0.000,0.000,0.000,0.000,0.000,18,18,4*76
$GPGGA,071746.00,3135.3988690,N,12046.6127874,E,4,18,1.3,2.9806,M,8.313,M,01,0004*61
$GPHPD,0,0.000,208.24,-0.01,-13.16,31.5899812,120.7768798,2.981,13632615.745,24925287.038,2.981,0.000,0.000,0.000,0.000,0.000,0.000,0.000,18,18,4*75
$GPGGA,071746.20,3135.3988084,N,12046.6127439,E,4,18,1.3,2.9708,M,8.313,M,01,0004*64
$GPHPD,0,0.000,209.10,0.26,-13.12,31.5899801,120.7768791,2.971,13632616.519,24925286.866,2.971,0.000,0.000,0.000,0.000,0.000,0.000,0.000,18,18,4*5E
$GPGGA,071746.40,3135.3987535,N,12046.6127039,E,4,18,1.3,2.9741,M,8.313,M,01,0004*6B
$GPHPD,0,0.000,209.98,-0.04,-13.05,31.5899792,120.7768784,2.974,13632617.218,24925286.703,2.974,0.000,0.000,0.000,0.000,0.000,0.000,0.000,18,18,4*7F
$GPGGA,071746.60,3135.3986993,N,12046.6126614,E,4,18,1.3,2.9832,M,8.313,M,00,0004*6A
$GPHPD,0,0.000,210.61,0.00,-13.01,31.5899783,120.7768777,2.983,13632617.903,24925286.506,2.983,0.000,0.000,0.000,0.000,0.000,0.000,0.000,18,18,4*56
$GPGGA,071746.80,3135.3986486,N,12046.6126210,E,4,18,1.3,2.9830,M,8.313,M,00,0004*6F
$GPHPD,0,0.000,211.43,-0.11,-12.96,31.5899775,120.7768770,2.983,13632618.543,24925286.314,2.983,0.000,0.000,0.000,0.000,0.000,0.000,0.000,18,18,4*79
$GPGGA,071747.00,3135.3985962,N,12046.6125777,E,4,18,1.3,2.9894,M,8.313,M,01,0004*6A
$GPHPD,0,0.000,212.25,-0.28,-12.94,31.5899766,120.7768763,2.989,13632619.200,24925286.097,2.989,0.000,0.000,0.000,0.000,0.000,0.000,0.000,18,18,4*7B
$GPGGA,071747.20,3135.3985428,N,12046.6125360,E,4,18,1.3,2.9915,M,8.313,M,01,0004*61
$GPHPD,0,0.000,212.95,-0.11,-12.94,31.5899757,120.7768756,2.992,13632619.875,24925285.905,2.992,0.000,0.000,0.000,0.000,0.000,0.000,0.000,18,18,4*77
$GPGGA,071747.40,3135.3984892,N,12046.6124916,E,4,18,1.3,2.9911,M,8.313,M,01,0004*65
$GPHPD,0,0.000,213.82,-0.47,-12.96,31.5899748,120.7768749,2.991,13632620.548,24925285.681,2.991,0.000,0.000,0.000,0.000,0.000,0.000,0.000,18,18,4*7B
$GPGGA,071747.60,3135.3984365,N,12046.6124436,E,4,18,1.3,2.9843,M,8.313,M,00,0004*6C
$GPHPD,0,0.000,214.72,-0.58,-12.97,31.5899739,120.7768741,2.984,13632621.200,24925285.409,2.984,0.000,0.000,0.000,0.000,0.000,0.000,0.000,18,18,4*7A
$GPGGA,071747.80,3135.3983801,N,12046.6123944,E,4,18,1.3,2.9747,M,8.312,M,00,0004*69
$GPHPD,0,0.000,215.72,-0.51,-12.95,31.5899730,120.7768732,2.975,13632621.903,24925285.144,2.975,0.000,0.000,0.000,0.000,0.000,0.000,0.000,18,18,4*79
$GPGGA,071748.00,3135.3983238,N,12046.6123346,E,4,18,1.3,2.9793,M,8.312,M,01,0004*6E
$GPHPD,0,0.000,216.71,-0.26,-12.89,31.5899721,120.7768722,2.979,13632622.583,24925284.750,2.979,0.000,0.000,0.000,0.000,0.000,0.000,0.000,18,18,4*70
$GPGGA,071748.20,3135.3982678,N,12046.6122821,E,4,18,1.3,2.9764,M,8.312,M,01,0004*6E
$GPHPD,0,0.000,217.99,-0.62,-12.79,31.5899711,120.7768714,2.976,13632623.273,24925284.443,2.976,0.000,0.000,0.000,0.000,0.000,0.000,0.000,18,18,4*76
$GPGGA,071748.40,3135.3982198,N,12046.6122296,E,4,18,1.3,2.9750,M,8.312,M,01,0004*60
$GPHPD,0,0.000,218.99,-0.56,-12.67,31.5899703,120.7768705,2.975,13632623.850,24925284.089,2.975,0.000,0.000,0.000,0.000,0.000,0.000,0.000,18,18,4*7B
$GPGGA,071748.60,3135.3981753,N,12046.6121842,E,4,18,1.3,2.9637,M,8.312,M,00,0004*61
$GPHPD,0,0.000,220.07,-0.68,-12.54,31.5899696,120.7768697,2.964,13632624.391,24925283.801,2.964,0.000,0.000,0.000,0.000,0.000,0.000,0.000,18,18,4*73
$GPGGA,071748.80,3135.3981419,N,12046.6121457,E,4,18,1.3,2.9665,M,8.312,M,00,0004*6D
$GPHPD,0,0.000,221.00,-0.81,-12.44,31.5899690,120.7768691,2.967,13632624.788,24925283.531,2.967,0.000,0.000,0.000,0.000,0.000,0.000,0.000,18,18,4*71
$GPGGA,071749.00,3135.3981126,N,12046.6121081,E,4,18,1.3,2.9652,M,8.312,M,01,0004*67
$GPHPD,0,0.000,221.76,-0.50,-12.41,31.5899685,120.7768685,2.965,13632625.129,24925283.248,2.965,0.000,0.000,0.000,0.000,0.000,0.000,0.000,18,18,4*7D
$GPGGA,071749.20,3135.3980777,N,12046.6120737,E,4,18,1.3,2.9672,M,8.312,M,01,0004*6F
$GPHPD,0,0.000,222.38,-0.85,-12.40,31.5899680,120.7768679,2.967,13632625.556,24925283.036,2.967,0.000,0.000,0.000,0.000,0.000,0.000,0.000,18,18,4*7C
$GPGGA,071749.40,3135.3980426,N,12046.6120355,E,4,18,1.3,2.9626,M,8.312,M,01,0004*6F
$GPHPD,0,0.000,222.86,-0.81,-12.42,31.5899674,120.7768673,2.963,13632625.978,24925282.780,2.963,0.000,0.000,0.000,0.000,0.000,0.000,0.000,18,18,4*75
$GPGGA,071749.60,3135.3980090,N,12046.6119986,E,4,18,1.3,2.9704,M,8.312,M,00,0004*6A
$GPHPD,0,0.000,223.24,-0.85,-12.45,31.5899668,120.7768666,2.970,13632626.381,24925282.531,2.970,0.000,0.000,0.000,0.000,0.000,0.000,0.000,18,18,4*71
$GPGGA,071749.80,3135.3979710,N,12046.6119585,E,4,18,1.3,2.9545,M,8.312,M,00,0004*65
$GPHPD,0,0.000,223.34,-1.14,-12.49,31.5899662,120.7768660,2.955,13632626.840,24925282.268,2.955,0.000,0.000,0.000,0.000,0.000,0.000,0.000,18,18,4*74
$GPGGA,071750.00,3135.3979373,N,12046.6119164,E,4,18,1.3,2.9597,M,8.312,M,01,0004*61
$GPHPD,0,0.000,223.77,-0.98,-12.55,31.5899656,120.7768653,2.960,13632627.235,24925281.957,2.960,0.000,0.000,0.000,0.000,0.000,0.000,0.000,18,18,4*71
$GPGGA,071750.20,3135.3978978,N,12046.6118700,E,4,18,1.3,2.9560,M,8.312,M,01,0004*6E
$GPHPD,0,0.000,223.84,-0.76,-12.58,31.5899650,120.7768645,2.956,13632627.703,24925281.627,2.956,0.000,0.000,0.000,0.000,0.000,0.000,0.000,18,18,4*79
$GPGGA,071750.40,3135.3978594,N,12046.6118290,E,4,18,1.3,2.9667,M,8.312,M,01,0004*6E
$GPHPD,0,0.000,224.35,-0.67,-12.57,31.5899643,120.7768638,2.967,13632628.166,24925281.356,2.967,0.000,0.000,0.000,0.000,0.000,0.000,0.000,18,18,4*7A
$GPGGA,071750.60,3135.3978253,N,12046.6117854,E,4,18,1.3,2.9696,M,8.312,M,00,0004*62
$GPHPD,0,0.000,224.47,-1.15,-12.54,31.5899638,120.7768631,2.970,13632628.563,24925281.029,2.970,0.000,0.000,0.000,0.000,0.000,0.000,0.000,18,18,4*77
$GPGGA,071750.80,3135.3977909,N,12046.6117460,E,4,18,1.3,2.9711,M,8.312,M,00,0004*62
$GPHPD,0,0.000,224.55,-0.75,-12.47,31.5899632,120.7768624,2.971,13632628.972,24925280.754,2.971,0.000,0.000,0.000,0.000,0.000,0.000,0.000,18,18,4*7F
$GPGGA,071751.00,3135.3977637,N,12046.6117094,E,4,18,1.3,2.9762,M,8.312,M,01,0004*63
$GPHPD,0,0.000,224.65,-0.72,-12.41,31.5899627,120.7768618,2.976,13632629.285,24925280.471,2.976,0.000,0.000,0.000,0.000,0.000,0.000,0.000,18,18,4*70
$GPGGA,071751.20,3135.3977367,N,12046.6116750,E,4,18,1.3,2.9684,M,8.312,M,01,0004*66
$GPHPD,0,0.000,224.83,-0.36,-12.40,31.5899623,120.7768613,2.968,13632629.600,24925280.213,2.968,0.000,0.000,0.000,0.000,0.000,0.000,0.000,18,18,4*7D
$GPGGA,071751.40,3135.3977103,N,12046.6116404,E,4,18,1.6,2.9660,M,8.312,M,01,0004*6D
$GPHPD,0,0.000,224.77,-0.49,-12.40,31.5899618,120.7768607,2.966,13632629.906,24925279.949,2.966,0.000,0.000,0.000,0.000,0.000,0.000,0.000,18,18,4*78
$GPGGA,071751.60,3135.3976849,N,12046.6116128,E,4,18,1.6,2.9656,M,8.312,M,00,0004*66
$GPHPD,0,0.000,224.92,-0.28,-12.42,31.5899614,120.7768602,2.966,13632630.211,24925279.764,2.966,0.000,0.000,0.000,0.000,0.000,0.000,0.000,18,18,4*7B
$GPGGA,071751.80,3135.3976640,N,12046.6115769,E,4,18,1.6,2.9620,M,8.312,M,00,0004*6E
$GPHPD,0,0.000,225.12,-0.18,-12.51,31.5899611,120.7768596,2.962,13632630.436,24925279.453,2.962,0.000,0.000,0.000,0.000,0.000,0.000,0.000,18,18,4*7C
$GPGGA,071752.00,3135.3976350,N,12046.6115426,E,4,18,1.6,2.9574,M,8.312,M,01,0004*6A
$GPHPD,0,0.000,225.63,-0.03,-12.74,31.5899606,120.7768590,2.957,13632630.779,24925279.208,2.957,0.000,0.000,0.000,0.000,0.000,0.000,0.000,18,18,4*77
$GPGGA,071752.20,3135.3976009,N,12046.6114988,E,4,18,1.6,2.9472,M,8.312,M,01,0004*68
$GPHPD,0,0.000,226.20,0.01,-12.91,31.5899600,120.7768583,2.947,13632631.175,24925278.879,2.947,0.000,0.000,0.000,0.000,0.000,0.000,0.000,18,18,4*55
$GPGGA,071752.40,3135.3975689,N,12046.6114488,E,4,18,1.6,2.9554,M,8.312,M,01,0004*6B
$GPHPD,0,0.000,226.61,-0.11,-13.02,31.5899595,120.7768575,2.955,13632631.530,24925278.462,2.955,0.000,0.000,0.000,0.000,0.000,0.000,0.000,18,18,4*72
$GPGGA,071752.60,3135.3975341,N,12046.6113955,E,4,18,1.6,2.9704,M,8.312,M,00,0004*64
$GPHPD,0,0.000,227.29,0.01,-13.04,31.5899589,120.7768566,2.970,13632631.917,24925278.022,2.970,0.000,0.000,0.000,0.000,0.000,0.000,0.000,18,18,4*53
$GPGGA,071752.80,3135.3974945,N,12046.6113492,E,4,18,1.6,2.9561,M,8.312,M,00,0004*62
$GPHPD,0,0.000,228.05,-0.34,-13.01,31.5899582,120.7768558,2.956,13632632.387,24925277.694,2.956,0.000,0.000,0.000,0.000,0.000,0.000,0.000,18,18,4*7E
$GPGGA,071753.00,3135.3974638,N,12046.6113051,E,4,18,1.6,2.9527,M,8.312,M,01,0004*66
$GPHPD,0,0.000,228.57,-0.08,-12.95,31.5899577,120.7768551,2.953,13632632.734,24925277.341,2.953,0.000,0.000,0.000,0.000,0.000,0.000,0.000,18,18,4*78
$GPGGA,071753.20,3135.3974344,N,12046.6112634,E,4,18,1.6,2.9567,M,8.312,M,01,0004*6A
$GPHPD,0,0.000,228.73,0.12,-12.91,31.5899572,120.7768544,2.957,13632633.068,24925277.009,2.957,0.000,0.000,0.000,0.000,0.000,0.000,0.000,18,18,4*5D
$GPGGA,071753.40,3135.3974092,N,12046.6112267,E,4,18,1.6,2.9523,M,8.312,M,01,0004*66
$GPHPD,0,0.000,229.12,0.03,-12.85,31.5899568,120.7768538,2.952,13632633.353,24925276.713,2.952,0.000,0.000,0.000,0.000,0.000,0.000,0.000,18,18,4*58
$GPGGA,071753.60,3135.3973884,N,12046.6111949,E,4,18,1.6,2.9740,M,8.312,M,00,0004*6E
$GPHPD,0,0.000,229.36,-0.46,-12.84,31.5899565,120.7768532,2.974,13632633.584,24925276.450,2.974,0.000,0.000,0.000,0.000,0.000,0.000,0.000,18,18,4*7C
$GPGGA,071753.80,3135.3973619,N,12046.6111611,E,4,18,1.6,2.9520,M,8.312,M,00,0004*6C
$GPHPD,0,0.000,229.70,-0.13,-12.88,31.5899560,120.7768527,2.952,13632633.893,24925276.197,2.952,0.000,0.000,0.000,0.000,0.000,0.000,0.000,18,18,4*76
$GPGGA,071754.00,3135.3973402,N,12046.6111253,E,4,18,1.6,2.9523,M,8.312,M,01,0004*6B
$GPHPD,0,0.000,230.00,-0.71,-12.93,31.5899557,120.7768521,2.952,13632634.129,24925275.892,2.952,0.000,0.000,0.000,0.000,0.000,0.000,0.000,18,18,4*75
$GPGGA,071754.20,3135.3973178,N,12046.6110917,E,4,18,1.6,2.9795,M,8.312,M,01,0004*64
$GPHPD,0,0.000,230.06,-0.45,-13.01,31.5899553,120.7768515,2.980,13632634.380,24925275.617,2.980,0.000,0.000,0.000,0.000,0.000,0.000,0.000,18,17,4*70
$GPGGA,071754.40,3135.3972853,N,12046.6110492,E,4,17,1.6,2.9555,M,8.312,M,01,0004*62
$GPHPD,0,0.000,230.10,0.02,-13.11,31.5899548,120.7768508,2.956,13632634.756,24925275.293,2.956,0.000,0.000,0.000,0.000,0.000,0.000,0.000,17,17,4*56
$GPGGA,071754.60,3135.3972541,N,12046.6110014,E,4,17,1.6,2.9480,M,8.312,M,00,0004*6C
$GPHPD,0,0.000,230.37,-0.32,-13.21,31.5899542,120.7768500,2.948,13632635.104,24925274.899,2.948,0.000,0.000,0.000,0.000,0.000,0.000,0.000,17,17,4*7D
$GPGGA,071754.80,3135.3972196,N,12046.6109487,E,4,17,1.6,2.9711,M,8.312,M,00,0004*61
$GPHPD,0,0.000,230.60,-0.67,-13.28,31.5899537,120.7768491,2.971,13632635.488,24925274.464,2.971,0.000,0.000,0.000,0.000,0.000,0.000,0.000,17,17,4*72
$GPGGA,071755.00,3135.3971750,N,12046.6108873,E,4,17,1.6,2.9741,M,8.312,M,01,0004*65
$GPHPD,0,0.000,230.80,-0.44,-13.43,31.5899529,120.7768481,2.974,13632635.998,24925273.983,2.974,0.000,0.000,0.000,0.000,0.000,0.000,0.000,17,17,4*71
$GPGGA,071755.20,3135.3971330,N,12046.6108182,E,4,17,1.6,2.9830,M,8.312,M,01,0004*6B
$GPHPD,0,0.000,231.02,-0.25,-13.55,31.5899522,120.7768470,2.983,13632636.456,24925273.394,2.983,0.000,0.000,0.000,0.000,0.000,0.000,0.000,17,17,4*7F
$GPGGA,071755.40,3135.3970767,N,12046.6107440,E,4,17,1.6,2.9821,M,8.312,M,01,0004*6E
$GPHPD,0,0.000,231.27,-0.09,-13.63,31.5899513,120.7768457,2.982,13632637.107,24925272.827,2.982,0.000,0.000,0.000,0.000,0.000,0.000,0.000,17,17,4*76
$GPGGA,071755.60,3135.3970249,N,12046.6106555,E,4,17,1.6,3.0112,M,8.312,M,00,0004*61
$GPHPD,0,0.000,231.74,-0.32,-13.72,31.5899504,120.7768443,3.011,13632637.665,24925272.061,3.011,0.000,0.000,0.000,0.000,0.000,0.000,0.000,17,17,4*72
$GPGGA,071755.80,3135.3969608,N,12046.6105580,E,4,17,1.6,2.9692,M,8.312,M,00,0004*6A
$GPHPD,0,0.000,231.94,-0.03,-13.75,31.5899493,120.7768426,2.969,13632638.380,24925271.259,2.969,0.000,0.000,0.000,0.000,0.000,0.000,0.000,17,16,4*7F
$GPGGA,071756.00,3135.3969000,N,12046.6104586,E,4,17,1.6,2.9970,M,8.312,M,01,0004*6A
$GPHPD,0,0.000,232.20,0.30,-13.72,31.5899483,120.7768410,2.997,13632639.044,24925270.414,2.997,0.000,0.000,0.000,0.000,0.000,0.000,0.000,17,16,4*59
$GPGGA,071756.20,3135.3968375,N,12046.6103561,E,4,17,1.6,2.9862,M,8.312,M,01,0004*64
$GPHPD,0,0.000,232.63,-0.43,-13.62,31.5899473,120.7768393,2.986,13632639.726,24925269.541,2.986,0.000,0.000,0.000,0.000,0.000,0.000,0.000,17,16,4*7F
$GPGGA,071756.40,3135.3967773,N,12046.6102621,E,4,17,1.6,3.0020,M,8.312,M,01,0004*6F
$GPHPD,0,0.000,232.63,-0.38,-13.48,31.5899463,120.7768377,3.002,13632640.392,24925268.758,3.002,0.000,0.000,0.000,0.000,0.000,0.000,0.000,17,16,4*7E
$GPGGA,071756.60,3135.3967182,N,12046.6101693,E,4,17,1.6,2.9845,M,8.312,M,00,0004*6D
$GPHPD,0,0.000,233.35,-0.53,-13.35,31.5899453,120.7768362,2.985,13632641.046,24925267.983,2.985,0.000,0.000,0.000,0.000,0.000,0.000,0.000,17,16,4*70
$GPGGA,071756.80,3135.3966664,N,12046.6100888,E,4,17,1.6,2.9891,M,8.312,M,00,0004*61
$GPHPD,0,0.000,233.52,0.14,-13.21,31.5899444,120.7768348,2.989,13632641.620,24925267.314,2.989,0.000,0.000,0.000,0.000,0.000,0.000,0.000,17,16,4*56
$GPGGA,071757.00,3135.3966223,N,12046.6100023,E,4,16,1.7,2.9872,M,8.312,M,01,0004*6A
$GPHPD,0,0.000,233.94,0.40,-13.10,31.5899437,120.7768334,2.987,13632642.073,24925266.527,2.987,0.000,0.000,0.000,0.000,0.000,0.000,0.000,16,16,4*55
$GPGGA,071757.20,3135.3965710,N,12046.6099309,E,4,16,1.7,2.9702,M,8.312,M,01,0004*6C
$GPHPD,0,0.000,234.23,-0.48,-13.02,31.5899429,120.7768322,2.970,13632642.658,24925265.965,2.970,0.000,0.000,0.000,0.000,0.000,0.000,0.000,16,15,4*75
$GPGGA,071757.40,3135.3965263,N,12046.6098532,E,4,16,1.7,2.9681,M,8.312,M,01,0004*6E
$GPHPD,0,0.000,234.63,-0.91,-12.96,31.5899421,120.7768309,2.968,13632643.137,24925265.288,2.968,0.000,0.000,0.000,0.000,0.000,0.000,0.000,16,15,4*7F
$GPGGA,071757.60,3135.3964913,N,12046.6097761,E,4,16,1.7,2.9984,M,8.312,M,00,0004*61
$GPHPD,0,0.000,234.98,-0.99,-12.95,31.5899415,120.7768296,2.998,13632643.479,24925264.562,2.998,0.000,0.000,0.000,0.000,0.000,0.000,0.000,16,15,4*7D
$GPGGA,071757.80,3135.3964583,N,12046.6096985,E,4,16,1.7,3.0272,M,8.312,M,00,0004*65
$GPHPD,0,0.000,235.21,-0.50,-12.98,31.5899410,120.7768283,3.027,13632643.792,24925263.818,3.027,0.000,0.000,0.000,0.000,0.000,0.000,0.000,16,15,4*76
$GPGGA,071758.00,3135.3964057,N,12046.6096257,E,4,16,1.7,2.9886,M,8.312,M,01,0004*62
$GPHPD,0,0.000,235.73,-0.72,-12.99,31.5899401,120.7768271,2.989,13632644.393,24925263.246,2.989,0.000,0.000,0.000,0.000,0.000,0.000,0.000,16,15,4*7E
$GPGGA,071758.20,3135.3963536,N,12046.6095532,E,4,15,1.7,2.9775,M,8.312,M,01,0004*62
$GPHPD,0,0.000,235.85,-0.12,-13.01,31.5899392,120.7768259,2.978,13632644.988,24925262.675,2.978,0.000,0.000,0.000,0.000,0.000,0.000,0.000,15,15,4*70
$GPGGA,071758.40,3135.3963096,N,12046.6094711,E,4,15,1.7,2.9812,M,8.312,M,01,0004*67
$GPHPD,0,0.000,236.15,-0.42,-13.04,31.5899385,120.7768245,2.981,13632645.448,24925261.941,2.981,0.000,0.000,0.000,0.000,0.000,0.000,0.000,15,15,4*7A
$GPGGA,071758.60,3135.3962681,N,12046.6093870,E,4,15,1.7,3.0048,M,8.312,M,00,0004*65
$GPHPD,0,0.000,236.15,-0.29,-13.05,31.5899378,120.7768231,3.005,13632645.868,24925261.169,3.005,0.000,0.000,0.000,0.000,0.000,0.000,0.000,15,15,4*7B
$GPGGA,071758.80,3135.3962258,N,12046.6092910,E,4,15,1.7,3.0131,M,8.312,M,00,0004*62
$GPHPD,0,0.000,235.98,-0.06,-13.05,31.5899371,120.7768215,3.013,13632646.276,24925260.257,3.013,0.000,0.000,0.000,0.000,0.000,0.000,0.000,15,15,4*76
$GPGGA,071759.00,3135.3961719,N,12046.6092001,E,4,15,1.7,3.0067,M,8.312,M,01,0004*62
$GPHPD,0,0.000,235.60,0.09,-12.99,31.5899362,120.7768200,3.007,13632646.860,24925259.475,3.007,0.000,0.000,0.000,0.000,0.000,0.000,0.000,15,15,4*50
$GPGGA,071759.20,3135.3961221,N,12046.6091146,E,4,15,1.7,3.0052,M,8.312,M,01,0004*69
$GPHPD,0,0.000,235.76,-0.77,-12.92,31.5899354,120.7768186,3.005,13632647.395,24925258.733,3.005,0.000,0.000,0.000,0.000,0.000,0.000,0.000,15,15,4*70
$GPGGA,071759.40,3135.3960758,N,12046.6090313,E,4,15,1.7,2.9851,M,8.312,M,01,0004*65
$GPHPD,0,0.000,235.91,-1.58,-12.89,31.5899346,120.7768172,2.985,13632647.886,24925257.998,2.985,0.000,0.000,0.000,0.000,0.000,0.000,0.000,15,15,4*7E
$GPGGA,071759.60,3135.3960272,N,12046.6089458,E,4,15,1.7,2.9824,M,8.312,M,00,0004*69
$GPHPD,0,0.000,235.54,-1.59,-12.88,31.5899338,120.7768158,2.982,13632648.404,24925257.250,2.982,0.000,0.000,0.000,0.000,0.000,0.000,0.000,15,15,4*70
$GPGGA,071759.80,3135.3959873,N,12046.6088620,E,4,15,1.7,2.9895,M,8.312,M,00,0004*60
$GPHPD,0,0.000,235.95,-2.67,-12.87,31.5899331,120.7768144,2.990,13632648.803,24925256.472,2.990,0.000,0.000,0.000,0.000,0.000,0.000,0.000,15,15,4*74
$GPGGA,071800.00,3135.3959405,N,12046.6087833,E,4,15,1.7,2.9829,M,8.312,M,01,0004*63
$GPHPD,0,0.000,236.09,-1.64,-12.88,31.5899323,120.7768131,2.983,13632649.310,24925255.795,2.983,0.000,0.000,0.000,0.000,0.000,0.000,0.000,15,15,4*7D
$GPGGA,071800.20,3135.3958882,N,12046.6086985,E,4,15,1.7,2.9595,M,8.312,M,01,0004*64
$GPHPD,0,0.000,236.31,-1.83,-12.91,31.5899315,120.7768116,2.960,13632649.882,24925255.077,2.960,0.000,0.000,0.000,0.000,0.000,0.000,0.000,15,15,4*7C
$GPGGA,071800.40,3135.3958475,N,12046.6086117,E,4,15,1.7,2.9758,M,8.312,M,01,0004*66
$GPHPD,0,0.000,236.09,-2.36,-12.96,31.5899308,120.7768102,2.976,13632650.286,24925254.267,2.976,0.000,0.000,0.000,0.000,0.000,0.000,0.000,15,15,4*70
$GPGGA,071800.60,3135.3958015,N,12046.6085180,E,4,15,1.7,2.9834,M,8.312,M,00,0004*6F
$GPHPD,0,0.000,235.66,-3.12,-13.01,31.5899300,120.7768086,2.983,13632650.751,24925253.405,2.983,0.000,0.000,0.000,0.000,0.000,0.000,0.000,15,15,4*7D
$GPGGA,071800.80,3135.3957454,N,12046.6084263,E,4,15,1.7,2.9639,M,8.312,M,00,0004*63
$GPHPD,0,0.000,235.88,-3.51,-13.08,31.5899291,120.7768071,2.964,13632651.364,24925252.625,2.964,0.000,0.000,0.000,0.000,0.000,0.000,0.000,15,15,4*70
$GPGGA,071801.00,3135.3956880,N,12046.6083227,E,4,15,1.7,2.9604,M,8.312,M,01,0004*66
$GPHPD,0,0.000,236.81,-2.58,-13.18,31.5899281,120.7768054,2.960,13632651.971,24925251.710,2.960,0.000,0.000,0.000,0.000,0.000,0.000,0.000,15,15,4*7F
$GPGGA,071801.20,3135.3956262,N,12046.6082193,E,4,15,1.7,2.9447,M,8.312,M,01,0004*6A
$GPHPD,0,0.000,237.68,-2.59,-13.24,31.5899271,120.7768037,2.945,13632652.642,24925250.823,2.945,0.000,0.000,0.000,0.000,0.000,0.000,0.000,15,15,4*7F
$GPGGA,071801.40,3135.3955528,N,12046.6081108,E,4,16,1.7,2.9114,M,8.312,M,01,0004*67
$GPHPD,0,0.000,237.44,-3.12,-13.32,31.5899259,120.7768018,2.911,13632653.466,24925249.942,2.911,0.000,0.000,0.000,0.000,0.000,0.000,0.000,16,16,4*74
$GPGGA,071801.60,3135.3955075,N,12046.6079802,E,4,16,1.7,2.9617,M,8.312,M,00,0004*69
$GPHPD,0,0.000,238.10,1.89,-13.38,31.5899251,120.7767997,2.962,13632653.847,24925248.630,2.962,0.000,0.000,0.000,0.000,0.000,0.000,0.000,16,16,4*50
$GPGGA,071801.80,3135.3954373,N,12046.6078489,E,4,16,1.7,2.9564,M,8.312,M,00,0004*6A
$GPHPD,0,0.000,237.47,-4.45,-13.43,31.5899240,120.7767975,2.956,13632654.581,24925247.456,2.956,0.000,0.000,0.000,0.000,0.000,0.000,0.000,16,16,4*78
$GPGGA,071802.00,3135.3953409,N,12046.6077241,E,4,16,1.6,2.8745,M,8.312,M,01,0004*61
$GPHPD,0,0.000,238.00,-1.71,-13.44,31.5899223,120.7767954,2.875,13632655.700,24925246.512,2.875,0.000,0.000,0.000,0.000,0.000,0.000,0.000,16,16,4*7D
$GPGGA,071802.20,3135.3952963,N,12046.6075714,E,4,16,1.7,2.9739,M,8.312,M,01,0004*6F
$GPHPD,0,0.000,239.34,2.89,-13.45,31.5899216,120.7767929,2.974,13632656.026,24925244.930,2.974,0.000,0.000,0.000,0.000,0.000,0.000,0.000,16,16,4*51
$GPGGA,071802.40,3135.3952099,N,12046.6074323,E,4,16,1.6,2.9283,M,8.312,M,01,0004*61
$GPHPD,0,0.000,238.21,0.84,-13.43,31.5899202,120.7767905,2.928,13632656.975,24925243.755,2.928,0.000,0.000,0.000,0.000,0.000,0.000,0.000,16,16,4*53
$GPGGA,071802.60,3135.3951368,N,12046.6072859,E,4,16,1.6,2.9651,M,8.312,M,00,0004*67
$GPHPD,0,0.000,237.82,2.54,-13.39,31.5899189,120.7767881,2.965,13632657.719,24925242.415,2.965,0.000,0.000,0.000,0.000,0.000,0.000,0.000,16,16,4*59
$GPGGA,071802.80,3135.3950671,N,12046.6071429,E,4,16,1.6,2.9812,M,8.312,M,00,0004*64
$GPHPD,0,0.000,237.59,-1.59,-13.33,31.5899178,120.7767857,2.981,13632658.422,24925241.096,2.981,0.000,0.000,0.000,0.000,0.000,0.000,0.000,16,16,4*7B
$GPGGA,071803.00,3135.3949888,N,12046.6069903,E,4,16,1.6,2.9841,M,8.312,M,01,0004*66
$GPHPD,0,0.000,237.53,-0.24,-13.27,31.5899165,120.7767832,2.984,13632659.227,24925239.712,2.984,0.000,0.000,0.000,0.000,0.000,0.000,0.000,16,16,4*76
$GPGGA,071803.20,3135.3949188,N,12046.6068468,E,4,16,1.6,3.0045,M,8.312,M,01,0004*68
$GPHPD,0,0.000,237.49,-0.95,-13.23,31.5899153,120.7767808,3.005,13632659.933,24925238.389,3.005,0.000,0.000,0.000,0.000,0.000,0.000,0.000,16,16,4*76
$GPGGA,071803.40,3135.3948464,N,12046.6067006,E,4,16,1.6,3.0328,M,8.312,M,01,0004*63
$GPHPD,0,0.000,237.67,-0.74,-13.19,31.5899141,120.7767783,3.033,13632660.668,24925237.047,3.033,0.000,0.000,0.000,0.000,0.000,0.000,0.000,16,16,4*76
$GPGGA,071803.60,3135.3947614,N,12046.6065539,E,4,16,1.6,2.9808,M,8.312,M,00,0004*60
$GPHPD,0,0.000,237.53,-2.22,-13.16,31.5899127,120.7767759,2.981,13632661.581,24925235.773,2.981,0.000,0.000,0.000,0.000,0.000,0.000,0.000,16,16,4*7F
$GPGGA,071803.80,3135.3946905,N,12046.6064057,E,4,16,1.6,2.9857,M,8.312,M,00,0004*66
$GPHPD,0,0.000,238.18,-0.31,-13.17,31.5899115,120.7767734,2.986,13632662.291,24925234.398,2.986,0.000,0.000,0.000,0.000,0.000,0.000,0.000,16,16,4*71
$GPGGA,071804.00,3135.3946171,N,12046.6062573,E,4,16,1.6,2.9822,M,8.312,M,01,0004*64
$GPHPD,0,0.000,238.08,-1.03,-13.18,31.5899103,120.7767710,2.982,13632663.035,24925233.036,2.982,0.000,0.000,0.000,0.000,0.000,0.000,0.000,16,16,4*73
$GPGGA,071804.20,3135.3945357,N,12046.6061029,E,4,16,1.6,2.9549,M,8.312,M,01,0004*6A
$GPHPD,0,0.000,238.32,-0.57,-13.20,31.5899089,120.7767684,2.955,13632663.881,24925231.647,2.955,0.000,0.000,0.000,0.000,0.000,0.000,0.000,16,15,4*78
$GPGGA,071804.40,3135.3944613,N,12046.6059570,E,4,16,1.6,2.9774,M,8.312,M,01,0004*66
$GPHPD,0,0.000,238.28,-0.38,-13.20,31.5899077,120.7767660,2.977,13632664.645,24925230.321,2.977,0.000,0.000,0.000,0.000,0.000,0.000,0.000,16,16,4*77
$GPGGA,071804.60,3135.3943896,N,12046.6057996,E,4,16,1.6,2.9773,M,8.312,M,00,0004*6C
$GPHPD,0,0.000,238.26,0.07,-13.23,31.5899065,120.7767633,2.977,13632665.347,24925228.840,2.977,0.000,0.000,0.000,0.000,0.000,0.000,0.000,16,16,4*5D
$GPGGA,071804.80,3135.3943113,N,12046.6056486,E,4,16,1.6,2.9789,M,8.312,M,00,0004*6E
$GPHPD,0,0.000,238.53,-0.74,-13.25,31.5899052,120.7767608,2.979,13632666.156,24925227.475,2.979,0.000,0.000,0.000,0.000,0.000,0.000,0.000,16,16,4*78
$GPGGA,071805.00,3135.3942330,N,12046.6054948,E,4,16,1.6,2.9822,M,8.312,M,01,0004*67
$GPHPD,0,0.000,238.32,-1.34,-13.26,31.5899039,120.7767582,2.982,13632666.960,24925226.076,2.982,0.000,0.000,0.000,0.000,0.000,0.000,0.000,16,16,4*7E
$GPGGA,071805.20,3135.3941490,N,12046.6053379,E,4,16,1.6,2.9601,M,8.312,M,01,0004*6B
$GPHPD,0,0.000,238.44,-1.73,-13.24,31.5899025,120.7767556,2.960,13632667.838,24925224.673,2.960,0.000,0.000,0.000,0.000,0.000,0.000,0.000,16,16,4*76
$GPGGA,071805.40,3135.3940718,N,12046.6051851,E,4,16,1.6,2.9602,M,8.312,M,01,0004*6F
$GPHPD,0,0.000,238.63,-1.41,-13.24,31.5899012,120.7767531,2.960,13632668.627,24925223.279,2.960,0.000,0.000,0.000,0.000,0.000,0.000,0.000,16,16,4*71
$GPGGA,071805.60,3135.3939914,N,12046.6050244,E,4,16,1.6,2.9845,M,8.312,M,00,0004*62
$GPHPD,0,0.000,238.71,-0.02,-13.23,31.5898999,120.7767504,2.985,13632669.447,24925221.809,2.985,0.000,0.000,0.000,0.000,0.000,0.000,0.000,16,15,4*77
$GPGGA,071805.80,3135.3939080,N,12046.6048646,E,4,16,1.6,2.9659,M,8.312,M,00,0004*64
$GPHPD,0,0.000,238.75,0.20,-13.23,31.5898985,120.7767477,2.966,13632670.310,24925220.368,2.966,0.000,0.000,0.000,0.000,0.000,0.000,0.000,16,15,4*56
$GPGGA,071806.00,3135.3938328,N,12046.6047011,E,4,16,1.6,2.9654,M,8.312,M,01,0004*68
