$GPGGA,072457.00,3135.3476010,N,12046.5132756,E,4,16,1.5,2.4945,M,8.307,M,01,0004*6D
$GPHPD,0,0.000,248.02,-1.16,-12.52,31.5891267,120.7752213,2.495,13633144.104,24924385.358,2.495,0.000,0.000,0.000,0.000,0.000,0.000,0.000,16,16,4*7A
$GPGGA,072457.20,3135.3475966,N,12046.5132593,E,4,16,1.5,2.4911,M,8.307,M,01,0004*6E
$GPHPD,0,0.000,248.25,-0.86,-12.51,31.5891266,120.7752210,2.491,13633144.133,24924385.187,2.491,0.000,0.000,0.000,0.000,0.000,0.000,0.000,16,16,4*72
$GPGGA,072457.40,3135.3475914,N,12046.5132434,E,4,16,1.5,2.4884,M,8.307,M,01,0004*6C
$GPHPD,0,0.000,248.23,-0.91,-12.48,31.5891265,120.7752207,2.488,13633144.175,24924385.025,2.488,0.000,0.000,0.000,0.000,0.000,0.000,0.000,16,16,4*74
$GPGGA,072457.60,3135.3475876,N,12046.5132295,E,4,16,1.5,2.4895,M,8.307,M,00,0004*67
$GPHPD,0,0.000,248.43,-1.06,-12.47,31.5891265,120.7752205,2.490,13633144.201,24924384.880,2.490,0.000,0.000,0.000,0.000,0.000,0.000,0.000,16,16,4*76
$GPGGA,072457.80,3135.3475828,N,12046.5132172,E,4,16,1.5,2.4903,M,8.307,M,00,0004*66
$GPHPD,0,0.000,248.55,-0.85,-12.50,31.5891264,120.7752203,2.490,13633144.245,24924384.760,2.490,0.000,0.000,0.000,0.000,0.000,0.000,0.000,16,16,4*7B
$GPGGA,072458.00,3135.3475794,N,12046.5131997,E,4,16,1.5,2.4910,M,8.307,M,01,0004*6A
$GPHPD,0,0.000,248.92,-0.72,-12.56,31.5891263,120.7752200,2.491,13633144.258,24924384.568,2.491,0.000,0.000,0.000,0.000,0.000,0.000,0.000,16,16,4*7C
$GPGGA,072458.20,3135.3475719,N,12046.5131781,E,4,16,1.5,2.4951,M,8.307,M,01,0004*61
$GPHPD,0,0.000,248.79,-0.41,-12.61,31.5891262,120.7752196,2.495,13633144.321,24924384.352,2.495,0.000,0.000,0.000,0.000,0.000,0.000,0.000,16,16,4*70
$GPGGA,072458.40,3135.3475636,N,12046.5131474,E,4,16,1.5,2.4898,M,8.307,M,01,0004*66
$GPHPD,0,0.000,249.10,-0.61,-12.68,31.5891261,120.7752191,2.490,13633144.377,24924384.030,2.490,0.000,0.000,0.000,0.000,0.000,0.000,0.000,16,16,4*75
$GPGGA,072458.60,3135.3475521,N,12046.5131136,E,4,16,1.5,2.4931,M,8.307,M,00,0004*61
$GPHPD,0,0.000,249.38,-0.70,-12.75,31.5891259,120.7752186,2.493,13633144.472,24924383.689,2.493,0.000,0.000,0.000,0.000,0.000,0.000,0.000,16,16,4*7F
$GPGGA,072458.80,3135.3475403,N,12046.5130696,E,4,16,1.6,2.4996,M,8.307,M,00,0004*6C
$GPHPD,0,0.000,249.64,-0.74,-12.82,31.5891257,120.7752178,2.500,13633144.552,24924383.227,2.500,0.000,0.000,0.000,0.000,0.000,0.000,0.000,16,16,4*76
$GPGGA,072459.00,3135.3475258,N,12046.5130180,E,4,16,1.5,2.4961,M,8.307,M,01,0004*67
$GPHPD,0,0.000,249.62,-1.18,-12.89,31.5891254,120.7752170,2.496,13633144.654,24924382.689,2.496,0.000,0.000,0.000,0.000,0.000,0.000,0.000,16,16,4*7F
$GPGGA,072459.20,3135.3475083,N,12046.5129573,E,4,16,1.5,2.5028,M,8.307,M,01,0004*64
$GPHPD,0,0.000,250.08,-0.49,-12.96,31.5891251,120.7752160,2.503,13633144.780,24924382.059,2.503,0.000,0.000,0.000,0.000,0.000,0.000,0.000,16,16,4*77
$GPGGA,072459.40,3135.3474868,N,12046.5128859,E,4,16,1.5,2.5001,M,8.307,M,01,0004*61
$GPHPD,0,0.000,250.55,-0.50,-13.02,31.5891248,120.7752148,2.500,13633144.942,24924381.323,2.500,0.000,0.000,0.000,0.000,0.000,0.000,0.000,16,16,4*74
$GPGGA,072459.60,3135.3474667,N,12046.5128095,E,4,16,1.5,2.5013,M,8.307,M,00,0004*68
$GPHPD,0,0.000,251.00,-0.70,-13.04,31.5891244,120.7752135,2.501,13633145.074,24924380.519,2.501,0.000,0.000,0.000,0.000,0.000,0.000,0.000,16,16,4*74
$GPGGA,072459.80,3135.3474455,N,12046.5127263,E,4,16,1.5,2.4963,M,8.307,M,00,0004*6E
$GPHPD,0,0.000,251.57,-0.88,-12.98,31.5891241,120.7752121,2.496,13633145.208,24924379.639,2.496,0.000,0.000,0.000,0.000,0.000,0.000,0.000,16,16,4*7B
$GPGGA,072500.00,3135.3474274,N,12046.5126504,E,4,16,1.5,2.4956,M,8.307,M,01,0004*6E
$GPHPD,0,0.000,251.96,-0.67,-12.87,31.5891238,120.7752108,2.496,13633145.312,24924378.829,2.496,0.000,0.000,0.000,0.000,0.000,0.000,0.000,16,16,4*78
$GPGGA,072500.20,3135.3474087,N,12046.5125771,E,4,16,1.5,2.4926,M,8.307,M,01,0004*66
$GPHPD,0,0.000,252.31,-1.09,-12.82,31.5891235,120.7752096,2.493,13633145.430,24924378.054,2.493,0.000,0.000,0.000,0.000,0.000,0.000,0.000,16,16,4*74
$GPGGA,072500.40,3135.3473913,N,12046.5125043,E,4,16,1.5,2.4899,M,8.307,M,01,0004*60
$GPHPD,0,0.000,252.80,-1.20,-12.78,31.5891232,120.7752084,2.490,13633145.531,24924377.277,2.490,0.000,0.000,0.000,0.000,0.000,0.000,0.000,16,16,4*78
$GPGGA,072500.60,3135.3473762,N,12046.5124322,E,4,16,1.5,2.4909,M,8.307,M,00,0004*66
$GPHPD,0,0.000,253.19,-1.17,-12.73,31.5891229,120.7752072,2.491,13633145.601,24924376.495,2.491,0.000,0.000,0.000,0.000,0.000,0.000,0.000,16,16,4*7E
$GPGGA,072500.80,3135.3473585,N,12046.5123601,E,4,16,1.5,2.5020,M,8.307,M,00,0004*63
$GPHPD,0,0.000,253.49,-1.12,-12.67,31.5891226,120.7752060,2.502,13633145.707,24924375.729,2.502,0.000,0.000,0.000,0.000,0.000,0.000,0.000,16,16,4*77
$GPGGA,072501.00,3135.3473425,N,12046.5122906,E,4,16,1.5,2.4971,M,8.307,M,01,0004*65
$GPHPD,0,0.000,254.07,-1.29,-12.60,31.5891224,120.7752048,2.497,13633145.794,24924374.984,2.497,0.000,0.000,0.000,0.000,0.000,0.000,0.000,16,16,4*7F
$GPGGA,072501.20,3135.3473283,N,12046.5122272,E,4,16,1.5,2.5073,M,8.307,M,01,0004*6F
$GPHPD,0,0.000,254.39,-1.01,-12.56,31.5891221,120.7752038,2.507,13633145.869,24924374.302,2.507,0.000,0.000,0.000,0.000,0.000,0.000,0.000,16,16,4*76
$GPGGA,072501.40,3135.3473134,N,12046.5121593,E,4,17,1.5,2.5029,M,8.307,M,01,0004*63
$GPHPD,0,0.000,254.74,-1.41,-12.53,31.5891219,120.7752027,2.503,13633145.944,24924373.570,2.503,0.000,0.000,0.000,0.000,0.000,0.000,0.000,17,17,4*71
$GPGGA,072501.60,3135.3472992,N,12046.5120902,E,4,17,1.5,2.5095,M,8.307,M,00,0004*67
$GPHPD,0,0.000,255.15,-1.46,-12.51,31.5891217,120.7752015,2.510,13633146.006,24924372.819,2.510,0.000,0.000,0.000,0.000,0.000,0.000,0.000,17,17,4*72
$GPGGA,072501.80,3135.3472885,N,12046.5120265,E,4,17,1.5,2.5029,M,8.307,M,00,0004*63
$GPHPD,0,0.000,255.43,-1.71,-12.48,31.5891215,120.7752004,2.503,13633146.030,24924372.113,2.503,0.000,0.000,0.000,0.000,0.000,0.000,0.000,17,17,4*79
$GPGGA,072502.00,3135.3472754,N,12046.5119606,E,4,17,1.4,2.5003,M,8.307,M,01,0004*68
$GPHPD,0,0.000,255.68,-1.55,-12.44,31.5891213,120.7751993,2.500,13633146.084,24924371.395,2.500,0.000,0.000,0.000,0.000,0.000,0.000,0.000,17,17,4*78
$GPGGA,072502.20,3135.3472621,N,12046.5118929,E,4,17,1.4,2.5003,M,8.307,M,01,0004*6A
$GPHPD,0,0.000,255.99,-1.60,-12.43,31.5891210,120.7751982,2.500,13633146.136,24924370.656,2.500,0.000,0.000,0.000,0.000,0.000,0.000,0.000,17,17,4*77
$GPGGA,072502.40,3135.3472455,N,12046.5118265,E,4,17,1.4,2.5093,M,8.307,M,01,0004*67
$GPHPD,0,0.000,256.32,-2.15,-12.42,31.5891208,120.7751971,2.509,13633146.239,24924369.952,2.509,0.000,0.000,0.000,0.000,0.000,0.000,0.000,17,17,4*7F
$GPGGA,072502.60,3135.3472359,N,12046.5117600,E,4,17,1.4,2.4960,M,8.307,M,00,0004*63
$GPHPD,0,0.000,256.54,-2.13,-12.39,31.5891206,120.7751960,2.496,13633146.241,24924369.206,2.496,0.000,0.000,0.000,0.000,0.000,0.000,0.000,17,17,4*7E
$GPGGA,072502.80,3135.3472219,N,12046.5116897,E,4,17,1.4,2.4900,M,8.307,M,00,0004*6F
$GPHPD,0,0.000,256.61,-2.12,-12.36,31.5891204,120.7751948,2.490,13633146.299,24924368.439,2.490,0.000,0.000,0.000,0.000,0.000,0.000,0.000,17,17,4*70
$GPGGA,072503.00,3135.3472118,N,12046.5116214,E,4,17,1.4,2.4853,M,8.307,M,01,0004*63
$GPHPD,0,0.000,256.85,-1.76,-12.32,31.5891202,120.7751937,2.485,13633146.305,24924367.675,2.485,0.000,0.000,0.000,0.000,0.000,0.000,0.000,17,17,4*70
$GPGGA,072503.20,3135.3472001,N,12046.5115566,E,4,17,1.4,2.4904,M,8.307,M,01,0004*6A
$GPHPD,0,0.000,256.98,-1.39,-12.28,31.5891200,120.7751926,2.490,13633146.340,24924366.961,2.490,0.000,0.000,0.000,0.000,0.000,0.000,0.000,17,17,4*74
$GPGGA,072503.40,3135.3471860,N,12046.5114899,E,4,17,1.4,2.4876,M,8.307,M,01,0004*68
$GPHPD,0,0.000,257.24,-1.86,-12.25,31.5891198,120.7751915,2.488,13633146.407,24924366.239,2.488,0.000,0.000,0.000,0.000,0.000,0.000,0.000,17,17,4*7B
$GPGGA,072503.60,3135.3471742,N,12046.5114238,E,4,17,1.4,2.4926,M,8.307,M,00,0004*61
$GPHPD,0,0.000,257.45,-1.63,-12.23,31.5891196,120.7751904,2.493,13633146.441,24924365.511,2.493,0.000,0.000,0.000,0.000,0.000,0.000,0.000,17,17,4*73
$GPGGA,072503.80,3135.3471649,N,12046.5113572,E,4,17,1.4,2.4837,M,8.307,M,00,0004*6A
$GPHPD,0,0.000,257.56,-1.88,-12.22,31.5891194,120.7751893,2.484,13633146.439,24924364.762,2.484,0.000,0.000,0.000,0.000,0.000,0.000,0.000,17,17,4*70
$GPGGA,072504.00,3135.3471518,N,12046.5112929,E,4,17,1.4,2.4768,M,8.307,M,01,0004*65
$GPHPD,0,0.000,257.60,-1.51,-12.18,31.5891192,120.7751882,2.477,13633146.496,24924364.062,2.477,0.000,0.000,0.000,0.000,0.000,0.000,0.000,17,17,4*7C
$GPGGA,072504.20,3135.3471438,N,12046.5112307,E,4,17,1.4,2.4779,M,8.307,M,01,0004*62
$GPHPD,0,0.000,257.94,-1.62,-12.16,31.5891191,120.7751872,2.478,13633146.484,24924363.359,2.478,0.000,0.000,0.000,0.000,0.000,0.000,0.000,17,17,4*7A
$GPGGA,072504.40,3135.3471309,N,12046.5111683,E,4,17,1.4,2.4789,M,8.307,M,01,0004*64
$GPHPD,0,0.000,257.96,-1.21,-12.14,31.5891188,120.7751861,2.479,13633146.542,24924362.681,2.479,0.000,0.000,0.000,0.000,0.000,0.000,0.000,17,17,4*7D
$GPGGA,072504.60,3135.3471227,N,12046.5111051,E,4,17,1.4,2.4738,M,8.307,M,00,0004*69
$GPHPD,0,0.000,258.37,-1.16,-12.14,31.5891187,120.7751851,2.474,13633146.531,24924361.967,2.474,0.000,0.000,0.000,0.000,0.000,0.000,0.000,17,17,4*71
$GPGGA,072504.80,3135.3471124,N,12046.5110451,E,4,17,1.4,2.4745,M,8.307,M,00,0004*68
$GPHPD,0,0.000,258.37,-0.98,-12.17,31.5891185,120.7751841,2.475,13633146.557,24924361.303,2.475,0.000,0.000,0.000,0.000,0.000,0.000,0.000,17,17,4*7E
$GPGGA,072505.00,3135.3471053,N,12046.5109865,E,4,17,1.4,2.4726,M,8.307,M,01,0004*67
$GPHPD,0,0.000,258.57,-1.13,-12.18,31.5891184,120.7751831,2.473,13633146.540,24924360.638,2.473,0.000,0.000,0.000,0.000,0.000,0.000,0.000,17,17,4*79
$GPGGA,072505.20,3135.3470970,N,12046.5109310,E,4,17,1.4,2.4635,M,8.307,M,01,0004*66
$GPHPD,0,0.000,258.53,-1.17,-12.19,31.5891183,120.7751822,2.464,13633146.546,24924360.017,2.464,0.000,0.000,0.000,0.000,0.000,0.000,0.000,17,17,4*70
$GPGGA,072505.40,3135.3470876,N,12046.5108777,E,4,17,1.4,2.4631,M,8.307,M,01,0004*67
$GPHPD,0,0.000,258.71,-1.04,-12.21,31.5891181,120.7751813,2.463,13633146.572,24924359.429,2.463,0.000,0.000,0.000,0.000,0.000,0.000,0.000,17,17,4*7D
$GPGGA,072505.60,3135.3470813,N,12046.5108226,E,4,17,1.4,2.4769,M,8.306,M,00,0004*6B
$GPHPD,0,0.000,259.10,-1.06,-12.24,31.5891180,120.7751804,2.477,13633146.551,24924358.801,2.477,0.000,0.000,0.000,0.000,0.000,0.000,0.000,17,17,4*7D
$GPGGA,072505.80,3135.3470714,N,12046.5107670,E,4,17,1.4,2.4708,M,8.306,M,00,0004*62
$GPHPD,0,0.000,259.14,-1.02,-12.30,31.5891179,120.7751795,2.471,13633146.580,24924358.188,2.471,0.000,0.000,0.000,0.000,0.000,0.000,0.000,17,17,4*7D
$GPGGA,072506.00,3135.3470629,N,12046.5107059,E,4,17,1.4,2.4686,M,8.306,M,01,0004*6D
$GPHPD,0,0.000,259.22,-1.12,-12.35,31.5891177,120.7751784,2.469,13633146.578,24924357.501,2.469,0.000,0.000,0.000,0.000,0.000,0.000,0.000,17,17,4*7F
$GPGGA,072506.20,3135.3470546,N,12046.5106455,E,4,17,1.4,2.4635,M,8.306,M,01,0004*64
$GPHPD,0,0.000,259.43,-1.09,-12.39,31.5891176,120.7751774,2.464,13633146.574,24924356.821,2.464,0.000,0.000,0.000,0.000,0.000,0.000,0.000,17,17,4*72
$GPGGA,072506.40,3135.3470452,N,12046.5105746,E,4,17,1.4,2.4662,M,8.306,M,01,0004*66
$GPHPD,0,0.000,259.56,-1.17,-12.44,31.5891174,120.7751762,2.466,13633146.565,24924356.021,2.466,0.000,0.000,0.000,0.000,0.000,0.000,0.000,17,17,4*7E
$GPGGA,072506.60,3135.3470365,N,12046.5105025,E,4,17,1.4,2.4605,M,8.306,M,00,0004*65
$GPHPD,0,0.000,259.67,-1.07,-12.47,31.5891173,120.7751750,2.461,13633146.543,24924355.202,2.461,0.000,0.000,0.000,0.000,0.000,0.000,0.000,17,17,4*7C
$GPGGA,072506.80,3135.3470269,N,12046.5104345,E,4,17,1.4,2.4626,M,8.306,M,00,0004*63
$GPHPD,0,0.000,259.78,-1.11,-12.46,31.5891171,120.7751739,2.463,13633146.543,24924354.438,2.463,0.000,0.000,0.000,0.000,0.000,0.000,0.000,17,17,4*77
$GPGGA,072507.00,3135.3470136,N,12046.5103604,E,4,17,1.4,2.4625,M,8.306,M,01,0004*66
$GPHPD,0,0.000,260.03,-1.03,-12.41,31.5891169,120.7751727,2.463,13633146.583,24924353.621,2.463,0.000,0.000,0.000,0.000,0.000,0.000,0.000,17,17,4*72
$GPGGA,072507.20,3135.3470086,N,12046.5102994,E,4,17,1.4,2.4610,M,8.306,M,01,0004*6F
$GPHPD,0,0.000,260.17,-0.85,-12.37,31.5891168,120.7751717,2.461,13633146.531,24924352.915,2.461,0.000,0.000,0.000,0.000,0.000,0.000,0.000,17,17,4*7B
$GPGGA,072507.40,3135.3469980,N,12046.5102391,E,4,17,1.4,2.4637,M,8.306,M,01,0004*64
$GPHPD,0,0.000,260.26,-0.88,-12.36,31.5891166,120.7751707,2.464,13633146.560,24924352.250,2.464,0.000,0.000,0.000,0.000,0.000,0.000,0.000,17,17,4*74
$GPGGA,072507.60,3135.3469924,N,12046.5101809,E,4,17,1.4,2.4572,M,8.306,M,00,0004*62
$GPHPD,0,0.000,260.44,-1.14,-12.37,31.5891165,120.7751697,2.457,13633146.522,24924351.580,2.457,0.000,0.000,0.000,0.000,0.000,0.000,0.000,17,17,4*71
$GPGGA,072507.80,3135.3469869,N,12046.5101256,E,4,17,1.4,2.4532,M,8.306,M,00,0004*60
$GPHPD,0,0.000,260.53,-1.39,-12.38,31.5891164,120.7751688,2.453,13633146.489,24924350.945,2.453,0.000,0.000,0.000,0.000,0.000,0.000,0.000,17,17,4*7C
$GPGGA,072508.00,3135.3469788,N,12046.5100712,E,4,17,1.4,2.4495,M,8.306,M,01,0004*6E
$GPHPD,0,0.000,260.71,-1.06,-12.39,31.5891163,120.7751679,2.450,13633146.495,24924350.337,2.450,0.000,0.000,0.000,0.000,0.000,0.000,0.000,17,17,4*7A
$GPGGA,072508.20,3135.3469732,N,12046.5100203,E,4,17,1.4,2.4554,M,8.306,M,01,0004*64
$GPHPD,0,0.000,260.74,-0.83,-12.40,31.5891162,120.7751670,2.455,13633146.472,24924349.755,2.455,0.000,0.000,0.000,0.000,0.000,0.000,0.000,17,17,4*74
$GPGGA,072508.40,3135.3469665,N,12046.5099693,E,4,17,1.4,2.4511,M,8.306,M,01,0004*6C
$GPHPD,0,0.000,260.90,-0.82,-12.39,31.5891161,120.7751662,2.451,13633146.465,24924349.179,2.451,0.000,0.000,0.000,0.000,0.000,0.000,0.000,17,17,4*7F
$GPGGA,072508.60,3135.3469602,N,12046.5099261,E,4,17,1.4,2.4413,M,8.306,M,00,0004*64
$GPHPD,0,0.000,261.14,-0.72,-12.36,31.5891160,120.7751654,2.441,13633146.467,24924348.695,2.441,0.000,0.000,0.000,0.000,0.000,0.000,0.000,17,17,4*70
$GPGGA,072508.80,3135.3469570,N,12046.5098867,E,4,17,1.4,2.4386,M,8.306,M,00,0004*6A
$GPHPD,0,0.000,261.34,-0.76,-12.34,31.5891160,120.7751648,2.439,13633146.433,24924348.239,2.439,0.000,0.000,0.000,0.000,0.000,0.000,0.000,17,17,4*7A
$GPGGA,072509.00,3135.3469530,N,12046.5098516,E,4,17,1.4,2.4406,M,8.306,M,01,0004*62
$GPHPD,0,0.000,261.49,-0.80,-12.34,31.5891159,120.7751642,2.441,13633146.419,24924347.839,2.441,0.000,0.000,0.000,0.000,0.000,0.000,0.000,17,17,4*74
$GPGGA,072509.20,3135.3469484,N,12046.5098172,E,4,17,1.4,2.4431,M,8.306,M,01,0004*6C
$GPHPD,0,0.000,261.60,-0.76,-12.34,31.5891158,120.7751636,2.443,13633146.416,24924347.450,2.443,0.000,0.000,0.000,0.000,0.000,0.000,0.000,17,17,4*78
$GPGGA,072509.40,3135.3469458,N,12046.5097823,E,4,17,1.4,2.4390,M,8.306,M,01,0004*65
$GPHPD,0,0.000,261.79,-0.81,-12.35,31.5891158,120.7751630,2.439,13633146.382,24924347.045,2.439,0.000,0.000,0.000,0.000,0.000,0.000,0.000,17,17,4*75
$GPGGA,072509.60,3135.3469454,N,12046.5097527,E,4,17,1.4,2.4379,M,8.306,M,00,0004*64
$GPHPD,0,0.000,262.00,-0.81,-12.37,31.5891158,120.7751625,2.438,13633146.328,24924346.690,2.438,0.000,0.000,0.000,0.000,0.000,0.000,0.000,17,17,4*71
$GPGGA,072509.80,3135.3469418,N,12046.5097185,E,4,17,1.4,2.4405,M,8.306,M,00,0004*62
$GPHPD,0,0.000,262.14,-0.62,-12.40,31.5891157,120.7751620,2.441,13633146.311,24924346.299,2.441,0.000,0.000,0.000,0.000,0.000,0.000,0.000,17,17,4*74
$GPGGA,072510.00,3135.3469367,N,12046.5096842,E,4,17,1.4,2.4353,M,8.306,M,01,0004*6B
$GPHPD,0,0.000,262.38,-0.59,-12.44,31.5891156,120.7751614,2.435,13633146.314,24924345.915,2.435,0.000,0.000,0.000,0.000,0.000,0.000,0.000,17,17,4*79
$GPGGA,072510.20,3135.3469352,N,12046.5096487,E,4,17,1.4,2.4392,M,8.306,M,01,0004*67
$GPHPD,0,0.000,262.65,-0.83,-12.49,31.5891156,120.7751608,2.439,13633146.264,24924345.495,2.439,0.000,0.000,0.000,0.000,0.000,0.000,0.000,17,17,4*75
$GPGGA,072510.40,3135.3469311,N,12046.5096102,E,4,17,1.4,2.4335,M,8.306,M,01,0004*63
$GPHPD,0,0.000,262.91,-0.86,-12.56,31.5891155,120.7751602,2.434,13633146.245,24924345.055,2.434,0.000,0.000,0.000,0.000,0.000,0.000,0.000,17,17,4*77
$GPGGA,072510.60,3135.3469279,N,12046.5095638,E,4,17,1.4,2.4279,M,8.306,M,00,0004*6B
$GPHPD,0,0.000,263.14,-0.90,-12.65,31.5891155,120.7751594,2.428,13633146.197,24924344.514,2.428,0.000,0.000,0.000,0.000,0.000,0.000,0.000,17,17,4*7D
$GPGGA,072510.80,3135.3469233,N,12046.5095116,E,4,17,1.4,2.4249,M,8.306,M,00,0004*63
$GPHPD,0,0.000,263.23,-0.63,-12.74,31.5891154,120.7751585,2.425,13633146.157,24924343.911,2.425,0.000,0.000,0.000,0.000,0.000,0.000,0.000,17,17,4*76
$GPGGA,072511.00,3135.3469206,N,12046.5094562,E,4,17,1.4,2.4195,M,8.306,M,01,0004*69
$GPHPD,0,0.000,263.72,-0.79,-12.84,31.5891153,120.7751576,2.420,13633146.084,24924343.259,2.420,0.000,0.000,0.000,0.000,0.000,0.000,0.000,17,17,4*75
$GPGGA,072511.20,3135.3469146,N,12046.5093935,E,4,17,1.4,2.4231,M,8.306,M,01,0004*68
$GPHPD,0,0.000,263.89,-0.56,-12.88,31.5891152,120.7751566,2.423,13633146.043,24924342.538,2.423,0.000,0.000,0.000,0.000,0.000,0.000,0.000,17,17,4*7A
$GPGGA,072511.40,3135.3469131,N,12046.5093330,E,4,17,1.4,2.4182,M,8.306,M,01,0004*6A
$GPHPD,0,0.000,264.17,-0.59,-12.89,31.5891152,120.7751556,2.418,13633145.942,24924341.817,2.418,0.000,0.000,0.000,0.000,0.000,0.000,0.000,17,17,4*7F
$GPGGA,072511.60,3135.3469071,N,12046.5092697,E,4,17,1.4,2.4161,M,8.306,M,01,0004*69
$GPHPD,0,0.000,264.25,-0.53,-12.83,31.5891151,120.7751545,2.416,13633145.900,24924341.088,2.416,0.000,0.000,0.000,0.000,0.000,0.000,0.000,17,17,4*77
$GPGGA,072511.80,3135.3469064,N,12046.5092091,E,4,17,1.4,2.4197,M,8.306,M,00,0004*6B
$GPHPD,0,0.000,264.81,-0.32,-12.77,31.5891151,120.7751535,2.420,13633145.788,24924340.362,2.420,0.000,0.000,0.000,0.000,0.000,0.000,0.000,17,17,4*7A
$GPGGA,072512.00,3135.3469015,N,12046.5091517,E,4,17,1.4,2.4164,M,8.306,M,01,0004*63
$GPHPD,0,0.000,265.01,-0.51,-12.73,31.5891150,120.7751525,2.416,13633145.742,24924339.698,2.416,0.000,0.000,0.000,0.000,0.000,0.000,0.000,17,17,4*7A
$GPGGA,072512.20,3135.3468993,N,12046.5090965,E,4,17,1.4,2.4205,M,8.306,M,01,0004*6B
$GPHPD,0,0.000,265.24,-0.42,-12.72,31.5891150,120.7751516,2.421,13633145.662,24924339.045,2.421,0.000,0.000,0.000,0.000,0.000,0.000,0.000,17,17,4*7B
$GPGGA,072512.40,3135.3468950,N,12046.5090432,E,4,17,1.4,2.4193,M,8.306,M,01,0004*61
$GPHPD,0,0.000,265.42,-0.44,-12.71,31.5891149,120.7751507,2.419,13633145.616,24924338.428,2.419,0.000,0.000,0.000,0.000,0.000,0.000,0.000,17,17,4*7B
$GPGGA,072512.60,3135.3468955,N,12046.5089870,E,4,17,1.4,2.4190,M,8.306,M,00,0004*66
$GPHPD,0,0.000,265.90,-0.70,-12.70,31.5891149,120.7751498,2.419,13633145.496,24924337.747,2.419,0.000,0.000,0.000,0.000,0.000,0.000,0.000,17,17,4*7A
$GPGGA,072512.80,3135.3468909,N,12046.5089374,E,4,17,1.4,2.4163,M,8.306,M,00,0004*62
$GPHPD,0,0.000,265.85,-0.75,-12.69,31.5891148,120.7751490,2.416,13633145.461,24924337.176,2.416,0.000,0.000,0.000,0.000,0.000,0.000,0.000,17,17,4*76
$GPGGA,072513.00,3135.3468894,N,12046.5088844,E,4,17,1.4,2.4197,M,8.306,M,01,0004*6D
$GPHPD,0,0.000,266.41,-0.48,-12.68,31.5891148,120.7751481,2.420,13633145.376,24924336.545,2.420,0.000,0.000,0.000,0.000,0.000,0.000,0.000,17,17,4*76
$GPGGA,072513.20,3135.3468890,N,12046.5088342,E,4,17,1.4,2.4188,M,8.306,M,01,0004*68
$GPHPD,0,0.000,266.61,-0.56,-12.68,31.5891148,120.7751472,2.419,13633145.280,24924335.942,2.419,0.000,0.000,0.000,0.000,0.000,0.000,0.000,17,17,4*77
$GPGGA,072513.40,3135.3468887,N,12046.5087828,E,4,17,1.4,2.4102,M,8.306,M,01,0004*62
$GPHPD,0,0.000,267.06,-0.53,-12.69,31.5891148,120.7751464,2.410,13633145.181,24924335.324,2.410,0.000,0.000,0.000,0.000,0.000,0.000,0.000,17,17,4*7C
$GPGGA,072513.60,3135.3468880,N,12046.5087316,E,4,17,1.4,2.4168,M,8.306,M,00,0004*6C
$GPHPD,0,0.000,267.33,-0.36,-12.69,31.5891148,120.7751455,2.417,13633145.088,24924334.711,2.417,0.000,0.000,0.000,0.000,0.000,0.000,0.000,17,17,4*70
$GPGGA,072513.80,3135.3468874,N,12046.5086801,E,4,17,1.4,2.4125,M,8.306,M,00,0004*6C
$GPHPD,0,0.000,267.83,-0.59,-12.69,31.5891148,120.7751447,2.413,13633144.993,24924334.093,2.413,0.000,0.000,0.000,0.000,0.000,0.000,0.000,17,17,4*7E
$GPGGA,072514.00,3135.3468884,N,12046.5086255,E,4,17,1.4,2.4139,M,8.306,M,01,0004*6B
$GPHPD,0,0.000,268.42,-0.44,-12.70,31.5891148,120.7751438,2.414,13633144.869,24924333.429,2.414,0.000,0.000,0.000,0.000,0.000,0.000,0.000,17,17,4*76
$GPGGA,072514.20,3135.3468883,N,12046.5085722,E,4,17,1.4,2.4076,M,8.306,M,01,0004*62
$GPHPD,0,0.000,268.93,-0.35,-12.71,31.5891148,120.7751429,2.408,13633144.763,24924332.787,2.408,0.000,0.000,0.000,0.000,0.000,0.000,0.000,17,17,4*7E
$GPGGA,072514.40,3135.3468932,N,12046.5085186,E,4,17,1.4,2.4011,M,8.306,M,01,0004*66
$GPHPD,0,0.000,269.59,-0.31,-12.71,31.5891149,120.7751420,2.401,13633144.585,24924332.112,2.401,0.000,0.000,0.000,0.000,0.000,0.000,0.000,17,17,4*75
$GPGGA,072514.60,3135.3468925,N,12046.5084618,E,4,17,1.4,2.4169,M,8.306,M,00,0004*6C
$GPHPD,0,0.000,270.19,-0.15,-12.71,31.5891149,120.7751410,2.417,13633144.481,24924331.431,2.417,0.000,0.000,0.000,0.000,0.000,0.000,0.000,17,17,4*7E
$GPGGA,072514.80,3135.3468963,N,12046.5084036,E,4,17,1.4,2.4099,M,8.306,M,00,0004*64
$GPHPD,0,0.000,271.01,-0.68,-12.71,31.5891149,120.7751401,2.410,13633144.310,24924330.707,2.410,0.000,0.000,0.000,0.000,0.000,0.000,0.000,17,17,4*74
$GPGGA,072515.00,3135.3468995,N,12046.5083474,E,4,17,1.4,2.4071,M,8.306,M,01,0004*66
$GPHPD,0,0.000,271.69,-0.41,-12.68,31.5891150,120.7751391,2.407,13633144.151,24924330.011,2.407,0.000,0.000,0.000,0.000,0.000,0.000,0.000,17,17,4*78
$GPGGA,072515.20,3135.3469033,N,12046.5082954,E,4,17,1.4,2.4168,M,8.306,M,01,0004*67
$GPHPD,0,0.000,272.29,-0.50,-12.65,31.5891151,120.7751383,2.417,13633143.992,24924329.362,2.417,0.000,0.000,0.000,0.000,0.000,0.000,0.000,17,17,4*7F
$GPGGA,072515.40,3135.3469075,N,12046.5082456,E,4,17,1.4,2.4104,M,8.306,M,01,0004*66
$GPHPD,0,0.000,273.00,-0.36,-12.63,31.5891151,120.7751374,2.410,13633143.832,24924328.737,2.410,0.000,0.000,0.000,0.000,0.000,0.000,0.000,17,17,4*75
$GPGGA,072515.60,3135.3469119,N,12046.5081951,E,4,17,1.4,2.4097,M,8.306,M,00,0004*6C
$GPHPD,0,0.000,273.39,-0.74,-12.64,31.5891152,120.7751366,2.410,13633143.668,24924328.102,2.410,0.000,0.000,0.000,0.000,0.000,0.000,0.000,17,17,4*7F
$GPGGA,072515.80,3135.3469170,N,12046.5081430,E,4,17,1.4,2.4131,M,8.306,M,00,0004*6A
$GPHPD,0,0.000,273.89,-0.36,-12.64,31.5891153,120.7751357,2.413,13633143.491,24924327.444,2.413,0.000,0.000,0.000,0.000,0.000,0.000,0.000,17,17,4*7D
$GPGGA,072516.00,3135.3469221,N,12046.5080901,E,4,17,1.4,2.4112,M,8.306,M,01,0004*68
$GPHPD,0,0.000,274.37,-0.60,-12.63,31.5891154,120.7751348,2.411,13633143.312,24924326.777,2.411,0.000,0.000,0.000,0.000,0.000,0.000,0.000,17,17,4*7C
$GPGGA,072516.20,3135.3469276,N,12046.5080359,E,4,17,1.4,2.4087,M,8.306,M,01,0004*62
$GPHPD,0,0.000,274.62,-0.66,-12.64,31.5891155,120.7751339,2.409,13633143.124,24924326.091,2.409,0.000,0.000,0.000,0.000,0.000,0.000,0.000,17,17,4*72
$GPGGA,072516.40,3135.3469297,N,12046.5079772,E,4,17,1.4,2.4185,M,8.306,M,01,0004*63
$GPHPD,0,0.000,275.16,-0.61,-12.68,31.5891155,120.7751330,2.419,13633142.976,24924325.371,2.419,0.000,0.000,0.000,0.000,0.000,0.000,0.000,17,17,4*72
$GPGGA,072516.60,3135.3469382,N,12046.5079169,E,4,17,1.4,2.4100,M,8.306,M,00,0004*64
$GPHPD,0,0.000,275.52,-1.02,-12.70,31.5891156,120.7751319,2.410,13633142.734,24924324.594,2.410,0.000,0.000,0.000,0.000,0.000,0.000,0.000,17,17,4*73
$GPGGA,072516.80,3135.3469466,N,12046.5078524,E,4,17,1.4,2.4060,M,8.306,M,00,0004*6C
$GPHPD,0,0.000,275.61,-0.62,-12.74,31.5891158,120.7751309,2.406,13633142.485,24924323.768,2.406,0.000,0.000,0.000,0.000,0.000,0.000,0.000,17,17,4*70
$GPGGA,072517.00,3135.3469542,N,12046.5077822,E,4,17,1.4,2.4075,M,8.306,M,01,0004*63
$GPHPD,0,0.000,276.09,-0.68,-12.79,31.5891159,120.7751297,2.408,13633142.235,24924322.877,2.408,0.000,0.000,0.000,0.000,0.000,0.000,0.000,17,17,4*70
$GPGGA,072517.20,3135.3469650,N,12046.5077067,E,4,17,1.4,2.4048,M,8.306,M,01,0004*66
$GPHPD,0,0.000,276.27,-0.55,-12.84,31.5891161,120.7751284,2.405,13633141.930,24924321.903,2.405,0.000,0.000,0.000,0.000,0.000,0.000,0.000,17,17,4*75
$GPGGA,072517.40,3135.3469714,N,12046.5076270,E,4,17,1.4,2.4055,M,8.306,M,01,0004*68
$GPHPD,0,0.000,276.52,-0.66,-12.88,31.5891162,120.7751271,2.406,13633141.678,24924320.905,2.406,0.000,0.000,0.000,0.000,0.000,0.000,0.000,17,17,4*76
$GPGGA,072517.60,3135.3469832,N,12046.5075453,E,4,17,1.4,2.4027,M,8.306,M,00,0004*61
$GPHPD,0,0.000,277.01,-0.58,-12.90,31.5891164,120.7751258,2.403,13633141.346,24924319.851,2.403,0.000,0.000,0.000,0.000,0.000,0.000,0.000,17,17,4*7A
$GPGGA,072517.80,3135.3469921,N,12046.5074579,E,4,17,1.4,2.4030,M,8.306,M,00,0004*62
$GPHPD,0,0.000,277.22,-0.51,-12.88,31.5891165,120.7751243,2.403,13633141.044,24924318.746,2.403,0.000,0.000,0.000,0.000,0.000,0.000,0.000,17,17,4*79
$GPGGA,072518.00,3135.3470057,N,12046.5073718,E,4,17,1.4,2.4038,M,8.306,M,01,0004*6E
$GPHPD,0,0.000,277.69,-0.60,-12.84,31.5891168,120.7751229,2.404,13633140.677,24924317.628,2.404,0.000,0.000,0.000,0.000,0.000,0.000,0.000,17,17,4*78
$GPGGA,072518.20,3135.3470166,N,12046.5072845,E,4,17,1.4,2.3969,M,8.306,M,01,0004*63
$GPHPD,0,0.000,277.91,-0.53,-12.80,31.5891169,120.7751214,2.397,13633140.346,24924316.512,2.397,0.000,0.000,0.000,0.000,0.000,0.000,0.000,17,17,4*78
$GPGGA,072518.40,3135.3470266,N,12046.5072002,E,4,17,1.4,2.3997,M,8.306,M,01,0004*6C
$GPHPD,0,0.000,278.23,-0.46,-12.77,31.5891171,120.7751200,2.400,13633140.034,24924315.437,2.400,0.000,0.000,0.000,0.000,0.000,0.000,0.000,17,17,4*7D
$GPGGA,072518.60,3135.3470397,N,12046.5071202,E,4,17,1.4,2.3938,M,8.306,M,00,0004*64
$GPHPD,0,0.000,278.37,-0.56,-12.75,31.5891173,120.7751187,2.394,13633139.687,24924314.396,2.394,0.000,0.000,0.000,0.000,0.000,0.000,0.000,17,17,4*78
$GPGGA,072518.80,3135.3470502,N,12046.5070444,E,4,17,1.4,2.4028,M,8.306,M,00,0004*6A
$GPHPD,0,0.000,278.37,-0.22,-12.71,31.5891175,120.7751174,2.403,13633139.385,24924313.421,2.403,0.000,0.000,0.000,0.000,0.000,0.000,0.000,17,17,4*7E
$GPGGA,072519.00,3135.3470611,N,12046.5069706,E,4,17,1.4,2.4055,M,8.306,M,01,0004*64
$GPHPD,0,0.000,278.57,-0.24,-12.65,31.5891177,120.7751162,2.406,13633139.082,24924312.468,2.406,0.000,0.000,0.000,0.000,0.000,0.000,0.000,17,17,4*76
$GPGGA,072519.20,3135.3470713,N,12046.5069021,E,4,17,1.4,2.4090,M,8.306,M,01,0004*6E
$GPHPD,0,0.000,278.52,-0.36,-12.64,31.5891179,120.7751150,2.409,13633138.799,24924311.582,2.409,0.000,0.000,0.000,0.000,0.000,0.000,0.000,17,17,4*74
$GPGGA,072519.40,3135.3470807,N,12046.5068369,E,4,17,1.4,2.4114,M,8.306,M,01,0004*61
$GPHPD,0,0.000,278.92,-0.49,-12.66,31.5891180,120.7751139,2.411,13633138.534,24924310.741,2.411,0.000,0.000,0.000,0.000,0.000,0.000,0.000,17,17,4*72
$GPGGA,072519.60,3135.3470917,N,12046.5067745,E,4,17,1.4,2.4055,M,8.306,M,00,0004*63
$GPHPD,0,0.000,278.94,-0.60,-12.68,31.5891182,120.7751129,2.406,13633138.252,24924309.925,2.406,0.000,0.000,0.000,0.000,0.000,0.000,0.000,17,17,4*71
$GPGGA,072519.80,3135.3471042,N,12046.5067137,E,4,17,1.4,2.3941,M,8.306,M,00,0004*6D
$GPHPD,0,0.000,279.10,-0.07,-12.66,31.5891184,120.7751119,2.394,13633137.952,24924309.119,2.394,0.000,0.000,0.000,0.000,0.000,0.000,0.000,17,17,4*75
$GPGGA,072520.00,3135.3471102,N,12046.5066518,E,4,17,1.4,2.4043,M,8.306,M,01,0004*6F
$GPHPD,0,0.000,279.20,-0.30,-12.65,31.5891185,120.7751109,2.404,13633137.742,24924308.338,2.404,0.000,0.000,0.000,0.000,0.000,0.000,0.000,17,17,4*7E
$GPGGA,072520.20,3135.3471206,N,12046.5065959,E,4,17,1.4,2.3981,M,8.306,M,01,0004*60
$GPHPD,0,0.000,279.39,-0.21,-12.65,31.5891187,120.7751099,2.398,13633137.481,24924307.603,2.398,0.000,0.000,0.000,0.000,0.000,0.000,0.000,17,17,4*72
$GPGGA,072520.40,3135.3471298,N,12046.5065392,E,4,17,1.4,2.4018,M,8.306,M,01,0004*62
$GPHPD,0,0.000,279.64,-0.31,-12.66,31.5891188,120.7751090,2.402,13633137.237,24924306.866,2.402,0.000,0.000,0.000,0.000,0.000,0.000,0.000,17,17,4*79
$GPGGA,072520.60,3135.3471400,N,12046.5064796,E,4,17,1.4,2.3954,M,8.306,M,00,0004*61
$GPHPD,0,0.000,279.68,-0.21,-12.67,31.5891190,120.7751080,2.395,13633136.972,24924306.088,2.395,0.000,0.000,0.000,0.000,0.000,0.000,0.000,17,17,4*7E
$GPGGA,072520.80,3135.3471499,N,12046.5064261,E,4,17,1.4,2.4006,M,8.306,M,00,0004*6B
$GPHPD,0,0.000,279.85,-0.25,-12.65,31.5891192,120.7751071,2.401,13633136.723,24924305.385,2.401,0.000,0.000,0.000,0.000,0.000,0.000,0.000,17,17,4*70
$GPGGA,072521.00,3135.3471586,N,12046.5063744,E,4,17,1.4,2.4018,M,8.306,M,01,0004*66
$GPHPD,0,0.000,280.09,-0.40,-12.65,31.5891193,120.7751062,2.402,13633136.495,24924304.711,2.402,0.000,0.000,0.000,0.000,0.000,0.000,0.000,17,17,4*74
$GPGGA,072521.20,3135.3471702,N,12046.5063214,E,4,17,1.4,2.3995,M,8.306,M,01,0004*61
$GPHPD,0,0.000,280.27,-0.14,-12.65,31.5891195,120.7751054,2.400,13633136.224,24924304.004,2.400,0.000,0.000,0.000,0.000,0.000,0.000,0.000,17,17,4*75
$GPGGA,072521.40,3135.3471764,N,12046.5062683,E,4,17,1.4,2.4040,M,8.306,M,01,0004*6A
$GPHPD,0,0.000,280.38,-0.33,-12.64,31.5891196,120.7751045,2.404,13633136.029,24924303.328,2.404,0.000,0.000,0.000,0.000,0.000,0.000,0.000,17,17,4*79
$GPGGA,072521.60,3135.3471873,N,12046.5062179,E,4,17,1.4,2.4070,M,8.306,M,00,0004*61
$GPHPD,0,0.000,280.72,-0.40,-12.65,31.5891198,120.7751036,2.407,13633135.772,24924302.657,2.407,0.000,0.000,0.000,0.000,0.000,0.000,0.000,17,17,4*7E
$GPGGA,072521.80,3135.3471943,N,12046.5061628,E,4,17,1.4,2.4040,M,8.306,M,00,0004*6E
$GPHPD,0,0.000,280.70,-0.50,-12.66,31.5891199,120.7751027,2.404,13633135.562,24924301.952,2.404,0.000,0.000,0.000,0.000,0.000,0.000,0.000,17,17,4*75
$GPGGA,072522.00,3135.3472045,N,12046.5061091,E,4,17,1.4,2.4045,M,8.306,M,01,0004*69
$GPHPD,0,0.000,281.20,-0.33,-12.66,31.5891201,120.7751018,2.405,13633135.309,24924301.245,2.405,0.000,0.000,0.000,0.000,0.000,0.000,0.000,17,17,4*7C
$GPGGA,072522.20,3135.3472156,N,12046.5060546,E,4,17,1.4,2.4089,M,8.306,M,01,0004*66
$GPHPD,0,0.000,281.36,-0.45,-12.69,31.5891203,120.7751009,2.409,13633135.041,24924300.523,2.409,0.000,0.000,0.000,0.000,0.000,0.000,0.000,17,17,4*7E
$GPGGA,072522.40,3135.3472266,N,12046.5059928,E,4,17,1.4,2.4068,M,8.306,M,01,0004*61
$GPHPD,0,0.000,281.35,-0.35,-12.74,31.5891204,120.7750999,2.407,13633134.760,24924299.714,2.407,0.000,0.000,0.000,0.000,0.000,0.000,0.000,17,17,4*72
$GPGGA,072522.60,3135.3472398,N,12046.5059261,E,4,17,1.4,2.4002,M,8.306,M,00,0004*68
$GPHPD,0,0.000,281.86,-0.70,-12.79,31.5891207,120.7750988,2.400,13633134.438,24924298.832,2.400,0.000,0.000,0.000,0.000,0.000,0.000,0.000,17,17,4*71
$GPGGA,072522.80,3135.3472557,N,12046.5058533,E,4,17,1.4,2.3975,M,8.306,M,00,0004*6C
$GPHPD,0,0.000,282.24,-0.57,-12.85,31.5891209,120.7750976,2.398,13633134.066,24924297.862,2.398,0.000,0.000,0.000,0.000,0.000,0.000,0.000,17,17,4*76
$GPGGA,072523.00,3135.3472726,N,12046.5057724,E,4,17,1.4,2.3953,M,8.306,M,01,0004*6F
$GPHPD,0,0.000,282.47,-0.07,-12.93,31.5891212,120.7750962,2.395,13633133.663,24924296.788,2.395,0.000,0.000,0.000,0.000,0.000,0.000,0.000,17,17,4*70
$GPGGA,072523.20,3135.3472907,N,12046.5056848,E,4,17,1.4,2.4016,M,8.306,M,01,0004*6B
$GPHPD,0,0.000,282.86,-0.26,-12.96,31.5891215,120.7750947,2.402,13633133.229,24924295.627,2.402,0.000,0.000,0.000,0.000,0.000,0.000,0.000,17,17,4*76
$GPGGA,072523.40,3135.3473113,N,12046.5055982,E,4,17,1.4,2.4024,M,8.306,M,01,0004*64
$GPHPD,0,0.000,283.36,-0.35,-12.98,31.5891219,120.7750933,2.402,13633132.762,24924294.462,2.402,0.000,0.000,0.000,0.000,0.000,0.000,0.000,17,17,4*76
$GPGGA,072523.60,3135.3473335,N,12046.5055053,E,4,17,1.4,2.3980,M,8.306,M,00,0004*64
$GPHPD,0,0.000,283.92,-0.17,-12.98,31.5891222,120.7750918,2.398,13633132.259,24924293.213,2.398,0.000,0.000,0.000,0.000,0.000,0.000,0.000,17,17,4*73
$GPGGA,072523.80,3135.3473569,N,12046.5054103,E,4,17,1.4,2.3981,M,8.306,M,00,0004*61
$GPHPD,0,0.000,284.38,-0.51,-12.97,31.5891226,120.7750902,2.398,13633131.735,24924291.931,2.398,0.000,0.000,0.000,0.000,0.000,0.000,0.000,17,17,4*73
$GPGGA,072524.00,3135.3473804,N,12046.5053194,E,4,17,1.4,2.3965,M,8.306,M,01,0004*6A
$GPHPD,0,0.000,284.86,-0.45,-12.92,31.5891230,120.7750887,2.397,13633131.218,24924290.698,2.397,0.000,0.000,0.000,0.000,0.000,0.000,0.000,17,17,4*7A
$GPGGA,072524.20,3135.3474047,N,12046.5052279,E,4,17,1.4,2.3976,M,8.306,M,01,0004*63
$GPHPD,0,0.000,285.29,-0.52,-12.90,31.5891234,120.7750871,2.398,13633130.689,24924289.453,2.398,0.000,0.000,0.000,0.000,0.000,0.000,0.000,17,17,4*77
$GPGGA,072524.40,3135.3474298,N,12046.5051397,E,4,17,1.4,2.3975,M,8.306,M,01,0004*64
$GPHPD,0,0.000,285.68,-0.53,-12.86,31.5891238,120.7750857,2.398,13633130.154,24924288.244,2.398,0.000,0.000,0.000,0.000,0.000,0.000,0.000,17,16,4*7B
$GPGGA,072524.60,3135.3474532,N,12046.5050553,E,4,17,1.4,2.4008,M,8.306,M,00,0004*6B
$GPHPD,0,0.000,286.09,-0.52,-12.85,31.5891242,120.7750843,2.401,13633129.652,24924287.090,2.401,0.000,0.000,0.000,0.000,0.000,0.000,0.000,17,16,4*78
$GPGGA,072524.80,3135.3474815,N,12046.5049678,E,4,17,1.4,2.4005,M,8.306,M,00,0004*62
$GPHPD,0,0.000,286.56,-0.26,-12.85,31.5891247,120.7750828,2.401,13633129.073,24924285.870,2.401,0.000,0.000,0.000,0.000,0.000,0.000,0.000,17,16,4*78
$GPGGA,072525.00,3135.3475028,N,12046.5048757,E,4,17,1.7,2.3939,M,8.306,M,01,0004*62
$GPHPD,0,0.000,286.80,-0.27,-12.88,31.5891250,120.7750813,2.394,13633128.585,24924284.636,2.394,0.000,0.000,0.000,0.000,0.000,0.000,0.000,17,16,4*71
$GPGGA,072525.20,3135.3475300,N,12046.5047876,E,4,17,1.7,2.3895,M,8.306,M,01,0004*6D
$GPHPD,0,0.000,287.40,-0.21,-12.91,31.5891255,120.7750798,2.390,13633128.021,24924283.415,2.390,0.000,0.000,0.000,0.000,0.000,0.000,0.000,17,16,4*74
$GPGGA,072525.40,3135.3475551,N,12046.5046968,E,4,17,1.7,2.3869,M,8.306,M,01,0004*65
$GPHPD,0,0.000,287.76,-0.13,-12.95,31.5891259,120.7750783,2.387,13633127.482,24924282.174,2.387,0.000,0.000,0.000,0.000,0.000,0.000,0.000,17,16,4*73
$GPGGA,072525.60,3135.3475825,N,12046.5046033,E,4,17,1.7,2.3802,M,8.306,M,00,0004*62
$GPHPD,0,0.000,288.32,-0.08,-13.02,31.5891264,120.7750767,2.380,13633126.904,24924280.887,2.380,0.000,0.000,0.000,0.000,0.000,0.000,0.000,17,16,4*78
$GPGGA,072525.80,3135.3476143,N,12046.5045059,E,4,17,1.7,2.3860,M,8.306,M,00,0004*6D
$GPHPD,0,0.000,288.59,0.31,-13.04,31.5891269,120.7750751,2.386,13633126.256,24924279.527,2.386,0.000,0.000,0.000,0.000,0.000,0.000,0.000,17,16,4*51
$GPGGA,072526.00,3135.3476452,N,12046.5044046,E,4,17,1.7,2.3733,M,8.306,M,01,0004*64
$GPHPD,0,0.000,289.01,0.09,-13.06,31.5891274,120.7750734,2.373,13633125.613,24924278.126,2.373,0.000,0.000,0.000,0.000,0.000,0.000,0.000,17,16,4*59
$GPGGA,072526.20,3135.3476780,N,12046.5043015,E,4,17,1.7,2.3835,M,8.306,M,01,0004*62
$GPHPD,0,0.000,289.30,0.60,-13.08,31.5891280,120.7750717,2.384,13633124.939,24924276.692,2.384,0.000,0.000,0.000,0.000,0.000,0.000,0.000,17,16,4*50
$GPGGA,072526.40,3135.3477106,N,12046.5041923,E,4,17,1.7,2.3728,M,8.306,M,01,0004*60
$GPHPD,0,0.000,289.76,0.05,-13.10,31.5891285,120.7750699,2.373,13633124.255,24924275.185,2.373,0.000,0.000,0.000,0.000,0.000,0.000,0.000,17,16,4*59
$GPGGA,072526.60,3135.3477498,N,12046.5040887,E,4,17,1.7,2.3702,M,8.306,M,00,0004*67
$GPHPD,0,0.000,290.27,0.20,-13.11,31.5891292,120.7750681,2.370,13633123.490,24924273.708,2.370,0.000,0.000,0.000,0.000,0.000,0.000,0.000,17,16,4*51
$GPGGA,072526.80,3135.3477862,N,12046.5039820,E,4,17,1.7,2.3692,M,8.306,M,00,0004*6B
$GPHPD,0,0.000,290.57,0.34,-13.12,31.5891298,120.7750664,2.369,13633122.757,24924272.210,2.369,0.000,0.000,0.000,0.000,0.000,0.000,0.000,17,16,4*55
$GPGGA,072527.00,3135.3478236,N,12046.5038797,E,4,17,1.7,2.3686,M,8.306,M,01,0004*60
$GPHPD,0,0.000,291.13,-0.11,-13.13,31.5891304,120.7750647,2.369,13633122.020,24924270.758,2.369,0.000,0.000,0.000,0.000,0.000,0.000,0.000,17,16,4*76
$GPGGA,072527.20,3135.3478610,N,12046.5037746,E,4,17,1.7,2.3726,M,8.306,M,01,0004*6A
$GPHPD,0,0.000,291.50,0.19,-13.10,31.5891310,120.7750629,2.373,13633121.277,24924269.273,2.373,0.000,0.000,0.000,0.000,0.000,0.000,0.000,17,16,4*5D
$GPGGA,072527.40,3135.3479002,N,12046.5036727,E,4,17,1.7,2.3666,M,8.306,M,01,0004*6B
$GPHPD,0,0.000,292.03,0.08,-13.06,31.5891317,120.7750612,2.367,13633120.514,24924267.816,2.367,0.000,0.000,0.000,0.000,0.000,0.000,0.000,17,16,4*54
$GPGGA,072527.60,3135.3479356,N,12046.5035770,E,4,17,1.7,2.3759,M,8.306,M,00,0004*66
$GPHPD,0,0.000,292.36,-0.08,-13.04,31.5891323,120.7750596,2.376,13633119.818,24924266.456,2.376,0.000,0.000,0.000,0.000,0.000,0.000,0.000,17,16,4*77
$GPGGA,072527.80,3135.3479709,N,12046.5034823,E,4,17,1.7,2.3766,M,8.306,M,00,0004*62
$GPHPD,0,0.000,292.88,-0.08,-12.98,31.5891328,120.7750580,2.377,13633119.126,24924265.109,2.377,0.000,0.000,0.000,0.000,0.000,0.000,0.000,17,16,4*72
$GPGGA,072528.00,3135.3480085,N,12046.5033931,E,4,17,1.7,2.3674,M,8.306,M,01,0004*66
$GPHPD,0,0.000,293.37,-0.32,-12.96,31.5891335,120.7750566,2.367,13633118.412,24924263.815,2.367,0.000,0.000,0.000,0.000,0.000,0.000,0.000,17,16,4*75
$GPGGA,072528.20,3135.3480444,N,12046.5033024,E,4,17,1.7,2.3685,M,8.306,M,01,0004*6E
$GPHPD,0,0.000,293.79,-0.13,-12.96,31.5891341,120.7750550,2.369,13633117.719,24924262.512,2.369,0.000,0.000,0.000,0.000,0.000,0.000,0.000,17,16,4*76
$GPGGA,072528.40,3135.3480808,N,12046.5032174,E,4,17,1.7,2.3663,M,8.306,M,01,0004*61
$GPHPD,0,0.000,294.26,-0.32,-12.96,31.5891347,120.7750536,2.366,13633117.031,24924261.275,2.366,0.000,0.000,0.000,0.000,0.000,0.000,0.000,17,16,4*76
$GPGGA,072528.60,3135.3481157,N,12046.5031340,E,4,17,1.7,2.3682,M,8.306,M,00,0004*69
$GPHPD,0,0.000,294.62,0.26,-12.94,31.5891353,120.7750522,2.368,13633116.367,24924260.066,2.368,0.000,0.000,0.000,0.000,0.000,0.000,0.000,17,16,4*5C
$GPGGA,072528.80,3135.3481517,N,12046.5030515,E,4,17,1.7,2.3664,M,8.306,M,00,0004*68
$GPHPD,0,0.000,295.23,0.05,-12.94,31.5891359,120.7750509,2.366,13633115.689,24924258.862,2.366,0.000,0.000,0.000,0.000,0.000,0.000,0.000,17,16,4*5B
$GPGGA,072529.00,3135.3481894,N,12046.5029682,E,4,17,1.7,2.3616,M,8.306,M,01,0004*66
$GPHPD,0,0.000,295.60,0.59,-12.98,31.5891365,120.7750495,2.362,13633114.985,24924257.638,2.362,0.000,0.000,0.000,0.000,0.000,0.000,0.000,17,16,4*5E
$GPGGA,072529.20,3135.3482261,N,12046.5028843,E,4,17,1.7,2.3645,M,8.306,M,01,0004*63
$GPHPD,0,0.000,296.17,0.25,-13.02,31.5891371,120.7750481,2.365,13633114.295,24924256.413,2.365,0.000,0.000,0.000,0.000,0.000,0.000,0.000,17,16,4*54
$GPGGA,072529.40,3135.3482668,N,12046.5027960,E,4,17,1.7,2.3612,M,8.306,M,01,0004*65
$GPHPD,0,0.000,296.74,0.35,-13.09,31.5891378,120.7750466,2.361,13633113.538,24924255.111,2.361,0.000,0.000,0.000,0.000,0.000,0.000,0.000,17,16,4*58
$GPGGA,072529.60,3135.3483100,N,12046.5027059,E,4,17,1.4,2.3687,M,8.306,M,00,0004*62
$GPHPD,0,0.000,297.43,0.36,-13.21,31.5891385,120.7750451,2.369,13633112.743,24924253.774,2.369,0.000,0.000,0.000,0.000,0.000,0.000,0.000,17,16,4*5E
$GPGGA,072529.80,3135.3483565,N,12046.5026134,E,4,17,1.4,2.3577,M,8.306,M,00,0004*6C
$GPHPD,0,0.000,297.85,0.34,-13.27,31.5891393,120.7750436,2.358,13633111.896,24924252.388,2.358,0.000,0.000,0.000,0.000,0.000,0.000,0.000,17,16,4*54
$GPGGA,072530.00,3135.3484088,N,12046.5025144,E,4,17,1.4,2.3563,M,8.306,M,01,0004*6D
$GPHPD,0,0.000,298.59,0.74,-13.32,31.5891401,120.7750419,2.356,13633110.953,24924250.889,2.356,0.000,0.000,0.000,0.000,0.000,0.000,0.000,17,16,4*5A
$GPGGA,072530.20,3135.3484616,N,12046.5024134,E,4,17,1.4,2.3597,M,8.306,M,01,0004*63
$GPHPD,0,0.000,299.44,0.86,-13.33,31.5891410,120.7750402,2.360,13633109.999,24924249.364,2.360,0.000,0.000,0.000,0.000,0.000,0.000,0.000,17,16,4*5F
$GPGGA,072530.40,3135.3485149,N,12046.5023078,E,4,17,1.4,2.3620,M,8.306,M,01,0004*68
$GPHPD,0,0.000,300.08,0.56,-13.32,31.5891419,120.7750385,2.362,13633109.029,24924247.781,2.362,0.000,0.000,0.000,0.000,0.000,0.000,0.000,17,16,4*58
$GPGGA,072530.60,3135.3485729,N,12046.5022081,E,4,17,1.4,2.3628,M,8.306,M,00,0004*64
$GPHPD,0,0.000,301.02,0.48,-13.26,31.5891429,120.7750368,2.363,13633108.004,24924246.241,2.363,0.000,0.000,0.000,0.000,0.000,0.000,0.000,17,16,4*5F
$GPGGA,072530.80,3135.3486298,N,12046.5021113,E,4,17,1.4,2.3621,M,8.306,M,00,0004*66
$GPHPD,0,0.000,301.63,0.57,-13.17,31.5891438,120.7750352,2.362,13633107.000,24924244.743,2.362,0.000,0.000,0.000,0.000,0.000,0.000,0.000,17,16,4*53
$GPGGA,072531.00,3135.3486863,N,12046.5020155,E,4,17,1.4,2.3669,M,8.306,M,01,0004*6F
$GPHPD,0,0.000,302.73,0.14,-13.06,31.5891448,120.7750336,2.367,13633106.004,24924243.259,2.367,0.000,0.000,0.000,0.000,0.000,0.000,0.000,17,16,4*5F
$GPGGA,072531.20,3135.3487434,N,12046.5019220,E,4,17,1.4,2.3626,M,8.306,M,01,0004*62
$GPHPD,0,0.000,303.34,-0.03,-12.97,31.5891457,120.7750320,2.363,13633105.004,24924241.799,2.363,0.000,0.000,0.000,0.000,0.000,0.000,0.000,17,16,4*7E
$GPGGA,072531.40,3135.3488000,N,12046.5018291,E,4,17,1.4,2.3646,M,8.306,M,01,0004*65
$GPHPD,0,0.000,304.31,0.05,-12.88,31.5891467,120.7750305,2.365,13633104.013,24924240.349,2.365,0.000,0.000,0.000,0.000,0.000,0.000,0.000,17,17,4*53
$GPGGA,072531.60,3135.3488555,N,12046.5017415,E,4,17,1.4,2.3630,M,8.306,M,00,0004*67
$GPHPD,0,0.000,304.83,0.06,-12.79,31.5891476,120.7750290,2.363,13633103.047,24924238.970,2.363,0.000,0.000,0.000,0.000,0.000,0.000,0.000,17,17,4*53
$GPGGA,072531.80,3135.3489127,N,12046.5016601,E,4,17,1.4,2.3621,M,8.306,M,00,0004*6F
$GPHPD,0,0.000,305.69,-0.15,-12.71,31.5891485,120.7750277,2.362,13633102.070,24924237.656,2.362,0.000,0.000,0.000,0.000,0.000,0.000,0.000,17,17,4*75
$GPGGA,072532.00,3135.3489716,N,12046.5015768,E,4,17,1.4,2.3566,M,8.306,M,01,0004*6C
$GPHPD,0,0.000,306.44,-0.24,-12.65,31.5891495,120.7750263,2.357,13633101.066,24924236.308,2.357,0.000,0.000,0.000,0.000,0.000,0.000,0.000,17,17,4*71
$GPGGA,072532.20,3135.3490253,N,12046.5014961,E,4,17,1.4,2.3662,M,8.306,M,01,0004*63
$GPHPD,0,0.000,307.17,-0.51,-12.59,31.5891504,120.7750249,2.366,13633100.140,24924235.023,2.366,0.000,0.000,0.000,0.000,0.000,0.000,0.000,17,17,4*77
$GPGGA,072532.40,3135.3490822,N,12046.5014188,E,4,17,1.4,2.3674,M,8.306,M,01,0004*61
$GPHPD,0,0.000,308.00,-0.31,-12.55,31.5891514,120.7750236,2.367,13633099.175,24924233.760,2.367,0.000,0.000,0.000,0.000,0.000,0.000,0.000,17,17,4*7C
$GPGGA,072532.60,3135.3491401,N,12046.5013401,E,4,17,1.4,2.3686,M,8.306,M,00,0004*60
$GPHPD,0,0.000,308.55,-0.50,-12.52,31.5891523,120.7750223,2.369,13633098.194,24924232.474,2.369,0.000,0.000,0.000,0.000,0.000,0.000,0.000,17,17,4*75
$GPGGA,072532.80,3135.3491961,N,12046.5012645,E,4,17,1.4,2.3703,M,8.306,M,00,0004*6A
$GPHPD,0,0.000,309.18,-0.76,-12.46,31.5891533,120.7750211,2.370,13633097.246,24924231.236,2.370,0.000,0.000,0.000,0.000,0.000,0.000,0.000,17,17,4*7C
$GPGGA,072533.00,3135.3492528,N,12046.5011934,E,4,17,1.4,2.3706,M,8.306,M,01,0004*6F
$GPHPD,0,0.000,309.73,-0.79,-12.38,31.5891542,120.7750199,2.371,13633096.297,24924230.049,2.371,0.000,0.000,0.000,0.000,0.000,0.000,0.000,17,17,4*74
$GPGGA,072533.20,3135.3493098,N,12046.5011177,E,4,17,1.4,2.3613,M,8.306,M,01,0004*68
$GPHPD,0,0.000,310.30,-0.91,-12.35,31.5891552,120.7750186,2.361,13633095.334,24924228.804,2.361,0.000,0.000,0.000,0.000,0.000,0.000,0.000,17,17,4*7C
$GPGGA,072533.40,3135.3493635,N,12046.5010496,E,4,17,1.4,2.3643,M,8.306,M,01,0004*61
$GPHPD,0,0.000,310.87,-0.73,-12.33,31.5891561,120.7750175,2.364,13633094.434,24924227.671,2.364,0.000,0.000,0.000,0.000,0.000,0.000,0.000,17,17,4*73
$GPGGA,072533.60,3135.3494174,N,12046.5009836,E,4,17,1.4,2.3616,M,8.306,M,00,0004*69
$GPHPD,0,0.000,311.39,-0.70,-12.32,31.5891570,120.7750164,2.362,13633093.535,24924226.561,2.362,0.000,0.000,0.000,0.000,0.000,0.000,0.000,17,17,4*71
$GPGGA,072533.80,3135.3494701,N,12046.5009178,E,4,17,1.4,2.3644,M,8.306,M,00,0004*67
$GPHPD,0,0.000,311.74,-0.78,-12.32,31.5891578,120.7750153,2.364,13633092.653,24924225.461,2.364,0.000,0.000,0.000,0.000,0.000,0.000,0.000,17,17,4*7C
$GPGGA,072534.00,3135.3495219,N,12046.5008543,E,4,17,1.4,2.3647,M,8.306,M,01,0004*6A
$GPHPD,0,0.000,312.17,-0.61,-12.31,31.5891587,120.7750142,2.365,13633091.789,24924224.394,2.365,0.000,0.000,0.000,0.000,0.000,0.000,0.000,17,17,4*78
$GPGGA,072534.20,3135.3495766,N,12046.5007903,E,4,17,1.4,2.3632,M,8.306,M,01,0004*60
$GPHPD,0,0.000,312.70,-1.01,-12.33,31.5891596,120.7750132,2.363,13633090.883,24924223.304,2.363,0.000,0.000,0.000,0.000,0.000,0.000,0.000,17,17,4*71
$GPGGA,072534.40,3135.3496285,N,12046.5007271,E,4,17,1.4,2.3565,M,8.306,M,01,0004*62
$GPHPD,0,0.000,312.96,-0.79,-12.37,31.5891605,120.7750121,2.357,13633090.018,24924222.240,2.357,0.000,0.000,0.000,0.000,0.000,0.000,0.000,17,17,4*72
$GPGGA,072534.60,3135.3496787,N,12046.5006656,E,4,17,1.4,2.3553,M,8.306,M,00,0004*63
$GPHPD,0,0.000,313.29,-0.82,-12.39,31.5891613,120.7750111,2.355,13633089.180,24924221.206,2.355,0.000,0.000,0.000,0.000,0.000,0.000,0.000,17,17,4*70
$GPGGA,072534.80,3135.3497345,N,12046.5006020,E,4,17,1.4,2.3496,M,8.306,M,00,0004*69
$GPHPD,0,0.000,313.71,-1.05,-12.41,31.5891622,120.7750100,2.350,13633088.259,24924220.114,2.350,0.000,0.000,0.000,0.000,0.000,0.000,0.000,17,17,4*79
$GPGGA,072535.00,3135.3497892,N,12046.5005415,E,4,17,1.4,2.3478,M,8.306,M,01,0004*61
$GPHPD,0,0.000,314.20,-0.91,-12.42,31.5891632,120.7750090,2.348,13633087.360,24924219.067,2.348,0.000,0.000,0.000,0.000,0.000,0.000,0.000,17,17,4*77
$GPGGA,072535.20,3135.3498413,N,12046.5004834,E,4,17,1.4,2.3526,M,8.306,M,01,0004*6D
$GPHPD,0,0.000,314.60,-0.69,-12.40,31.5891640,120.7750081,2.353,13633086.502,24924218.063,2.353,0.000,0.000,0.000,0.000,0.000,0.000,0.000,17,17,4*75
$GPGGA,072535.40,3135.3498929,N,12046.5004294,E,4,17,1.4,2.3470,M,8.306,M,01,0004*6D
$GPHPD,0,0.000,314.88,-0.89,-12.40,31.5891649,120.7750072,2.347,13633085.660,24924217.111,2.347,0.000,0.000,0.000,0.000,0.000,0.000,0.000,17,17,4*77
$GPGGA,072535.60,3135.3499450,N,12046.5003715,E,4,17,1.4,2.3480,M,8.306,M,00,0004*68
$GPHPD,0,0.000,315.02,-0.46,-12.42,31.5891658,120.7750062,2.348,13633084.803,24924216.110,2.348,0.000,0.000,0.000,0.000,0.000,0.000,0.000,17,17,4*7E
$GPGGA,072535.80,3135.3499970,N,12046.5003140,E,4,17,1.4,2.3431,M,8.306,M,00,0004*65
$GPHPD,0,0.000,315.50,-0.79,-12.44,31.5891666,120.7750052,2.343,13633083.948,24924215.114,2.343,0.000,0.000,0.000,0.000,0.000,0.000,0.000,17,17,4*73
$GPGGA,072536.00,3135.3500488,N,12046.5002598,E,4,17,1.4,2.3441,M,8.306,M,01,0004*63
$GPHPD,0,0.000,315.62,-0.41,-12.47,31.5891675,120.7750043,2.344,13633083.103,24924214.159,2.344,0.000,0.000,0.000,0.000,0.000,0.000,0.000,17,17,4*77
$GPGGA,072536.20,3135.3501002,N,12046.5002013,E,4,17,1.4,2.3344,M,8.306,M,01,0004*62
$GPHPD,0,0.000,315.59,-0.23,-12.51,31.5891683,120.7750034,2.334,13633082.254,24924213.155,2.334,0.000,0.000,0.000,0.000,0.000,0.000,0.000,17,17,4*7E
$GPGGA,072536.40,3135.3501533,N,12046.5001473,E,4,17,1.4,2.3304,M,8.306,M,01,0004*66
$GPHPD,0,0.000,315.87,-0.11,-12.56,31.5891692,120.7750025,2.330,13633081.391,24924212.195,2.330,0.000,0.000,0.000,0.000,0.000,0.000,0.000,17,17,4*7D
$GPGGA,072536.60,3135.3502030,N,12046.5000879,E,4,17,1.4,2.3344,M,8.306,M,00,0004*63
$GPHPD,0,0.000,315.93,-0.58,-12.60,31.5891701,120.7750015,2.334,13633080.565,24924211.189,2.334,0.000,0.000,0.000,0.000,0.000,0.000,0.000,17,17,4*7A
$GPGGA,072536.80,3135.3502548,N,12046.5000324,E,4,17,1.4,2.3282,M,8.306,M,00,0004*6F
$GPHPD,0,0.000,316.08,0.12,-12.64,31.5891709,120.7750005,2.328,13633079.717,24924210.218,2.328,0.000,0.000,0.000,0.000,0.000,0.000,0.000,17,17,4*5E
$GPGGA,072537.00,3135.3503077,N,12046.4999797,E,4,17,1.4,2.3261,M,8.306,M,01,0004*66
$GPHPD,0,0.000,316.17,-0.03,-12.69,31.5891718,120.7749997,2.326,13633078.859,24924209.275,2.326,0.000,0.000,0.000,0.000,0.000,0.000,0.000,17,17,4*7D
$GPGGA,072537.20,3135.3503615,N,12046.4999194,E,4,17,1.4,2.3267,M,8.306,M,01,0004*65
$GPHPD,0,0.000,316.27,0.27,-12.72,31.5891727,120.7749987,2.327,13633077.973,24924208.235,2.327,0.000,0.000,0.000,0.000,0.000,0.000,0.000,17,17,4*51
$GPGGA,072537.40,3135.3504176,N,12046.4998614,E,4,17,1.4,2.3117,M,8.306,M,01,0004*6C
$GPHPD,0,0.000,316.30,0.16,-12.77,31.5891736,120.7749977,2.312,13633077.059,24924207.209,2.312,0.000,0.000,0.000,0.000,0.000,0.000,0.000,17,17,4*5E
$GPGGA,072537.60,3135.3504700,N,12046.4998032,E,4,17,1.4,2.3203,M,8.306,M,00,0004*6C
$GPHPD,0,0.000,316.44,0.58,-12.81,31.5891745,120.7749967,2.320,13633076.197,24924206.202,2.320,0.000,0.000,0.000,0.000,0.000,0.000,0.000,17,17,4*53
$GPGGA,072537.80,3135.3505301,N,12046.4997448,E,4,17,1.4,2.3173,M,8.306,M,00,0004*64
$GPHPD,0,0.000,316.62,0.67,-12.85,31.5891755,120.7749957,2.317,13633075.225,24924205.148,2.317,0.000,0.000,0.000,0.000,0.000,0.000,0.000,17,17,4*5A
$GPGGA,072538.00,3135.3505881,N,12046.4996811,E,4,17,1.4,2.3162,M,8.306,M,01,0004*60
$GPHPD,0,0.000,316.60,0.56,-12.91,31.5891765,120.7749947,2.316,13633074.272,24924204.043,2.316,0.000,0.000,0.000,0.000,0.000,0.000,0.000,17,17,4*55
$GPGGA,072538.20,3135.3506501,N,12046.4996160,E,4,17,1.5,2.3199,M,8.306,M,01,0004*6E
$GPHPD,0,0.000,316.70,0.41,-12.97,31.5891775,120.7749936,2.320,13633073.260,24924202.897,2.320,0.000,0.000,0.000,0.000,0.000,0.000,0.000,17,17,4*50
$GPGGA,072538.40,3135.3507113,N,12046.4995499,E,4,17,1.4,2.3144,M,8.306,M,01,0004*6F
$GPHPD,0,0.000,316.75,0.17,-13.03,31.5891785,120.7749925,2.314,13633072.257,24924201.744,2.314,0.000,0.000,0.000,0.000,0.000,0.000,0.000,17,17,4*50
$GPGGA,072538.60,3135.3507711,N,12046.4994829,E,4,17,1.4,2.3193,M,8.306,M,00,0004*64
$GPHPD,0,0.000,316.75,0.77,-13.05,31.5891795,120.7749914,2.319,13633071.272,24924200.588,2.319,0.000,0.000,0.000,0.000,0.000,0.000,0.000,17,17,4*54
$GPGGA,072538.80,3135.3508335,N,12046.4994174,E,4,17,1.5,2.3185,M,8.306,M,00,0004*60
$GPHPD,0,0.000,316.82,0.84,-13.05,31.5891806,120.7749903,2.319,13633070.253,24924199.435,2.319,0.000,0.000,0.000,0.000,0.000,0.000,0.000,17,17,4*55
$GPGGA,072539.00,3135.3508952,N,12046.4993539,E,4,17,1.4,2.3234,M,8.306,M,01,0004*61
$GPHPD,0,0.000,317.06,0.46,-13.04,31.5891816,120.7749892,2.323,13633069.248,24924198.310,2.323,0.000,0.000,0.000,0.000,0.000,0.000,0.000,17,17,4*5C
$GPGGA,072539.20,3135.3509552,N,12046.4992894,E,4,17,1.4,2.3272,M,8.306,M,01,0004*67
$GPHPD,0,0.000,316.93,0.11,-13.03,31.5891826,120.7749882,2.327,13633068.266,24924197.183,2.327,0.000,0.000,0.000,0.000,0.000,0.000,0.000,17,17,4*5C
$GPGGA,072539.40,3135.3510120,N,12046.4992286,E,4,17,1.4,2.3188,M,8.306,M,01,0004*67
$GPHPD,0,0.000,317.14,0.05,-13.00,31.5891835,120.7749871,2.319,13633067.336,24924196.120,2.319,0.000,0.000,0.000,0.000,0.000,0.000,0.000,17,17,4*59
$GPGGA,072539.60,3135.3510659,N,12046.4991735,E,4,17,1.4,2.3220,M,8.306,M,00,0004*62
$GPHPD,0,0.000,317.04,0.26,-13.00,31.5891844,120.7749862,2.322,13633066.459,24924195.142,2.322,0.000,0.000,0.000,0.000,0.000,0.000,0.000,17,17,4*55
$GPGGA,072539.80,3135.3511181,N,12046.4991243,E,4,17,1.4,2.3218,M,8.306,M,00,0004*60
$GPHPD,0,0.000,317.34,0.13,-12.99,31.5891853,120.7749854,2.322,13633065.618,24924194.245,2.322,0.000,0.000,0.000,0.000,0.000,0.000,0.000,17,17,4*53
$GPGGA,072540.00,3135.3511627,N,12046.4990758,E,4,17,1.4,2.3218,M,8.306,M,01,0004*62
$GPHPD,0,0.000,317.35,-0.10,-13.00,31.5891860,120.7749846,2.322,13633064.886,24924193.400,2.322,0.000,0.000,0.000,0.000,0.000,0.000,0.000,17,17,4*76
$GPGGA,072540.20,3135.3512057,N,12046.4990301,E,4,17,1.4,2.3138,M,8.306,M,01,0004*6B
$GPHPD,0,0.000,317.03,0.34,-13.00,31.5891868,120.7749838,2.314,13633064.183,24924192.599,2.314,0.000,0.000,0.000,0.000,0.000,0.000,0.000,17,17,4*55
$GPGGA,072540.40,3135.3512454,N,12046.4989828,E,4,17,1.4,2.3179,M,8.306,M,01,0004*67
$GPHPD,0,0.000,316.95,0.17,-12.97,31.5891874,120.7749830,2.318,13633063.523,24924191.798,2.318,0.000,0.000,0.000,0.000,0.000,0.000,0.000,17,17,4*59
$GPGGA,072540.60,3135.3512862,N,12046.4989372,E,4,17,1.4,2.3205,M,8.306,M,00,0004*61
$GPHPD,0,0.000,316.79,0.42,-12.95,31.5891881,120.7749823,2.321,13633062.852,24924191.010,2.321,0.000,0.000,0.000,0.000,0.000,0.000,0.000,17,17,4*5C
$GPGGA,072540.80,3135.3513286,N,12046.4988921,E,4,17,1.5,2.3049,M,8.306,M,00,0004*68
$GPHPD,0,0.000,316.78,-0.10,-12.93,31.5891888,120.7749815,2.305,13633062.158,24924190.220,2.305,0.000,0.000,0.000,0.000,0.000,0.000,0.000,17,17,4*7E
$GPGGA,072541.00,3135.3513707,N,12046.4988436,E,4,17,1.4,2.3229,M,8.306,M,01,0004*62
$GPHPD,0,0.000,316.69,0.27,-12.93,31.5891895,120.7749807,2.323,13633061.462,24924189.390,2.323,0.000,0.000,0.000,0.000,0.000,0.000,0.000,17,17,4*55
$GPGGA,072541.20,3135.3514148,N,12046.4987995,E,4,17,1.4,2.3294,M,8.306,M,01,0004*67
$GPHPD,0,0.000,316.55,-0.08,-12.95,31.5891902,120.7749800,2.329,13633060.747,24924188.602,2.329,0.000,0.000,0.000,0.000,0.000,0.000,0.000,17,17,4*7E
$GPGGA,072541.40,3135.3514609,N,12046.4987502,E,4,17,1.4,2.3280,M,8.306,M,01,0004*64
$GPHPD,0,0.000,316.31,-0.53,-12.97,31.5891910,120.7749792,2.328,13633059.992,24924187.739,2.328,0.000,0.000,0.000,0.000,0.000,0.000,0.000,17,17,4*7D
$GPGGA,072541.60,3135.3515074,N,12046.4986979,E,4,17,1.4,2.3257,M,8.306,M,00,0004*61
$GPHPD,0,0.000,316.23,-0.15,-12.96,31.5891918,120.7749783,2.326,13633059.226,24924186.838,2.326,0.000,0.000,0.000,0.000,0.000,0.000,0.000,17,17,4*7E
$GPGGA,072541.80,3135.3515572,N,12046.4986430,E,4,17,1.4,2.3265,M,8.306,M,00,0004*6D
$GPHPD,0,0.000,316.22,1.17,-12.95,31.5891926,120.7749774,2.327,13633058.407,24924185.886,2.327,0.000,0.000,0.000,0.000,0.000,0.000,0.000,17,17,4*55
$GPGGA,072542.00,3135.3516055,N,12046.4985884,E,4,17,1.4,2.3235,M,8.306,M,01,0004*61
$GPHPD,0,0.000,316.34,-0.11,-12.97,31.5891934,120.7749765,2.324,13633057.611,24924184.946,2.324,0.000,0.000,0.000,0.000,0.000,0.000,0.000,17,17,4*7F
$GPGGA,072542.20,3135.3516591,N,12046.4985345,E,4,17,1.4,2.3226,M,8.306,M,01,0004*6A
$GPHPD,0,0.000,316.48,0.21,-12.99,31.5891943,120.7749756,2.323,13633056.741,24924183.985,2.323,0.000,0.000,0.000,0.000,0.000,0.000,0.000,17,17,4*59
$GPGGA,072542.40,3135.3517111,N,12046.4984791,E,4,17,1.4,2.3220,M,8.306,M,01,0004*6B
$GPHPD,0,0.000,315.95,0.18,-13.01,31.5891952,120.7749747,2.322,13633055.890,24924183.014,2.322,0.000,0.000,0.000,0.000,0.000,0.000,0.000,17,17,4*51
$GPGGA,072542.60,3135.3517663,N,12046.4984195,E,4,17,1.4,2.3203,M,8.306,M,00,0004*69
$GPHPD,0,0.000,316.13,0.38,-13.01,31.5891961,120.7749737,2.320,13633054.985,24924181.974,2.320,0.000,0.000,0.000,0.000,0.000,0.000,0.000,17,16,4*51
$GPGGA,072542.80,3135.3518214,N,12046.4983598,E,4,17,1.4,2.3153,M,8.306,M,00,0004*64
$GPHPD,0,0.000,315.59,2.09,-13.01,31.5891970,120.7749727,2.315,13633054.082,24924180.934,2.315,0.000,0.000,0.000,0.000,0.000,0.000,0.000,17,17,4*57
$GPGGA,072543.00,3135.3518772,N,12046.4982990,E,4,17,1.4,2.3171,M,8.306,M,01,0004*6C
$GPHPD,0,0.000,316.17,1.03,-13.01,31.5891980,120.7749717,2.317,13633053.166,24924179.876,2.317,0.000,0.000,0.000,0.000,0.000,0.000,0.000,17,17,4*56
$GPGGA,072543.20,3135.3519367,N,12046.4982391,E,4,17,1.4,2.3162,M,8.306,M,01,0004*66
$GPHPD,0,0.000,316.37,0.30,-13.05,31.5891989,120.7749707,2.316,13633052.200,24924178.807,2.316,0.000,0.000,0.000,0.000,0.000,0.000,0.000,17,17,4*5C
$GPGGA,072543.40,3135.3519942,N,12046.4981730,E,4,17,1.4,2.3190,M,8.306,M,01,0004*6C
$GPHPD,0,0.000,316.10,0.56,-13.08,31.5891999,120.7749696,2.319,13633051.250,24924177.676,2.319,0.000,0.000,0.000,0.000,0.000,0.000,0.000,17,16,4*5C
$GPGGA,072543.60,3135.3520589,N,12046.4981028,E,4,17,1.4,2.3178,M,8.306,M,00,0004*66
$GPHPD,0,0.000,316.61,0.43,-13.12,31.5892010,120.7749684,2.318,13633050.189,24924176.453,2.318,0.000,0.000,0.000,0.000,0.000,0.000,0.000,17,16,4*5F
$GPGGA,072543.80,3135.3521282,N,12046.4980312,E,4,17,1.4,2.3195,M,8.306,M,00,0004*6D
$GPHPD,0,0.000,316.35,0.88,-13.13,31.5892021,120.7749672,2.320,13633049.060,24924175.186,2.320,0.000,0.000,0.000,0.000,0.000,0.000,0.000,17,16,4*53
$GPGGA,072544.00,3135.3521984,N,12046.4979529,E,4,17,1.4,2.3259,M,8.306,M,01,0004*65
$GPHPD,0,0.000,316.17,0.64,-13.10,31.5892033,120.7749659,2.326,13633047.904,24924173.833,2.326,0.000,0.000,0.000,0.000,0.000,0.000,0.000,17,16,4*5C
$GPGGA,072544.20,3135.3522669,N,12046.4978733,E,4,17,1.4,2.3320,M,8.306,M,01,0004*6F
$GPHPD,0,0.000,316.54,-0.03,-13.07,31.5892044,120.7749646,2.332,13633046.770,24924172.475,2.332,0.000,0.000,0.000,0.000,0.000,0.000,0.000,17,16,4*7C
$GPGGA,072544.40,3135.3523448,N,12046.4977943,E,4,17,1.4,2.3164,M,8.306,M,01,0004*6D
$GPHPD,0,0.000,316.99,-1.78,-13.10,31.5892057,120.7749632,2.316,13633045.504,24924171.069,2.316,0.000,0.000,0.000,0.000,0.000,0.000,0.000,17,16,4*7F
$GPGGA,072544.60,3135.3524238,N,12046.4977084,E,4,17,1.4,2.3400,M,8.306,M,00,0004*6D
$GPHPD,0,0.000,317.12,-0.40,-13.17,31.5892071,120.7749618,2.340,13633044.208,24924169.573,2.340,0.000,0.000,0.000,0.000,0.000,0.000,0.000,17,16,4*71
$GPGGA,072544.80,3135.3525049,N,12046.4976200,E,4,16,1.5,2.3548,M,8.306,M,00,0004*64
$GPHPD,0,0.000,317.32,-1.10,-13.31,31.5892084,120.7749603,2.355,13633042.877,24924168.035,2.355,0.000,0.000,0.000,0.000,0.000,0.000,0.000,16,15,4*73
$GPGGA,072545.00,3135.3525924,N,12046.4975300,E,4,17,1.5,2.3349,M,8.306,M,01,0004*6A
$GPHPD,0,0.000,317.08,0.02,-13.42,31.5892099,120.7749588,2.335,13633041.452,24924166.441,2.335,0.000,0.000,0.000,0.000,0.000,0.000,0.000,17,15,4*5D
$GPGGA,072545.20,3135.3526867,N,12046.4974346,E,4,17,1.5,2.3394,M,8.306,M,01,0004*6E
$GPHPD,0,0.000,317.04,0.13,-13.43,31.5892114,120.7749572,2.339,13633039.920,24924164.742,2.339,0.000,0.000,0.000,0.000,0.000,0.000,0.000,17,15,4*54
$GPGGA,072545.40,3135.3527799,N,12046.4973328,E,4,16,1.5,2.3303,M,8.306,M,01,0004*67
$GPHPD,0,0.000,317.15,-0.03,-13.42,31.5892130,120.7749555,2.330,13633038.390,24924162.972,2.330,0.000,0.000,0.000,0.000,0.000,0.000,0.000,16,15,4*70
$GPGGA,072545.60,3135.3528710,N,12046.4972320,E,4,16,1.5,2.3429,M,8.306,M,00,0004*6C
$GPHPD,0,0.000,317.38,0.35,-13.41,31.5892145,120.7749539,2.343,13633036.893,24924161.227,2.343,0.000,0.000,0.000,0.000,0.000,0.000,0.000,16,15,4*52
$GPGGA,072545.80,3135.3529676,N,12046.4971371,E,4,16,1.5,2.3436,M,8.306,M,00,0004*6B
$GPHPD,0,0.000,317.72,0.04,-13.40,31.5892161,120.7749523,2.344,13633035.328,24924159.520,2.344,0.000,0.000,0.000,0.000,0.000,0.000,0.000,16,14,4*50
$GPGGA,072546.00,3135.3530639,N,12046.4970392,E,4,16,1.5,2.3490,M,8.306,M,01,0004*62
$GPHPD,0,0.000,317.33,0.17,-13.35,31.5892177,120.7749507,2.349,13633033.763,24924157.779,2.349,0.000,0.000,0.000,0.000,0.000,0.000,0.000,16,15,4*58
$GPGGA,072546.20,3135.3531610,N,12046.4969380,E,4,16,1.5,2.3507,M,8.306,M,01,0004*6E
$GPHPD,0,0.000,317.66,-1.38,-13.31,31.5892194,120.7749490,2.351,13633032.179,24924155.994,2.351,0.000,0.000,0.000,0.000,0.000,0.000,0.000,16,15,4*7C
$GPGGA,072546.40,3135.3532580,N,12046.4968404,E,4,16,1.5,2.3374,M,8.306,M,01,0004*69
$GPHPD,0,0.000,317.30,-0.12,-13.37,31.5892210,120.7749473,2.337,13633030.603,24924154.253,2.337,0.000,0.000,0.000,0.000,0.000,0.000,0.000,16,14,4*7A
$GPGGA,072546.60,3135.3533525,N,12046.4967363,E,4,16,1.5,2.3497,M,8.306,M,00,0004*67
$GPHPD,0,0.000,317.50,-0.44,-13.37,31.5892225,120.7749456,2.350,13633029.051,24924152.447,2.350,0.000,0.000,0.000,0.000,0.000,0.000,0.000,16,14,4*72
$GPGGA,072546.80,3135.3534493,N,12046.4966392,E,4,16,1.5,2.3421,M,8.306,M,00,0004*60
$GPHPD,0,0.000,317.75,-0.63,-13.32,31.5892242,120.7749440,2.342,13633027.479,24924150.713,2.342,0.000,0.000,0.000,0.000,0.000,0.000,0.000,16,14,4*73
$GPGGA,072547.00,3135.3535451,N,12046.4965443,E,4,16,1.5,2.3462,M,8.306,M,01,0004*68
$GPHPD,0,0.000,317.86,-0.14,-13.37,31.5892258,120.7749424,2.346,13633025.926,24924149.011,2.346,0.000,0.000,0.000,0.000,0.000,0.000,0.000,16,14,4*7B
$GPGGA,072547.20,3135.3536419,N,12046.4964419,E,4,16,1.5,2.3554,M,8.306,M,01,0004*6F
$GPHPD,0,0.000,317.73,-1.44,-13.31,31.5892274,120.7749407,2.355,13633024.344,24924147.213,2.355,0.000,0.000,0.000,0.000,0.000,0.000,0.000,16,14,4*7D
$GPGGA,072547.40,3135.3537347,N,12046.4963412,E,4,16,1.5,2.3533,M,8.306,M,01,0004*69
$GPHPD,0,0.000,317.58,0.06,-13.24,31.5892289,120.7749390,2.353,13633022.823,24924145.459,2.353,0.000,0.000,0.000,0.000,0.000,0.000,0.000,16,14,4*57
$GPGGA,072547.60,3135.3538266,N,12046.4962488,E,4,16,1.5,2.3490,M,8.306,M,00,0004*6D
$GPHPD,0,0.000,318.12,-0.24,-13.25,31.5892304,120.7749375,2.349,13633021.330,24924143.810,2.349,0.000,0.000,0.000,0.000,0.000,0.000,0.000,16,14,4*78
$GPGGA,072547.80,3135.3539236,N,12046.4961470,E,4,16,1.5,2.3306,M,8.306,M,00,0004*6B
