$GPGGA,072802.80,3135.4191834,N,12046.4300762,E,4,17,1.4,2.3708,M,8.301,M,00,0004*6E
$GPHPD,0,0.000,316.05,-0.12,-12.82,31.5903197,120.7738346,2.371,13631959.181,24922965.584,2.371,0.000,0.000,0.000,0.000,0.000,0.000,0.000,17,16,4*7B
$GPGGA,072803.00,3135.4191833,N,12046.4300751,E,4,17,1.4,2.3675,M,8.301,M,01,0004*6A
$GPHPD,0,0.000,316.00,-0.26,-12.82,31.5903197,120.7738346,2.368,13631959.180,24922965.571,2.368,0.000,0.000,0.000,0.000,0.000,0.000,0.000,17,16,4*72
$GPGGA,072803.20,3135.4191851,N,12046.4300730,E,4,17,1.4,2.3668,M,8.301,M,01,0004*67
$GPHPD,0,0.000,316.10,0.14,-12.83,31.5903198,120.7738346,2.367,13631959.150,24922965.535,2.367,0.000,0.000,0.000,0.000,0.000,0.000,0.000,17,16,4*5C
$GPGGA,072803.40,3135.4191833,N,12046.4300752,E,4,17,1.4,2.3715,M,8.301,M,01,0004*6A
$GPHPD,0,0.000,316.00,0.15,-12.84,31.5903197,120.7738346,2.372,13631959.180,24922965.572,2.372,0.000,0.000,0.000,0.000,0.000,0.000,0.000,17,16,4*5A
$GPGGA,072803.60,3135.4191849,N,12046.4300740,E,4,17,1.4,2.3725,M,8.301,M,00,0004*64
$GPHPD,0,0.000,316.04,-0.23,-12.84,31.5903197,120.7738346,2.373,13631959.155,24922965.548,2.373,0.000,0.000,0.000,0.000,0.000,0.000,0.000,17,16,4*77
$GPGGA,072803.80,3135.4191847,N,12046.4300735,E,4,17,1.4,2.3693,M,8.301,M,00,0004*6A
$GPHPD,0,0.000,316.00,-0.22,-12.84,31.5903197,120.7738346,2.369,13631959.157,24922965.543,2.369,0.000,0.000,0.000,0.000,0.000,0.000,0.000,17,16,4*7B
$GPGGA,072804.00,3135.4191828,N,12046.4300746,E,4,17,1.4,2.3705,M,8.301,M,01,0004*67
$GPHPD,0,0.000,316.14,-0.12,-12.84,31.5903197,120.7738346,2.371,13631959.186,24922965.568,2.371,0.000,0.000,0.000,0.000,0.000,0.000,0.000,17,16,4*78
$GPGGA,072804.20,3135.4191841,N,12046.4300746,E,4,17,1.4,2.3776,M,8.301,M,01,0004*6E
$GPHPD,0,0.000,316.10,-0.08,-12.84,31.5903197,120.7738346,2.378,13631959.167,24922965.560,2.378,0.000,0.000,0.000,0.000,0.000,0.000,0.000,17,16,4*70
$GPGGA,072804.40,3135.4191848,N,12046.4300751,E,4,17,1.4,2.3741,M,8.301,M,01,0004*63
$GPHPD,0,0.000,316.04,-0.58,-12.85,31.5903197,120.7738346,2.374,13631959.158,24922965.562,2.374,0.000,0.000,0.000,0.000,0.000,0.000,0.000,17,16,4*7F
$GPGGA,072804.60,3135.4191832,N,12046.4300755,E,4,17,1.4,2.3704,M,8.301,M,00,0004*68
$GPHPD,0,0.000,315.96,-0.26,-12.85,31.5903197,120.7738346,2.370,13631959.182,24922965.576,2.370,0.000,0.000,0.000,0.000,0.000,0.000,0.000,17,16,4*7C
$GPGGA,072804.80,3135.4191825,N,12046.4300746,E,4,17,1.4,2.3771,M,8.301,M,00,0004*60
$GPHPD,0,0.000,316.09,-0.43,-12.85,31.5903197,120.7738346,2.377,13631959.190,24922965.570,2.377,0.000,0.000,0.000,0.000,0.000,0.000,0.000,17,16,4*7F
$GPGGA,072805.00,3135.4191840,N,12046.4300762,E,4,17,1.4,2.3748,M,8.301,M,01,0004*67
$GPHPD,0,0.000,316.19,-0.69,-12.86,31.5903197,120.7738346,2.375,13631959.172,24922965.580,2.375,0.000,0.000,0.000,0.000,0.000,0.000,0.000,17,16,4*76
$GPGGA,072805.20,3135.4191840,N,12046.4300742,E,4,17,1.4,2.3765,M,8.301,M,01,0004*68
$GPHPD,0,0.000,316.01,-0.49,-12.87,31.5903197,120.7738346,2.377,13631959.168,24922965.556,2.377,0.000,0.000,0.000,0.000,0.000,0.000,0.000,17,16,4*7C
$GPGGA,072805.40,3135.4191834,N,12046.4300747,E,4,17,1.4,2.3804,M,8.301,M,01,0004*60
$GPHPD,0,0.000,316.16,-0.58,-12.87,31.5903197,120.7738346,2.380,13631959.178,24922965.565,2.380,0.000,0.000,0.000,0.000,0.000,0.000,0.000,17,16,4*7B
$GPGGA,072805.60,3135.4191837,N,12046.4300750,E,4,17,1.4,2.3788,M,8.301,M,00,0004*6D
$GPHPD,0,0.000,316.07,-0.58,-12.88,31.5903197,120.7738346,2.379,13631959.174,24922965.567,2.379,0.000,0.000,0.000,0.000,0.000,0.000,0.000,17,16,4*7A
$GPGGA,072805.80,3135.4191837,N,12046.4300753,E,4,17,1.4,2.3752,M,8.301,M,00,0004*67
$GPHPD,0,0.000,316.11,-0.66,-12.90,31.5903197,120.7738346,2.375,13631959.174,24922965.571,2.375,0.000,0.000,0.000,0.000,0.000,0.000,0.000,17,16,4*7E
$GPGGA,072806.00,3135.4191830,N,12046.4300754,E,4,17,1.4,2.3796,M,8.301,M,01,0004*65
$GPHPD,0,0.000,316.00,-0.14,-12.90,31.5903197,120.7738346,2.380,13631959.185,24922965.576,2.380,0.000,0.000,0.000,0.000,0.000,0.000,0.000,17,16,4*72
$GPGGA,072806.20,3135.4191850,N,12046.4300777,E,4,17,1.4,2.3765,M,8.301,M,01,0004*6C
$GPHPD,0,0.000,316.10,-0.52,-12.90,31.5903198,120.7738346,2.377,13631959.161,24922965.592,2.377,0.000,0.000,0.000,0.000,0.000,0.000,0.000,17,16,4*7E
$GPGGA,072806.40,3135.4191837,N,12046.4300762,E,4,17,1.4,2.3814,M,8.301,M,01,0004*66
$GPHPD,0,0.000,315.87,-0.32,-12.91,31.5903197,120.7738346,2.381,13631959.176,24922965.582,2.381,0.000,0.000,0.000,0.000,0.000,0.000,0.000,17,16,4*7C
$GPGGA,072806.60,3135.4191839,N,12046.4300744,E,4,17,1.4,2.3762,M,8.301,M,00,0004*61
$GPHPD,0,0.000,315.93,-0.29,-12.92,31.5903197,120.7738346,2.376,13631959.170,24922965.559,2.376,0.000,0.000,0.000,0.000,0.000,0.000,0.000,17,16,4*70
$GPGGA,072806.80,3135.4191835,N,12046.4300755,E,4,17,1.4,2.3774,M,8.301,M,00,0004*64
$GPHPD,0,0.000,316.11,-0.20,-12.91,31.5903197,120.7738346,2.377,13631959.178,24922965.575,2.377,0.000,0.000,0.000,0.000,0.000,0.000,0.000,17,16,4*75
$GPGGA,072807.00,3135.4191844,N,12046.4300743,E,4,17,1.4,2.3796,M,8.301,M,01,0004*61
$GPHPD,0,0.000,316.18,0.07,-12.91,31.5903197,120.7738346,2.380,13631959.162,24922965.555,2.380,0.000,0.000,0.000,0.000,0.000,0.000,0.000,17,16,4*5D
$GPGGA,072807.20,3135.4191838,N,12046.4300742,E,4,17,1.4,2.3771,M,8.301,M,01,0004*60
$GPHPD,0,0.000,316.06,-0.10,-12.92,31.5903197,120.7738346,2.377,13631959.171,24922965.557,2.377,0.000,0.000,0.000,0.000,0.000,0.000,0.000,17,16,4*7A
$GPGGA,072807.40,3135.4191836,N,12046.4300741,E,4,17,1.4,2.3808,M,8.301,M,01,0004*6A
$GPHPD,0,0.000,316.14,-0.05,-12.92,31.5903197,120.7738346,2.381,13631959.173,24922965.557,2.381,0.000,0.000,0.000,0.000,0.000,0.000,0.000,17,16,4*7F
$GPGGA,072807.60,3135.4191829,N,12046.4300751,E,4,17,1.4,2.3757,M,8.301,M,00,0004*63
$GPHPD,0,0.000,316.09,-0.09,-12.92,31.5903197,120.7738346,2.376,13631959.185,24922965.573,2.376,0.000,0.000,0.000,0.000,0.000,0.000,0.000,17,16,4*70
$GPGGA,072807.80,3135.4191837,N,12046.4300742,E,4,17,1.4,2.3764,M,8.301,M,00,0004*60
$GPHPD,0,0.000,316.08,0.04,-12.91,31.5903197,120.7738346,2.376,13631959.172,24922965.558,2.376,0.000,0.000,0.000,0.000,0.000,0.000,0.000,17,16,4*53
$GPGGA,072808.00,3135.4191841,N,12046.4300744,E,4,17,1.4,2.3767,M,8.301,M,01,0004*62
$GPHPD,0,0.000,316.14,-0.03,-12.92,31.5903197,120.7738346,2.377,13631959.167,24922965.558,2.377,0.000,0.000,0.000,0.000,0.000,0.000,0.000,17,16,4*73
$GPGGA,072808.20,3135.4191834,N,12046.4300753,E,4,17,1.4,2.3734,M,8.301,M,01,0004*62
$GPHPD,0,0.000,316.03,0.12,-12.92,31.5903197,120.7738346,2.373,13631959.179,24922965.573,2.373,0.000,0.000,0.000,0.000,0.000,0.000,0.000,17,16,4*5E
$GPGGA,072808.40,3135.4191842,N,12046.4300754,E,4,17,1.4,2.3757,M,8.301,M,01,0004*67
$GPHPD,0,0.000,316.07,0.11,-12.92,31.5903197,120.7738346,2.376,13631959.168,24922965.569,2.376,0.000,0.000,0.000,0.000,0.000,0.000,0.000,17,16,4*52
$GPGGA,072808.60,3135.4191819,N,12046.4300782,E,4,17,1.4,2.3746,M,8.301,M,00,0004*61
$GPHPD,0,0.000,315.93,0.09,-12.93,31.5903197,120.7738346,2.375,13631959.206,24922965.616,2.375,0.000,0.000,0.000,0.000,0.000,0.000,0.000,17,16,4*54
$GPGGA,072808.80,3135.4191827,N,12046.4300763,E,4,17,1.4,2.3775,M,8.301,M,00,0004*6D
$GPHPD,0,0.000,316.17,0.03,-12.93,31.5903197,120.7738346,2.378,13631959.191,24922965.589,2.378,0.000,0.000,0.000,0.000,0.000,0.000,0.000,17,16,4*59
$GPGGA,072809.00,3135.4191828,N,12046.4300773,E,4,17,1.4,2.3780,M,8.301,M,01,0004*61
$GPHPD,0,0.000,316.05,-0.06,-12.93,31.5903197,120.7738346,2.378,13631959.191,24922965.600,2.378,0.000,0.000,0.000,0.000,0.000,0.000,0.000,17,16,4*70
$GPGGA,072809.20,3135.4191827,N,12046.4300775,E,4,17,1.4,2.3782,M,8.301,M,01,0004*68
$GPHPD,0,0.000,315.98,-0.24,-12.94,31.5903197,120.7738346,2.378,13631959.193,24922965.603,2.378,0.000,0.000,0.000,0.000,0.000,0.000,0.000,17,16,4*71
$GPGGA,072809.40,3135.4191810,N,12046.4300750,E,4,17,1.4,2.3746,M,8.301,M,01,0004*65
$GPHPD,0,0.000,316.06,-0.26,-12.93,31.5903197,120.7738346,2.375,13631959.212,24922965.583,2.375,0.000,0.000,0.000,0.000,0.000,0.000,0.000,17,16,4*71
$GPGGA,072809.60,3135.4191828,N,12046.4300723,E,4,17,1.4,2.3771,M,8.301,M,00,0004*6D
$GPHPD,0,0.000,316.22,-0.05,-12.94,31.5903197,120.7738345,2.377,13631959.181,24922965.540,2.377,0.000,0.000,0.000,0.000,0.000,0.000,0.000,17,16,4*74
$GPGGA,072809.80,3135.4191839,N,12046.4300750,E,4,17,1.4,2.3827,M,8.301,M,00,0004*6B
$GPHPD,0,0.000,316.23,-0.16,-12.94,31.5903197,120.7738346,2.383,13631959.171,24922965.566,2.383,0.000,0.000,0.000,0.000,0.000,0.000,0.000,17,16,4*7F
$GPGGA,072810.00,3135.4191821,N,12046.4300733,E,4,17,1.4,2.3769,M,8.301,M,01,0004*63
$GPHPD,0,0.000,316.05,-0.32,-12.93,31.5903197,120.7738346,2.377,13631959.193,24922965.556,2.377,0.000,0.000,0.000,0.000,0.000,0.000,0.000,17,16,4*75
$GPGGA,072810.20,3135.4191834,N,12046.4300774,E,4,17,1.4,2.3782,M,8.301,M,01,0004*63
$GPHPD,0,0.000,316.25,0.03,-12.93,31.5903197,120.7738346,2.378,13631959.183,24922965.598,2.378,0.000,0.000,0.000,0.000,0.000,0.000,0.000,17,16,4*5B
$GPGGA,072810.40,3135.4191835,N,12046.4300757,E,4,17,1.4,2.3810,M,8.301,M,01,0004*61
$GPHPD,0,0.000,316.00,-0.11,-12.94,31.5903197,120.7738346,2.381,13631959.178,24922965.577,2.381,0.000,0.000,0.000,0.000,0.000,0.000,0.000,17,16,4*70
$GPGGA,072810.60,3135.4191817,N,12046.4300764,E,4,17,1.4,2.3848,M,8.301,M,00,0004*6F
$GPHPD,0,0.000,315.97,-0.31,-12.94,31.5903197,120.7738346,2.385,13631959.205,24922965.596,2.385,0.000,0.000,0.000,0.000,0.000,0.000,0.000,17,16,4*79
$GPGGA,072810.80,3135.4191826,N,12046.4300736,E,4,17,1.4,2.3764,M,8.301,M,00,0004*65
$GPHPD,0,0.000,316.14,-0.22,-12.93,31.5903197,120.7738346,2.376,13631959.187,24922965.557,2.376,0.000,0.000,0.000,0.000,0.000,0.000,0.000,17,16,4*70
$GPGGA,072811.00,3135.4191833,N,12046.4300764,E,4,17,1.4,2.3812,M,8.301,M,01,0004*60
$GPHPD,0,0.000,316.19,0.20,-12.93,31.5903197,120.7738346,2.381,13631959.182,24922965.587,2.381,0.000,0.000,0.000,0.000,0.000,0.000,0.000,17,16,4*5A
$GPGGA,072811.20,3135.4191830,N,12046.4300764,E,4,17,1.4,2.3789,M,8.301,M,01,0004*6C
$GPHPD,0,0.000,316.02,-0.14,-12.92,31.5903197,120.7738346,2.379,13631959.187,24922965.588,2.379,0.000,0.000,0.000,0.000,0.000,0.000,0.000,17,16,4*71
$GPGGA,072811.40,3135.4191837,N,12046.4300763,E,4,17,1.4,2.3856,M,8.301,M,01,0004*67
$GPHPD,0,0.000,316.12,-0.07,-12.92,31.5903197,120.7738346,2.386,13631959.176,24922965.583,2.386,0.000,0.000,0.000,0.000,0.000,0.000,0.000,17,16,4*77
$GPGGA,072811.60,3135.4191815,N,12046.4300744,E,4,17,1.4,2.3748,M,8.301,M,00,0004*61
$GPHPD,0,0.000,316.05,-0.28,-12.91,31.5903197,120.7738346,2.375,13631959.204,24922965.573,2.375,0.000,0.000,0.000,0.000,0.000,0.000,0.000,17,16,4*76
$GPGGA,072811.80,3135.4191834,N,12046.4300754,E,4,17,1.4,2.3794,M,8.301,M,00,0004*6C
$GPHPD,0,0.000,316.18,0.16,-12.91,31.5903197,120.7738346,2.379,13631959.179,24922965.574,2.379,0.000,0.000,0.000,0.000,0.000,0.000,0.000,17,16,4*54
$GPGGA,072812.00,3135.4191825,N,12046.4300756,E,4,17,1.4,2.3758,M,8.301,M,01,0004*64
$GPHPD,0,0.000,316.08,-0.06,-12.91,31.5903197,120.7738346,2.376,13631959.192,24922965.582,2.376,0.000,0.000,0.000,0.000,0.000,0.000,0.000,17,16,4*75
$GPGGA,072812.20,3135.4191823,N,12046.4300749,E,4,17,1.4,2.3758,M,8.301,M,01,0004*6E
$GPHPD,0,0.000,316.09,0.07,-12.91,31.5903197,120.7738346,2.376,13631959.194,24922965.574,2.376,0.000,0.000,0.000,0.000,0.000,0.000,0.000,17,16,4*57
$GPGGA,072812.40,3135.4191827,N,12046.4300755,E,4,17,1.4,2.3754,M,8.301,M,01,0004*6D
$GPHPD,0,0.000,316.17,-0.19,-12.92,31.5903197,120.7738346,2.375,13631959.189,24922965.579,2.375,0.000,0.000,0.000,0.000,0.000,0.000,0.000,17,16,4*78
$GPGGA,072812.60,3135.4191845,N,12046.4300750,E,4,17,1.4,2.3837,M,8.301,M,00,0004*65
$GPHPD,0,0.000,316.05,0.02,-12.92,31.5903197,120.7738346,2.384,13631959.162,24922965.563,2.384,0.000,0.000,0.000,0.000,0.000,0.000,0.000,17,16,4*52
$GPGGA,072812.80,3135.4191844,N,12046.4300733,E,4,17,1.4,2.3720,M,8.301,M,00,0004*66
$GPHPD,0,0.000,315.99,-0.43,-12.91,31.5903197,120.7738346,2.372,13631959.160,24922965.543,2.372,0.000,0.000,0.000,0.000,0.000,0.000,0.000,17,16,4*7F
$GPGGA,072813.00,3135.4191817,N,12046.4300742,E,4,17,1.4,2.3821,M,8.301,M,01,0004*60
$GPHPD,0,0.000,316.07,0.01,-12.91,31.5903197,120.7738346,2.382,13631959.201,24922965.569,2.382,0.000,0.000,0.000,0.000,0.000,0.000,0.000,17,16,4*5C
$GPGGA,072813.20,3135.4191820,N,12046.4300741,E,4,17,1.4,2.3784,M,8.301,M,01,0004*65
$GPHPD,0,0.000,316.02,-0.21,-12.92,31.5903197,120.7738346,2.378,13631959.196,24922965.566,2.378,0.000,0.000,0.000,0.000,0.000,0.000,0.000,17,16,4*77
$GPGGA,072813.40,3135.4191830,N,12046.4300742,E,4,17,1.4,2.3761,M,8.301,M,01,0004*6A
$GPHPD,0,0.000,316.04,0.23,-12.94,31.5903197,120.7738346,2.376,13631959.182,24922965.562,2.376,0.000,0.000,0.000,0.000,0.000,0.000,0.000,17,16,4*59
$GPGGA,072813.60,3135.4191831,N,12046.4300735,E,4,17,1.4,2.3777,M,8.301,M,00,0004*6F
$GPHPD,0,0.000,316.05,0.06,-12.96,31.5903197,120.7738346,2.378,13631959.179,24922965.553,2.378,0.000,0.000,0.000,0.000,0.000,0.000,0.000,17,16,4*5B
$GPGGA,072813.80,3135.4191869,N,12046.4300713,E,4,17,1.4,2.3777,M,8.301,M,00,0004*68
$GPHPD,0,0.000,315.98,0.01,-13.02,31.5903198,120.7738345,2.378,13631959.121,24922965.504,2.378,0.000,0.000,0.000,0.000,0.000,0.000,0.000,17,16,4*54
$GPGGA,072814.00,3135.4191913,N,12046.4300629,E,4,17,1.4,2.3770,M,8.301,M,01,0004*65
$GPHPD,0,0.000,316.05,-0.09,-13.04,31.5903199,120.7738344,2.377,13631959.041,24922965.377,2.377,0.000,0.000,0.000,0.000,0.000,0.000,0.000,17,16,4*75
$GPGGA,072814.20,3135.4191950,N,12046.4300600,E,4,17,1.4,2.3798,M,8.301,M,01,0004*6D
$GPHPD,0,0.000,316.01,-0.13,-13.05,31.5903199,120.7738343,2.380,13631958.983,24922965.321,2.380,0.000,0.000,0.000,0.000,0.000,0.000,0.000,17,16,4*79
$GPGGA,072814.40,3135.4192018,N,12046.4300544,E,4,17,1.4,2.3830,M,8.301,M,01,0004*63
$GPHPD,0,0.000,315.96,-0.21,-13.06,31.5903200,120.7738342,2.383,13631958.875,24922965.214,2.383,0.000,0.000,0.000,0.000,0.000,0.000,0.000,17,16,4*7B
$GPGGA,072814.60,3135.4192093,N,12046.4300469,E,4,17,1.4,2.3786,M,8.301,M,00,0004*6F
$GPHPD,0,0.000,315.98,-0.21,-13.08,31.5903202,120.7738341,2.379,13631958.753,24922965.080,2.379,0.000,0.000,0.000,0.000,0.000,0.000,0.000,17,16,4*7E
$GPGGA,072814.80,3135.4192197,N,12046.4300384,E,4,17,1.4,2.3812,M,8.301,M,00,0004*62
$GPHPD,0,0.000,316.01,0.17,-13.11,31.5903203,120.7738340,2.381,13631958.589,24922964.917,2.381,0.000,0.000,0.000,0.000,0.000,0.000,0.000,17,16,4*5E
$GPGGA,072815.00,3135.4192279,N,12046.4300258,E,4,17,1.4,2.3813,M,8.301,M,01,0004*68
$GPHPD,0,0.000,315.90,0.13,-13.11,31.5903205,120.7738338,2.381,13631958.447,24922964.717,2.381,0.000,0.000,0.000,0.000,0.000,0.000,0.000,17,16,4*55
$GPGGA,072815.20,3135.4192406,N,12046.4300140,E,4,17,1.4,2.3813,M,8.301,M,01,0004*6E
$GPHPD,0,0.000,315.96,-0.18,-13.13,31.5903207,120.7738336,2.381,13631958.242,24922964.501,2.381,0.000,0.000,0.000,0.000,0.000,0.000,0.000,17,16,4*7D
$GPGGA,072815.40,3135.4192536,N,12046.4300000,E,4,17,1.4,2.3845,M,8.301,M,01,0004*6C
$GPHPD,0,0.000,315.97,-0.27,-13.17,31.5903209,120.7738333,2.385,13631958.029,24922964.256,2.385,0.000,0.000,0.000,0.000,0.000,0.000,0.000,17,16,4*75
$GPGGA,072815.60,3135.4192687,N,12046.4299819,E,4,17,1.4,2.3772,M,8.301,M,00,0004*6C
$GPHPD,0,0.000,315.92,0.06,-13.19,31.5903211,120.7738330,2.377,13631957.778,24922963.950,2.377,0.000,0.000,0.000,0.000,0.000,0.000,0.000,17,16,4*5C
$GPGGA,072815.80,3135.4192850,N,12046.4299632,E,4,17,1.4,2.3797,M,8.301,M,00,0004*6A
$GPHPD,0,0.000,315.95,0.15,-13.22,31.5903214,120.7738327,2.380,13631957.509,24922963.630,2.380,0.000,0.000,0.000,0.000,0.000,0.000,0.000,17,16,4*5F
$GPGGA,072816.00,3135.4193042,N,12046.4299403,E,4,17,1.4,2.3778,M,8.301,M,01,0004*6B
$GPHPD,0,0.000,315.81,-0.25,-13.26,31.5903217,120.7738323,2.378,13631957.190,24922963.242,2.378,0.000,0.000,0.000,0.000,0.000,0.000,0.000,17,16,4*72
$GPGGA,072816.20,3135.4193292,N,12046.4299147,E,4,17,1.4,2.3728,M,8.301,M,01,0004*66
$GPHPD,0,0.000,315.94,-0.36,-13.31,31.5903222,120.7738319,2.373,13631956.783,24922962.788,2.373,0.000,0.000,0.000,0.000,0.000,0.000,0.000,17,16,4*7A
$GPGGA,072816.40,3135.4193563,N,12046.4298861,E,4,17,1.4,2.3810,M,8.301,M,01,0004*61
$GPHPD,0,0.000,315.89,0.06,-13.37,31.5903226,120.7738314,2.381,13631956.340,24922962.285,2.381,0.000,0.000,0.000,0.000,0.000,0.000,0.000,17,16,4*54
$GPGGA,072816.60,3135.4193895,N,12046.4298471,E,4,17,1.4,2.3787,M,8.301,M,00,0004*6A
$GPHPD,0,0.000,315.72,-0.33,-13.46,31.5903232,120.7738308,2.379,13631955.790,24922961.622,2.379,0.000,0.000,0.000,0.000,0.000,0.000,0.000,17,16,4*75
$GPGGA,072816.80,3135.4194333,N,12046.4298028,E,4,17,1.4,2.3857,M,8.301,M,00,0004*6E
$GPHPD,0,0.000,315.67,-0.16,-13.53,31.5903239,120.7738300,2.386,13631955.078,24922960.833,2.386,0.000,0.000,0.000,0.000,0.000,0.000,0.000,17,16,4*7F
$GPGGA,072817.00,3135.4194745,N,12046.4297531,E,4,17,1.4,2.3898,M,8.301,M,01,0004*62
$GPHPD,0,0.000,315.43,-0.36,-13.60,31.5903246,120.7738292,2.390,13631954.393,24922959.994,2.390,0.000,0.000,0.000,0.000,0.000,0.000,0.000,17,16,4*78
$GPGGA,072817.20,3135.4195261,N,12046.4296937,E,4,17,1.4,2.3953,M,8.301,M,01,0004*6F
$GPHPD,0,0.000,315.32,0.06,-13.64,31.5903254,120.7738282,2.395,13631953.540,24922958.977,2.395,0.000,0.000,0.000,0.000,0.000,0.000,0.000,17,16,4*55
$GPGGA,072817.40,3135.4195820,N,12046.4296346,E,4,17,1.4,2.3939,M,8.301,M,01,0004*66
$GPHPD,0,0.000,314.95,-0.01,-13.65,31.5903264,120.7738272,2.394,13631952.626,24922957.939,2.394,0.000,0.000,0.000,0.000,0.000,0.000,0.000,17,16,4*79
$GPGGA,072817.60,3135.4196362,N,12046.4295704,E,4,17,1.4,2.3941,M,8.301,M,00,0004*65
$GPHPD,0,0.000,314.80,0.03,-13.64,31.5903273,120.7738262,2.394,13631951.727,24922956.850,2.394,0.000,0.000,0.000,0.000,0.000,0.000,0.000,17,16,4*58
$GPGGA,072817.80,3135.4196946,N,12046.4295048,E,4,17,1.4,2.3911,M,8.301,M,00,0004*6D
$GPHPD,0,0.000,314.59,0.30,-13.60,31.5903282,120.7738251,2.391,13631950.765,24922955.719,2.391,0.000,0.000,0.000,0.000,0.000,0.000,0.000,17,16,4*50
$GPGGA,072818.00,3135.4197515,N,12046.4294391,E,4,17,1.4,2.4041,M,8.301,M,01,0004*6D
$GPHPD,0,0.000,314.59,0.62,-13.55,31.5903292,120.7738240,2.404,13631949.824,24922954.596,2.404,0.000,0.000,0.000,0.000,0.000,0.000,0.000,17,16,4*56
$GPGGA,072818.20,3135.4198056,N,12046.4293721,E,4,17,1.4,2.4078,M,8.301,M,01,0004*60
$GPHPD,0,0.000,314.54,0.12,-13.52,31.5903301,120.7738229,2.408,13631948.920,24922953.473,2.408,0.000,0.000,0.000,0.000,0.000,0.000,0.000,17,16,4*56
$GPGGA,072818.40,3135.4198603,N,12046.4293114,E,4,17,1.4,2.4045,M,8.301,M,01,0004*6E
$GPHPD,0,0.000,314.62,-0.15,-13.50,31.5903310,120.7738219,2.405,13631948.020,24922952.423,2.405,0.000,0.000,0.000,0.000,0.000,0.000,0.000,17,16,4*75
$GPGGA,072818.60,3135.4199151,N,12046.4292451,E,4,17,1.4,2.4055,M,8.301,M,00,0004*68
$GPHPD,0,0.000,314.69,-0.12,-13.48,31.5903319,120.7738208,2.406,13631947.108,24922951.305,2.406,0.000,0.000,0.000,0.000,0.000,0.000,0.000,17,16,4*7D
$GPGGA,072818.80,3135.4199704,N,12046.4291867,E,4,17,1.4,2.3994,M,8.301,M,00,0004*69
$GPHPD,0,0.000,314.78,-0.04,-13.44,31.5903328,120.7738198,2.399,13631946.205,24922950.279,2.399,0.000,0.000,0.000,0.000,0.000,0.000,0.000,17,16,4*7A
$GPGGA,072819.00,3135.4200228,N,12046.4291260,E,4,17,1.5,2.3912,M,8.301,M,01,0004*6B
$GPHPD,0,0.000,314.81,-0.56,-13.42,31.5903337,120.7738188,2.391,13631945.338,24922949.242,2.391,0.000,0.000,0.000,0.000,0.000,0.000,0.000,17,16,4*7E
$GPGGA,072819.20,3135.4200765,N,12046.4290640,E,4,17,1.4,2.4119,M,8.301,M,01,0004*67
$GPHPD,0,0.000,314.72,-0.02,-13.39,31.5903346,120.7738177,2.412,13631944.450,24922948.182,2.412,0.000,0.000,0.000,0.000,0.000,0.000,0.000,17,16,4*7F
$GPGGA,072819.40,3135.4201272,N,12046.4290043,E,4,17,1.4,2.4029,M,8.301,M,01,0004*64
$GPHPD,0,0.000,314.71,-0.14,-13.38,31.5903355,120.7738167,2.403,13631943.609,24922947.167,2.403,0.000,0.000,0.000,0.000,0.000,0.000,0.000,17,16,4*74
$GPGGA,072819.60,3135.4201827,N,12046.4289492,E,4,17,1.4,2.3989,M,8.301,M,00,0004*69
$GPHPD,0,0.000,314.95,0.08,-13.36,31.5903364,120.7738158,2.399,13631942.709,24922946.179,2.399,0.000,0.000,0.000,0.000,0.000,0.000,0.000,17,16,4*50
$GPGGA,072819.80,3135.4202392,N,12046.4288907,E,4,17,1.4,2.4023,M,8.301,M,00,0004*6F
$GPHPD,0,0.000,315.14,-0.08,-13.34,31.5903373,120.7738148,2.402,13631941.788,24922945.145,2.402,0.000,0.000,0.000,0.000,0.000,0.000,0.000,17,16,4*76
$GPGGA,072820.00,3135.4202954,N,12046.4288286,E,4,17,1.4,2.4022,M,8.301,M,01,0004*6F
$GPHPD,0,0.000,315.45,-0.05,-13.31,31.5903383,120.7738138,2.402,13631940.865,24922944.069,2.402,0.000,0.000,0.000,0.000,0.000,0.000,0.000,17,16,4*71
$GPGGA,072820.20,3135.4203540,N,12046.4287683,E,4,17,1.4,2.3926,M,8.301,M,01,0004*61
$GPHPD,0,0.000,315.92,-0.50,-13.29,31.5903392,120.7738128,2.393,13631939.910,24922943.001,2.393,0.000,0.000,0.000,0.000,0.000,0.000,0.000,17,16,4*77
$GPGGA,072820.40,3135.4204088,N,12046.4287024,E,4,17,1.4,2.4049,M,8.301,M,01,0004*6D
$GPHPD,0,0.000,316.25,-0.17,-13.24,31.5903401,120.7738117,2.405,13631938.999,24922941.888,2.405,0.000,0.000,0.000,0.000,0.000,0.000,0.000,17,16,4*7C
$GPGGA,072820.60,3135.4204707,N,12046.4286406,E,4,17,1.4,2.3991,M,8.301,M,00,0004*60
$GPHPD,0,0.000,316.89,-0.62,-13.18,31.5903412,120.7738107,2.399,13631937.995,24922940.782,2.399,0.000,0.000,0.000,0.000,0.000,0.000,0.000,17,16,4*73
$GPGGA,072820.80,3135.4205273,N,12046.4285865,E,4,17,1.4,2.4012,M,8.301,M,00,0004*66
$GPHPD,0,0.000,317.25,-0.33,-13.14,31.5903421,120.7738098,2.401,13631937.081,24922939.801,2.401,0.000,0.000,0.000,0.000,0.000,0.000,0.000,17,16,4*7D
$GPGGA,072821.00,3135.4205826,N,12046.4285316,E,4,17,1.4,2.4073,M,8.301,M,01,0004*6C
$GPHPD,0,0.000,317.65,-0.05,-13.08,31.5903430,120.7738089,2.407,13631936.185,24922938.817,2.407,0.000,0.000,0.000,0.000,0.000,0.000,0.000,17,16,4*73
$GPGGA,072821.20,3135.4206358,N,12046.4284798,E,4,17,1.4,2.3933,M,8.301,M,01,0004*66
$GPHPD,0,0.000,318.35,-0.65,-13.03,31.5903439,120.7738080,2.393,13631935.324,24922937.883,2.393,0.000,0.000,0.000,0.000,0.000,0.000,0.000,17,16,4*7C
$GPGGA,072821.40,3135.4206883,N,12046.4284270,E,4,17,1.4,2.3966,M,8.301,M,01,0004*6E
$GPHPD,0,0.000,318.74,0.00,-13.00,31.5903448,120.7738071,2.397,13631934.472,24922936.941,2.397,0.000,0.000,0.000,0.000,0.000,0.000,0.000,17,16,4*57
$GPGGA,072821.60,3135.4207365,N,12046.4283817,E,4,17,1.4,2.3980,M,8.301,M,00,0004*6B
$GPHPD,0,0.000,319.24,-0.56,-12.94,31.5903456,120.7738064,2.398,13631933.696,24922936.114,2.398,0.000,0.000,0.000,0.000,0.000,0.000,0.000,17,16,4*7D
$GPGGA,072821.80,3135.4207843,N,12046.4283375,E,4,17,1.4,2.3977,M,8.301,M,00,0004*6D
$GPHPD,0,0.000,319.62,-0.06,-12.87,31.5903464,120.7738056,2.398,13631932.927,24922935.303,2.398,0.000,0.000,0.000,0.000,0.000,0.000,0.000,17,16,4*7B
$GPGGA,072822.00,3135.4208315,N,12046.4282928,E,4,17,1.4,2.4027,M,8.301,M,01,0004*68
$GPHPD,0,0.000,320.13,0.17,-12.82,31.5903472,120.7738049,2.403,13631932.167,24922934.489,2.403,0.000,0.000,0.000,0.000,0.000,0.000,0.000,17,16,4*5E
$GPGGA,072822.20,3135.4208773,N,12046.4282536,E,4,17,1.4,2.3992,M,8.301,M,01,0004*6D
$GPHPD,0,0.000,320.82,-0.46,-12.80,31.5903480,120.7738042,2.399,13631931.437,24922933.750,2.399,0.000,0.000,0.000,0.000,0.000,0.000,0.000,17,15,4*7B
$GPGGA,072822.40,3135.4209240,N,12046.4282130,E,4,17,1.4,2.3979,M,8.301,M,01,0004*68
$GPHPD,0,0.000,321.32,-0.55,-12.77,31.5903487,120.7738036,2.398,13631930.691,24922932.989,2.398,0.000,0.000,0.000,0.000,0.000,0.000,0.000,17,15,4*7B
$GPGGA,072822.60,3135.4209686,N,12046.4281745,E,4,17,1.4,2.3953,M,8.301,M,00,0004*6A
$GPHPD,0,0.000,321.82,-0.48,-12.74,31.5903495,120.7738029,2.395,13631929.980,24922932.265,2.395,0.000,0.000,0.000,0.000,0.000,0.000,0.000,17,15,4*7C
$GPGGA,072822.80,3135.4210125,N,12046.4281378,E,4,17,1.4,2.3928,M,8.301,M,00,0004*64
$GPHPD,0,0.000,322.30,-0.32,-12.72,31.5903502,120.7738023,2.393,13631929.282,24922931.567,2.393,0.000,0.000,0.000,0.000,0.000,0.000,0.000,17,15,4*77
$GPGGA,072823.00,3135.4210549,N,12046.4281025,E,4,17,1.4,2.3804,M,8.301,M,01,0004*66
$GPHPD,0,0.000,322.93,-0.74,-12.70,31.5903509,120.7738017,2.380,13631928.608,24922930.895,2.380,0.000,0.000,0.000,0.000,0.000,0.000,0.000,17,15,4*74
$GPGGA,072823.20,3135.4210965,N,12046.4280709,E,4,17,1.4,2.3866,M,8.301,M,01,0004*6A
$GPHPD,0,0.000,323.47,-0.72,-12.70,31.5903516,120.7738012,2.387,13631927.953,24922930.272,2.387,0.000,0.000,0.000,0.000,0.000,0.000,0.000,17,15,4*7C
$GPGGA,072823.40,3135.4211381,N,12046.4280381,E,4,17,1.4,2.3854,M,8.301,M,01,0004*68
$GPHPD,0,0.000,323.76,-0.64,-12.69,31.5903523,120.7738006,2.385,13631927.296,24922929.634,2.385,0.000,0.000,0.000,0.000,0.000,0.000,0.000,17,15,4*7E
$GPGGA,072823.60,3135.4211797,N,12046.4280053,E,4,17,1.4,2.3875,M,8.301,M,00,0004*67
$GPHPD,0,0.000,324.32,-0.34,-12.71,31.5903530,120.7738001,2.388,13631926.639,24922928.996,2.388,0.000,0.000,0.000,0.000,0.000,0.000,0.000,17,15,4*76
$GPGGA,072823.80,3135.4212220,N,12046.4279715,E,4,17,1.4,2.3791,M,8.301,M,00,0004*65
$GPHPD,0,0.000,324.71,-0.35,-12.73,31.5903537,120.7737995,2.379,13631925.970,24922928.343,2.379,0.000,0.000,0.000,0.000,0.000,0.000,0.000,17,15,4*7D
$GPGGA,072824.00,3135.4212641,N,12046.4279423,E,4,17,1.4,2.3734,M,8.301,M,01,0004*61
$GPHPD,0,0.000,325.23,-0.68,-12.75,31.5903544,120.7737990,2.373,13631925.313,24922927.746,2.373,0.000,0.000,0.000,0.000,0.000,0.000,0.000,17,15,4*75
$GPGGA,072824.20,3135.4213115,N,12046.4279065,E,4,17,1.4,2.3890,M,8.301,M,01,0004*63
$GPHPD,0,0.000,325.66,-0.33,-12.77,31.5903552,120.7737984,2.389,13631924.567,24922927.038,2.389,0.000,0.000,0.000,0.000,0.000,0.000,0.000,17,15,4*70
$GPGGA,072824.40,3135.4213561,N,12046.4278724,E,4,17,1.4,2.3862,M,8.301,M,01,0004*6C
$GPHPD,0,0.000,326.27,-0.95,-12.81,31.5903559,120.7737979,2.386,13631923.864,24922926.367,2.386,0.000,0.000,0.000,0.000,0.000,0.000,0.000,17,15,4*7B
$GPGGA,072824.60,3135.4214039,N,12046.4278384,E,4,17,1.4,2.3925,M,8.301,M,01,0004*6D
$GPHPD,0,0.000,326.73,-0.64,-12.85,31.5903567,120.7737973,2.393,13631923.116,24922925.679,2.393,0.000,0.000,0.000,0.000,0.000,0.000,0.000,17,15,4*72
$GPGGA,072824.80,3135.4214538,N,12046.4278053,E,4,17,1.4,2.3683,M,8.301,M,01,0004*6D
$GPHPD,0,0.000,327.07,-0.75,-12.90,31.5903576,120.7737968,2.368,13631922.341,24922924.990,2.368,0.000,0.000,0.000,0.000,0.000,0.000,0.000,17,15,4*76
$GPGGA,072825.00,3135.4215004,N,12046.4277716,E,4,17,1.4,2.3896,M,8.301,M,02,0004*6F
$GPHPD,0,0.000,327.60,0.30,-12.93,31.5903583,120.7737962,2.390,13631921.610,24922924.312,2.390,0.000,0.000,0.000,0.000,0.000,0.000,0.000,17,15,4*5A
$GPGGA,072825.20,3135.4215465,N,12046.4277429,E,4,17,1.4,2.3778,M,8.301,M,02,0004*6E
$GPHPD,0,0.000,328.01,0.21,-12.94,31.5903591,120.7737957,2.378,13631920.897,24922923.698,2.378,0.000,0.000,0.000,0.000,0.000,0.000,0.000,17,15,4*50
$GPGGA,072825.40,3135.4215894,N,12046.4277110,E,4,17,1.4,2.3786,M,8.301,M,02,0004*64
$GPHPD,0,0.000,328.60,0.43,-12.92,31.5903598,120.7737952,2.379,13631920.224,24922923.064,2.379,0.000,0.000,0.000,0.000,0.000,0.000,0.000,17,15,4*5E
$GPGGA,072825.60,3135.4216334,N,12046.4276864,E,4,16,1.5,2.3667,M,8.301,M,00,0004*63
$GPHPD,0,0.000,329.05,0.19,-12.92,31.5903606,120.7737948,2.367,13631919.549,24922922.511,2.367,0.000,0.000,0.000,0.000,0.000,0.000,0.000,16,15,4*5D
$GPGGA,072825.80,3135.4216737,N,12046.4276617,E,4,16,1.5,2.3767,M,8.301,M,00,0004*61
$GPHPD,0,0.000,329.48,0.23,-12.92,31.5903612,120.7737944,2.377,13631918.926,24922921.979,2.377,0.000,0.000,0.000,0.000,0.000,0.000,0.000,16,15,4*51
$GPGGA,072826.00,3135.4217125,N,12046.4276364,E,4,16,1.5,2.3823,M,8.301,M,01,0004*61
$GPHPD,0,0.000,330.07,0.05,-12.90,31.5903619,120.7737939,2.382,13631918.324,24922921.448,2.382,0.000,0.000,0.000,0.000,0.000,0.000,0.000,16,15,4*52
$GPGGA,072826.20,3135.4217505,N,12046.4276152,E,4,16,1.5,2.3705,M,8.301,M,01,0004*69
$GPHPD,0,0.000,330.72,-0.25,-12.87,31.5903625,120.7737936,2.371,13631917.741,24922920.971,2.371,0.000,0.000,0.000,0.000,0.000,0.000,0.000,16,15,4*77
$GPGGA,072826.40,3135.4217862,N,12046.4275939,E,4,16,1.6,2.3616,M,8.301,M,01,0004*65
$GPHPD,0,0.000,331.21,0.05,-12.86,31.5903631,120.7737932,2.362,13631917.191,24922920.507,2.362,0.000,0.000,0.000,0.000,0.000,0.000,0.000,16,15,4*59
$GPGGA,072826.60,3135.4218229,N,12046.4275711,E,4,16,1.5,2.3693,M,8.301,M,00,0004*66
$GPHPD,0,0.000,331.68,-0.01,-12.87,31.5903637,120.7737929,2.369,13631916.623,24922920.018,2.369,0.000,0.000,0.000,0.000,0.000,0.000,0.000,16,15,4*74
$GPGGA,072826.80,3135.4218581,N,12046.4275535,E,4,16,1.5,2.3752,M,8.301,M,00,0004*65
$GPHPD,0,0.000,332.37,0.06,-12.87,31.5903643,120.7737926,2.375,13631916.088,24922919.601,2.375,0.000,0.000,0.000,0.000,0.000,0.000,0.000,16,15,4*58
$GPGGA,072827.00,3135.4218959,N,12046.4275312,E,4,16,1.5,2.3711,M,8.301,M,01,0004*60
$GPHPD,0,0.000,332.79,-0.40,-12.89,31.5903649,120.7737922,2.371,13631915.505,24922919.112,2.371,0.000,0.000,0.000,0.000,0.000,0.000,0.000,16,15,4*7B
$GPGGA,072827.20,3135.4219342,N,12046.4275105,E,4,16,1.5,2.3691,M,8.301,M,01,0004*6E
$GPHPD,0,0.000,333.38,-0.36,-12.90,31.5903656,120.7737918,2.369,13631914.919,24922918.640,2.369,0.000,0.000,0.000,0.000,0.000,0.000,0.000,16,15,4*70
$GPGGA,072827.40,3135.4219762,N,12046.4274905,E,4,16,1.5,2.3734,M,8.301,M,01,0004*69
$GPHPD,0,0.000,334.04,-0.09,-12.91,31.5903663,120.7737915,2.373,13631914.282,24922918.154,2.373,0.000,0.000,0.000,0.000,0.000,0.000,0.000,16,15,4*75
$GPGGA,072827.60,3135.4220158,N,12046.4274708,E,4,16,1.5,2.3717,M,8.301,M,00,0004*6D
$GPHPD,0,0.000,334.71,-0.40,-12.92,31.5903669,120.7737912,2.372,13631913.680,24922917.686,2.372,0.000,0.000,0.000,0.000,0.000,0.000,0.000,16,15,4*72
$GPGGA,072827.80,3135.4220615,N,12046.4274495,E,4,16,1.5,2.3605,M,8.301,M,00,0004*68
$GPHPD,0,0.000,335.29,-0.04,-12.92,31.5903677,120.7737908,2.361,13631912.987,24922917.164,2.361,0.000,0.000,0.000,0.000,0.000,0.000,0.000,16,15,4*78
$GPGGA,072828.00,3135.4221052,N,12046.4274328,E,4,16,1.5,2.3618,M,8.301,M,01,0004*67
$GPHPD,0,0.000,336.04,-0.11,-12.92,31.5903684,120.7737905,2.362,13631912.333,24922916.708,2.362,0.000,0.000,0.000,0.000,0.000,0.000,0.000,16,15,4*79
$GPGGA,072828.20,3135.4221489,N,12046.4274123,E,4,16,1.5,2.3708,M,8.301,M,01,0004*6E
$GPHPD,0,0.000,336.71,0.10,-12.91,31.5903691,120.7737902,2.371,13631911.670,24922916.206,2.371,0.000,0.000,0.000,0.000,0.000,0.000,0.000,16,15,4*5D
$GPGGA,072828.40,3135.4221978,N,12046.4273939,E,4,16,1.5,2.3652,M,8.301,M,01,0004*61
$GPHPD,0,0.000,337.33,-0.36,-12.90,31.5903700,120.7737899,2.365,13631910.938,24922915.700,2.365,0.000,0.000,0.000,0.000,0.000,0.000,0.000,16,15,4*7A
$GPGGA,072828.60,3135.4222401,N,12046.4273730,E,4,16,1.5,2.3645,M,8.301,M,00,0004*63
$GPHPD,0,0.000,337.77,0.14,-12.89,31.5903707,120.7737896,2.365,13631910.295,24922915.202,2.365,0.000,0.000,0.000,0.000,0.000,0.000,0.000,16,15,4*5C
$GPGGA,072828.80,3135.4222885,N,12046.4273557,E,4,16,1.5,2.3679,M,8.301,M,00,0004*61
$GPHPD,0,0.000,338.31,-0.13,-12.91,31.5903715,120.7737893,2.368,13631909.572,24922914.712,2.368,0.000,0.000,0.000,0.000,0.000,0.000,0.000,16,15,4*77
$GPGGA,072829.00,3135.4223367,N,12046.4273347,E,4,16,1.5,2.3665,M,8.301,M,01,0004*65
$GPHPD,0,0.000,338.72,-0.25,-12.92,31.5903723,120.7737889,2.367,13631908.845,24922914.178,2.367,0.000,0.000,0.000,0.000,0.000,0.000,0.000,16,15,4*7A
$GPGGA,072829.20,3135.4223856,N,12046.4273166,E,4,16,1.5,2.3628,M,8.301,M,01,0004*66
$GPHPD,0,0.000,339.19,-0.44,-12.94,31.5903731,120.7737886,2.363,13631908.113,24922913.675,2.363,0.000,0.000,0.000,0.000,0.000,0.000,0.000,16,15,4*7C
$GPGGA,072829.40,3135.4224361,N,12046.4272933,E,4,16,1.5,2.3694,M,8.301,M,01,0004*66
$GPHPD,0,0.000,339.65,-0.45,-12.94,31.5903739,120.7737882,2.369,13631907.349,24922913.100,2.369,0.000,0.000,0.000,0.000,0.000,0.000,0.000,16,15,4*7D
$GPGGA,072829.60,3135.4224870,N,12046.4272735,E,4,16,1.5,2.3520,M,8.301,M,00,0004*6A
$GPHPD,0,0.000,340.05,-0.80,-12.90,31.5903748,120.7737879,2.352,13631906.586,24922912.565,2.352,0.000,0.000,0.000,0.000,0.000,0.000,0.000,16,15,4*78
$GPGGA,072829.80,3135.4225395,N,12046.4272540,E,4,16,1.5,2.3581,M,8.301,M,00,0004*6E
$GPHPD,0,0.000,340.41,-0.64,-12.88,31.5903757,120.7737876,2.358,13631905.800,24922912.025,2.358,0.000,0.000,0.000,0.000,0.000,0.000,0.000,16,15,4*7B
$GPGGA,072830.00,3135.4225943,N,12046.4272335,E,4,16,1.5,2.3525,M,8.301,M,01,0004*64
$GPHPD,0,0.000,340.89,-0.98,-12.89,31.5903766,120.7737872,2.353,13631904.980,24922911.459,2.353,0.000,0.000,0.000,0.000,0.000,0.000,0.000,16,15,4*7F
$GPGGA,072830.20,3135.4226481,N,12046.4272167,E,4,16,1.5,2.3419,M,8.301,M,01,0004*6D
$GPHPD,0,0.000,341.17,-0.15,-12.90,31.5903775,120.7737869,2.342,13631904.182,24922910.943,2.342,0.000,0.000,0.000,0.000,0.000,0.000,0.000,16,15,4*71
$GPGGA,072830.40,3135.4227037,N,12046.4271954,E,4,16,1.5,2.3507,M,8.301,M,01,0004*66
$GPHPD,0,0.000,341.48,-0.07,-12.88,31.5903784,120.7737866,2.351,13631903.348,24922910.363,2.351,0.000,0.000,0.000,0.000,0.000,0.000,0.000,16,15,4*7B
$GPGGA,072830.60,3135.4227618,N,12046.4271740,E,4,16,1.5,2.3571,M,8.301,M,00,0004*64
$GPHPD,0,0.000,341.94,-0.49,-12.89,31.5903794,120.7737862,2.357,13631902.480,24922909.767,2.357,0.000,0.000,0.000,0.000,0.000,0.000,0.000,16,15,4*7E
$GPGGA,072830.80,3135.4228240,N,12046.4271541,E,4,16,1.5,2.3533,M,8.301,M,00,0004*69
$GPHPD,0,0.000,342.53,-0.90,-12.88,31.5903804,120.7737859,2.353,13631901.556,24922909.165,2.353,0.000,0.000,0.000,0.000,0.000,0.000,0.000,16,15,4*70
$GPGGA,072831.00,3135.4228850,N,12046.4271360,E,4,16,1.5,2.3681,M,8.301,M,01,0004*65
$GPHPD,0,0.000,342.92,-0.91,-12.86,31.5903814,120.7737856,2.368,13631900.652,24922908.591,2.368,0.000,0.000,0.000,0.000,0.000,0.000,0.000,16,15,4*74
$GPGGA,072831.20,3135.4229513,N,12046.4271128,E,4,16,1.5,2.3606,M,8.301,M,01,0004*6D
$GPHPD,0,0.000,343.45,-1.39,-12.83,31.5903825,120.7737852,2.361,13631899.663,24922907.926,2.361,0.000,0.000,0.000,0.000,0.000,0.000,0.000,16,15,4*73
$GPGGA,072831.40,3135.4230170,N,12046.4270902,E,4,16,1.5,2.3653,M,8.301,M,01,0004*63
$GPHPD,0,0.000,343.96,-1.22,-12.78,31.5903836,120.7737848,2.365,13631898.684,24922907.271,2.365,0.000,0.000,0.000,0.000,0.000,0.000,0.000,16,16,4*78
$GPGGA,072831.60,3135.4230853,N,12046.4270694,E,4,16,1.5,2.3656,M,8.301,M,00,0004*6D
$GPHPD,0,0.000,344.28,-1.53,-12.74,31.5903848,120.7737845,2.366,13631897.671,24922906.623,2.366,0.000,0.000,0.000,0.000,0.000,0.000,0.000,16,16,4*73
$GPGGA,072831.80,3135.4231544,N,12046.4270469,E,4,16,1.5,2.3618,M,8.301,M,00,0004*63
$GPHPD,0,0.000,344.49,-1.53,-12.71,31.5903859,120.7737841,2.362,13631896.644,24922905.949,2.362,0.000,0.000,0.000,0.000,0.000,0.000,0.000,16,16,4*72
$GPGGA,072832.00,3135.4232266,N,12046.4270270,E,4,16,1.5,2.3501,M,8.301,M,01,0004*68
$GPHPD,0,0.000,344.91,-1.96,-12.65,31.5903871,120.7737838,2.350,13631895.578,24922905.289,2.350,0.000,0.000,0.000,0.000,0.000,0.000,0.000,16,16,4*77
$GPGGA,072832.20,3135.4232930,N,12046.4270066,E,4,16,1.5,2.3552,M,8.301,M,01,0004*61
$GPHPD,0,0.000,344.98,-1.33,-12.61,31.5903882,120.7737834,2.355,13631894.593,24922904.657,2.355,0.000,0.000,0.000,0.000,0.000,0.000,0.000,16,16,4*77
$GPGGA,072832.40,3135.4233642,N,12046.4269865,E,4,16,1.5,2.3533,M,8.301,M,01,0004*68
$GPHPD,0,0.000,345.33,-1.19,-12.55,31.5903894,120.7737831,2.353,13631893.541,24922904.000,2.353,0.000,0.000,0.000,0.000,0.000,0.000,0.000,16,16,4*76
$GPGGA,072832.60,3135.4234312,N,12046.4269670,E,4,16,1.5,2.3531,M,8.301,M,00,0004*64
$GPHPD,0,0.000,345.44,-1.53,-12.49,31.5903905,120.7737828,2.353,13631892.549,24922903.375,2.353,0.000,0.000,0.000,0.000,0.000,0.000,0.000,16,16,4*7B
$GPGGA,072832.80,3135.4234991,N,12046.4269481,E,4,16,1.5,2.3638,M,8.301,M,00,0004*6D
$GPHPD,0,0.000,345.98,-1.22,-12.44,31.5903917,120.7737825,2.364,13631891.546,24922902.752,2.364,0.000,0.000,0.000,0.000,0.000,0.000,0.000,16,16,4*73
$GPGGA,072833.00,3135.4235641,N,12046.4269295,E,4,16,1.5,2.3654,M,8.301,M,01,0004*6F
$GPHPD,0,0.000,346.34,-1.52,-12.41,31.5903927,120.7737822,2.365,13631890.585,24922902.150,2.365,0.000,0.000,0.000,0.000,0.000,0.000,0.000,16,16,4*7A
$GPGGA,072833.20,3135.4236328,N,12046.4269124,E,4,16,1.5,2.3585,M,8.301,M,01,0004*62
$GPHPD,0,0.000,346.64,-1.64,-12.41,31.5903939,120.7737819,2.359,13631889.574,24922901.544,2.359,0.000,0.000,0.000,0.000,0.000,0.000,0.000,16,16,4*79
$GPGGA,072833.40,3135.4237005,N,12046.4268954,E,4,16,1.5,2.3527,M,8.301,M,01,0004*6F
$GPHPD,0,0.000,346.86,-1.20,-12.42,31.5903950,120.7737816,2.353,13631888.577,24922900.945,2.353,0.000,0.000,0.000,0.000,0.000,0.000,0.000,16,16,4*78
$GPGGA,072833.60,3135.4237698,N,12046.4268778,E,4,16,1.5,2.3580,M,8.301,M,00,0004*63
$GPHPD,0,0.000,347.18,-1.41,-12.42,31.5903962,120.7737813,2.358,13631887.557,24922900.329,2.358,0.000,0.000,0.000,0.000,0.000,0.000,0.000,16,16,4*70
$GPGGA,072833.80,3135.4238401,N,12046.4268636,E,4,16,1.5,2.3450,M,8.300,M,00,0004*66
$GPHPD,0,0.000,347.71,-1.40,-12.43,31.5903973,120.7737811,2.345,13631886.529,24922899.749,2.345,0.000,0.000,0.000,0.000,0.000,0.000,0.000,16,16,4*76
$GPGGA,072834.00,3135.4239140,N,12046.4268446,E,4,16,1.5,2.3422,M,8.300,M,01,0004*69
$GPHPD,0,0.000,347.88,-1.41,-12.43,31.5903986,120.7737807,2.342,13631885.441,24922899.090,2.342,0.000,0.000,0.000,0.000,0.000,0.000,0.000,16,16,4*73
$GPGGA,072834.20,3135.4239855,N,12046.4268316,E,4,16,1.5,2.3315,M,8.300,M,01,0004*67
$GPHPD,0,0.000,348.43,-0.87,-12.42,31.5903998,120.7737805,2.332,13631884.398,24922898.517,2.332,0.000,0.000,0.000,0.000,0.000,0.000,0.000,16,16,4*75
$GPGGA,072834.40,3135.4240586,N,12046.4268164,E,4,16,1.5,2.3371,M,8.300,M,01,0004*69
$GPHPD,0,0.000,348.91,-1.07,-12.41,31.5904010,120.7737803,2.337,13631883.329,24922897.909,2.337,0.000,0.000,0.000,0.000,0.000,0.000,0.000,16,16,4*79
$GPGGA,072834.60,3135.4241294,N,12046.4268014,E,4,16,1.5,2.3404,M,8.300,M,00,0004*6C
$GPHPD,0,0.000,349.45,-1.21,-12.42,31.5904022,120.7737800,2.340,13631882.292,24922897.316,2.340,0.000,0.000,0.000,0.000,0.000,0.000,0.000,16,16,4*70
$GPGGA,072834.80,3135.4242001,N,12046.4267879,E,4,16,1.5,2.3384,M,8.300,M,00,0004*6C
$GPHPD,0,0.000,349.96,-1.47,-12.41,31.5904033,120.7737798,2.338,13631881.260,24922896.742,2.338,0.000,0.000,0.000,0.000,0.000,0.000,0.000,16,16,4*79
$GPGGA,072835.00,3135.4242743,N,12046.4267766,E,4,16,1.5,2.3291,M,8.300,M,01,0004*61
$GPHPD,0,0.000,350.41,-1.86,-12.40,31.5904046,120.7737796,2.329,13631880.183,24922896.174,2.329,0.000,0.000,0.000,0.000,0.000,0.000,0.000,16,16,4*77
$GPGGA,072835.20,3135.4243406,N,12046.4267671,E,4,16,1.5,2.3423,M,8.300,M,01,0004*68
$GPHPD,0,0.000,351.04,-0.99,-12.42,31.5904057,120.7737795,2.342,13631879.222,24922895.673,2.342,0.000,0.000,0.000,0.000,0.000,0.000,0.000,16,16,4*74
$GPGGA,072835.40,3135.4244099,N,12046.4267581,E,4,16,1.5,2.3438,M,8.300,M,01,0004*6D
$GPHPD,0,0.000,351.41,-1.41,-12.45,31.5904068,120.7737793,2.344,13631878.219,24922895.161,2.344,0.000,0.000,0.000,0.000,0.000,0.000,0.000,16,16,4*71
$GPGGA,072835.60,3135.4244831,N,12046.4267515,E,4,16,1.5,2.3283,M,8.300,M,01,0004*6E
$GPHPD,0,0.000,351.93,-1.41,-12.50,31.5904081,120.7737792,2.328,13631877.165,24922894.656,2.328,0.000,0.000,0.000,0.000,0.000,0.000,0.000,16,16,4*79
$GPGGA,072835.80,3135.4245491,N,12046.4267408,E,4,16,1.5,2.3397,M,8.300,M,01,0004*6E
$GPHPD,0,0.000,352.15,-0.76,-12.51,31.5904092,120.7737790,2.340,13631876.205,24922894.143,2.340,0.000,0.000,0.000,0.000,0.000,0.000,0.000,16,16,4*77
$GPGGA,072836.00,3135.4246174,N,12046.4267325,E,4,16,1.5,2.3354,M,8.300,M,02,0004*6C
$GPHPD,0,0.000,352.67,-1.00,-12.54,31.5904103,120.7737789,2.335,13631875.218,24922893.645,2.335,0.000,0.000,0.000,0.000,0.000,0.000,0.000,16,16,4*7F
$GPGGA,072836.20,3135.4246840,N,12046.4267244,E,4,16,1.5,2.3336,M,8.300,M,02,0004*62
$GPHPD,0,0.000,352.93,-0.56,-12.60,31.5904114,120.7737787,2.334,13631874.255,24922893.160,2.334,0.000,0.000,0.000,0.000,0.000,0.000,0.000,16,16,4*71
$GPGGA,072836.40,3135.4247533,N,12046.4267176,E,4,16,1.5,2.3359,M,8.300,M,02,0004*67
$GPHPD,0,0.000,353.29,-0.99,-12.64,31.5904126,120.7737786,2.336,13631873.256,24922892.675,2.336,0.000,0.000,0.000,0.000,0.000,0.000,0.000,16,16,4*70
$GPGGA,072836.60,3135.4248193,N,12046.4267083,E,4,16,1.5,2.3266,M,8.300,M,02,0004*62
$GPHPD,0,0.000,353.35,-1.18,-12.68,31.5904137,120.7737785,2.327,13631872.300,24922892.179,2.327,0.000,0.000,0.000,0.000,0.000,0.000,0.000,16,16,4*72
$GPGGA,072836.80,3135.4248914,N,12046.4267029,E,4,16,1.5,2.3168,M,8.300,M,00,0004*64
$GPHPD,0,0.000,353.49,-0.73,-12.73,31.5904149,120.7737784,2.317,13631871.264,24922891.694,2.317,0.000,0.000,0.000,0.000,0.000,0.000,0.000,16,16,4*70
$GPGGA,072837.00,3135.4249648,N,12046.4266955,E,4,16,1.5,2.3159,M,8.300,M,01,0004*6A
$GPHPD,0,0.000,353.62,-0.61,-12.78,31.5904161,120.7737783,2.316,13631870.206,24922891.178,2.316,0.000,0.000,0.000,0.000,0.000,0.000,0.000,16,16,4*7C
$GPGGA,072837.20,3135.4250355,N,12046.4266859,E,4,16,1.5,2.3177,M,8.300,M,01,0004*68
$GPHPD,0,0.000,353.60,-0.35,-12.81,31.5904173,120.7737781,2.318,13631869.182,24922890.650,2.318,0.000,0.000,0.000,0.000,0.000,0.000,0.000,16,16,4*73
$GPGGA,072837.40,3135.4251136,N,12046.4266782,E,4,16,1.5,2.3189,M,8.300,M,01,0004*60
$GPHPD,0,0.000,353.80,-0.50,-12.84,31.5904186,120.7737780,2.319,13631868.056,24922890.103,2.319,0.000,0.000,0.000,0.000,0.000,0.000,0.000,16,16,4*78
$GPGGA,072837.60,3135.4251934,N,12046.4266722,E,4,16,1.5,2.3159,M,8.300,M,00,0004*6E
$GPHPD,0,0.000,353.83,-0.19,-12.89,31.5904199,120.7737779,2.316,13631866.910,24922889.566,2.316,0.000,0.000,0.000,0.000,0.000,0.000,0.000,16,16,4*79
$GPGGA,072837.80,3135.4252791,N,12046.4266649,E,4,16,1.5,2.3022,M,8.300,M,00,0004*63
$GPHPD,0,0.000,354.00,-0.54,-12.97,31.5904213,120.7737777,2.302,13631865.677,24922888.980,2.302,0.000,0.000,0.000,0.000,0.000,0.000,0.000,16,16,4*74
$GPGGA,072838.00,3135.4253638,N,12046.4266531,E,4,16,1.5,2.3055,M,8.300,M,01,0004*6A
$GPHPD,0,0.000,354.19,-0.49,-12.98,31.5904227,120.7737776,2.306,13631864.450,24922888.345,2.306,0.000,0.000,0.000,0.000,0.000,0.000,0.000,16,16,4*7C
$GPGGA,072838.20,3135.4254507,N,12046.4266442,E,4,16,1.5,2.3123,M,8.300,M,01,0004*65
$GPHPD,0,0.000,354.61,-0.27,-12.96,31.5904242,120.7737774,2.312,13631863.197,24922887.732,2.312,0.000,0.000,0.000,0.000,0.000,0.000,0.000,16,16,4*76
$GPGGA,072838.40,3135.4255381,N,12046.4266376,E,4,16,1.5,2.3022,M,8.300,M,01,0004*6A
$GPHPD,0,0.000,354.73,-0.64,-12.94,31.5904256,120.7737773,2.302,13631861.941,24922887.143,2.302,0.000,0.000,0.000,0.000,0.000,0.000,0.000,16,16,4*73
$GPGGA,072838.60,3135.4256211,N,12046.4266299,E,4,16,1.5,2.3001,M,8.300,M,00,0004*63
$GPHPD,0,0.000,355.02,-0.38,-12.91,31.5904270,120.7737772,2.300,13631860.746,24922886.568,2.300,0.000,0.000,0.000,0.000,0.000,0.000,0.000,16,16,4*79
$GPGGA,072838.80,3135.4257033,N,12046.4266218,E,4,16,1.5,2.2957,M,8.300,M,00,0004*6C
$GPHPD,0,0.000,355.17,-0.67,-12.89,31.5904284,120.7737770,2.296,13631859.562,24922885.992,2.296,0.000,0.000,0.000,0.000,0.000,0.000,0.000,16,16,4*73
$GPGGA,072839.00,3135.4257839,N,12046.4266186,E,4,16,1.5,2.3005,M,8.300,M,01,0004*6D
$GPHPD,0,0.000,355.72,-0.60,-12.88,31.5904297,120.7737770,2.301,13631858.410,24922885.484,2.301,0.000,0.000,0.000,0.000,0.000,0.000,0.000,16,16,4*7B
$GPGGA,072839.20,3135.4258611,N,12046.4266152,E,4,16,1.5,2.3059,M,8.300,M,01,0004*64
$GPHPD,0,0.000,355.87,-0.62,-12.86,31.5904310,120.7737769,2.306,13631857.306,24922884.994,2.306,0.000,0.000,0.000,0.000,0.000,0.000,0.000,16,16,4*79
$GPGGA,072839.40,3135.4259370,N,12046.4266123,E,4,16,1.5,2.2955,M,8.300,M,01,0004*63
$GPHPD,0,0.000,356.16,-0.83,-12.85,31.5904323,120.7737769,2.296,13631856.221,24922884.517,2.296,0.000,0.000,0.000,0.000,0.000,0.000,0.000,16,16,4*7C
$GPGGA,072839.60,3135.4260102,N,12046.4266113,E,4,16,1.5,2.2966,M,8.300,M,00,0004*6E
$GPHPD,0,0.000,356.63,-0.46,-12.85,31.5904335,120.7737769,2.297,13631855.179,24922884.079,2.297,0.000,0.000,0.000,0.000,0.000,0.000,0.000,16,16,4*70
$GPGGA,072839.80,3135.4260837,N,12046.4266080,E,4,16,1.5,2.2912,M,8.300,M,00,0004*67
$GPHPD,0,0.000,356.91,-0.51,-12.84,31.5904347,120.7737768,2.291,13631854.127,24922883.612,2.291,0.000,0.000,0.000,0.000,0.000,0.000,0.000,16,16,4*78
$GPGGA,072840.00,3135.4261531,N,12046.4266086,E,4,16,1.5,2.2982,M,8.300,M,01,0004*65
$GPHPD,0,0.000,357.59,-0.25,-12.82,31.5904359,120.7737768,2.298,13631853.142,24922883.215,2.298,0.000,0.000,0.000,0.000,0.000,0.000,0.000,16,16,4*70
$GPGGA,072840.20,3135.4262206,N,12046.4266079,E,4,16,1.5,2.3041,M,8.300,M,01,0004*60
$GPHPD,0,0.000,358.03,-0.39,-12.81,31.5904370,120.7737768,2.304,13631852.181,24922882.814,2.304,0.000,0.000,0.000,0.000,0.000,0.000,0.000,16,16,4*71
$GPGGA,072840.40,3135.4262854,N,12046.4266107,E,4,16,1.5,2.2962,M,8.300,M,01,0004*6A
$GPHPD,0,0.000,358.77,-0.18,-12.81,31.5904381,120.7737768,2.296,13631851.266,24922882.471,2.296,0.000,0.000,0.000,0.000,0.000,0.000,0.000,16,16,4*79
$GPGGA,072840.60,3135.4263503,N,12046.4266089,E,4,16,1.5,2.2979,M,8.300,M,00,0004*6A
$GPHPD,0,0.000,359.34,-0.53,-12.84,31.5904392,120.7737768,2.298,13631850.340,24922882.071,2.298,0.000,0.000,0.000,0.000,0.000,0.000,0.000,16,16,4*77
$GPGGA,072840.80,3135.4264174,N,12046.4266136,E,4,16,1.5,2.2977,M,8.300,M,00,0004*6C
$GPHPD,0,0.000,359.99,-0.60,-12.87,31.5904403,120.7737769,2.298,13631849.396,24922881.737,2.298,0.000,0.000,0.000,0.000,0.000,0.000,0.000,16,16,4*78
$GPGGA,072841.00,3135.4264817,N,12046.4266176,E,4,16,1.5,2.2991,M,8.300,M,01,0004*64
$GPHPD,0,0.000,0.85,-0.32,-12.89,31.5904414,120.7737770,2.299,13631848.490,24922881.411,2.299,0.000,0.000,0.000,0.000,0.000,0.000,0.000,16,16,4*7A
$GPGGA,072841.20,3135.4265464,N,12046.4266245,E,4,16,1.5,2.3012,M,8.300,M,01,0004*6F
$GPHPD,0,0.000,1.55,-0.34,-12.90,31.5904424,120.7737771,2.301,13631847.584,24922881.118,2.301,0.000,0.000,0.000,0.000,0.000,0.000,0.000,16,16,4*7D
$GPGGA,072841.40,3135.4266129,N,12046.4266308,E,4,16,1.5,2.2956,M,8.300,M,01,0004*66
$GPHPD,0,0.000,2.31,-0.45,-12.93,31.5904435,120.7737772,2.296,13631846.652,24922880.807,2.296,0.000,0.000,0.000,0.000,0.000,0.000,0.000,16,16,4*75
$GPGGA,072841.60,3135.4266781,N,12046.4266422,E,4,16,1.5,2.2888,M,8.300,M,00,0004*6C
$GPHPD,0,0.000,3.28,-0.03,-12.98,31.5904446,120.7737774,2.289,13631845.748,24922880.565,2.289,0.000,0.000,0.000,0.000,0.000,0.000,0.000,16,16,4*77
$GPGGA,072841.80,3135.4267465,N,12046.4266499,E,4,16,1.5,2.2949,M,8.300,M,00,0004*66
$GPHPD,0,0.000,4.07,-0.05,-13.01,31.5904458,120.7737775,2.295,13631844.792,24922880.260,2.295,0.000,0.000,0.000,0.000,0.000,0.000,0.000,16,16,4*70
$GPGGA,072842.00,3135.4268148,N,12046.4266617,E,4,16,1.5,2.2893,M,8.300,M,01,0004*6B
$GPHPD,0,0.000,5.17,0.17,-13.01,31.5904469,120.7737777,2.289,13631843.845,24922880.005,2.289,0.000,0.000,0.000,0.000,0.000,0.000,0.000,16,16,4*5D
$GPGGA,072842.20,3135.4268831,N,12046.4266719,E,4,16,1.5,2.2990,M,8.300,M,01,0004*63
$GPHPD,0,0.000,6.10,0.02,-13.04,31.5904481,120.7737779,2.299,13631842.894,24922879.730,2.299,0.000,0.000,0.000,0.000,0.000,0.000,0.000,16,16,4*5A
$GPGGA,072842.40,3135.4269497,N,12046.4266869,E,4,16,1.5,2.2866,M,8.300,M,01,0004*64
$GPHPD,0,0.000,7.14,-0.16,-13.07,31.5904492,120.7737781,2.287,13631841.978,24922879.524,2.287,0.000,0.000,0.000,0.000,0.000,0.000,0.000,16,16,4*76
$GPGGA,072842.60,3135.4270162,N,12046.4267012,E,4,16,1.5,2.2823,M,8.300,M,00,0004*64
$GPHPD,0,0.000,7.97,0.05,-13.08,31.5904503,120.7737784,2.282,13631841.062,24922879.309,2.282,0.000,0.000,0.000,0.000,0.000,0.000,0.000,16,16,4*5A
$GPGGA,072842.80,3135.4270805,N,12046.4267177,E,4,16,1.5,2.2907,M,8.300,M,00,0004*67
$GPHPD,0,0.000,8.82,0.16,-13.08,31.5904513,120.7737786,2.291,13631840.181,24922879.134,2.291,0.000,0.000,0.000,0.000,0.000,0.000,0.000,16,16,4*51
$GPGGA,072843.00,3135.4271441,N,12046.4267330,E,4,16,1.5,2.2894,M,8.300,M,01,0004*68
$GPHPD,0,0.000,9.96,0.05,-13.07,31.5904524,120.7737789,2.289,13631839.308,24922878.948,2.289,0.000,0.000,0.000,0.000,0.000,0.000,0.000,16,16,4*5C
$GPGGA,072843.20,3135.4272071,N,12046.4267519,E,4,16,1.5,2.2889,M,8.300,M,01,0004*6F
$GPHPD,0,0.000,10.88,-0.21,-13.06,31.5904535,120.7737792,2.289,13631838.451,24922878.810,2.289,0.000,0.000,0.000,0.000,0.000,0.000,0.000,16,16,4*4D
$GPGGA,072843.40,3135.4272652,N,12046.4267702,E,4,16,1.5,2.2962,M,8.300,M,01,0004*62
$GPHPD,0,0.000,11.63,0.20,-13.03,31.5904544,120.7737795,2.296,13631837.662,24922878.692,2.296,0.000,0.000,0.000,0.000,0.000,0.000,0.000,16,16,4*68
$GPGGA,072843.60,3135.4273258,N,12046.4267871,E,4,16,1.5,2.2910,M,8.300,M,00,0004*60
$GPHPD,0,0.000,12.37,-0.33,-13.01,31.5904554,120.7737798,2.291,13631836.834,24922878.543,2.291,0.000,0.000,0.000,0.000,0.000,0.000,0.000,16,16,4*48
$GPGGA,072843.80,3135.4273890,N,12046.4268054,E,4,16,1.5,2.2938,M,8.300,M,00,0004*6A
$GPHPD,0,0.000,13.14,0.23,-13.00,31.5904565,120.7737801,2.294,13631835.973,24922878.396,2.294,0.000,0.000,0.000,0.000,0.000,0.000,0.000,16,16,4*67
$GPGGA,072844.00,3135.4274461,N,12046.4268266,E,4,16,1.5,2.3002,M,8.300,M,01,0004*63
$GPHPD,0,0.000,13.71,-0.28,-13.01,31.5904574,120.7737804,2.300,13631835.204,24922878.320,2.300,0.000,0.000,0.000,0.000,0.000,0.000,0.000,16,16,4*40
$GPGGA,072844.20,3135.4275082,N,12046.4268440,E,4,16,1.5,2.2974,M,8.300,M,01,0004*62
$GPHPD,0,0.000,14.22,-0.24,-13.03,31.5904585,120.7737807,2.297,13631834.357,24922878.168,2.297,0.000,0.000,0.000,0.000,0.000,0.000,0.000,16,16,4*4A
$GPGGA,072844.40,3135.4275659,N,12046.4268643,E,4,16,1.5,2.3093,M,8.300,M,01,0004*64
$GPHPD,0,0.000,14.66,-0.23,-13.08,31.5904594,120.7737811,2.309,13631833.577,24922878.077,2.309,0.000,0.000,0.000,0.000,0.000,0.000,0.000,16,16,4*4D
$GPGGA,072844.60,3135.4276276,N,12046.4268854,E,4,16,1.5,2.3039,M,8.300,M,00,0004*65
$GPHPD,0,0.000,15.10,-0.75,-13.14,31.5904605,120.7737814,2.304,13631832.743,24922877.973,2.304,0.000,0.000,0.000,0.000,0.000,0.000,0.000,16,16,4*4B
$GPGGA,072844.80,3135.4276943,N,12046.4269105,E,4,16,1.5,2.2959,M,8.300,M,00,0004*64
$GPHPD,0,0.000,15.42,-0.45,-13.20,31.5904616,120.7737818,2.296,13631831.846,24922877.887,2.296,0.000,0.000,0.000,0.000,0.000,0.000,0.000,16,16,4*45
$GPGGA,072845.00,3135.4277613,N,12046.4269317,E,4,16,1.5,2.3011,M,8.300,M,01,0004*62
$GPHPD,0,0.000,15.86,-0.22,-13.29,31.5904627,120.7737822,2.301,13631830.936,24922877.753,2.301,0.000,0.000,0.000,0.000,0.000,0.000,0.000,16,16,4*4F
$GPGGA,072845.20,3135.4278324,N,12046.4269602,E,4,16,1.5,2.2963,M,8.300,M,01,0004*62
$GPHPD,0,0.000,16.22,-0.72,-13.35,31.5904639,120.7737827,2.296,13631829.983,24922877.683,2.296,0.000,0.000,0.000,0.000,0.000,0.000,0.000,16,16,4*4A
$GPGGA,072845.40,3135.4279061,N,12046.4269877,E,4,16,1.5,2.3015,M,8.300,M,01,0004*62
$GPHPD,0,0.000,16.70,-0.42,-13.42,31.5904651,120.7737831,2.302,13631828.991,24922877.585,2.302,0.000,0.000,0.000,0.000,0.000,0.000,0.000,16,16,4*40
$GPGGA,072845.60,3135.4279854,N,12046.4270198,E,4,16,1.5,2.2976,M,8.300,M,00,0004*62
$GPHPD,0,0.000,16.97,-0.59,-13.49,31.5904664,120.7737837,2.298,13631827.928,24922877.511,2.298,0.000,0.000,0.000,0.000,0.000,0.000,0.000,16,16,4*48
$GPGGA,072845.80,3135.4280644,N,12046.4270497,E,4,17,1.5,2.3078,M,8.300,M,00,0004*68
$GPHPD,0,0.000,17.34,-0.18,-13.53,31.5904677,120.7737842,2.308,13631826.866,24922877.412,2.308,0.000,0.000,0.000,0.000,0.000,0.000,0.000,17,17,4*46
$GPGGA,072846.00,3135.4281413,N,12046.4270835,E,4,17,1.5,2.3023,M,8.300,M,01,0004*69
$GPHPD,0,0.000,17.72,0.00,-13.56,31.5904690,120.7737847,2.302,13631825.841,24922877.372,2.302,0.000,0.000,0.000,0.000,0.000,0.000,0.000,17,17,4*6E
$GPGGA,072846.20,3135.4282147,N,12046.4271096,E,4,17,1.5,2.3061,M,8.300,M,01,0004*6A
$GPHPD,0,0.000,17.86,0.31,-13.57,31.5904702,120.7737852,2.306,13631824.850,24922877.260,2.306,0.000,0.000,0.000,0.000,0.000,0.000,0.000,17,17,4*6B
$GPGGA,072846.40,3135.4282866,N,12046.4271432,E,4,17,1.5,2.3113,M,8.300,M,01,0004*68
$GPHPD,0,0.000,18.43,0.07,-13.55,31.5904714,120.7737857,2.311,13631823.896,24922877.246,2.311,0.000,0.000,0.000,0.000,0.000,0.000,0.000,17,17,4*61
$GPGGA,072846.60,3135.4283596,N,12046.4271720,E,4,17,1.5,2.3138,M,8.300,M,00,0004*61
$GPHPD,0,0.000,18.75,0.07,-13.56,31.5904727,120.7737862,2.314,13631822.916,24922877.169,2.314,0.000,0.000,0.000,0.000,0.000,0.000,0.000,17,16,4*66
$GPGGA,072846.80,3135.4284268,N,12046.4272038,E,4,17,1.6,2.2948,M,8.300,M,00,0004*6E
$GPHPD,0,0.000,19.03,-0.34,-13.58,31.5904738,120.7737867,2.295,13631822.025,24922877.161,2.295,0.000,0.000,0.000,0.000,0.000,0.000,0.000,17,16,4*4F
$GPGGA,072847.00,3135.4284930,N,12046.4272337,E,4,17,1.5,2.3018,M,8.300,M,01,0004*62
$GPHPD,0,0.000,19.41,0.01,-13.58,31.5904749,120.7737872,2.302,13631821.145,24922877.136,2.302,0.000,0.000,0.000,0.000,0.000,0.000,0.000,17,16,4*66
$GPGGA,072847.20,3135.4285550,N,12046.4272626,E,4,17,1.5,2.3044,M,8.300,M,01,0004*67
$GPHPD,0,0.000,19.61,0.27,-13.59,31.5904759,120.7737877,2.304,13631820.322,24922877.124,2.304,0.000,0.000,0.000,0.000,0.000,0.000,0.000,17,16,4*64
$GPGGA,072847.40,3135.4286177,N,12046.4272892,E,4,17,1.5,2.3025,M,8.300,M,01,0004*65
$GPHPD,0,0.000,19.83,0.29,-13.64,31.5904770,120.7737882,2.303,13631819.484,24922877.080,2.303,0.000,0.000,0.000,0.000,0.000,0.000,0.000,17,16,4*67
$GPGGA,072847.60,3135.4286827,N,12046.4273170,E,4,17,1.4,2.2974,M,8.300,M,00,0004*63
$GPHPD,0,0.000,20.09,0.03,-13.69,31.5904780,120.7737886,2.297,13631818.616,24922877.037,2.297,0.000,0.000,0.000,0.000,0.000,0.000,0.000,17,16,4*65
$GPGGA,072847.80,3135.4287440,N,12046.4273441,E,4,17,1.4,2.3084,M,8.300,M,00,0004*61
$GPHPD,0,0.000,20.28,0.46,-13.74,31.5904791,120.7737891,2.308,13631817.799,24922877.007,2.308,0.000,0.000,0.000,0.000,0.000,0.000,0.000,17,16,4*67
$GPGGA,072848.00,3135.4288079,N,12046.4273731,E,4,17,1.4,2.3105,M,8.300,M,01,0004*6A
$GPHPD,0,0.000,20.61,0.08,-13.80,31.5904801,120.7737896,2.311,13631816.950,24922876.985,2.311,0.000,0.000,0.000,0.000,0.000,0.000,0.000,17,16,4*62
$GPGGA,072848.20,3135.4288765,N,12046.4274073,E,4,17,1.4,2.3112,M,8.300,M,01,0004*62
$GPHPD,0,0.000,21.07,0.34,-13.87,31.5904813,120.7737901,2.311,13631816.044,24922876.998,2.311,0.000,0.000,0.000,0.000,0.000,0.000,0.000,17,16,4*67
$GPGGA,072848.40,3135.4289464,N,12046.4274421,E,4,17,1.4,2.3107,M,8.300,M,01,0004*60
$GPHPD,0,0.000,21.02,0.47,-13.94,31.5904824,120.7737907,2.311,13631815.120,24922877.011,2.311,0.000,0.000,0.000,0.000,0.000,0.000,0.000,17,16,4*6F
$GPGGA,072848.60,3135.4290197,N,12046.4274799,E,4,17,1.4,2.3072,M,8.300,M,00,0004*61
$GPHPD,0,0.000,21.39,0.17,-14.00,31.5904837,120.7737913,2.307,13631814.154,24922877.040,2.307,0.000,0.000,0.000,0.000,0.000,0.000,0.000,17,16,4*69
$GPGGA,072848.80,3135.4290979,N,12046.4275165,E,4,17,1.4,2.3071,M,8.300,M,00,0004*60
$GPHPD,0,0.000,21.51,0.72,-14.06,31.5904850,120.7737919,2.307,13631813.117,24922877.026,2.307,0.000,0.000,0.000,0.000,0.000,0.000,0.000,17,16,4*69
$GPGGA,072849.00,3135.4291795,N,12046.4275578,E,4,15,1.6,2.2920,M,8.300,M,01,0004*61
$GPHPD,0,0.000,21.74,0.53,-14.12,31.5904863,120.7737926,2.292,13631812.040,24922877.050,2.292,0.000,0.000,0.000,0.000,0.000,0.000,0.000,15,15,4*66
$GPGGA,072849.20,3135.4292635,N,12046.4276000,E,4,15,1.6,2.2963,M,8.300,M,01,0004*65
$GPHPD,0,0.000,22.20,0.48,-14.13,31.5904877,120.7737933,2.296,13631810.931,24922877.070,2.296,0.000,0.000,0.000,0.000,0.000,0.000,0.000,15,15,4*61
$GPGGA,072849.40,3135.4293459,N,12046.4276430,E,4,15,1.6,2.3004,M,8.301,M,01,0004*65
$GPHPD,0,0.000,22.39,0.46,-14.11,31.5904891,120.7737941,2.300,13631809.847,24922877.109,2.300,0.000,0.000,0.000,0.000,0.000,0.000,0.000,15,15,4*6F
$GPGGA,072849.60,3135.4294288,N,12046.4276807,E,4,15,1.6,2.3098,M,8.301,M,00,0004*66
$GPHPD,0,0.000,22.66,0.90,-14.10,31.5904905,120.7737947,2.310,13631808.744,24922877.081,2.310,0.000,0.000,0.000,0.000,0.000,0.000,0.000,15,15,4*69
$GPGGA,072849.80,3135.4295070,N,12046.4277222,E,4,15,1.6,2.3170,M,8.301,M,00,0004*67
$GPHPD,0,0.000,23.09,0.84,-14.04,31.5904918,120.7737954,2.317,13631807.716,24922877.126,2.317,0.000,0.000,0.000,0.000,0.000,0.000,0.000,15,15,4*6B
$GPGGA,072850.00,3135.4295797,N,12046.4277614,E,4,15,1.6,2.3168,M,8.301,M,01,0004*60
$GPHPD,0,0.000,23.38,0.29,-13.96,31.5904930,120.7737960,2.317,13631806.762,24922877.176,2.317,0.000,0.000,0.000,0.000,0.000,0.000,0.000,15,15,4*68
$GPGGA,072850.20,3135.4296532,N,12046.4277983,E,4,15,1.6,2.3199,M,8.301,M,01,0004*63
$GPHPD,0,0.000,23.50,0.71,-13.91,31.5904942,120.7737966,2.320,13631805.792,24922877.193,2.320,0.000,0.000,0.000,0.000,0.000,0.000,0.000,15,15,4*68
$GPGGA,072850.40,3135.4297204,N,12046.4278348,E,4,15,1.6,2.3319,M,8.301,M,01,0004*6E
$GPHPD,0,0.000,23.75,0.48,-13.86,31.5904953,120.7737972,2.332,13631804.910,24922877.242,2.332,0.000,0.000,0.000,0.000,0.000,0.000,0.000,15,15,4*6C
$GPGGA,072850.60,3135.4297861,N,12046.4278727,E,4,15,1.6,2.3285,M,8.301,M,00,0004*6D
$GPHPD,0,0.000,23.64,0.47,-13.80,31.5904964,120.7737979,2.329,13631804.053,24922877.317,2.329,0.000,0.000,0.000,0.000,0.000,0.000,0.000,15,15,4*65
$GPGGA,072850.80,3135.4298502,N,12046.4279051,E,4,15,1.6,2.3267,M,8.301,M,00,0004*6F
$GPHPD,0,0.000,23.94,0.20,-13.75,31.5904975,120.7737984,2.327,13631803.207,24922877.334,2.327,0.000,0.000,0.000,0.000,0.000,0.000,0.000,15,15,4*66
$GPGGA,072851.00,3135.4299153,N,12046.4279402,E,4,15,1.6,2.3243,M,8.301,M,01,0004*62
$GPHPD,0,0.000,24.06,0.08,-13.70,31.5904986,120.7737990,2.324,13631802.352,24922877.379,2.324,0.000,0.000,0.000,0.000,0.000,0.000,0.000,15,15,4*65
$GPGGA,072851.20,3135.4299819,N,12046.4279765,E,4,15,1.6,2.3278,M,8.301,M,01,0004*6D
$GPHPD,0,0.000,24.15,0.49,-13.65,31.5904997,120.7737996,2.328,13631801.479,24922877.429,2.328,0.000,0.000,0.000,0.000,0.000,0.000,0.000,15,15,4*6F
$GPGGA,072851.40,3135.4300408,N,12046.4280099,E,4,15,1.6,2.3308,M,8.301,M,01,0004*62
$GPHPD,0,0.000,24.34,0.25,-13.62,31.5905007,120.7738002,2.331,13631800.709,24922877.489,2.331,0.000,0.000,0.000,0.000,0.000,0.000,0.000,15,15,4*64
$GPGGA,072851.60,3135.4301008,N,12046.4280494,E,4,15,1.6,2.3386,M,8.301,M,00,0004*6B
$GPHPD,0,0.000,24.58,0.00,-13.58,31.5905017,120.7738008,2.339,13631799.936,24922877.616,2.339,0.000,0.000,0.000,0.000,0.000,0.000,0.000,15,15,4*62
$GPGGA,072851.80,3135.4301692,N,12046.4280868,E,4,15,1.6,2.3358,M,8.301,M,00,0004*6C
$GPHPD,0,0.000,24.52,-0.05,-13.51,31.5905028,120.7738014,2.336,13631799.039,24922877.669,2.336,0.000,0.000,0.000,0.000,0.000,0.000,0.000,15,15,4*46
$GPGGA,072852.00,3135.4302359,N,12046.4281263,E,4,15,1.6,2.3340,M,8.301,M,01,0004*6E
$GPHPD,0,0.000,24.72,-0.33,-13.47,31.5905039,120.7738021,2.334,13631798.170,24922877.757,2.334,0.000,0.000,0.000,0.000,0.000,0.000,0.000,15,15,4*41
$GPGGA,072852.20,3135.4303016,N,12046.4281627,E,4,15,1.6,2.3360,M,8.301,M,01,0004*63
$GPHPD,0,0.000,24.89,-0.22,-13.45,31.5905050,120.7738027,2.336,13631797.310,24922877.814,2.336,0.000,0.000,0.000,0.000,0.000,0.000,0.000,15,15,4*4D
$GPGGA,072852.40,3135.4303690,N,12046.4282013,E,4,15,1.6,2.3384,M,8.301,M,01,0004*65
$GPHPD,0,0.000,25.02,-0.28,-13.41,31.5905062,120.7738034,2.338,13631796.430,24922877.887,2.338,0.000,0.000,0.000,0.000,0.000,0.000,0.000,15,15,4*4C
$GPGGA,072852.60,3135.4304333,N,12046.4282354,E,4,15,1.6,2.3285,M,8.301,M,00,0004*6D
$GPHPD,0,0.000,25.27,-0.21,-13.34,31.5905072,120.7738039,2.329,13631795.584,24922877.924,2.329,0.000,0.000,0.000,0.000,0.000,0.000,0.000,15,15,4*49
$GPGGA,072852.80,3135.4305001,N,12046.4282746,E,4,15,1.6,2.3339,M,8.301,M,00,0004*61
$GPHPD,0,0.000,25.62,-0.05,-13.27,31.5905083,120.7738046,2.334,13631794.714,24922878.008,2.334,0.000,0.000,0.000,0.000,0.000,0.000,0.000,15,15,4*48
$GPGGA,072853.00,3135.4305580,N,12046.4283105,E,4,15,1.6,2.3311,M,8.301,M,01,0004*6F
$GPHPD,0,0.000,25.95,-0.32,-13.21,31.5905093,120.7738052,2.331,13631793.963,24922878.104,2.331,0.000,0.000,0.000,0.000,0.000,0.000,0.000,15,15,4*42
$GPGGA,072853.20,3135.4306191,N,12046.4283468,E,4,15,1.6,2.3305,M,8.301,M,01,0004*61
$GPHPD,0,0.000,26.60,0.04,-13.17,31.5905103,120.7738058,2.331,13631793.168,24922878.186,2.331,0.000,0.000,0.000,0.000,0.000,0.000,0.000,15,15,4*6D
$GPGGA,072853.40,3135.4306746,N,12046.4283842,E,4,15,1.6,2.3263,M,8.301,M,01,0004*6E
$GPHPD,0,0.000,27.23,0.30,-13.11,31.5905112,120.7738064,2.326,13631792.454,24922878.314,2.326,0.000,0.000,0.000,0.000,0.000,0.000,0.000,15,15,4*67
$GPGGA,072853.60,3135.4307256,N,12046.4284177,E,4,15,1.6,2.3382,M,8.301,M,01,0004*6F
