88,M,8.307,M,00,0004*65
$GPHPD,0,0.000,150.40,-0.79,-13.62,31.5916651,120.7756221,2.749,13631027.744,24923788.993,2.749,0.000,0.000,0.000,0.000,0.000,0.000,0.000,17,17,4*71
$GPGGA,073328.00,3135.4999064,N,12046.5373252,E,4,17,1.4,2.7537,M,8.307,M,01,0004*67
$GPHPD,0,0.000,150.47,-0.51,-13.59,31.5916651,120.7756221,2.754,13631027.752,24923788.992,2.754,0.000,0.000,0.000,0.000,0.000,0.000,0.000,17,17,4*72
$GPGGA,073328.20,3135.4999067,N,12046.5373249,E,4,17,1.4,2.7541,M,8.307,M,01,0004*6D
$GPHPD,0,0.000,150.42,-0.72,-13.57,31.5916651,120.7756221,2.754,13631027.747,24923788.986,2.754,0.000,0.000,0.000,0.000,0.000,0.000,0.000,17,17,4*79
$GPGGA,073328.40,3135.4999070,N,12046.5373255,E,4,17,1.4,2.7482,M,8.307,M,01,0004*6E
$GPHPD,0,0.000,150.36,-0.83,-13.54,31.5916651,120.7756221,2.748,13631027.744,24923788.992,2.748,0.000,0.000,0.000,0.000,0.000,0.000,0.000,17,17,4*71
$GPGGA,073328.60,3135.4999089,N,12046.5373243,E,4,17,1.4,2.7477,M,8.307,M,00,0004*66
$GPHPD,0,0.000,150.46,-0.45,-13.52,31.5916651,120.7756221,2.748,13631027.714,24923788.966,2.748,0.000,0.000,0.000,0.000,0.000,0.000,0.000,17,17,4*74
$GPGGA,073328.80,3135.4999099,N,12046.5373256,E,4,17,1.4,2.7490,M,8.307,M,00,0004*64
$GPHPD,0,0.000,150.37,-0.42,-13.49,31.5916652,120.7756221,2.749,13631027.703,24923788.976,2.749,0.000,0.000,0.000,0.000,0.000,0.000,0.000,17,17,4*7B
$GPGGA,073329.00,3135.4999078,N,12046.5373260,E,4,17,1.4,2.7466,M,8.307,M,01,0004*6F
$GPHPD,0,0.000,150.60,-0.56,-13.50,31.5916651,120.7756221,2.747,13631027.733,24923788.993,2.747,0.000,0.000,0.000,0.000,0.000,0.000,0.000,17,17,4*7F
$GPGGA,073329.20,3135.4999049,N,12046.5373279,E,4,17,1.4,2.7532,M,8.307,M,01,0004*67
$GPHPD,0,0.000,150.54,-0.28,-13.52,31.5916651,120.7756221,2.753,13631027.778,24923789.033,2.753,0.000,0.000,0.000,0.000,0.000,0.000,0.000,17,17,4*7E
$GPGGA,073329.40,3135.4998992,N,12046.5373310,E,4,17,1.4,2.7474,M,8.307,M,01,0004*62
$GPHPD,0,0.000,150.44,-0.75,-13.58,31.5916650,120.7756222,2.747,13631027.866,24923789.104,2.747,0.000,0.000,0.000,0.000,0.000,0.000,0.000,17,17,4*7A
$GPGGA,073329.60,3135.4998861,N,12046.5373397,E,4,17,1.4,2.7496,M,8.307,M,00,0004*6F
$GPHPD,0,0.000,150.73,-0.62,-13.66,31.5916648,120.7756223,2.750,13631028.069,24923789.285,2.750,0.000,0.000,0.000,0.000,0.000,0.000,0.000,17,17,4*7F
$GPGGA,073329.80,3135.4998640,N,12046.5373524,E,4,17,1.4,2.7526,M,8.307,M,00,0004*68
$GPHPD,0,0.000,150.56,-0.76,-13.73,31.5916644,120.7756225,2.753,13631028.409,24923789.567,2.753,0.000,0.000,0.000,0.000,0.000,0.000,0.000,17,17,4*7A
$GPGGA,073330.00,3135.4998409,N,12046.5373695,E,4,17,1.4,2.7500,M,8.307,M,01,0004*6B
$GPHPD,0,0.000,150.61,-0.59,-13.84,31.5916640,120.7756228,2.750,13631028.772,24923789.907,2.750,0.000,0.000,0.000,0.000,0.000,0.000,0.000,17,17,4*77
$GPGGA,073330.20,3135.4998062,N,12046.5373894,E,4,17,1.4,2.7485,M,8.307,M,01,0004*63
$GPHPD,0,0.000,150.65,-0.62,-13.95,31.5916634,120.7756232,2.749,13631029.305,24923790.349,2.749,0.000,0.000,0.000,0.000,0.000,0.000,0.000,17,17,4*7E
$GPGGA,073330.40,3135.4997620,N,12046.5374153,E,4,17,1.4,2.7422,M,8.307,M,01,0004*62
$GPHPD,0,0.000,150.63,-0.33,-14.10,31.5916627,120.7756236,2.742,13631029.985,24923790.919,2.742,0.000,0.000,0.000,0.000,0.000,0.000,0.000,17,17,4*7D
$GPGGA,073330.60,3135.4997095,N,12046.5374498,E,4,17,1.4,2.7379,M,8.307,M,00,0004*62
$GPHPD,0,0.000,150.53,-0.16,-14.27,31.5916618,120.7756242,2.738,13631030.801,24923791.640,2.738,0.000,0.000,0.000,0.000,0.000,0.000,0.000,17,17,4*75
$GPGGA,073330.80,3135.4996475,N,12046.5374871,E,4,17,1.4,2.7419,M,8.307,M,00,0004*6D
$GPHPD,0,0.000,150.75,0.12,-14.42,31.5916608,120.7756248,2.742,13631031.757,24923792.451,2.742,0.000,0.000,0.000,0.000,0.000,0.000,0.000,17,17,4*5C
$GPGGA,073331.00,3135.4995769,N,12046.5375320,E,4,17,1.4,2.7378,M,8.307,M,01,0004*66
$GPHPD,0,0.000,150.91,0.02,-14.54,31.5916596,120.7756255,2.738,13631032.851,24923793.403,2.738,0.000,0.000,0.000,0.000,0.000,0.000,0.000,17,17,4*54
$GPGGA,073331.20,3135.4995004,N,12046.5375781,E,4,17,1.4,2.7437,M,8.307,M,01,0004*6B
$GPHPD,0,0.000,151.11,0.23,-14.66,31.5916583,120.7756263,2.744,13631034.031,24923794.404,2.744,0.000,0.000,0.000,0.000,0.000,0.000,0.000,17,17,4*56
$GPGGA,073331.40,3135.4994186,N,12046.5376302,E,4,17,1.4,2.7518,M,8.307,M,01,0004*67
$GPHPD,0,0.000,151.23,0.17,-14.80,31.5916570,120.7756272,2.752,13631035.299,24923795.509,2.752,0.000,0.000,0.000,0.000,0.000,0.000,0.000,17,17,4*58
$GPGGA,073331.60,3135.4993308,N,12046.5376806,E,4,17,1.4,2.7507,M,8.307,M,00,0004*66
$GPHPD,0,0.000,151.66,0.18,-14.92,31.5916555,120.7756280,2.751,13631036.648,24923796.628,2.751,0.000,0.000,0.000,0.000,0.000,0.000,0.000,17,17,4*57
$GPGGA,073331.80,3135.4992414,N,12046.5377348,E,4,17,1.4,2.7354,M,8.307,M,00,0004*63
$GPHPD,0,0.000,151.97,0.28,-14.97,31.5916540,120.7756289,2.735,13631038.028,24923797.802,2.735,0.000,0.000,0.000,0.000,0.000,0.000,0.000,17,17,4*5B
$GPGGA,073332.00,3135.4991530,N,12046.5377847,E,4,17,1.4,2.7337,M,8.307,M,01,0004*6C
$GPHPD,0,0.000,152.45,0.90,-14.98,31.5916526,120.7756297,2.734,13631039.384,24923798.918,2.734,0.000,0.000,0.000,0.000,0.000,0.000,0.000,17,17,4*55
$GPGGA,073332.20,3135.4990621,N,12046.5378346,E,4,17,1.4,2.7402,M,8.307,M,01,0004*68
$GPHPD,0,0.000,152.95,0.84,-14.99,31.5916510,120.7756306,2.740,13631040.777,24923800.049,2.740,0.000,0.000,0.000,0.000,0.000,0.000,0.000,17,17,4*55
$GPGGA,073332.40,3135.4989759,N,12046.5378822,E,4,17,1.4,2.7448,M,8.307,M,01,0004*6F
$GPHPD,0,0.000,153.35,0.69,-14.97,31.5916496,120.7756314,2.745,13631042.098,24923801.124,2.745,0.000,0.000,0.000,0.000,0.000,0.000,0.000,17,17,4*50
$GPGGA,073332.60,3135.4988909,N,12046.5379266,E,4,17,1.4,2.7393,M,8.307,M,00,0004*6C
$GPHPD,0,0.000,153.60,0.71,-14.95,31.5916482,120.7756321,2.739,13631043.395,24923802.154,2.739,0.000,0.000,0.000,0.000,0.000,0.000,0.000,17,17,4*53
$GPGGA,073332.80,3135.4988068,N,12046.5379715,E,4,17,1.4,2.7425,M,8.307,M,00,0004*67
$GPHPD,0,0.000,153.97,0.92,-14.92,31.5916468,120.7756329,2.743,13631044.681,24923803.185,2.743,0.000,0.000,0.000,0.000,0.000,0.000,0.000,17,17,4*57
$GPGGA,073333.00,3135.4987269,N,12046.5380164,E,4,17,1.4,2.7483,M,8.307,M,01,0004*69
$GPHPD,0,0.000,154.47,0.82,-14.82,31.5916454,120.7756336,2.748,13631045.907,24923804.192,2.748,0.000,0.000,0.000,0.000,0.000,0.000,0.000,17,17,4*5D
$GPGGA,073333.20,3135.4986484,N,12046.5380586,E,4,17,1.4,2.7531,M,8.307,M,01,0004*6F
$GPHPD,0,0.000,154.88,0.70,-14.77,31.5916441,120.7756343,2.753,13631047.108,24923805.158,2.753,0.000,0.000,0.000,0.000,0.000,0.000,0.000,17,17,4*5D
$GPGGA,073333.40,3135.4985723,N,12046.5381002,E,4,17,1.4,2.7529,M,8.307,M,01,0004*65
$GPHPD,0,0.000,155.29,0.80,-14.75,31.5916429,120.7756350,2.753,13631048.273,24923806.102,2.753,0.000,0.000,0.000,0.000,0.000,0.000,0.000,17,17,4*5A
$GPGGA,073333.60,3135.4984943,N,12046.5381363,E,4,17,1.4,2.7526,M,8.307,M,01,0004*65
$GPHPD,0,0.000,155.72,0.86,-14.70,31.5916416,120.7756356,2.753,13631049.454,24923806.992,2.753,0.000,0.000,0.000,0.000,0.000,0.000,0.000,17,17,4*5E
$GPGGA,073333.80,3135.4984148,N,12046.5381737,E,4,17,1.4,2.7611,M,8.307,M,00,0004*6B
$GPHPD,0,0.000,156.01,0.89,-14.68,31.5916402,120.7756362,2.761,13631050.659,24923807.905,2.761,0.000,0.000,0.000,0.000,0.000,0.000,0.000,17,17,4*55
$GPGGA,073334.00,3135.4983378,N,12046.5382094,E,4,17,1.4,2.7617,M,8.307,M,01,0004*68
$GPHPD,0,0.000,156.44,0.69,-14.66,31.5916390,120.7756368,2.762,13631051.826,24923808.784,2.762,0.000,0.000,0.000,0.000,0.000,0.000,0.000,17,17,4*5D
$GPGGA,073334.20,3135.4982565,N,12046.5382469,E,4,17,1.4,2.7720,M,8.307,M,01,0004*62
$GPHPD,0,0.000,156.62,0.75,-14.63,31.5916376,120.7756374,2.772,13631053.057,24923809.709,2.772,0.000,0.000,0.000,0.000,0.000,0.000,0.000,17,17,4*5C
$GPGGA,073334.40,3135.4981792,N,12046.5382871,E,4,17,1.4,2.7575,M,8.307,M,01,0004*6A
$GPHPD,0,0.000,157.02,0.69,-14.61,31.5916363,120.7756381,2.758,13631054.236,24923810.644,2.758,0.000,0.000,0.000,0.000,0.000,0.000,0.000,17,17,4*58
$GPGGA,073334.60,3135.4980952,N,12046.5383248,E,4,17,1.4,2.7719,M,8.307,M,00,0004*63
$GPHPD,0,0.000,157.38,1.06,-14.60,31.5916349,120.7756387,2.772,13631055.506,24923811.588,2.772,0.000,0.000,0.000,0.000,0.000,0.000,0.000,17,17,4*51
$GPGGA,073334.80,3135.4980093,N,12046.5383607,E,4,17,1.4,2.7797,M,8.307,M,00,0004*60
$GPHPD,0,0.000,157.83,0.98,-14.58,31.5916335,120.7756393,2.780,13631056.799,24923812.521,2.780,0.000,0.000,0.000,0.000,0.000,0.000,0.000,17,17,4*55
$GPGGA,073335.00,3135.4979241,N,12046.5383991,E,4,17,1.4,2.7850,M,8.307,M,01,0004*67
$GPHPD,0,0.000,158.12,0.54,-14.58,31.5916321,120.7756400,2.785,13631058.087,24923813.479,2.785,0.000,0.000,0.000,0.000,0.000,0.000,0.000,17,17,4*51
$GPGGA,073335.20,3135.4978354,N,12046.5384381,E,4,17,1.4,2.7860,M,8.307,M,01,0004*6E
$GPHPD,0,0.000,158.67,0.63,-14.55,31.5916306,120.7756406,2.786,13631059.426,24923814.466,2.786,0.000,0.000,0.000,0.000,0.000,0.000,0.000,17,17,4*5E
$GPGGA,073335.40,3135.4977478,N,12046.5384721,E,4,17,1.4,2.7842,M,8.307,M,01,0004*60
$GPHPD,0,0.000,159.44,0.55,-14.51,31.5916291,120.7756412,2.784,13631060.740,24923815.386,2.784,0.000,0.000,0.000,0.000,0.000,0.000,0.000,17,17,4*54
$GPGGA,073335.60,3135.4976584,N,12046.5385058,E,4,17,1.4,2.7863,M,8.307,M,00,0004*6B
$GPHPD,0,0.000,160.12,0.89,-14.45,31.5916276,120.7756418,2.786,13631062.078,24923816.313,2.786,0.000,0.000,0.000,0.000,0.000,0.000,0.000,17,17,4*5B
$GPGGA,073335.80,3135.4975697,N,12046.5385356,E,4,17,1.4,2.7922,M,8.307,M,00,0004*6E
$GPHPD,0,0.000,161.07,0.89,-14.31,31.5916262,120.7756423,2.792,13631063.399,24923817.188,2.792,0.000,0.000,0.000,0.000,0.000,0.000,0.000,17,17,4*5C
$GPGGA,073336.00,3135.4974896,N,12046.5385636,E,4,17,1.4,2.7952,M,8.307,M,01,0004*6E
$GPHPD,0,0.000,161.86,0.51,-14.09,31.5916248,120.7756427,2.795,13631064.594,24923817.992,2.795,0.000,0.000,0.000,0.000,0.000,0.000,0.000,17,17,4*58
$GPGGA,073336.20,3135.4974182,N,12046.5385847,E,4,17,1.4,2.8012,M,8.307,M,01,0004*6A
$GPHPD,0,0.000,162.78,0.50,-13.95,31.5916236,120.7756431,2.801,13631065.651,24923818.662,2.801,0.000,0.000,0.000,0.000,0.000,0.000,0.000,17,17,4*53
$GPGGA,073336.40,3135.4973540,N,12046.5386040,E,4,17,1.4,2.8039,M,8.307,M,01,0004*64
$GPHPD,0,0.000,163.55,0.29,-13.83,31.5916226,120.7756434,2.804,13631066.602,24923819.269,2.804,0.000,0.000,0.000,0.000,0.000,0.000,0.000,17,17,4*5B
$GPGGA,073336.60,3135.4972941,N,12046.5386208,E,4,17,1.4,2.8053,M,8.307,M,00,0004*69
$GPHPD,0,0.000,164.37,0.41,-13.75,31.5916216,120.7756437,2.805,13631067.488,24923819.820,2.805,0.000,0.000,0.000,0.000,0.000,0.000,0.000,17,17,4*59
$GPGGA,073336.80,3135.4972370,N,12046.5386402,E,4,17,1.4,2.8036,M,8.307,M,00,0004*60
$GPHPD,0,0.000,165.07,0.47,-13.70,31.5916206,120.7756440,2.804,13631068.338,24923820.386,2.804,0.000,0.000,0.000,0.000,0.000,0.000,0.000,17,17,4*57
$GPGGA,073337.00,3135.4971822,N,12046.5386511,E,4,17,1.4,2.7992,M,8.307,M,01,0004*6C
$GPHPD,0,0.000,165.93,0.49,-13.65,31.5916197,120.7756442,2.799,13631069.139,24923820.837,2.799,0.000,0.000,0.000,0.000,0.000,0.000,0.000,17,17,4*5A
$GPGGA,073337.20,3135.4971287,N,12046.5386640,E,4,17,1.4,2.8094,M,8.307,M,01,0004*6C
$GPHPD,0,0.000,166.44,0.64,-13.66,31.5916188,120.7756444,2.809,13631069.925,24923821.304,2.809,0.000,0.000,0.000,0.000,0.000,0.000,0.000,17,17,4*58
$GPGGA,073337.40,3135.4970754,N,12046.5386761,E,4,17,1.4,2.8127,M,8.307,M,01,0004*6B
$GPHPD,0,0.000,167.28,0.19,-13.68,31.5916179,120.7756446,2.813,13631070.707,24923821.760,2.813,0.000,0.000,0.000,0.000,0.000,0.000,0.000,17,17,4*5B
$GPGGA,073337.60,3135.4970205,N,12046.5386895,E,4,17,1.4,2.8114,M,8.307,M,00,0004*6D
$GPHPD,0,0.000,167.74,0.21,-13.73,31.5916170,120.7756448,2.811,13631071.515,24923822.241,2.811,0.000,0.000,0.000,0.000,0.000,0.000,0.000,17,17,4*51
$GPGGA,073337.80,3135.4969572,N,12046.5387022,E,4,17,1.4,2.8131,M,8.307,M,00,0004*6E
$GPHPD,0,0.000,168.30,0.23,-13.77,31.5916160,120.7756450,2.813,13631072.440,24923822.762,2.813,0.000,0.000,0.000,0.000,0.000,0.000,0.000,17,17,4*56
$GPGGA,073338.00,3135.4968870,N,12046.5387166,E,4,17,1.4,2.8172,M,8.307,M,01,0004*60
$GPHPD,0,0.000,169.01,-0.15,-13.83,31.5916148,120.7756453,2.817,13631073.467,24923823.345,2.817,0.000,0.000,0.000,0.000,0.000,0.000,0.000,17,17,4*7B
$GPGGA,073338.20,3135.4968156,N,12046.5387267,E,4,17,1.4,2.8154,M,8.307,M,01,0004*69
$GPHPD,0,0.000,169.52,-0.02,-13.86,31.5916136,120.7756454,2.815,13631074.502,24923823.882,2.815,0.000,0.000,0.000,0.000,0.000,0.000,0.000,17,17,4*75
$GPGGA,073338.40,3135.4967367,N,12046.5387396,E,4,17,1.4,2.8159,M,8.307,M,01,0004*62
$GPHPD,0,0.000,170.08,0.21,-13.84,31.5916123,120.7756457,2.816,13631075.649,24923824.497,2.816,0.000,0.000,0.000,0.000,0.000,0.000,0.000,17,17,4*59
$GPGGA,073338.60,3135.4966535,N,12046.5387540,E,4,17,1.4,2.8230,M,8.307,M,00,0004*60
$GPHPD,0,0.000,170.73,0.08,-13.80,31.5916109,120.7756459,2.823,13631076.861,24923825.155,2.823,0.000,0.000,0.000,0.000,0.000,0.000,0.000,17,17,4*51
$GPGGA,073338.80,3135.4965721,N,12046.5387653,E,4,17,1.4,2.8210,M,8.307,M,00,0004*69
$GPHPD,0,0.000,171.27,0.09,-13.75,31.5916095,120.7756461,2.821,13631078.040,24923825.765,2.821,0.000,0.000,0.000,0.000,0.000,0.000,0.000,17,17,4*55
$GPGGA,073339.00,3135.4964935,N,12046.5387771,E,4,17,1.4,2.8228,M,8.307,M,01,0004*61
$GPHPD,0,0.000,171.82,0.00,-13.62,31.5916082,120.7756463,2.823,13631079.181,24923826.365,2.823,0.000,0.000,0.000,0.000,0.000,0.000,0.000,17,17,4*5B
$GPGGA,073339.20,3135.4964234,N,12046.5387886,E,4,17,1.4,2.8299,M,8.307,M,01,0004*64
$GPHPD,0,0.000,172.28,0.13,-13.53,31.5916071,120.7756465,2.830,13631080.201,24923826.911,2.830,0.000,0.000,0.000,0.000,0.000,0.000,0.000,17,17,4*56
$GPGGA,073339.40,3135.4963543,N,12046.5387966,E,4,17,1.4,2.8308,M,8.307,M,01,0004*64
$GPHPD,0,0.000,172.87,-0.15,-13.42,31.5916059,120.7756466,2.831,13631081.199,24923827.410,2.831,0.000,0.000,0.000,0.000,0.000,0.000,0.000,17,17,4*7F
$GPGGA,073339.60,3135.4962927,N,12046.5388003,E,4,17,1.4,2.8335,M,8.307,M,00,0004*63
$GPHPD,0,0.000,173.51,0.01,-13.35,31.5916049,120.7756467,2.834,13631082.082,24923827.813,2.834,0.000,0.000,0.000,0.000,0.000,0.000,0.000,17,17,4*5A
$GPGGA,073339.80,3135.4962344,N,12046.5388051,E,4,17,1.4,2.8351,M,8.307,M,00,0004*67
$GPHPD,0,0.000,174.02,0.25,-13.34,31.5916039,120.7756468,2.835,13631082.920,24923828.210,2.835,0.000,0.000,0.000,0.000,0.000,0.000,0.000,17,17,4*53
$GPGGA,073340.00,3135.4961782,N,12046.5388093,E,4,17,1.4,2.8260,M,8.307,M,01,0004*60
$GPHPD,0,0.000,174.81,-0.08,-13.34,31.5916030,120.7756468,2.826,13631083.727,24923828.588,2.826,0.000,0.000,0.000,0.000,0.000,0.000,0.000,17,17,4*7D
$GPGGA,073340.20,3135.4961188,N,12046.5388110,E,4,17,1.4,2.8279,M,8.307,M,01,0004*6C
$GPHPD,0,0.000,175.75,0.05,-13.35,31.5916020,120.7756469,2.828,13631084.575,24923828.954,2.828,0.000,0.000,0.000,0.000,0.000,0.000,0.000,17,17,4*59
$GPGGA,073340.40,3135.4960582,N,12046.5388142,E,4,17,1.4,2.8326,M,8.307,M,01,0004*69
$GPHPD,0,0.000,176.36,0.14,-13.35,31.5916010,120.7756469,2.833,13631085.443,24923829.346,2.833,0.000,0.000,0.000,0.000,0.000,0.000,0.000,17,17,4*53
$GPGGA,073340.60,3135.4959964,N,12046.5388113,E,4,17,1.4,2.8320,M,8.307,M,00,0004*66
$GPHPD,0,0.000,177.45,0.28,-13.35,31.5915999,120.7756469,2.832,13631086.315,24923829.671,2.832,0.000,0.000,0.000,0.000,0.000,0.000,0.000,17,17,4*54
$GPGGA,073340.80,3135.4959371,N,12046.5388137,E,4,17,1.4,2.8238,M,8.307,M,00,0004*68
$GPHPD,0,0.000,177.98,-0.01,-13.37,31.5915990,120.7756469,2.824,13631087.163,24923830.045,2.824,0.000,0.000,0.000,0.000,0.000,0.000,0.000,17,17,4*72
$GPGGA,073341.00,3135.4958732,N,12046.5388135,E,4,17,1.4,2.8272,M,8.307,M,01,0004*6E
$GPHPD,0,0.000,178.89,0.22,-13.42,31.5915979,120.7756469,2.827,13631088.071,24923830.414,2.827,0.000,0.000,0.000,0.000,0.000,0.000,0.000,17,17,4*59
$GPGGA,073341.20,3135.4958090,N,12046.5388098,E,4,17,1.4,2.8301,M,8.307,M,01,0004*60
$GPHPD,0,0.000,179.66,0.02,-13.46,31.5915968,120.7756468,2.830,13631088.976,24923830.743,2.830,0.000,0.000,0.000,0.000,0.000,0.000,0.000,17,17,4*51
$GPGGA,073341.40,3135.4957409,N,12046.5388064,E,4,17,1.4,2.8330,M,8.307,M,01,0004*6C
$GPHPD,0,0.000,180.49,0.01,-13.46,31.5915957,120.7756468,2.833,13631089.937,24923831.099,2.833,0.000,0.000,0.000,0.000,0.000,0.000,0.000,17,17,4*50
$GPGGA,073341.60,3135.4956765,N,12046.5388047,E,4,17,1.4,2.8386,M,8.307,M,00,0004*6B
$GPHPD,0,0.000,181.31,-0.16,-13.44,31.5915946,120.7756467,2.839,13631090.849,24923831.453,2.839,0.000,0.000,0.000,0.000,0.000,0.000,0.000,17,17,4*7A
$GPGGA,073341.80,3135.4956111,N,12046.5387993,E,4,17,1.4,2.8355,M,8.307,M,00,0004*61
$GPHPD,0,0.000,182.05,-0.12,-13.35,31.5915935,120.7756467,2.836,13631091.767,24923831.769,2.836,0.000,0.000,0.000,0.000,0.000,0.000,0.000,17,17,4*70
$GPGGA,073342.00,3135.4955543,N,12046.5387942,E,4,17,1.4,2.8414,M,8.307,M,01,0004*65
$GPHPD,0,0.000,182.78,0.12,-13.27,31.5915926,120.7756466,2.841,13631092.564,24923832.038,2.841,0.000,0.000,0.000,0.000,0.000,0.000,0.000,17,17,4*55
$GPGGA,073342.20,3135.4954999,N,12046.5387897,E,4,17,1.4,2.8452,M,8.307,M,01,0004*66
$GPHPD,0,0.000,183.31,0.02,-13.24,31.5915917,120.7756465,2.845,13631093.329,24923832.300,2.845,0.000,0.000,0.000,0.000,0.000,0.000,0.000,17,17,4*5C
$GPGGA,073342.40,3135.4954472,N,12046.5387826,E,4,17,1.4,2.8511,M,8.307,M,01,0004*64
$GPHPD,0,0.000,183.98,0.15,-13.25,31.5915908,120.7756464,2.851,13631094.063,24923832.521,2.851,0.000,0.000,0.000,0.000,0.000,0.000,0.000,17,17,4*58
$GPGGA,073342.60,3135.4953985,N,12046.5387758,E,4,17,1.4,2.8404,M,8.307,M,00,0004*66
$GPHPD,0,0.000,184.43,-0.28,-13.29,31.5915900,120.7756463,2.840,13631094.742,24923832.723,2.840,0.000,0.000,0.000,0.000,0.000,0.000,0.000,17,17,4*7D
$GPGGA,073342.80,3135.4953443,N,12046.5387674,E,4,17,1.4,2.8355,M,8.307,M,00,0004*63
$GPHPD,0,0.000,184.88,-0.04,-13.34,31.5915891,120.7756461,2.836,13631095.495,24923832.937,2.836,0.000,0.000,0.000,0.000,0.000,0.000,0.000,17,17,4*70
$GPGGA,073343.00,3135.4952873,N,12046.5387572,E,4,17,1.4,2.8411,M,8.307,M,01,0004*67
$GPHPD,0,0.000,185.14,-0.01,-13.42,31.5915881,120.7756460,2.841,13631096.285,24923833.146,2.841,0.000,0.000,0.000,0.000,0.000,0.000,0.000,17,17,4*7B
$GPGGA,073343.20,3135.4952271,N,12046.5387487,E,4,17,1.4,2.8383,M,8.307,M,01,0004*6A
$GPHPD,0,0.000,185.66,-0.10,-13.50,31.5915871,120.7756458,2.838,13631097.123,24923833.394,2.838,0.000,0.000,0.000,0.000,0.000,0.000,0.000,17,17,4*7A
$GPGGA,073343.40,3135.4951603,N,12046.5387381,E,4,17,1.4,2.8401,M,8.307,M,01,0004*62
$GPHPD,0,0.000,186.17,0.13,-13.56,31.5915860,120.7756456,2.840,13631098.051,24923833.655,2.840,0.000,0.000,0.000,0.000,0.000,0.000,0.000,17,17,4*5A
$GPGGA,073343.60,3135.4950884,N,12046.5387261,E,4,17,1.4,2.8430,M,8.307,M,00,0004*6C
$GPHPD,0,0.000,186.48,0.21,-13.60,31.5915848,120.7756454,2.843,13631099.049,24923833.928,2.843,0.000,0.000,0.000,0.000,0.000,0.000,0.000,17,17,4*51
$GPGGA,073343.80,3135.4950111,N,12046.5387110,E,4,17,1.4,2.8424,M,8.307,M,00,0004*67
$GPHPD,0,0.000,187.22,0.15,-13.61,31.5915835,120.7756452,2.842,13631100.117,24923834.196,2.842,0.000,0.000,0.000,0.000,0.000,0.000,0.000,17,17,4*57
$GPGGA,073344.00,3135.4949304,N,12046.5386947,E,4,17,1.4,2.8456,M,8.307,M,01,0004*69
$GPHPD,0,0.000,187.63,0.22,-13.60,31.5915822,120.7756449,2.846,13631101.232,24923834.470,2.846,0.000,0.000,0.000,0.000,0.000,0.000,0.000,17,17,4*53
$GPGGA,073344.20,3135.4948424,N,12046.5386779,E,4,17,1.4,2.8452,M,8.307,M,01,0004*68
$GPHPD,0,0.000,188.30,0.10,-13.61,31.5915807,120.7756446,2.845,13631102.449,24923834.779,2.845,0.000,0.000,0.000,0.000,0.000,0.000,0.000,17,17,4*51
$GPGGA,073344.40,3135.4947522,N,12046.5386607,E,4,17,1.4,2.8495,M,8.307,M,01,0004*65
$GPHPD,0,0.000,188.99,0.03,-13.64,31.5915792,120.7756443,2.850,13631103.696,24923835.097,2.850,0.000,0.000,0.000,0.000,0.000,0.000,0.000,17,17,4*54
$GPGGA,073344.60,3135.4946606,N,12046.5386409,E,4,17,1.4,2.8541,M,8.307,M,00,0004*66
$GPHPD,0,0.000,189.69,0.10,-13.62,31.5915777,120.7756440,2.854,13631104.958,24923835.391,2.854,0.000,0.000,0.000,0.000,0.000,0.000,0.000,17,17,4*59
$GPGGA,073344.80,3135.4945670,N,12046.5386170,E,4,17,1.4,2.8517,M,8.307,M,00,0004*62
$GPHPD,0,0.000,190.35,-0.42,-13.56,31.5915761,120.7756436,2.852,13631106.240,24923835.648,2.852,0.000,0.000,0.000,0.000,0.000,0.000,0.000,17,17,4*72
$GPGGA,073345.00,3135.4944735,N,12046.5385941,E,4,17,1.4,2.8526,M,8.307,M,01,0004*60
$GPHPD,0,0.000,191.07,-0.42,-13.45,31.5915746,120.7756432,2.853,13631107.523,24923835.916,2.853,0.000,0.000,0.000,0.000,0.000,0.000,0.000,17,17,4*76
$GPGGA,073345.20,3135.4943817,N,12046.5385690,E,4,17,1.4,2.8504,M,8.307,M,01,0004*69
$GPHPD,0,0.000,191.65,-0.37,-13.37,31.5915730,120.7756428,2.850,13631108.777,24923836.148,2.850,0.000,0.000,0.000,0.000,0.000,0.000,0.000,17,17,4*73
$GPGGA,073345.40,3135.4942930,N,12046.5385432,E,4,17,1.4,2.8493,M,8.307,M,01,0004*6F
$GPHPD,0,0.000,192.19,-0.46,-13.28,31.5915716,120.7756424,2.849,13631109.986,24923836.353,2.849,0.000,0.000,0.000,0.000,0.000,0.000,0.000,17,17,4*72
$GPGGA,073345.60,3135.4942024,N,12046.5385186,E,4,17,1.4,2.8580,M,8.307,M,00,0004*69
$GPHPD,0,0.000,192.94,-0.42,-13.16,31.5915700,120.7756420,2.858,13631111.224,24923836.584,2.858,0.000,0.000,0.000,0.000,0.000,0.000,0.000,17,17,4*7B
$GPGGA,073345.80,3135.4941176,N,12046.5384922,E,4,17,1.4,2.8626,M,8.307,M,00,0004*6A
$GPHPD,0,0.000,193.38,-0.68,-13.10,31.5915686,120.7756415,2.863,13631112.376,24923836.759,2.863,0.000,0.000,0.000,0.000,0.000,0.000,0.000,17,17,4*7C
$GPGGA,073346.00,3135.4940322,N,12046.5384660,E,4,17,1.4,2.8558,M,8.307,M,01,0004*61
$GPHPD,0,0.000,193.76,-0.53,-13.04,31.5915672,120.7756411,2.856,13631113.537,24923836.940,2.856,0.000,0.000,0.000,0.000,0.000,0.000,0.000,17,17,4*70
$GPGGA,073346.20,3135.4939495,N,12046.5384407,E,4,17,1.4,2.8589,M,8.307,M,01,0004*69
$GPHPD,0,0.000,194.09,-0.71,-12.98,31.5915658,120.7756407,2.859,13631114.662,24923837.116,2.859,0.000,0.000,0.000,0.000,0.000,0.000,0.000,17,17,4*7A
$GPGGA,073346.40,3135.4938705,N,12046.5384147,E,4,17,1.4,2.8596,M,8.307,M,01,0004*6B
$GPHPD,0,0.000,194.30,-0.66,-12.93,31.5915645,120.7756402,2.860,13631115.732,24923837.263,2.860,0.000,0.000,0.000,0.000,0.000,0.000,0.000,17,17,4*70
$GPGGA,073346.60,3135.4937881,N,12046.5383893,E,4,17,1.4,2.8628,M,8.307,M,01,0004*64
$GPHPD,0,0.000,194.34,-0.50,-12.88,31.5915631,120.7756398,2.863,13631116.853,24923837.436,2.863,0.000,0.000,0.000,0.000,0.000,0.000,0.000,17,17,4*71
$GPGGA,073346.80,3135.4937081,N,12046.5383620,E,4,17,1.4,2.8571,M,8.307,M,00,0004*6A
$GPHPD,0,0.000,194.71,-0.88,-12.84,31.5915618,120.7756394,2.857,13631117.935,24923837.572,2.857,0.000,0.000,0.000,0.000,0.000,0.000,0.000,17,17,4*7F
$GPGGA,073347.00,3135.4936254,N,12046.5383340,E,4,17,1.4,2.8555,M,8.307,M,01,0004*6C
$GPHPD,0,0.000,194.66,-1.00,-12.86,31.5915604,120.7756389,2.856,13631119.054,24923837.716,2.856,0.000,0.000,0.000,0.000,0.000,0.000,0.000,17,17,4*7B
$GPGGA,073347.20,3135.4935411,N,12046.5383047,E,4,17,1.4,2.8501,M,8.307,M,01,0004*6F
$GPHPD,0,0.000,194.68,-0.64,-12.86,31.5915590,120.7756384,2.850,13631120.193,24923837.854,2.850,0.000,0.000,0.000,0.000,0.000,0.000,0.000,17,17,4*7C
$GPGGA,073347.40,3135.4934573,N,12046.5382754,E,4,17,1.4,2.8539,M,8.307,M,01,0004*62
$GPHPD,0,0.000,195.02,-0.53,-12.86,31.5915576,120.7756379,2.854,13631121.325,24923837.988,2.854,0.000,0.000,0.000,0.000,0.000,0.000,0.000,17,17,4*71
$GPGGA,073347.60,3135.4933679,N,12046.5382447,E,4,17,1.4,2.8515,M,8.307,M,00,0004*60
$GPHPD,0,0.000,195.02,-0.86,-12.87,31.5915561,120.7756374,2.852,13631122.534,24923838.138,2.852,0.000,0.000,0.000,0.000,0.000,0.000,0.000,17,17,4*7A
$GPGGA,073347.80,3135.4932769,N,12046.5382157,E,4,17,1.4,2.8528,M,8.307,M,00,0004*65
$GPHPD,0,0.000,195.24,-1.08,-12.87,31.5915546,120.7756369,2.853,13631123.769,24923838.318,2.853,0.000,0.000,0.000,0.000,0.000,0.000,0.000,17,17,4*7B
$GPGGA,073348.00,3135.4931872,N,12046.5381825,E,4,17,1.4,2.8438,M,8.307,M,01,0004*6A
$GPHPD,0,0.000,195.48,-0.75,-12.82,31.5915531,120.7756364,2.844,13631124.977,24923838.440,2.844,0.000,0.000,0.000,0.000,0.000,0.000,0.000,17,17,4*7E
$GPGGA,073348.20,3135.4930988,N,12046.5381523,E,4,17,1.4,2.8523,M,8.307,M,01,0004*6D
$GPHPD,0,0.000,195.43,-0.65,-12.79,31.5915516,120.7756359,2.852,13631126.173,24923838.590,2.852,0.000,0.000,0.000,0.000,0.000,0.000,0.000,17,17,4*79
$GPGGA,073348.40,3135.4930108,N,12046.5381170,E,4,17,1.4,2.8471,M,8.307,M,01,0004*6F
$GPHPD,0,0.000,196.16,-1.09,-12.81,31.5915502,120.7756353,2.847,13631127.352,24923838.677,2.847,0.000,0.000,0.000,0.000,0.000,0.000,0.000,17,17,4*73
$GPGGA,073348.60,3135.4929163,N,12046.5380836,E,4,17,1.4,2.8480,M,8.307,M,00,0004*6D
$GPHPD,0,0.000,196.93,-1.19,-12.81,31.5915486,120.7756347,2.848,13631128.628,24923838.824,2.848,0.000,0.000,0.000,0.000,0.000,0.000,0.000,17,17,4*78
$GPGGA,073348.80,3135.4928279,N,12046.5380459,E,4,17,1.4,2.8523,M,8.307,M,00,0004*67
$GPHPD,0,0.000,197.74,-0.87,-12.77,31.5915471,120.7756341,2.852,13631129.809,24923838.884,2.852,0.000,0.000,0.000,0.000,0.000,0.000,0.000,17,17,4*77
$GPGGA,073349.00,3135.4927415,N,12046.5380017,E,4,17,1.4,2.8523,M,8.307,M,01,0004*62
$GPHPD,0,0.000,198.57,-1.29,-12.72,31.5915457,120.7756334,2.852,13631130.948,24923838.854,2.852,0.000,0.000,0.000,0.000,0.000,0.000,0.000,17,17,4*7E
$GPGGA,073349.20,3135.4926541,N,12046.5379663,E,4,17,1.4,2.8435,M,8.307,M,01,0004*64
$GPHPD,0,0.000,199.24,-1.23,-12.66,31.5915442,120.7756328,2.844,13631132.119,24923838.936,2.844,0.000,0.000,0.000,0.000,0.000,0.000,0.000,17,17,4*76
$GPGGA,073349.40,3135.4925688,N,12046.5379232,E,4,17,1.4,2.8447,M,8.307,M,01,0004*62
$GPHPD,0,0.000,200.16,-0.85,-12.57,31.5915428,120.7756321,2.845,13631133.244,24923838.913,2.845,0.000,0.000,0.000,0.000,0.000,0.000,0.000,17,17,4*73
$GPGGA,073349.60,3135.4924896,N,12046.5378815,E,4,17,1.4,2.8412,M,8.307,M,00,0004*6F
$GPHPD,0,0.000,200.82,-1.22,-12.47,31.5915415,120.7756314,2.841,13631134.286,24923838.871,2.841,0.000,0.000,0.000,0.000,0.000,0.000,0.000,17,17,4*77
$GPGGA,073349.80,3135.4924173,N,12046.5378445,E,4,17,1.4,2.8471,M,8.307,M,00,0004*6F
$GPHPD,0,0.000,201.61,-1.19,-12.39,31.5915403,120.7756307,2.847,13631135.239,24923838.846,2.847,0.000,0.000,0.000,0.000,0.000,0.000,0.000,17,17,4*7E
$GPGGA,073350.00,3135.4923522,N,12046.5378086,E,4,17,1.4,2.8412,M,8.307,M,01,0004*67
$GPHPD,0,0.000,202.33,-1.54,-12.34,31.5915392,120.7756301,2.841,13631136.092,24923838.792,2.841,0.000,0.000,0.000,0.000,0.000,0.000,0.000,17,17,4*71
$GPGGA,073350.20,3135.4922889,N,12046.5377734,E,4,17,1.4,2.8347,M,8.307,M,01,0004*6E
$GPHPD,0,0.000,203.21,-1.41,-12.30,31.5915381,120.7756296,2.835,13631136.921,24923838.736,2.835,0.000,0.000,0.000,0.000,0.000,0.000,0.000,17,17,4*71
$GPGGA,073350.40,3135.4922299,N,12046.5377380,E,4,17,1.4,2.8255,M,8.307,M,01,0004*6A
$GPHPD,0,0.000,203.89,-1.03,-12.26,31.5915372,120.7756290,2.826,13631137.688,24923838.652,2.826,0.000,0.000,0.000,0.000,0.000,0.000,0.000,17,17,4*76
$GPGGA,073350.60,3135.4921748,N,12046.5377049,E,4,17,1.4,2.8305,M,8.307,M,00,0004*61
$GPHPD,0,0.000,204.75,-0.97,-12.23,31.5915362,120.7756284,2.831,13631138.405,24923838.574,2.831,0.000,0.000,0.000,0.000,0.000,0.000,0.000,17,17,4*70
$GPGGA,073350.80,3135.4921218,N,12046.5376713,E,4,17,1.4,2.8342,M,8.307,M,00,0004*65
$GPHPD,0,0.000,205.66,-0.98,-12.22,31.5915354,120.7756279,2.834,13631139.091,24923838.477,2.834,0.000,0.000,0.000,0.000,0.000,0.000,0.000,17,17,4*70
$GPGGA,073351.00,3135.4920715,N,12046.5376383,E,4,17,1.4,2.8331,M,8.307,M,01,0004*6D
$GPHPD,0,0.000,206.58,-0.78,-12.21,31.5915345,120.7756273,2.833,13631139.739,24923838.372,2.833,0.000,0.000,0.000,0.000,0.000,0.000,0.000,17,17,4*7E
$GPGGA,073351.20,3135.4920215,N,12046.5376051,E,4,17,1.4,2.8304,M,8.307,M,01,0004*60
$GPHPD,0,0.000,207.26,-0.85,-12.20,31.5915337,120.7756268,2.830,13631140.383,24923838.263,2.830,0.000,0.000,0.000,0.000,0.000,0.000,0.000,17,17,4*70
$GPGGA,073351.40,3135.4919746,N,12046.5375699,E,4,17,1.4,2.8268,M,8.307,M,01,0004*65
$GPHPD,0,0.000,207.95,-0.60,-12.20,31.5915329,120.7756262,2.827,13631140.979,24923838.112,2.827,0.000,0.000,0.000,0.000,0.000,0.000,0.000,17,17,4*7C
$GPGGA,073351.60,3135.4919284,N,12046.5375400,E,4,17,1.4,2.8248,M,8.307,M,00,0004*6D
$GPHPD,0,0.000,208.52,-0.82,-12.22,31.5915321,120.7756257,2.825,13631141.575,24923838.020,2.825,0.000,0.000,0.000,0.000,0.000,0.000,0.000,17,17,4*79
$GPGGA,073351.80,3135.4918832,N,12046.5375071,E,4,17,1.4,2.8197,M,8.307,M,00,0004*66
$GPHPD,0,0.000,209.17,-0.52,-12.24,31.5915314,120.7756251,2.820,13631142.151,24923837.886,2.820,0.000,0.000,0.000,0.000,0.000,0.000,0.000,17,17,4*78
$GPGGA,073352.00,3135.4918357,N,12046.5374729,E,4,17,1.4,2.8324,M,8.307,M,01,0004*65
$GPHPD,0,0.000,209.94,-0.76,-12.28,31.5915306,120.7756245,2.832,13631142.758,24923837.750,2.832,0.000,0.000,0.000,0.000,0.000,0.000,0.000,17,17,4*74
$GPGGA,073352.20,3135.4917888,N,12046.5374388,E,4,17,1.4,2.8241,M,8.307,M,01,0004*6C
$GPHPD,0,0.000,210.38,-0.94,-12.31,31.5915298,120.7756240,2.824,13631143.356,24923837.612,2.824,0.000,0.000,0.000,0.000,0.000,0.000,0.000,17,17,4*71
$GPGGA,073352.40,3135.4917430,N,12046.5374045,E,4,17,1.4,2.8187,M,8.307,M,01,0004*6E
$GPHPD,0,0.000,210.80,-0.10,-12.35,31.5915291,120.7756234,2.819,13631143.938,24923837.465,2.819,0.000,0.000,0.000,0.000,0.000,0.000,0.000,17,17,4*70
$GPGGA,073352.60,3135.4916922,N,12046.5373671,E,4,17,1.4,2.8244,M,8.307,M,00,0004*68
$GPHPD,0,0.000,211.33,-0.16,-12.40,31.5915282,120.7756228,2.824,13631144.584,24923837.310,2.824,0.000,0.000,0.000,0.000,0.000,0.000,0.000,17,17,4*7B
$GPGGA,073352.80,3135.4916447,N,12046.5373280,E,4,17,1.4,2.8195,M,8.307,M,00,0004*6D
$GPHPD,0,0.000,211.82,-0.32,-12.43,31.5915274,120.7756221,2.820,13631145.181,24923837.115,2.820,0.000,0.000,0.000,0.000,0.000,0.000,0.000,17,17,4*73
$GPGGA,073353.00,3135.4915952,N,12046.5372860,E,4,17,1.7,2.8161,M,8.307,M,01,0004*62
$GPHPD,0,0.000,212.44,-0.13,-12.46,31.5915266,120.7756214,2.816,13631145.800,24923836.897,2.816,0.000,0.000,0.000,0.000,0.000,0.000,0.000,17,16,4*7A
$GPGGA,073353.20,3135.4915460,N,12046.5372470,E,4,17,1.7,2.8160,M,8.307,M,01,0004*60
$GPHPD,0,0.000,213.08,0.05,-12.50,31.5915258,120.7756208,2.816,13631146.421,24923836.713,2.816,0.000,0.000,0.000,0.000,0.000,0.000,0.000,17,16,4*51
$GPGGA,073353.40,3135.4914986,N,12046.5372062,E,4,17,1.7,2.8118,M,8.307,M,01,0004*6A
$GPHPD,0,0.000,213.61,-0.01,-12.56,31.5915250,120.7756201,2.812,13631147.012,24923836.497,2.812,0.000,0.000,0.000,0.000,0.000,0.000,0.000,17,16,4*7A
$GPGGA,073353.60,3135.4914440,N,12046.5371603,E,4,17,1.7,2.8142,M,8.307,M,00,0004*63
$GPHPD,0,0.000,213.95,-0.11,-12.65,31.5915241,120.7756193,2.814,13631147.696,24923836.261,2.814,0.000,0.000,0.000,0.000,0.000,0.000,0.000,17,16,4*7D
$GPGGA,073353.80,3135.4913908,N,12046.5371145,E,4,17,1.7,2.8087,M,8.307,M,00,0004*66
$GPHPD,0,0.000,214.94,-0.79,-12.74,31.5915232,120.7756186,2.809,13631148.360,24923836.018,2.809,0.000,0.000,0.000,0.000,0.000,0.000,0.000,17,16,4*7A
$GPGGA,073354.00,3135.4913354,N,12046.5370665,E,4,17,1.7,2.8183,M,8.307,M,01,0004*6A
$GPHPD,0,0.000,215.61,-0.20,-12.79,31.5915223,120.7756178,2.818,13631149.051,24923835.762,2.818,0.000,0.000,0.000,0.000,0.000,0.000,0.000,17,16,4*78
$GPGGA,073354.20,3135.4912805,N,12046.5370160,E,4,17,1.7,2.8147,M,8.307,M,01,0004*6C
$GPHPD,0,0.000,216.18,-0.38,-12.81,31.5915213,120.7756169,2.815,13631149.729,24923835.473,2.815,0.000,0.000,0.000,0.000,0.000,0.000,0.000,17,16,4*73
$GPGGA,073354.40,3135.4912250,N,12046.5369647,E,4,17,1.7,2.8185,M,8.307,M,01,0004*64
$GPHPD,0,0.000,216.58,-0.21,-12.82,31.5915204,120.7756161,2.819,13631150.415,24923835.177,2.819,0.000,0.000,0.000,0.000,0.000,0.000,0.000,17,16,4*77
$GPGGA,073354.60,3135.4911760,N,12046.5369152,E,4,17,1.7,2.8094,M,8.307,M,00,0004*60
$GPHPD,0,0.000,217.36,-0.56,-12.79,31.5915196,120.7756153,2.809,13631151.012,24923834.866,2.809,0.000,0.000,0.000,0.000,0.000,0.000,0.000,17,16,4*79
$GPGGA,073354.80,3135.4911291,N,12046.5368689,E,4,17,1.7,2.8073,M,8.307,M,00,0004*6C
$GPHPD,0,0.000,218.14,-0.01,-12.76,31.5915188,120.7756145,2.807,13631151.585,24923834.580,2.807,0.000,0.000,0.000,0.000,0.000,0.000,0.000,17,16,4*7D
$GPGGA,073355.00,3135.4910852,N,12046.5368274,E,4,17,1.7,2.8225,M,8.307,M,01,0004*67
$GPHPD,0,0.000,218.82,-0.33,-12.76,31.5915181,120.7756138,2.823,13631152.125,24923834.335,2.823,0.000,0.000,0.000,0.000,0.000,0.000,0.000,17,16,4*75
$GPGGA,073355.20,3135.4910449,N,12046.5367843,E,4,17,1.7,2.8211,M,8.307,M,01,0004*65
$GPHPD,0,0.000,219.37,-1.04,-12.76,31.5915174,120.7756131,2.821,13631152.611,24923834.050,2.821,0.000,0.000,0.000,0.000,0.000,0.000,0.000,17,16,4*7C
$GPGGA,073355.40,3135.4910054,N,12046.5367442,E,4,17,1.7,2.8186,M,8.307,M,01,0004*6B
$GPHPD,0,0.000,219.76,-0.41,-12.76,31.5915168,120.7756124,2.819,13631153.092,24923833.797,2.819,0.000,0.000,0.000,0.000,0.000,0.000,0.000,17,16,4*77
$GPGGA,073355.60,3135.4909679,N,12046.5367055,E,4,17,1.7,2.8231,M,8.307,M,00,0004*64
$GPHPD,0,0.000,220.11,-0.12,-12.74,31.5915161,120.7756118,2.823,13631153.547,24923833.548,2.823,0.000,0.000,0.000,0.000,0.000,0.000,0.000,17,16,4*73
$GPGGA,073355.80,3135.4909340,N,12046.5366666,E,4,17,1.7,2.8194,M,8.307,M,00,0004*6E
$GPHPD,0,0.000,220.47,-0.28,-12.76,31.5915156,120.7756111,2.819,13631153.951,24923833.276,2.819,0.000,0.000,0.000,0.000,0.000,0.000,0.000,17,16,4*77
$GPGGA,073356.00,3135.4908947,N,12046.5366281,E,4,17,1.7,2.8158,M,8.307,M,01,0004*65
$GPHPD,0,0.000,220.84,-0.15,-12.82,31.5915149,120.7756105,2.816,13631154.432,24923833.041,2.816,0.000,0.000,0.000,0.000,0.000,0.000,0.000,17,16,4*7F
$GPGGA,073356.20,3135.4908538,N,12046.5365888,E,4,17,1.7,2.8243,M,8.307,M,01,0004*6A
$GPHPD,0,0.000,221.17,-0.83,-12.87,31.5915142,120.7756098,2.824,13631154.934,24923832.805,2.824,0.000,0.000,0.000,0.000,0.000,0.000,0.000,17,16,4*72
$GPGGA,073356.40,3135.4908172,N,12046.5365412,E,4,16,1.7,2.8109,M,8.307,M,01,0004*65
$GPHPD,0,0.000,221.76,-1.06,-12.92,31.5915136,120.7756090,2.811,13631155.359,24923832.444,2.811,0.000,0.000,0.000,0.000,0.000,0.000,0.000,16,16,4*7E
$GPGGA,073356.60,3135.4907737,N,12046.5364948,E,4,16,1.7,2.8076,M,8.307,M,00,0004*64
$GPHPD,0,0.000,222.13,-0.76,-12.96,31.5915129,120.7756082,2.808,13631155.883,24923832.138,2.808,0.000,0.000,0.000,0.000,0.000,0.000,0.000,16,16,4*73
$GPGGA,073356.80,3135.4907280,N,12046.5364447,E,4,16,1.7,2.8099,M,8.307,M,00,0004*60
$GPHPD,0,0.000,222.05,-0.25,-12.99,31.5915121,120.7756074,2.810,13631156.432,24923831.800,2.810,0.000,0.000,0.000,0.000,0.000,0.000,0.000,16,16,4*78
$GPGGA,073357.00,3135.4906804,N,12046.5363979,E,4,16,1.7,2.8070,M,8.307,M,01,0004*6F
$GPHPD,0,0.000,222.19,-0.06,-13.03,31.5915113,120.7756066,2.807,13631157.014,24923831.513,2.807,0.000,0.000,0.000,0.000,0.000,0.000,0.000,16,16,4*7A
$GPGGA,073357.20,3135.4906338,N,12046.5363446,E,4,16,1.7,2.8064,M,8.307,M,01,0004*6D
$GPHPD,0,0.000,222.93,-0.27,-13.05,31.5915106,120.7756057,2.806,13631157.570,24923831.141,2.806,0.000,0.000,0.000,0.000,0.000,0.000,0.000,16,16,4*7F
$GPGGA,073357.40,3135.4905859,N,12046.5362912,E,4,16,1.7,2.8221,M,8.307,M,01,0004*6A
$GPHPD,0,0.000,223.06,0.57,-13.08,31.5915098,120.7756049,2.822,13631158.143,24923830.776,2.822,0.000,0.000,0.000,0.000,0.000,0.000,0.000,16,16,4*54
$GPGGA,073357.60,3135.4905373,N,12046.5362323,E,4,16,1.7,2.8116,M,8.307,M,00,0004*65
$GPHPD,0,0.000,223.51,-1.18,-13.09,31.5915090,120.7756039,2.812,13631158.715,24923830.349,2.812,0.000,0.000,0.000,0.000,0.000,0.000,0.000,16,16,4*72
$GPGGA,073357.80,3135.4904874,N,12046.5361723,E,4,16,1.7,2.7954,M,8.307,M,00,0004*60
$GPHPD,0,0.000,223.22,1.03,-13.11,31.5915081,120.7756029,2.795,13631159.304,24923829.916,2.795,0.000,0.000,0.000,0.000,0.000,0.000,0.000,16,16,4*54
$GPGGA,073358.00,3135.4904334,N,12046.5361194,E,4,16,1.7,2.8132,M,8.307,M,01,0004*64
$GPHPD,0,0.000,223.40,1.08,-13.12,31.5915072,120.7756020,2.813,13631159.965,24923829.592,2.813,0.000,0.000,0.000,0.000,0.000,0.000,0.000,16,16,4*50
$GPGGA,073358.20,3135.4903784,N,12046.5360613,E,4,16,1.7,2.8410,M,8.307,M,01,0004*62
$GPHPD,0,0.000,224.31,-0.23,-13.08,31.5915063,120.7756010,2.841,13631160.629,24923829.212,2.841,0.000,0.000,0.000,0.000,0.000,0.000,0.000,16,16,4*7E
$GPGGA,073358.40,3135.4903304,N,12046.5359949,E,4,16,1.7,2.8257,M,8.307,M,01,0004*67
$GPHPD,0,0.000,224.74,-0.53,-13.01,31.5915055,120.7755999,2.826,13631161.178,24923828.690,2.826,0.000,0.000,0.000,0.000,0.000,0.000,0.000,16,16,4*72
$GPGGA,073358.60,3135.4902865,N,12046.5359364,E,4,17,1.7,2.8218,M,8.307,M,01,0004*67
$GPHPD,0,0.000,225.02,0.25,-12.95,31.5915048,120.7755989,2.822,13631161.684,24923828.241,2.822,0.000,0.000,0.000,0.000,0.000,0.000,0.000,17,16,4*52
$GPGGA,073358.80,3135.4902450,N,12046.5358831,E,4,17,1.7,2.8164,M,8.307,M,00,0004*60
$GPHPD,0,0.000,225.86,-0.54,-12.91,31.5915041,120.7755981,2.816,13631162.167,24923827.839,2.816,0.000,0.000,0.000,0.000,0.000,0.000,0.000,17,16,4*73
$GPGGA,073359.00,3135.4902081,N,12046.5358250,E,4,17,1.7,2.8051,M,8.307,M,01,0004*6A
$GPHPD,0,0.000,226.60,-0.73,-12.87,31.5915035,120.7755971,2.805,13631162.574,24923827.354,2.805,0.000,0.000,0.000,0.000,0.000,0.000,0.000,17,16,4*70
$GPGGA,073359.20,3135.4901703,N,12046.5357768,E,4,17,1.7,2.8242,M,8.307,M,01,0004*67
$GPHPD,0,0.000,227.02,-0.98,-12.86,31.5915028,120.7755963,2.824,13631163.014,24923826.992,2.824,0.000,0.000,0.000,0.000,0.000,0.000,0.000,17,16,4*7D
$GPGGA,073359.40,3135.4901347,N,12046.5357255,E,4,17,1.7,2.8183,M,8.307,M,01,0004*60
$GPHPD,0,0.000,228.29,-3.00,-12.85,31.5915022,120.7755954,2.818,13631163.417,24923826.581,2.818,0.000,0.000,0.000,0.000,0.000,0.000,0.000,17,15,4*7E
$GPGGA,073359.60,3135.4901024,N,12046.5356785,E,4,17,1.7,2.8263,M,8.307,M,00,0004*61
$GPHPD,0,0.000,228.78,-2.69,-12.85,31.5915017,120.7755946,2.826,13631163.782,24923826.202,2.826,0.000,0.000,0.000,0.000,0.000,0.000,0.000,17,15,4*72
$GPGGA,073359.80,3135.4900680,N,12046.5356248,E,4,17,1.7,2.8193,M,8.307,M,00,0004*6E
$GPHPD,0,0.000,229.31,-3.34,-12.87,31.5915011,120.7755937,2.819,13631164.163,24923825.755,2.819,0.000,0.000,0.000,0.000,0.000,0.000,0.000,17,15,4*7F
$GPGGA,073400.00,3135.4900346,N,12046.5355644,E,4,17,1.7,2.8081,M,8.307,M,01,0004*6A
$GPHPD,0,0.000,229.71,-3.28,-12.85,31.5915006,120.7755927,2.808,13631164.516,24923825.221,2.808,0.000,0.000,0.000,0.000,0.000,0.000,0.000,17,15,4*73
$GPGGA,073400.20,3135.4900013,N,12046.5355215,E,4,16,1.7,2.8222,M,8.307,M,01,0004*61
$GPHPD,0,0.000,229.45,-2.85,-12.82,31.5915000,120.7755920,2.822,13631164.903,24923824.898,2.822,0.000,0.000,0.000,0.000,0.000,0.000,0.000,16,15,4*74
$GPGGA,073400.40,3135.4899713,N,12046.5354798,E,4,16,1.7,2.8366,M,8.307,M,01,0004*61
$GPHPD,0,0.000,230.05,-3.93,-12.75,31.5914995,120.7755913,2.837,13631165.245,24923824.570,2.837,0.000,0.000,0.000,0.000,0.000,0.000,0.000,16,15,4*71
$GPGGA,073400.60,3135.4899438,N,12046.5354394,E,4,16,1.7,2.8349,M,8.307,M,00,0004*6D
$GPHPD,0,0.000,230.79,-4.60,-12.68,31.5914991,120.7755907,2.835,13631165.555,24923824.242,2.835,0.000,0.000,0.000,0.000,0.000,0.000,0.000,16,15,4*7C
$GPGGA,073400.80,3135.4899208,N,12046.5354079,E,4,16,1.7,2.8333,M,8.307,M,00,0004*6B
$GPHPD,0,0.000,231.29,-4.54,-12.64,31.5914987,120.7755901,2.833,13631165.818,24923823.996,2.833,0.000,0.000,0.000,0.000,0.000,0.000,0.000,16,15,4*73
$GPGGA,073401.00,3135.4898953,N,12046.5353706,E,4,16,1.7,2.8347,M,8.307,M,01,0004*6C
$GPHPD,0,0.000,231.69,-4.63,-12.63,31.5914983,120.7755895,2.835,13631166.106,24923823.695,2.835,0.000,0.000,0.000,0.000,0.000,0.000,0.000,16,15,4*75
$GPGGA,073401.20,3135.4898707,N,12046.5353338,E,4,16,1.7,2.8253,M,8.307,M,01,0004*6C
$GPHPD,0,0.000,232.18,-4.24,-12.63,31.5914978,120.7755889,2.825,13631166.381,24923823.395,2.825,0.000,0.000,0.000,0.000,0.000,0.000,0.000,16,15,4*72
$GPGGA,073401.40,3135.4898453,N,12046.5352985,E,4,16,1.7,2.8272,M,8.307,M,01,0004*66
$GPHPD,0,0.000,232.39,-3.67,-12.67,31.5914974,120.7755883,2.827,13631166.671,24923823.117,2.827,0.000,0.000,0.000,0.000,0.000,0.000,0.000,16,15,4*71
$GPGGA,073401.60,3135.4898228,N,12046.5352534,E,4,16,1.7,2.8101,M,8.307,M,00,0004*6E
$GPHPD,0,0.000,232.82,-3.50,-12.72,31.5914970,120.7755876,2.810,13631166.900,24923822.704,2.810,0.000,0.000,0.000,0.000,0.000,0.000,0.000,16,16,4*70
$GPGGA,073401.80,3135.4897909,N,12046.5352070,E,4,16,1.7,2.8088,M,8.307,M,00,0004*62
$GPHPD,0,0.000,232.76,-2.56,-12.78,31.5914965,120.7755868,2.809,13631167.260,24923822.330,2.809,0.000,0.000,0.000,0.000,0.000,0.000,0.000,16,16,4*72
$GPGGA,073402.00,3135.4897624,N,12046.5351600,E,4,16,1.7,2.8117,M,8.307,M,01,0004*6D
$GPHPD,0,0.000,233.17,-2.29,-12.87,31.5914960,120.7755860,2.812,13631167.571,24923821.929,2.812,0.000,0.000,0.000,0.000,0.000,0.000,0.000,16,16,4*77
$GPGGA,073402.20,3135.4897279,N,12046.5350989,E,4,16,1.7,2.7937,M,8.307,M,01,0004*69
$GPHPD,0,0.000,233.05,-1.38,-12.93,31.5914955,120.7755850,2.794,13631167.938,24923821.393,2.794,0.000,0.000,0.000,0.000,0.000,0.000,0.000,16,16,4*7D
$GPGGA,073402.40,3135.4896899,N,12046.5350347,E,4,16,1.7,2.7637,M,8.307,M,01,0004*6D
$GPHPD,0,0.000,233.26,-1.21,-12.98,31.5914948,120.7755839,2.764,13631168.349,24923820.840,2.764,0.000,0.000,0.000,0.000,0.000,0.000,0.000,16,16,4*7B
$GPGGA,073402.60,3135.4896474,N,12046.5349700,E,4,16,1.7,2.7610,M,8.307,M,00,0004*6B
$GPHPD,0,0.000,233.54,-0.08,-13.03,31.5914941,120.7755828,2.761,13631168.823,24923820.308,2.761,0.000,0.000,0.000,0.000,0.000,0.000,0.000,16,16,4*7E
$GPGGA,073402.80,3135.4896029,N,12046.5348975,E,4,16,1.7,2.7567,M,8.307,M,00,0004*67
$GPHPD,0,0.000,234.13,-0.18,-13.08,31.5914934,120.7755816,2.757,13631169.309,24923819.692,2.757,0.000,0.000,0.000,0.000,0.000,0.000,0.000,16,16,4*71
$GPGGA,073403.00,3135.4895467,N,12046.5348247,E,4,16,1.7,2.7591,M,8.307,M,01,0004*61
$GPHPD,0,0.000,234.07,1.36,-13.11,31.5914924,120.7755804,2.759,13631169.962,24923819.142,2.759,0.000,0.000,0.000,0.000,0.000,0.000,0.000,16,16,4*53
$GPGGA,073403.20,3135.4894968,N,12046.5347380,E,4,16,1.7,2.7049,M,8.307,M,01,0004*65
$GPHPD,0,0.000,234.86,2.05,-13.11,31.5914916,120.7755790,2.705,13631170.496,24923818.387,2.705,0.000,0.000,0.000,0.000,0.000,0.000,0.000,16,16,4*5E
$GPGGA,073403.40,3135.4894471,N,12046.5346534,E,4,16,1.7,2.6768,M,8.307,M,01,0004*6B
$GPHPD,0,0.000,235.06,3.30,-13.07,31.5914908,120.7755776,2.677,13631171.032,24923817.656,2.677,0.000,0.000,0.000,0.000,0.000,0.000,0.000,16,16,4*5D
$GPGGA,073403.60,3135.4894048,N,12046.5345737,E,4,16,1.7,2.6751,M,8.307,M,00,0004*6E
$GPHPD,0,0.000,235.26,4.31,-12.99,31.5914901,120.7755762,2.675,13631171.473,24923816.941,2.675,0.000,0.000,0.000,0.000,0.000,0.000,0.000,16,16,4*5A
$GPGGA,073403.80,3135.4893651,N,12046.5344968,E,4,16,1.7,2.6749,M,8.307,M,00,0004*65
$GPHPD,0,0.000,235.21,3.96,-12.91,31.5914894,120.7755749,2.675,13631171.883,24923816.245,2.675,0.000,0.000,0.000,0.000,0.000,0.000,0.000,16,16,4*57
$GPGGA,073404.00,3135.4893289,N,12046.5344292,E,4,16,1.7,2.6992,M,8.307,M,01,0004*6C
$GPHPD,0,0.000,235.06,3.79,-12.84,31.5914888,120.7755738,2.699,13631172.261,24923815.640,2.699,0.000,0.000,0.000,0.000,0.000,0.000,0.000,16,16,4*5B
$GPGGA,073404.20,3135.4892913,N,12046.5343614,E,4,16,1.7,2.7253,M,8.307,M,01,0004*6D
$GPHPD,0,0.000,233.39,6.17,-12.79,31.5914882,120.7755727,2.725,13631172.659,24923815.042,2.725,0.000,0.000,0.000,0.000,0.000,0.000,0.000,16,16,4*51
$GPGGA,073404.40,3135.4892536,N,12046.5342912,E,4,16,1.7,2.7234,M,8.307,M,01,0004*69
$GPHPD,0,0.000,233.54,4.93,-12.74,31.5914876,120.7755715,2.723,13631173.054,24923814.415,2.723,0.000,0.000,0.000,0.000,0.000,0.000,0.000,16,16,4*5E
$GPGGA,073404.60,3135.4892157,N,12046.5342279,E,4,16,1.7,2.7545,M,8.307,M,00,0004*6E
$GPHPD,0,0.000,233.62,4.34,-12.75,31.5914869,120.7755705,2.755,13631173.465,24923813.872,2.755,0.000,0.000,0.000,0.000,0.000,0.000,0.000,16,16,4*54
$GPGGA,073404.80,3135.4891759,N,12046.5341539,E,4,16,1.7,2.7642,M,8.307,M,00,0004*6F
$GPHPD,0,0.000,233.62,4.90,-12.77,31.5914863,120.7755692,2.764,13631173.882,24923813.211,2.764,0.000,0.000,0.000,0.000,0.000,0.000,0.000,16,16,4*57
$GPGGA,073405.00,3135.4891363,N,12046.5340819,E,4,16,1.7,2.7791,M,8.307,M,01,0004*6B
$GPHPD,0,0.000,233.42,3.53,-12.79,31.5914856,120.7755680,2.779,13631174.300,24923812.574,2.779,0.000,0.000,0.000,0.000,0.000,0.000,0.000,16,16,4*55
$GPGGA,073405.20,3135.4890886,N,12046.5340106,E,4,16,1.7,2.8112,M,8.307,M,01,0004*6D
$GPHPD,0,0.000,233.18,4.00,-12.81,31.5914848,120.7755668,2.811,13631174.834,24923811.992,2.811,0.000,0.000,0.000,0.000,0.000,0.000,0.000,16,16,4*5E
$GPGGA,073405.40,3135.4890459,N,12046.5339313,E,4,16,1.7,2.8019,M,8.307,M,01,0004*67
$GPHPD,0,0.000,233.32,3.03,-12.86,31.5914841,120.7755655,2.802,13631175.281,24923811.284,2.802,0.000,0.000,0.000,0.000,0.000,0.000,0.000,16,16,4*5B
$GPGGA,073405.60,3135.4889973,N,12046.5338498,E,4,16,1.7,2.8035,M,8.307,M,00,0004*62
$GPHPD,0,0.000,233.57,2.14,-12.91,31.5914833,120.7755642,2.804,13631175.808,24923810.584,2.804,0.000,0.000,0.000,0.000,0.000,0.000,0.000,16,16,4*57
$GPGGA,073405.80,3135.4889443,N,12046.5337608,E,4,16,1.7,2.8179,M,8.307,M,00,0004*6F
$GPHPD,0,0.000,233.63,2.97,-12.93,31.5914824,120.7755627,2.818,13631176.382,24923809.819,2.818,0.000,0.000,0.000,0.000,0.000,0.000,0.000,16,16,4*57
$GPGGA,073406.00,3135.4888928,N,12046.5336676,E,4,16,1.7,2.8066,M,8.307,M,01,0004*63
$GPHPD,0,0.000,233.85,2.24,-12.98,31.5914815,120.7755611,2.807,13631176.927,24923808.995,2.807,0.000,0.000,0.000,0.000,0.000,0.000,0.000,16,16,4*5A
$GPGGA,073406.20,3135.4888395,N,12046.5335593,E,4,15,1.7,2.7759,M,8.307,M,01,0004*61
$GPHPD,0,0.000,233.76,3.10,-12.98,31.5914807,120.7755593,2.776,13631177.466,24923808.000,2.776,0.000,0.000,0.000,0.000,0.000,0.000,0.000,15,15,4*56
$GPGGA,073406.40,3135.4887818,N,12046.5334624,E,4,15,1.7,2.7765,M,8.307,M,01,0004*67
$GPHPD,0,0.000,235.57,-0.73,-12.97,31.5914797,120.7755577,2.777,13631178.091,24923807.167,2.777,0.000,0.000,0.000,0.000,0.000,0.000,0.000,15,15,4*77
$GPGGA,073406.60,3135.4887267,N,12046.5333658,E,4,15,1.7,2.7790,M,8.307,M,00,0004*60
$GPHPD,0,0.000,235.72,-1.21,-12.94,31.5914788,120.7755561,2.779,13631178.680,24923806.323,2.779,0.000,0.000,0.000,0.000,0.000,0.000,0.000,15,15,4*79
$GPGGA,073406.80,3135.4886689,N,12046.5332655,E,4,15,1.7,2.7711,M,8.307,M,00,0004*6E
$GPHPD,0,0.000,235.33,-0.58,-12.92,31.5914778,120.7755544,2.771,13631179.300,24923805.450,2.771,0.000,0.000,0.000,0.000,0.000,0.000,0.000,15,15,4*71
$GPGGA,073407.00,3135.4886141,N,12046.5331650,E,4,15,1.7,2.7717,M,8.307,M,01,0004*65
$GPHPD,0,0.000,235.65,-0.43,-12.92,31.5914769,120.7755528,2.772,13631179.876,24923804.557,2.772,0.000,0.000,0.000,0.000,0.000,0.000,0.000,15,15,4*7F
$GPGGA,073407.20,3135.4885600,N,12046.5330681,E,4,15,1.7,2.7678,M,8.307,M,01,0004*63
$GPHPD,0,0.000,235.97,-0.87,-12.91,31.5914760,120.7755511,2.768,13631180.450,24923803.704,2.768,0.000,0.000,0.000,0.000,0.000,0.000,0.000,15,15,4*77
$GPGGA,073407.40,3135.4885100,N,12046.5329689,E,4,15,1.7,2.7771,M,8.307,M,01,0004*6A
$GPHPD,0,0.000,236.30,-1.07,-12.88,31.5914752,120.7755495,2.777,13631180.961,24923802.799,2.777,0.000,0.000,0.000,0.000,0.000,0.000,0.000,15,15,4*7E
$GPGGA,073407.60,3135.4884585,N,12046.5328743,E,4,15,1.7,2.7822,M,8.307,M,00,0004*6E
$GPHPD,0,0.000,236.24,-2.35,-12.87,31.5914743,120.7755479,2.782,13631181.503,24923801.958,2.782,0.000,0.000,0.000,0.000,0.000,0.000,0.000,15,15,4*7D
$GPGGA,073407.80,3135.4884115,N,12046.5327782,E,4,15,1.7,2.7739,M,8.307,M,00,0004*6A
$GPHPD,0,0.000,236.67,-2.94,-12.86,31.5914735,120.7755463,2.774,13631181.977,24923801.072,2.774,0.000,0.000,0.000,0.000,0.000,0.000,0.000,15,15,4*74
$GPGGA,073408.00,3135.4883603,N,12046.5326862,E,4,15,1.7,2.7915,M,8.307,M,01,0004*6B
$GPHPD,0,0.000,236.72,-3.10,-12.83,31.5914727,120.7755448,2.792,13631182.520,24923800.261,2.792,0.000,0.000,0.000,0.000,0.000,0.000,0.000,15,15,4*7E
$GPGGA,073408.20,3135.4883110,N,12046.5325907,E,4,15,1.7,2.7944,M,8.307,M,01,0004*69
$GPHPD,0,0.000,236.91,-3.17,-12.81,31.5914719,120.7755432,2.794,13631183.028,24923799.397,2.794,0.000,0.000,0.000,0.000,0.000,0.000,0.000,15,14,4*7C
$GPGGA,073408.40,3135.4882603,N,12046.5325018,E,4,15,1.7,2.8074,M,8.307,M,01,0004*69
$GPHPD,0,0.000,237.42,-2.06,-12.79,31.5914710,120.7755417,2.807,13631183.570,24923798.620,2.807,0.000,0.000,0.000,0.000,0.000,0.000,0.000,15,15,4*7A
$GPGGA,073408.60,3135.4882134,N,12046.5324066,E,4,15,1.7,2.8013,M,8.307,M,01,0004*61
$GPHPD,0,0.000,238.02,-2.74,-12.79,31.5914702,120.7755401,2.801,13631184.045,24923797.745,2.801,0.000,0.000,0.000,0.000,0.000,0.000,0.000,15,15,4*79
$GPGGA,073408.80,3135.4881668,N,12046.5323166,E,4,15,1.7,2.7945,M,8.307,M,00,0004*60
$GPHPD,0,0.000,238.36,-2.26,-12.77,31.5914694,120.7755386,2.795,13631184.526,24923796.931,2.795,0.000,0.000,0.000,0.000,0.000,0.000,0.000,15,15,4*7D
$GPGGA,073409.00,3135.4881220,N,12046.5322226,E,4,15,1.7,2.7765,M,8.307,M,01,0004*6A
$GPHPD,0,0.000,239.09,-1.15,-12.76,31.5914687,120.7755370,2.777,13631184.974,24923796.058,2.777,0.000,0.000,0.000,0.000,0.000,0.000,0.000,15,15,4*74
$GPGGA,073409.20,3135.4880770,N,12046.5321318,E,4,15,1.7,2.7570,M,8.307,M,01,0004*60
$GPHPD,0,0.000,239.61,-1.00,-12.75,31.5914680,120.7755355,2.757,13631185.431,24923795.225,2.757,0.000,0.000,0.000,0.000,0.000,0.000,0.000,15,15,4*7B
$GPGGA,073409.40,3135.4880273,N,12046.5320433,E,4,15,1.7,2.7490,M,8.307,M,01,0004*60
$GPHPD,0,0.000,240.29,-0.64,-12.74,31.5914671,120.7755341,2.749,13631185.959,24923794.447,2.749,0.000,0.000,0.000,0.000,0.000,0.000,0.000,15,15,4*70
$GPGGA,073409.60,3135.4879774,N,12046.5319543,E,4,15,1.7,2.7298,M,8.307,M,00,0004*65
$GPHPD,0,0.000,240.99,0.38,-12.73,31.5914663,120.7755326,2.730,13631186.489,24923793.665,2.730,0.000,0.000,0.000,0.000,0.000,0.000,0.000,15,15,4*5C
$GPGGA,073409.80,3135.4879312,N,12046.5318625,E,4,15,1.7,2.7116,M,8.307,M,00,0004*68
$GPHPD,0,0.000,240.88,0.60,-12.75,31.5914655,120.7755310,2.712,13631186.961,24923792.826,2.712,0.000,0.000,0.000,0.000,0.000,0.000,0.000,15,15,4*54
$GPGGA,073410.00,3135.4878882,N,12046.5317684,E,4,15,1.7,2.6846,M,8.307,M,01,0004*63
$GPHPD,0,0.000,241.37,0.72,-12.77,31.5914648,120.7755295,2.685,13631187.383,24923791.942,2.685,0.000,0.000,0.000,0.000,0.000,0.000,0.000,15,15,4*57
$GPGGA,073410.20,3135.4878312,N,12046.5316867,E,4,15,2.0,2.7116,M,8.307,M,01,0004*68
$GPHPD,0,0.000,242.01,0.03,-12.78,31.5914639,120.7755281,2.712,13631188.028,24923791.289,2.712,0.000,0.000,0.000,0.000,0.000,0.000,0.000,15,15,4*5A
$GPGGA,073410.40,3135.4878244,N,12046.5315670,E,4,15,3.3,2.6714,M,8.307,M,01,0004*60
$GPHPD,0,0.000,241.71,0.41,-12.80,31.5914637,120.7755261,2.671,13631187.884,24923789.885,2.671,0.000,0.000,0.000,0.000,0.000,0.000,0.000,15,15,4*51
$GPGGA,073410.60,3135.4877910,N,12046.5314687,E,4,15,1.7,2.6850,M,8.307,M,00,0004*66
$GPHPD,0,0.000,241.61,0.14,-12.81,31.5914632,120.7755245,2.685,13631188.161,24923788.894,2.685,0.000,0.000,0.000,0.000,0.000,0.000,0.000,15,15,4*5E
$GPGGA,073410.80,3135.4877395,N,12046.5313789,E,4,15,1.7,2.7203,M,8.307,M,00,0004*6A
$GPHPD,0,0.000,241.47,-0.21,-12.83,31.5914623,120.7755230,2.720,13631188.712,24923788.111,2.720,0.000,0.000,0.000,0.000,0.000,0.000,0.000,15,15,4*77
$GPGGA,073411.00,3135.4876874,N,12046.5312903,E,4,15,1.7,2.7352,M,8.307,M,01,0004*6F
$GPHPD,0,0.000,241.21,-0.80,-12.88,31.5914615,120.7755215,2.735,13631189.274,24923787.346,2.735,0.000,0.000,0.000,0.000,0.000,0.000,0.000,15,15,4*7E
$GPGGA,073411.20,3135.4876403,N,12046.5311878,E,4,15,1.7,2.7424,M,8.307,M,01,0004*69
$GPHPD,0,0.000,240.69,-0.02,-12.92,31.5914607,120.7755198,2.742,13631189.738,24923786.384,2.742,0.000,0.000,0.000,0.000,0.000,0.000,0.000,15,15,4*75
$GPGGA,073411.40,3135.4875916,N,12046.5310859,E,4,15,1.7,2.7640,M,8.307,M,01,0004*67
$GPHPD,0,0.000,240.72,-0.17,-12.96,31.5914599,120.7755181,2.764,13631190.225,24923785.439,2.764,0.000,0.000,0.000,0.000,0.000,0.000,0.000,15,15,4*70
$GPGGA,073411.60,3135.4875439,N,12046.5309739,E,4,15,1.7,2.7623,M,8.307,M,00,0004*60
$GPHPD,0,0.000,240.68,-0.50,-13.00,31.5914591,120.7755162,2.762,13631190.677,24923784.366,2.762,0.000,0.000,0.000,0.000,0.000,0.000,0.000,15,15,4*7C
$GPGGA,073411.80,3135.4874900,N,12046.5308604,E,4,15,1.7,2.7732,M,8.307,M,00,0004*67
$GPHPD,0,0.000,240.34,-0.44,-13.03,31.5914582,120.7755143,2.773,13631191.215,24923783.311,2.773,0.000,0.000,0.000,0.000,0.000,0.000,0.000,15,15,4*74
$GPGGA,073412.00,3135.4874322,N,12046.5307382,E,4,15,1.7,2.7681,M,8.307,M,01,0004*6A
$GPHPD,0,0.000,240.21,-0.71,-13.09,31.5914572,120.7755123,2.768,13631191.790,24923782.174,2.768,0.000,0.000,0.000,0.000,0.000,0.000,0.000,15,15,4*7D
$GPGGA,073412.20,3135.4873715,N,12046.5306135,E,4,15,1.7,2.7726,M,8.307,M,01,0004*6C
$GPHPD,0,0.000,239.96,-0.74,-13.14,31.5914562,120.7755102,2.773,13631192.402,24923781.024,2.773,0.000,0.000,0.000,0.000,0.000,0.000,0.000,15,15,4*78
$GPGGA,073412.40,3135.4873075,N,12046.5304837,E,4,15,1.7,2.7731,M,8.307,M,01,0004*64
$GPHPD,0,0.000,239.53,-1.09,-13.18,31.5914551,120.7755081,2.773,13631193.051,24923779.831,2.773,0.000,0.000,0.000,0.000,0.000,0.000,0.000,15,15,4*74
$GPGGA,073412.60,3135.4872450,N,12046.5303507,E,4,15,1.7,2.7656,M,8.307,M,00,0004*6C
$GPHPD,0,0.000,239.80,-0.96,-13.23,31.5914541,120.7755058,2.766,13631193.671,24923778.591,2.766,0.000,0.000,0.000,0.000,0.000,0.000,0.000,15,15,4*72
$GPGGA,073412.80,3135.4871771,N,12046.5302083,E,4,15,1.7,2.7708,M,8.307,M,00,0004*63
$GPHPD,0,0.000,239.69,-0.19,-13.28,31.5914530,120.7755035,2.771,13631194.350,24923777.269,2.771,0.000,0.000,0.000,0.000,0.000,0.000,0.000,15,15,4*7A
$GPGGA,073413.00,3135.4871070,N,12046.5300689,E,4,15,1.7,2.7808,M,8.306,M,01,0004*6D
$GPHPD,0,0.000,239.49,0.35,-13.30,31.5914518,120.7755011,2.781,13631195.066,24923775.996,2.781,0.000,0.000,0.000,0.000,0.000,0.000,0.000,15,15,4*50
$GPGGA,073413.20,3135.4870378,N,12046.5299220,E,4,15,1.7,2.7694,M,8.306,M,01,0004*68
$GPHPD,0,0.000,239.42,-1.71,-13.32,31.5914506,120.7754987,2.769,13631195.753,24923774.628,2.769,0.000,0.000,0.000,0.000,0.000,0.000,0.000,15,15,4*77
$GPGGA,073413.40,3135.4869649,N,12046.5297838,E,4,16,1.7,2.7963,M,8.306,M,01,0004*68
$GPHPD,0,0.000,239.05,-2.07,-13.32,31.5914494,120.7754964,2.796,13631196.511,24923773.386,2.796,0.000,0.000,0.000,0.000,0.000,0.000,0.000,16,15,4*73
$GPGGA,073413.60,3135.4868930,N,12046.5296337,E,4,16,1.7,2.7925,M,8.306,M,00,0004*6C
$GPHPD,0,0.000,239.26,-2.31,-13.29,31.5914482,120.7754939,2.793,13631197.231,24923771.994,2.793,0.000,0.000,0.000,0.000,0.000,0.000,0.000,16,15,4*7D
$GPGGA,073413.80,3135.4868230,N,12046.5294890,E,4,16,1.7,2.7978,M,8.306,M,00,0004*65
$GPHPD,0,0.000,238.96,-3.23,-13.26,31.5914471,120.7754915,2.798,13631197.935,24923770.657,2.798,0.000,0.000,0.000,0.000,0.000,0.000,0.000,16,15,4*76
$GPGGA,073414.00,3135.4867468,N,12046.5293391,E,4,16,1.7,2.8028,M,8.306,M,01,0004*61
$GPHPD,0,0.000,239.22,-5.07,-13.25,31.5914458,120.7754890,2.803,13631198.716,24923769.293,2.803,0.000,0.000,0.000,0.000,0.000,0.000,0.000,16,15,4*78
$GPGGA,073414.20,3135.4866722,N,12046.5291862,E,4,16,1.7,2.7558,M,8.306,M,01,0004*67
$GPHPD,0,0.000,238.73,-4.80,-13.22,31.5914445,120.7754864,2.756,13631199.469,24923767.884,2.756,0.000,0.000,0.000,0.000,0.000,0.000,0.000,16,15,4*7B
$GPGGA,073414.40,3135.4865968,N,12046.5290350,E,4,16,1.8,2.7154,M,8.306,M,01,0004*6E
$GPHPD,0,0.000,239.41,0.22,-13.20,31.5914433,120.7754839,2.715,13631200.236,24923766.499,2.715,0.000,0.000,0.000,0.000,0.000,0.000,0.000,16,14,4*5E
$GPGGA,073414.60,3135.4865205,N,12046.5288837,E,4,16,1.8,2.6977,M,8.306,M,00,0004*66
$GPHPD,0,0.000,239.33,-1.26,-13.17,31.5914420,120.7754814,2.698,13631201.016,24923765.119,2.698,0.000,0.000,0.000,0.000,0.000,0.000,0.000,16,15,4*74
$GPGGA,073414.80,3135.4864474,N,12046.5287271,E,4,16,1.8,2.6523,M,8.306,M,00,0004*63
$GPHPD,0,0.000,239.41,-1.52,-13.15,31.5914408,120.7754788,2.652,13631201.740,24923763.656,2.652,0.000,0.000,0.000,0.000,0.000,0.000,0.000,16,15,4*7E
$GPGGA,073415.00,3135.4863764,N,12046.5285691,E,4,16,2.5,2.6117,M,8.306,M,01,0004*6B
$GPHPD,0,0.000,239.27,-2.16,-13.10,31.5914396,120.7754762,2.612,13631202.431,24923762.164,2.612,0.000,0.000,0.000,0.000,0.000,0.000,0.000,16,15,4*7D
$GPGGA,073415.20,3135.4863070,N,12046.5284339,E,4,16,1.8,2.6710,M,8.306,M,01,0004*62
$GPHPD,0,0.000,238.51,-3.01,-13.09,31.5914385,120.7754739,2.671,13631203.145,24923760.938,2.671,0.000,0.000,0.000,0.000,0.000,0.000,0.000,16,15,4*7A
$GPGGA,073415.40,3135.4862365,N,12046.5282911,E,4,16,1.8,2.7761,M,8.306,M,01,0004*63
$GPHPD,0,0.000,239.83,-1.45,-13.07,31.5914373,120.7754715,2.776,13631203.860,24923759.626,2.776,0.000,0.000,0.000,0.000,0.000,0.000,0.000,16,14,4*7A
$GPGGA,073415.60,3135.4861852,N,12046.5281732,E,4,16,1.8,3.0520,M,8.306,M,00,0004*61
$GPHPD,0,0.000,239.28,-1.24,-13.07,31.5914364,120.7754696,3.052,13631204.352,24923758.503,3.052,0.000,0.000,0.000,0.000,0.000,0.000,0.000,16,15,4*79
$GPGGA,073415.80,3135.4863855,N,12046.5282709,E,6,15,0.877,2.6108,M,8.3060,M,,0000*5C
$GPHPD,0,0.000,0.22,1.18,-13.07,31.5914398,120.7754712,2.611,13631201.702,24923758.516,2.611,0.000,0.000,0.000,0.000,0.000,0.000,0.000,15,15,6*56
$GPGGA,073416.00,3135.4863824,N,12046.5281768,E,6,15,0.849,2.6116,M,8.3060,M,,0000*57
$GPHPD,0,0.000,0.24,1.18,-13.08,31.5914397,120.7754696,2.612,13631201.556,24923757.399,2.612,0.000,0.000,0.000,0.000,0.000,0.000,0.000,15,15,6*50
$GPGGA,073416.20,3135.4863824,N,12046.5280920,E,6,15,0.897,2.6109,M,8.3060,M,,0000*5B
$GPHPD,0,0.000,0.22,1.19,-13.09,31.5914397,120.7754682,2.611,13631201.386,24923756.376,2.611,0.000,0.000,0.000,0.000,0.000,0.000,0.000,15,15,6*58
$GPGGA,073416.40,3135.4863812,N,12046.5280285,E,6,16,0.948,2.6109,M,8.3060,M,,0000*5C
$GPHPD,0,0.000,0.24,1.21,-13.07,31.5914397,120.7754671,2.611,13631201.275,24923755.618,2.611,0.000,0.000,0.000,0.000,0.000,0.000,0.000,16,14,6*56
$GPGGA,073416.60,3135.4863800,N,12046.5279647,E,6,15,1.001,2.6105,M,8.3060,M,,0000*5B
$GPHPD,0,0.000,0.23,1.22,-13.08,31.5914397,120.7754661,2.611,13631201.163,24923754.855,2.611,0.000,0.000,0.000,0.000,0.000,0.000,0.000,15,15,6*5C
$GPGGA,073416.80,3135.4863782,N,12046.5279019,E,6,16,1.058,2.6095,M,8.3060,M,,0000*5A
$GPHPD,0,0.000,0.27,1.23,-13.05,31.5914396,120.7754650,2.610,13631201.063,24923754.109,2.610,0.000,0.000,0.000,0.000,0.000,0.000,0.000,16,15,6*55
$GPGGA,073417.00,3135.4863704,N,12046.5276854,E,6,16,0.984,2.6048,M,8.3060,M,,0000*5A
$GPHPD,0,0.000,0.30,1.28,-13.05,31.5914395,120.7754614,2.605,13631200.738,24923751.543,2.605,0.000,0.000,0.000,0.000,0.000,0.000,0.000,16,15,6*5C
$GPGGA,073417.20,3135.4863674,N,12046.5276143,E,6,16,1.038,2.6032,M,8.3060,M,,0000*53
$GPHPD,0,0.000,0.35,1.32,-13.02,31.5914395,120.7754602,2.603,13631200.637,24923750.704,2.603,0.000,0.000,0.000,0.000,0.000,0.000,0.000,16,15,6*5C
$GPGGA,073417.40,3135.4863636,N,12046.5275449,E,6,16,1.095,2.6021,M,8.3060,M,,0000*5A
$GPHPD,0,0.000,0.36,1.35,-13.00,31.5914394,120.7754591,2.602,13631200.552,24923749.889,2.602,0.000,0.000,0.000,0.000,0.000,0.000,0.000,16,15,6*50
$GPGGA,073417.60,3135.4863593,N,12046.5274777,E,6,16,1.154,2.6012,M,8.3060,M,,0000*57
$GPHPD,0,0.000,0.39,1.37,-12.96,31.5914393,120.7754580,2.601,13631200.478,24923749.104,2.601,0.000,0.000,0.000,0.000,0.000,0.000,0.000,16,14,6*50
$GPGGA,073417.80,3135.4863547,N,12046.5274125,E,6,16,1.216,2.6009,M,8.3060,M,,0000*5E
$GPHPD,0,0.000,0.38,1.39,-12.95,31.5914392,120.7754569,2.601,13631200.412,24923748.344,2.601,0.000,0.000,0.000,0.000,0.000,0.000,0.000,16,15,6*50
$GPGGA,073418.00,3135.4863336,N,12046.5270688,E,6,16,1.090,2.5929,M,8.3060,M,,0000*59
$GPHPD,0,0.000,0.47,1.38,-12.92,31.5914389,120.7754511,2.593,13631200.020,24923744.323,2.593,0.000,0.000,0.000,0.000,0.000,0.000,0.000,16,15,6*53
$GPGGA,073418.20,3135.4863277,N,12046.5269887,E,6,16,1.147,2.5920,M,8.3060,M,,0000*54
$GPHPD,0,0.000,0.51,1.38,-12.89,31.5914388,120.7754498,2.592,13631199.942,24923743.391,2.592,0.000,0.000,0.000,0.000,0.000,0.000,0.000,16,14,6*5E
$GPGGA,073418.40,3135.4863214,N,12046.5269102,E,6,16,1.208,2.5914,M,8.3060,M,,0000*5C
$GPHPD,0,0.000,0.51,1.41,-12.88,31.5914387,120.7754485,2.591,13631199.874,24923742.481,2.591,0.000,0.000,0.000,0.000,0.000,0.000,0.000,16,14,6*51
$GPGGA,073418.60,3135.4863148,N,12046.5268320,E,6,16,1.271,2.5911,M,8.3060,M,,0000*5C
$GPHPD,0,0.000,0.54,1.43,-12.86,31.5914386,120.7754472,2.591,13631199.810,24923741.577,2.591,0.000,0.000,0.000,0.000,0.000,0.000,0.000,16,14,6*58
