3.47,31.5890644,120.7752692,2.522,13633203.044,24924441.814,2.522,0.000,0.000,0.000,0.000,0.000,0.000,0.000,16,16,4*6C
$GPGGA,074522.80,3135.3439015,N,12046.5162136,E,4,16,1.4,2.5112,M,8.307,M,00,0004*60
$GPHPD,0,0.000,50.95,0.81,-13.45,31.5890650,120.7752702,2.511,13633202.603,24924442.313,2.511,0.000,0.000,0.000,0.000,0.000,0.000,0.000,16,16,4*6C
$GPGGA,074523.00,3135.3439415,N,12046.5162730,E,4,16,1.4,2.5079,M,8.307,M,01,0004*60
$GPHPD,0,0.000,50.81,0.22,-13.44,31.5890657,120.7752712,2.508,13633202.154,24924442.796,2.508,0.000,0.000,0.000,0.000,0.000,0.000,0.000,16,16,4*6B
$GPGGA,074523.20,3135.3439849,N,12046.5163323,E,4,16,1.4,2.5074,M,8.307,M,01,0004*6D
$GPHPD,0,0.000,50.45,0.44,-13.43,31.5890664,120.7752722,2.507,13633201.657,24924443.259,2.507,0.000,0.000,0.000,0.000,0.000,0.000,0.000,16,16,4*67
$GPGGA,074523.40,3135.3440255,N,12046.5163907,E,4,16,1.4,2.5082,M,8.307,M,01,0004*67
$GPHPD,0,0.000,50.29,0.81,-13.40,31.5890671,120.7752732,2.508,13633201.197,24924443.727,2.508,0.000,0.000,0.000,0.000,0.000,0.000,0.000,16,16,4*65
$GPGGA,074523.60,3135.3440671,N,12046.5164470,E,4,16,1.4,2.5090,M,8.307,M,00,0004*6F
$GPHPD,0,0.000,50.08,0.76,-13.37,31.5890678,120.7752741,2.509,13633200.719,24924444.164,2.509,0.000,0.000,0.000,0.000,0.000,0.000,0.000,16,16,4*64
$GPGGA,074523.80,3135.3441025,N,12046.5165055,E,4,16,1.4,2.5096,M,8.307,M,00,0004*63
$GPHPD,0,0.000,49.90,0.73,-13.32,31.5890684,120.7752751,2.510,13633200.334,24924444.663,2.510,0.000,0.000,0.000,0.000,0.000,0.000,0.000,16,16,4*64
$GPGGA,074524.00,3135.3441407,N,12046.5165509,E,4,16,1.4,2.5130,M,8.307,M,01,0004*68
$GPHPD,0,0.000,49.55,0.33,-13.27,31.5890690,120.7752758,2.513,13633199.882,24924444.988,2.513,0.000,0.000,0.000,0.000,0.000,0.000,0.000,16,16,4*6E
$GPGGA,074524.20,3135.3441742,N,12046.5165987,E,4,16,1.4,2.5216,M,8.307,M,01,0004*65
$GPHPD,0,0.000,49.59,0.56,-13.24,31.5890696,120.7752766,2.522,13633199.503,24924445.370,2.522,0.000,0.000,0.000,0.000,0.000,0.000,0.000,16,16,4*61
$GPGGA,074524.40,3135.3442035,N,12046.5166403,E,4,16,1.4,2.5215,M,8.307,M,01,0004*66
$GPHPD,0,0.000,49.30,0.43,-13.20,31.5890701,120.7752773,2.522,13633199.170,24924445.701,2.522,0.000,0.000,0.000,0.000,0.000,0.000,0.000,16,16,4*67
$GPGGA,074524.60,3135.3442358,N,12046.5166900,E,4,16,1.4,2.5330,M,8.307,M,00,0004*65
$GPHPD,0,0.000,49.33,0.67,-13.18,31.5890706,120.7752782,2.533,13633198.811,24924446.113,2.533,0.000,0.000,0.000,0.000,0.000,0.000,0.000,16,16,4*69
$GPGGA,074524.80,3135.3442622,N,12046.5167277,E,4,16,1.4,2.5341,M,8.307,M,00,0004*6F
$GPHPD,0,0.000,49.05,0.29,-13.14,31.5890710,120.7752788,2.534,13633198.511,24924446.414,2.534,0.000,0.000,0.000,0.000,0.000,0.000,0.000,16,16,4*68
$GPGGA,074525.00,3135.3442847,N,12046.5167613,E,4,16,1.4,2.5394,M,8.307,M,01,0004*64
$GPHPD,0,0.000,49.06,0.53,-13.09,31.5890714,120.7752794,2.539,13633198.259,24924446.688,2.539,0.000,0.000,0.000,0.000,0.000,0.000,0.000,16,16,4*6F
$GPGGA,074525.20,3135.3443075,N,12046.5167938,E,4,16,1.4,2.5399,M,8.307,M,01,0004*65
$GPHPD,0,0.000,49.09,0.69,-13.06,31.5890718,120.7752799,2.540,13633198.001,24924446.947,2.540,0.000,0.000,0.000,0.000,0.000,0.000,0.000,16,16,4*64
$GPGGA,074525.40,3135.3443267,N,12046.5168211,E,4,16,1.4,2.5321,M,8.307,M,01,0004*6E
$GPHPD,0,0.000,49.16,0.29,-13.06,31.5890721,120.7752804,2.532,13633197.783,24924447.165,2.532,0.000,0.000,0.000,0.000,0.000,0.000,0.000,16,16,4*64
$GPGGA,074525.60,3135.3443477,N,12046.5168485,E,4,16,1.4,2.5330,M,8.307,M,00,0004*61
$GPHPD,0,0.000,49.32,0.51,-13.05,31.5890725,120.7752808,2.533,13633197.539,24924447.373,2.533,0.000,0.000,0.000,0.000,0.000,0.000,0.000,16,16,4*60
$GPGGA,074525.80,3135.3443635,N,12046.5168661,E,4,16,1.4,2.5236,M,8.307,M,00,0004*64
$GPHPD,0,0.000,49.34,0.40,-13.04,31.5890727,120.7752811,2.524,13633197.350,24924447.493,2.524,0.000,0.000,0.000,0.000,0.000,0.000,0.000,16,16,4*6D
$GPGGA,074526.00,3135.3443778,N,12046.5168866,E,4,16,1.4,2.5248,M,8.307,M,01,0004*66
$GPHPD,0,0.000,49.54,0.52,-13.04,31.5890730,120.7752814,2.525,13633197.188,24924447.657,2.525,0.000,0.000,0.000,0.000,0.000,0.000,0.000,16,16,4*66
$GPGGA,074526.20,3135.3443923,N,12046.5169056,E,4,16,1.4,2.5232,M,8.307,M,01,0004*63
$GPHPD,0,0.000,49.69,0.80,-13.04,31.5890732,120.7752818,2.523,13633197.021,24924447.802,2.523,0.000,0.000,0.000,0.000,0.000,0.000,0.000,16,16,4*65
$GPGGA,074526.40,3135.3444045,N,12046.5169241,E,4,16,1.4,2.5277,M,8.307,M,01,0004*6E
$GPHPD,0,0.000,49.83,0.82,-13.07,31.5890734,120.7752821,2.528,13633196.884,24924447.954,2.528,0.000,0.000,0.000,0.000,0.000,0.000,0.000,16,16,4*68
$GPGGA,074526.60,3135.3444186,N,12046.5169443,E,4,16,1.4,2.5246,M,8.307,M,00,0004*65
$GPHPD,0,0.000,49.94,0.03,-13.12,31.5890736,120.7752824,2.525,13633196.725,24924448.116,2.525,0.000,0.000,0.000,0.000,0.000,0.000,0.000,16,16,4*61
$GPGGA,074526.80,3135.3444343,N,12046.5169675,E,4,16,1.4,2.5182,M,8.307,M,00,0004*6C
$GPHPD,0,0.000,50.31,-0.22,-13.20,31.5890739,120.7752828,2.518,13633196.548,24924448.304,2.518,0.000,0.000,0.000,0.000,0.000,0.000,0.000,16,15,4*41
$GPGGA,074527.00,3135.3444529,N,12046.5169957,E,4,16,1.4,2.5261,M,8.307,M,01,0004*6F
$GPHPD,0,0.000,50.37,0.17,-13.31,31.5890742,120.7752833,2.526,13633196.341,24924448.536,2.526,0.000,0.000,0.000,0.000,0.000,0.000,0.000,16,15,4*62
$GPGGA,074527.20,3135.3444772,N,12046.5170318,E,4,16,1.4,2.5167,M,8.307,M,01,0004*6D
$GPHPD,0,0.000,50.54,0.20,-13.41,31.5890746,120.7752839,2.517,13633196.068,24924448.830,2.517,0.000,0.000,0.000,0.000,0.000,0.000,0.000,16,15,4*69
$GPGGA,074527.40,3135.3445067,N,12046.5170745,E,4,16,1.4,2.5138,M,8.307,M,01,0004*6F
$GPHPD,0,0.000,50.78,0.93,-13.51,31.5890751,120.7752846,2.514,13633195.735,24924449.173,2.514,0.000,0.000,0.000,0.000,0.000,0.000,0.000,16,15,4*63
$GPGGA,074527.60,3135.3445370,N,12046.5171216,E,4,16,1.4,2.5197,M,8.307,M,01,0004*6F
$GPHPD,0,0.000,51.19,0.77,-13.58,31.5890756,120.7752854,2.520,13633195.399,24924449.565,2.520,0.000,0.000,0.000,0.000,0.000,0.000,0.000,16,15,4*63
$GPGGA,074527.80,3135.3445710,N,12046.5171753,E,4,16,1.4,2.5238,M,8.307,M,01,0004*61
$GPHPD,0,0.000,51.49,0.54,-13.61,31.5890762,120.7752863,2.524,13633195.024,24924450.014,2.524,0.000,0.000,0.000,0.000,0.000,0.000,0.000,16,15,4*60
$GPGGA,074528.00,3135.3446026,N,12046.5172276,E,4,16,1.4,2.5287,M,8.307,M,02,0004*61
$GPHPD,0,0.000,51.79,0.77,-13.61,31.5890767,120.7752871,2.529,13633194.680,24924450.461,2.529,0.000,0.000,0.000,0.000,0.000,0.000,0.000,16,15,4*6B
$GPGGA,074528.20,3135.3446377,N,12046.5172789,E,4,16,1.4,2.5250,M,8.307,M,02,0004*6B
$GPHPD,0,0.000,51.99,0.37,-13.60,31.5890773,120.7752880,2.525,13633194.284,24924450.876,2.525,0.000,0.000,0.000,0.000,0.000,0.000,0.000,16,15,4*61
$GPGGA,074528.40,3135.3446673,N,12046.5173297,E,4,16,1.4,2.5225,M,8.307,M,02,0004*65
$GPHPD,0,0.000,52.46,0.46,-13.60,31.5890778,120.7752888,2.523,13633193.966,24924451.316,2.523,0.000,0.000,0.000,0.000,0.000,0.000,0.000,16,15,4*69
$GPGGA,074528.60,3135.3447027,N,12046.5173812,E,4,16,1.4,2.5175,M,8.307,M,02,0004*60
$GPHPD,0,0.000,52.43,0.48,-13.60,31.5890784,120.7752897,2.518,13633193.566,24924451.731,2.518,0.000,0.000,0.000,0.000,0.000,0.000,0.000,16,15,4*62
$GPGGA,074528.80,3135.3447315,N,12046.5174300,E,4,16,1.4,2.5255,M,8.307,M,00,0004*60
$GPHPD,0,0.000,52.97,1.08,-13.58,31.5890789,120.7752905,2.526,13633193.255,24924452.152,2.526,0.000,0.000,0.000,0.000,0.000,0.000,0.000,16,15,4*65
$GPGGA,074529.00,3135.3447629,N,12046.5174786,E,4,16,1.4,2.5213,M,8.307,M,01,0004*6A
$GPHPD,0,0.000,53.07,0.49,-13.57,31.5890794,120.7752913,2.521,13633192.907,24924452.555,2.521,0.000,0.000,0.000,0.000,0.000,0.000,0.000,16,15,4*63
$GPGGA,074529.20,3135.3447896,N,12046.5175213,E,4,16,1.4,2.5359,M,8.307,M,01,0004*65
$GPHPD,0,0.000,53.23,0.81,-13.56,31.5890798,120.7752920,2.536,13633192.613,24924452.915,2.536,0.000,0.000,0.000,0.000,0.000,0.000,0.000,16,15,4*6E
$GPGGA,074529.40,3135.3448186,N,12046.5175691,E,4,16,1.4,2.5299,M,8.307,M,01,0004*67
$GPHPD,0,0.000,53.46,0.60,-13.55,31.5890803,120.7752928,2.530,13633192.297,24924453.323,2.530,0.000,0.000,0.000,0.000,0.000,0.000,0.000,16,15,4*62
$GPGGA,074529.60,3135.3448438,N,12046.5176113,E,4,16,1.4,2.5320,M,8.307,M,00,0004*69
$GPHPD,0,0.000,53.55,0.47,-13.53,31.5890807,120.7752935,2.532,13633192.024,24924453.685,2.532,0.000,0.000,0.000,0.000,0.000,0.000,0.000,16,15,4*68
$GPGGA,074529.80,3135.3448704,N,12046.5176525,E,4,16,1.4,2.5236,M,8.307,M,00,0004*6C
$GPHPD,0,0.000,53.77,0.22,-13.51,31.5890812,120.7752942,2.524,13633191.729,24924454.027,2.524,0.000,0.000,0.000,0.000,0.000,0.000,0.000,16,15,4*6D
$GPGGA,074530.00,3135.3448924,N,12046.5176893,E,4,16,1.4,2.5278,M,8.307,M,01,0004*6B
$GPHPD,0,0.000,53.95,0.83,-13.48,31.5890815,120.7752948,2.528,13633191.490,24924454.343,2.528,0.000,0.000,0.000,0.000,0.000,0.000,0.000,16,15,4*6F
$GPGGA,074530.20,3135.3449143,N,12046.5177270,E,4,16,1.4,2.5280,M,8.307,M,01,0004*60
$GPHPD,0,0.000,54.01,0.72,-13.46,31.5890819,120.7752955,2.528,13633191.255,24924454.670,2.528,0.000,0.000,0.000,0.000,0.000,0.000,0.000,16,15,4*6F
$GPGGA,074530.40,3135.3449362,N,12046.5177603,E,4,16,1.4,2.5229,M,8.307,M,01,0004*64
$GPHPD,0,0.000,53.82,0.26,-13.44,31.5890823,120.7752960,2.523,13633191.011,24924454.944,2.523,0.000,0.000,0.000,0.000,0.000,0.000,0.000,16,15,4*65
$GPGGA,074530.60,3135.3449509,N,12046.5177949,E,4,16,1.5,2.5268,M,8.307,M,00,0004*69
$GPHPD,0,0.000,53.95,0.98,-13.42,31.5890825,120.7752966,2.527,13633190.871,24924455.276,2.527,0.000,0.000,0.000,0.000,0.000,0.000,0.000,16,15,4*64
$GPGGA,074530.80,3135.3449692,N,12046.5178237,E,4,15,1.5,2.5264,M,8.307,M,00,0004*64
$GPHPD,0,0.000,53.89,0.52,-13.40,31.5890828,120.7752971,2.526,13633190.669,24924455.517,2.526,0.000,0.000,0.000,0.000,0.000,0.000,0.000,15,15,4*62
$GPGGA,074531.00,3135.3449878,N,12046.5178528,E,4,15,1.5,2.5240,M,8.307,M,01,0004*69
$GPHPD,0,0.000,54.09,0.57,-13.39,31.5890831,120.7752975,2.524,13633190.464,24924455.759,2.524,0.000,0.000,0.000,0.000,0.000,0.000,0.000,15,15,4*6D
$GPGGA,074531.20,3135.3450048,N,12046.5178812,E,4,15,1.5,2.5141,M,8.307,M,01,0004*6E
$GPHPD,0,0.000,54.18,0.70,-13.38,31.5890834,120.7752980,2.514,13633190.279,24924456.003,2.514,0.000,0.000,0.000,0.000,0.000,0.000,0.000,15,15,4*67
$GPGGA,074531.40,3135.3450199,N,12046.5179085,E,4,15,1.5,2.5201,M,8.307,M,01,0004*65
$GPHPD,0,0.000,54.10,0.84,-13.40,31.5890837,120.7752985,2.520,13633190.119,24924456.244,2.520,0.000,0.000,0.000,0.000,0.000,0.000,0.000,15,15,4*69
$GPGGA,074531.60,3135.3450392,N,12046.5179392,E,4,15,1.5,2.5225,M,8.307,M,00,0004*6C
$GPHPD,0,0.000,54.12,0.45,-13.44,31.5890840,120.7752990,2.523,13633189.907,24924456.502,2.523,0.000,0.000,0.000,0.000,0.000,0.000,0.000,15,15,4*6C
$GPGGA,074531.80,3135.3450596,N,12046.5179709,E,4,15,1.5,2.5167,M,8.307,M,00,0004*63
$GPHPD,0,0.000,54.15,0.31,-13.53,31.5890843,120.7752995,2.517,13633189.681,24924456.766,2.517,0.000,0.000,0.000,0.000,0.000,0.000,0.000,15,15,4*69
$GPGGA,074532.00,3135.3450839,N,12046.5180129,E,4,15,1.5,2.5043,M,8.307,M,01,0004*64
$GPHPD,0,0.000,54.01,0.53,-13.66,31.5890847,120.7753002,2.504,13633189.420,24924457.131,2.504,0.000,0.000,0.000,0.000,0.000,0.000,0.000,15,15,4*60
$GPGGA,074532.20,3135.3451122,N,12046.5180613,E,4,15,1.5,2.5126,M,8.307,M,01,0004*68
$GPHPD,0,0.000,54.14,1.16,-13.76,31.5890852,120.7753010,2.513,13633189.115,24924457.550,2.513,0.000,0.000,0.000,0.000,0.000,0.000,0.000,15,15,4*62
$GPGGA,074532.40,3135.3451489,N,12046.5181202,E,4,15,1.5,2.5080,M,8.307,M,01,0004*62
$GPHPD,0,0.000,54.06,0.80,-13.88,31.5890858,120.7753020,2.508,13633188.712,24924458.046,2.508,0.000,0.000,0.000,0.000,0.000,0.000,0.000,15,15,4*6A
$GPGGA,074532.60,3135.3451882,N,12046.5181882,E,4,15,1.5,2.5190,M,8.307,M,00,0004*64
$GPHPD,0,0.000,54.29,1.42,-14.01,31.5890865,120.7753031,2.519,13633188.291,24924458.638,2.519,0.000,0.000,0.000,0.000,0.000,0.000,0.000,15,15,4*61
$GPGGA,074532.80,3135.3452390,N,12046.5182693,E,4,15,1.5,2.5226,M,8.307,M,00,0004*62
$GPHPD,0,0.000,54.37,1.34,-14.14,31.5890873,120.7753045,2.523,13633187.732,24924459.320,2.523,0.000,0.000,0.000,0.000,0.000,0.000,0.000,15,15,4*61
$GPGGA,074533.00,3135.3452945,N,12046.5183595,E,4,15,1.5,2.5268,M,8.307,M,01,0004*66
$GPHPD,0,0.000,54.54,0.76,-14.27,31.5890882,120.7753060,2.527,13633187.125,24924460.085,2.527,0.000,0.000,0.000,0.000,0.000,0.000,0.000,15,15,4*6C
$GPGGA,074533.20,3135.3453544,N,12046.5184657,E,4,15,1.5,2.5235,M,8.307,M,01,0004*6A
$GPHPD,0,0.000,54.46,1.27,-14.39,31.5890892,120.7753078,2.524,13633186.487,24924461.017,2.524,0.000,0.000,0.000,0.000,0.000,0.000,0.000,15,15,4*6B
$GPGGA,074533.40,3135.3454251,N,12046.5185869,E,4,15,1.5,2.5325,M,8.307,M,01,0004*6A
$GPHPD,0,0.000,54.26,1.44,-14.52,31.5890904,120.7753098,2.533,13633185.726,24924462.067,2.533,0.000,0.000,0.000,0.000,0.000,0.000,0.000,15,15,4*6A
$GPGGA,074533.60,3135.3454987,N,12046.5187123,E,4,15,1.5,2.5337,M,8.307,M,00,0004*6F
$GPHPD,0,0.000,54.71,1.34,-14.61,31.5890916,120.7753119,2.534,13633184.932,24924463.151,2.534,0.000,0.000,0.000,0.000,0.000,0.000,0.000,15,15,4*6B
$GPGGA,074533.80,3135.3455789,N,12046.5188481,E,4,15,1.5,2.5197,M,8.307,M,00,0004*6A
$GPHPD,0,0.000,54.63,0.89,-14.69,31.5890930,120.7753141,2.520,13633184.066,24924464.322,2.520,0.000,0.000,0.000,0.000,0.000,0.000,0.000,15,15,4*67
$GPGGA,074534.00,3135.3456631,N,12046.5190004,E,4,15,1.5,2.5365,M,8.307,M,01,0004*6A
$GPHPD,0,0.000,54.76,2.06,-14.71,31.5890944,120.7753167,2.537,13633183.176,24924465.669,2.537,0.000,0.000,0.000,0.000,0.000,0.000,0.000,15,15,4*64
$GPGGA,074534.20,3135.3457557,N,12046.5191556,E,4,15,1.5,2.5400,M,8.307,M,01,0004*6D
$GPHPD,0,0.000,55.12,0.69,-14.72,31.5890959,120.7753193,2.540,13633182.172,24924467.002,2.540,0.000,0.000,0.000,0.000,0.000,0.000,0.000,15,15,4*64
$GPGGA,074534.40,3135.3458474,N,12046.5193126,E,4,15,1.5,2.5411,M,8.307,M,01,0004*65
$GPHPD,0,0.000,55.23,-0.15,-14.68,31.5890975,120.7753219,2.541,13633181.185,24924468.361,2.541,0.000,0.000,0.000,0.000,0.000,0.000,0.000,15,15,4*46
$GPGGA,074534.60,3135.3459449,N,12046.5194828,E,4,15,1.5,2.5442,M,8.307,M,00,0004*6F
$GPHPD,0,0.000,54.99,-0.92,-14.64,31.5890991,120.7753247,2.544,13633180.142,24924469.846,2.544,0.000,0.000,0.000,0.000,0.000,0.000,0.000,15,15,4*41
$GPGGA,074534.80,3135.3460442,N,12046.5196526,E,4,15,1.5,2.5684,M,8.307,M,00,0004*69
$GPHPD,0,0.000,55.06,-2.64,-14.56,31.5891007,120.7753275,2.568,13633179.072,24924471.316,2.568,0.000,0.000,0.000,0.000,0.000,0.000,0.000,15,15,4*49
$GPGGA,074535.00,3135.3461438,N,12046.5198276,E,4,15,1.5,2.5819,M,8.307,M,01,0004*6B
$GPHPD,0,0.000,55.80,-2.40,-14.49,31.5891024,120.7753305,2.582,13633178.009,24924472.847,2.582,0.000,0.000,0.000,0.000,0.000,0.000,0.000,15,15,4*49
$GPGGA,074535.20,3135.3462510,N,12046.5200049,E,4,15,1.6,2.5499,M,8.307,M,01,0004*6A
$GPHPD,0,0.000,56.60,-2.97,-14.43,31.5891042,120.7753334,2.550,13633176.842,24924474.361,2.550,0.000,0.000,0.000,0.000,0.000,0.000,0.000,15,15,4*46
$GPGGA,074535.40,3135.3463550,N,12046.5201721,E,4,15,1.5,2.5342,M,8.307,M,01,0004*63
$GPHPD,0,0.000,58.21,-3.17,-14.37,31.5891059,120.7753362,2.534,13633175.701,24924475.773,2.534,0.000,0.000,0.000,0.000,0.000,0.000,0.000,15,15,4*43
$GPGGA,074535.60,3135.3464538,N,12046.5203462,E,4,15,1.6,2.5080,M,8.307,M,00,0004*61
$GPHPD,0,0.000,59.64,-2.39,-14.29,31.5891076,120.7753391,2.508,13633174.647,24924477.297,2.508,0.000,0.000,0.000,0.000,0.000,0.000,0.000,15,15,4*4F
$GPGGA,074535.80,3135.3465396,N,12046.5205185,E,4,15,1.5,2.5432,M,8.307,M,00,0004*68
$GPHPD,0,0.000,60.48,-1.13,-14.26,31.5891090,120.7753420,2.543,13633173.774,24924478.876,2.543,0.000,0.000,0.000,0.000,0.000,0.000,0.000,15,15,4*46
$GPGGA,074536.00,3135.3466181,N,12046.5206887,E,4,15,1.5,2.5614,M,8.307,M,01,0004*6B
$GPHPD,0,0.000,60.99,-1.68,-14.19,31.5891103,120.7753448,2.561,13633173.001,24924480.471,2.561,0.000,0.000,0.000,0.000,0.000,0.000,0.000,15,15,4*46
$GPGGA,074536.20,3135.3466942,N,12046.5208892,E,4,15,1.5,2.5236,M,8.307,M,01,0004*60
$GPHPD,0,0.000,59.76,-0.25,-14.09,31.5891116,120.7753482,2.524,13633172.323,24924482.446,2.524,0.000,0.000,0.000,0.000,0.000,0.000,0.000,15,15,4*42
$GPGGA,074536.40,3135.3467762,N,12046.5210805,E,4,15,1.5,2.4936,M,8.307,M,01,0004*66
$GPHPD,0,0.000,59.65,0.36,-13.99,31.5891129,120.7753513,2.494,13633171.543,24924484.276,2.494,0.000,0.000,0.000,0.000,0.000,0.000,0.000,15,15,4*64
$GPGGA,074536.60,3135.3468617,N,12046.5212590,E,4,15,1.6,2.5057,M,8.307,M,00,0004*66
$GPHPD,0,0.000,59.50,2.49,-13.89,31.5891144,120.7753543,2.506,13633170.687,24924485.931,2.506,0.000,0.000,0.000,0.000,0.000,0.000,0.000,15,15,4*64
$GPGGA,074536.80,3135.3469396,N,12046.5214407,E,4,15,1.5,2.5461,M,8.307,M,00,0004*6E
$GPHPD,0,0.000,59.12,1.02,-13.76,31.5891157,120.7753573,2.546,13633169.946,24924487.669,2.546,0.000,0.000,0.000,0.000,0.000,0.000,0.000,15,15,4*65
$GPGGA,074537.00,3135.3470450,N,12046.5216280,E,4,15,1.5,2.5638,M,8.307,M,01,0004*66
$GPHPD,0,0.000,58.48,-0.28,-13.65,31.5891174,120.7753605,2.564,13633168.825,24924489.314,2.564,0.000,0.000,0.000,0.000,0.000,0.000,0.000,15,15,4*4A
$GPGGA,074537.20,3135.3471292,N,12046.5218054,E,4,15,1.5,2.5791,M,8.307,M,01,0004*6A
$GPHPD,0,0.000,59.20,0.37,-13.59,31.5891188,120.7753634,2.579,13633167.985,24924490.964,2.579,0.000,0.000,0.000,0.000,0.000,0.000,0.000,15,15,4*69
$GPGGA,074537.40,3135.3472188,N,12046.5219854,E,4,16,1.5,2.5826,M,8.307,M,01,0004*6E
$GPHPD,0,0.000,59.21,-0.15,-13.55,31.5891203,120.7753664,2.583,13633167.074,24924492.613,2.583,0.000,0.000,0.000,0.000,0.000,0.000,0.000,16,16,4*46
$GPGGA,074537.60,3135.3473042,N,12046.5221650,E,4,16,1.5,2.5842,M,8.307,M,00,0004*68
$GPHPD,0,0.000,58.95,-0.08,-13.52,31.5891217,120.7753694,2.584,13633166.222,24924494.282,2.584,0.000,0.000,0.000,0.000,0.000,0.000,0.000,16,16,4*43
$GPGGA,074537.80,3135.3473937,N,12046.5223432,E,4,16,1.5,2.5734,M,8.307,M,00,0004*67
$GPHPD,0,0.000,59.08,-0.51,-13.52,31.5891232,120.7753724,2.573,13633165.309,24924495.910,2.573,0.000,0.000,0.000,0.000,0.000,0.000,0.000,16,16,4*4D
$GPGGA,074538.00,3135.3474679,N,12046.5225305,E,4,16,1.5,2.5606,M,8.307,M,01,0004*66
$GPHPD,0,0.000,59.51,0.34,-13.53,31.5891245,120.7753755,2.561,13633164.631,24924497.737,2.561,0.000,0.000,0.000,0.000,0.000,0.000,0.000,16,16,4*6E
$GPGGA,074538.20,3135.3475545,N,12046.5227131,E,4,16,1.5,2.5648,M,8.307,M,01,0004*64
$GPHPD,0,0.000,59.19,0.02,-13.54,31.5891259,120.7753786,2.565,13633163.768,24924499.435,2.565,0.000,0.000,0.000,0.000,0.000,0.000,0.000,16,16,4*66
$GPGGA,074538.40,3135.3476450,N,12046.5228878,E,4,16,1.5,2.5484,M,8.307,M,01,0004*6D
$GPHPD,0,0.000,59.29,-0.02,-13.57,31.5891274,120.7753815,2.548,13633162.833,24924501.015,2.548,0.000,0.000,0.000,0.000,0.000,0.000,0.000,16,16,4*47
$GPGGA,074538.60,3135.3477340,N,12046.5230765,E,4,16,1.5,2.5451,M,8.307,M,00,0004*6B
$GPHPD,0,0.000,59.83,-1.03,-13.58,31.5891289,120.7753846,2.545,13633161.948,24924502.773,2.545,0.000,0.000,0.000,0.000,0.000,0.000,0.000,16,16,4*46
$GPGGA,074538.80,3135.3478205,N,12046.5232627,E,4,16,1.5,2.5607,M,8.307,M,00,0004*6E
$GPHPD,0,0.000,59.93,-0.47,-13.58,31.5891303,120.7753877,2.561,13633161.094,24924504.515,2.561,0.000,0.000,0.000,0.000,0.000,0.000,0.000,16,16,4*4B
$GPGGA,074539.00,3135.3479160,N,12046.5234462,E,4,16,1.5,2.5489,M,8.307,M,01,0004*66
$GPHPD,0,0.000,59.55,-0.94,-13.60,31.5891319,120.7753908,2.549,13633160.106,24924506.172,2.549,0.000,0.000,0.000,0.000,0.000,0.000,0.000,16,16,4*4A
$GPGGA,074539.20,3135.3480092,N,12046.5236324,E,4,16,1.5,2.5475,M,8.307,M,01,0004*6A
$GPHPD,0,0.000,59.73,-0.01,-13.61,31.5891335,120.7753939,2.548,13633159.156,24924507.875,2.548,0.000,0.000,0.000,0.000,0.000,0.000,0.000,16,16,4*4F
$GPGGA,074539.40,3135.3480954,N,12046.5238146,E,4,16,1.5,2.5349,M,8.307,M,01,0004*6F
$GPHPD,0,0.000,59.67,0.18,-13.60,31.5891349,120.7753969,2.535,13633158.298,24924509.571,2.535,0.000,0.000,0.000,0.000,0.000,0.000,0.000,16,16,4*67
$GPGGA,074539.60,3135.3481894,N,12046.5240051,E,4,16,1.5,2.5113,M,8.307,M,00,0004*65
$GPHPD,0,0.000,59.32,-0.79,-13.55,31.5891365,120.7754001,2.511,13633157.345,24924511.321,2.511,0.000,0.000,0.000,0.000,0.000,0.000,0.000,16,16,4*41
$GPGGA,074539.80,3135.3482814,N,12046.5241898,E,4,16,1.5,2.5231,M,8.307,M,00,0004*6F
$GPHPD,0,0.000,59.08,0.42,-13.53,31.5891380,120.7754032,2.523,13633156.410,24924513.013,2.523,0.000,0.000,0.000,0.000,0.000,0.000,0.000,16,16,4*66
$GPGGA,074540.00,3135.3483685,N,12046.5243744,E,4,16,1.4,2.5373,M,8.307,M,01,0004*65
$GPHPD,0,0.000,59.21,0.25,-13.48,31.5891395,120.7754062,2.537,13633155.543,24924514.732,2.537,0.000,0.000,0.000,0.000,0.000,0.000,0.000,16,16,4*60
$GPGGA,074540.20,3135.3484624,N,12046.5245556,E,4,16,1.4,2.5467,M,8.307,M,01,0004*6E
$GPHPD,0,0.000,59.77,0.52,-13.44,31.5891410,120.7754093,2.547,13633154.573,24924516.371,2.547,0.000,0.000,0.000,0.000,0.000,0.000,0.000,16,16,4*68
$GPGGA,074540.40,3135.3485549,N,12046.5247499,E,4,16,1.4,2.5372,M,8.307,M,01,0004*62
$GPHPD,0,0.000,60.04,0.89,-13.40,31.5891426,120.7754125,2.537,13633153.650,24924518.176,2.537,0.000,0.000,0.000,0.000,0.000,0.000,0.000,16,16,4*63
$GPGGA,074540.60,3135.3486427,N,12046.5249390,E,4,16,1.4,2.5274,M,8.307,M,00,0004*6C
$GPHPD,0,0.000,60.00,0.79,-13.33,31.5891440,120.7754157,2.527,13633152.783,24924519.945,2.527,0.000,0.000,0.000,0.000,0.000,0.000,0.000,16,16,4*6E
$GPGGA,074540.80,3135.3487311,N,12046.5251276,E,4,16,1.5,2.5366,M,8.307,M,00,0004*62
$GPHPD,0,0.000,59.59,0.71,-13.28,31.5891455,120.7754188,2.537,13633151.906,24924521.705,2.537,0.000,0.000,0.000,0.000,0.000,0.000,0.000,16,16,4*6D
$GPGGA,074541.00,3135.3488207,N,12046.5253078,E,4,16,1.5,2.5474,M,8.307,M,01,0004*69
$GPHPD,0,0.000,59.06,0.28,-13.24,31.5891470,120.7754218,2.547,13633150.995,24924523.357,2.547,0.000,0.000,0.000,0.000,0.000,0.000,0.000,16,16,4*60
$GPGGA,074541.20,3135.3489133,N,12046.5254995,E,4,16,1.5,2.5466,M,8.307,M,01,0004*60
$GPHPD,0,0.000,58.93,-0.02,-13.26,31.5891486,120.7754250,2.547,13633150.065,24924525.130,2.547,0.000,0.000,0.000,0.000,0.000,0.000,0.000,16,16,4*4C
$GPGGA,074541.40,3135.3490048,N,12046.5256824,E,4,16,1.5,2.5432,M,8.307,M,01,0004*6B
$GPHPD,0,0.000,58.36,-0.17,-13.25,31.5891501,120.7754280,2.543,13633149.133,24924526.803,2.543,0.000,0.000,0.000,0.000,0.000,0.000,0.000,16,16,4*47
$GPGGA,074541.60,3135.3490997,N,12046.5258670,E,4,16,1.5,2.5584,M,8.307,M,00,0004*6E
$GPHPD,0,0.000,58.56,-0.37,-13.24,31.5891517,120.7754311,2.558,13633148.156,24924528.477,2.558,0.000,0.000,0.000,0.000,0.000,0.000,0.000,16,16,4*4F
$GPGGA,074541.80,3135.3491916,N,12046.5260520,E,4,16,1.5,2.5433,M,8.307,M,00,0004*68
$GPHPD,0,0.000,58.54,-0.66,-13.25,31.5891532,120.7754342,2.543,13633147.222,24924530.173,2.543,0.000,0.000,0.000,0.000,0.000,0.000,0.000,16,16,4*4E
$GPGGA,074542.00,3135.3492847,N,12046.5262382,E,4,16,1.5,2.5405,M,8.307,M,01,0004*6D
$GPHPD,0,0.000,58.18,-0.57,-13.25,31.5891547,120.7754373,2.541,13633146.274,24924531.877,2.541,0.000,0.000,0.000,0.000,0.000,0.000,0.000,16,16,4*4A
$GPGGA,074542.20,3135.3493844,N,12046.5264253,E,4,16,1.5,2.5487,M,8.307,M,01,0004*6C
$GPHPD,0,0.000,58.74,-0.88,-13.25,31.5891564,120.7754404,2.549,13633145.233,24924533.553,2.549,0.000,0.000,0.000,0.000,0.000,0.000,0.000,16,15,4*4E
$GPGGA,074542.40,3135.3494719,N,12046.5266182,E,4,16,1.6,2.5172,M,8.307,M,01,0004*6B
$GPHPD,0,0.000,58.79,-1.18,-13.25,31.5891579,120.7754436,2.517,13633144.378,24924535.370,2.517,0.000,0.000,0.000,0.000,0.000,0.000,0.000,16,16,4*4B
$GPGGA,074542.60,3135.3495713,N,12046.5268073,E,4,16,1.5,2.5441,M,8.307,M,00,0004*64
$GPHPD,0,0.000,58.84,-1.16,-13.24,31.5891595,120.7754468,2.544,13633143.346,24924537.072,2.544,0.000,0.000,0.000,0.000,0.000,0.000,0.000,16,16,4*46
$GPGGA,074542.80,3135.3496644,N,12046.5269845,E,4,16,1.5,2.5310,M,8.308,M,00,0004*6A
$GPHPD,0,0.000,59.12,-0.80,-13.21,31.5891611,120.7754497,2.531,13633142.379,24924538.667,2.531,0.000,0.000,0.000,0.000,0.000,0.000,0.000,16,16,4*4C
$GPGGA,074543.00,3135.3497742,N,12046.5271759,E,4,16,1.5,2.5379,M,8.308,M,01,0004*60
$GPHPD,0,0.000,59.76,-0.30,-13.17,31.5891629,120.7754529,2.538,13633141.204,24924540.336,2.538,0.000,0.000,0.000,0.000,0.000,0.000,0.000,16,16,4*49
$GPGGA,074543.20,3135.3498694,N,12046.5273628,E,4,16,1.5,2.5265,M,8.308,M,01,0004*6E
$GPHPD,0,0.000,60.05,1.36,-13.19,31.5891645,120.7754560,2.527,13633140.227,24924542.036,2.527,0.000,0.000,0.000,0.000,0.000,0.000,0.000,16,16,4*65
$GPGGA,074543.40,3135.3499535,N,12046.5275499,E,4,16,1.5,2.5402,M,8.308,M,01,0004*68
$GPHPD,0,0.000,60.55,1.42,-13.18,31.5891659,120.7754592,2.540,13633139.409,24924543.803,2.540,0.000,0.000,0.000,0.000,0.000,0.000,0.000,16,16,4*69
$GPGGA,074543.60,3135.3500415,N,12046.5277348,E,4,16,1.5,2.5578,M,8.308,M,00,0004*6C
$GPHPD,0,0.000,60.41,1.72,-13.17,31.5891674,120.7754622,2.558,13633138.530,24924545.521,2.558,0.000,0.000,0.000,0.000,0.000,0.000,0.000,16,16,4*66
$GPGGA,074543.80,3135.3501276,N,12046.5279218,E,4,16,1.5,2.5620,M,8.308,M,00,0004*64
$GPHPD,0,0.000,59.71,1.12,-13.21,31.5891688,120.7754654,2.562,13633137.683,24924547.275,2.562,0.000,0.000,0.000,0.000,0.000,0.000,0.000,16,16,4*6E
$GPGGA,074544.00,3135.3502133,N,12046.5281103,E,4,16,1.5,2.5619,M,8.308,M,01,0004*6F
$GPHPD,0,0.000,59.42,0.78,-13.23,31.5891702,120.7754685,2.562,13633136.844,24924549.049,2.562,0.000,0.000,0.000,0.000,0.000,0.000,0.000,16,16,4*69
$GPGGA,074544.20,3135.3503054,N,12046.5282922,E,4,16,1.5,2.5688,M,8.308,M,01,0004*6C
$GPHPD,0,0.000,58.79,0.54,-13.25,31.5891718,120.7754715,2.569,13633135.901,24924550.707,2.569,0.000,0.000,0.000,0.000,0.000,0.000,0.000,16,16,4*6D
$GPGGA,074544.40,3135.3503844,N,12046.5284731,E,4,16,1.5,2.5500,M,8.308,M,01,0004*6A
$GPHPD,0,0.000,58.31,0.47,-13.28,31.5891731,120.7754746,2.550,13633135.143,24924552.429,2.550,0.000,0.000,0.000,0.000,0.000,0.000,0.000,16,16,4*60
$GPGGA,074544.60,3135.3504776,N,12046.5286557,E,4,16,1.5,2.5456,M,8.308,M,01,0004*63
$GPHPD,0,0.000,58.39,-0.20,-13.29,31.5891746,120.7754776,2.546,13633134.186,24924554.089,2.546,0.000,0.000,0.000,0.000,0.000,0.000,0.000,16,16,4*46
$GPGGA,074544.80,3135.3505728,N,12046.5288348,E,4,16,1.5,2.5443,M,8.308,M,01,0004*65
$GPHPD,0,0.000,58.14,0.82,-13.25,31.5891762,120.7754806,2.544,13633133.193,24924555.694,2.544,0.000,0.000,0.000,0.000,0.000,0.000,0.000,16,16,4*66
$GPGGA,074545.00,3135.3506660,N,12046.5290142,E,4,16,1.5,2.5731,M,8.308,M,02,0004*66
$GPHPD,0,0.000,58.20,1.19,-13.24,31.5891778,120.7754836,2.573,13633132.230,24924557.315,2.573,0.000,0.000,0.000,0.000,0.000,0.000,0.000,16,16,4*6E
$GPGGA,074545.20,3135.3507581,N,12046.5292034,E,4,16,1.5,2.5403,M,8.308,M,02,0004*69
$GPHPD,0,0.000,57.78,0.39,-13.20,31.5891793,120.7754867,2.540,13633131.302,24924559.061,2.540,0.000,0.000,0.000,0.000,0.000,0.000,0.000,16,16,4*67
$GPGGA,074545.40,3135.3508529,N,12046.5293910,E,4,16,1.5,2.5462,M,8.308,M,02,0004*6B
$GPHPD,0,0.000,57.56,0.11,-13.18,31.5891809,120.7754899,2.546,13633130.332,24924560.772,2.546,0.000,0.000,0.000,0.000,0.000,0.000,0.000,16,15,4*69
$GPGGA,074545.60,3135.3509449,N,12046.5295600,E,4,16,1.5,2.5580,M,8.308,M,02,0004*6A
$GPHPD,0,0.000,56.73,0.26,-13.18,31.5891824,120.7754927,2.558,13633129.365,24924562.274,2.558,0.000,0.000,0.000,0.000,0.000,0.000,0.000,16,15,4*6B
$GPGGA,074545.80,3135.3510379,N,12046.5297526,E,4,15,1.5,2.5517,M,8.308,M,00,0004*62
$GPHPD,0,0.000,57.06,-0.87,-13.20,31.5891840,120.7754959,2.552,13633128.430,24924564.056,2.552,0.000,0.000,0.000,0.000,0.000,0.000,0.000,15,15,4*4F
$GPGGA,074546.00,3135.3511401,N,12046.5299273,E,4,15,1.5,2.5497,M,8.308,M,01,0004*61
$GPHPD,0,0.000,56.68,-1.43,-13.22,31.5891857,120.7754988,2.550,13633127.330,24924565.568,2.550,0.000,0.000,0.000,0.000,0.000,0.000,0.000,15,15,4*46
$GPGGA,074546.20,3135.3512371,N,12046.5301033,E,4,15,1.5,2.5577,M,8.308,M,01,0004*69
$GPHPD,0,0.000,56.96,0.20,-13.24,31.5891873,120.7755017,2.558,13633126.305,24924567.126,2.558,0.000,0.000,0.000,0.000,0.000,0.000,0.000,15,15,4*6B
$GPGGA,074546.40,3135.3513373,N,12046.5302851,E,4,15,1.6,2.5208,M,8.308,M,01,0004*6F
$GPHPD,0,0.000,56.97,-1.39,-13.22,31.5891890,120.7755048,2.521,13633125.247,24924568.735,2.521,0.000,0.000,0.000,0.000,0.000,0.000,0.000,15,15,4*40
$GPGGA,074546.60,3135.3514341,N,12046.5304695,E,4,15,1.6,2.5173,M,8.308,M,00,0004*65
$GPHPD,0,0.000,58.13,0.90,-13.22,31.5891906,120.7755078,2.517,13633124.243,24924570.396,2.517,0.000,0.000,0.000,0.000,0.000,0.000,0.000,15,15,4*61
$GPGGA,074546.80,3135.3515224,N,12046.5306455,E,4,15,1.6,2.5491,M,8.308,M,00,0004*6D
$GPHPD,0,0.000,58.43,0.61,-13.21,31.5891920,120.7755108,2.549,13633123.342,24924572.004,2.549,0.000,0.000,0.000,0.000,0.000,0.000,0.000,15,15,4*66
$GPGGA,074547.00,3135.3516298,N,12046.5308336,E,4,15,1.6,2.5393,M,8.308,M,01,0004*68
$GPHPD,0,0.000,58.50,0.68,-13.22,31.5891938,120.7755139,2.539,13633122.194,24924573.648,2.539,0.000,0.000,0.000,0.000,0.000,0.000,0.000,15,15,4*62
$GPGGA,074547.20,3135.3517337,N,12046.5310185,E,4,15,1.6,2.5454,M,8.308,M,01,0004*60
$GPHPD,0,0.000,58.95,1.34,-13.19,31.5891956,120.7755170,2.545,13633121.090,24924575.273,2.545,0.000,0.000,0.000,0.000,0.000,0.000,0.000,15,15,4*62
$GPGGA,074547.40,3135.3518229,N,12046.5312024,E,4,15,1.6,2.5631,M,8.308,M,01,0004*6E
$GPHPD,0,0.000,59.52,0.88,-13.17,31.5891970,120.7755200,2.563,13633120.192,24924576.971,2.563,0.000,0.000,0.000,0.000,0.000,0.000,0.000,15,15,4*68
$GPGGA,074547.60,3135.3519146,N,12046.5313861,E,4,15,1.6,2.5624,M,8.308,M,01,0004*6B
$GPHPD,0,0.000,59.19,-0.28,-13.17,31.5891986,120.7755231,2.562,13633119.258,24924578.653,2.562,0.000,0.000,0.000,0.000,0.000,0.000,0.000,15,15,4*45
$GPGGA,074547.80,3135.3519971,N,12046.5315729,E,4,15,1.6,2.5613,M,8.308,M,01,0004*68
$GPHPD,0,0.000,58.41,-1.18,-13.16,31.5892000,120.7755262,2.561,13633118.462,24924580.426,2.561,0.000,0.000,0.000,0.000,0.000,0.000,0.000,15,15,4*41
$GPGGA,074548.00,3135.3520781,N,12046.5317642,E,4,15,1.6,2.5419,M,8.308,M,02,0004*61
$GPHPD,0,0.000,58.32,-1.39,-13.18,31.5892013,120.7755294,2.542,13633117.696,24924582.261,2.542,0.000,0.000,0.000,0.000,0.000,0.000,0.000,15,15,4*42
$GPGGA,074548.20,3135.3521707,N,12046.5319482,E,4,15,1.6,2.5483,M,8.308,M,02,0004*6F
$GPHPD,0,0.000,58.13,0.86,-13.20,31.5892028,120.7755325,2.548,13633116.750,24924583.941,2.548,0.000,0.000,0.000,0.000,0.000,0.000,0.000,15,14,4*62
$GPGGA,074548.40,3135.3522651,N,12046.5321312,E,4,15,1.6,2.5639,M,8.308,M,02,0004*6E
$GPHPD,0,0.000,57.77,0.44,-13.24,31.5892044,120.7755355,2.564,13633115.777,24924585.599,2.564,0.000,0.000,0.000,0.000,0.000,0.000,0.000,15,14,4*61
$GPGGA,074548.60,3135.3523623,N,12046.5323161,E,4,15,1.6,2.5536,M,8.308,M,02,0004*60
$GPHPD,0,0.000,57.35,-0.29,-13.25,31.5892060,120.7755386,2.554,13633114.768,24924587.263,2.554,0.000,0.000,0.000,0.000,0.000,0.000,0.000,15,14,4*47
$GPGGA,074548.80,3135.3524564,N,12046.5324988,E,4,15,1.6,2.5449,M,8.308,M,02,0004*68
$GPHPD,0,0.000,57.07,0.11,-13.26,31.5892076,120.7755416,2.545,13633113.798,24924588.919,2.545,0.000,0.000,0.000,0.000,0.000,0.000,0.000,15,14,4*6B
$GPGGA,074549.00,3135.3525528,N,12046.5326840,E,4,15,1.6,2.5308,M,8.308,M,03,0004*6C
$GPHPD,0,0.000,57.38,-0.69,-13.21,31.5892092,120.7755447,2.531,13633112.801,24924590.591,2.531,0.000,0.000,0.000,0.000,0.000,0.000,0.000,15,14,4*47
$GPGGA,074549.20,3135.3526569,N,12046.5328665,E,4,14,1.6,2.5479,M,8.308,M,03,0004*6F
$GPHPD,0,0.000,57.32,0.17,-13.17,31.5892109,120.7755478,2.548,13633111.688,24924592.186,2.548,0.000,0.000,0.000,0.000,0.000,0.000,0.000,14,14,4*6E
$GPGGA,074549.40,3135.3527567,N,12046.5330504,E,4,14,1.6,2.5465,M,8.308,M,03,0004*66
$GPHPD,0,0.000,57.25,-1.21,-13.15,31.5892126,120.7755508,2.547,13633110.640,24924593.823,2.547,0.000,0.000,0.000,0.000,0.000,0.000,0.000,14,14,4*4A
$GPGGA,074549.60,3135.3528549,N,12046.5332322,E,4,14,1.6,2.5200,M,8.308,M,00,0004*61
$GPHPD,0,0.000,57.64,-0.76,-13.14,31.5892142,120.7755539,2.520,13633109.611,24924595.444,2.520,0.000,0.000,0.000,0.000,0.000,0.000,0.000,14,13,4*4D
$GPGGA,074549.80,3135.3529486,N,12046.5334151,E,4,14,1.6,2.5560,M,8.308,M,00,0004*6D
$GPHPD,0,0.000,59.51,0.77,-13.14,31.5892158,120.7755569,2.556,13633108.647,24924597.104,2.556,0.000,0.000,0.000,0.000,0.000,0.000,0.000,14,14,4*61
$GPGGA,074550.00,3135.3530432,N,12046.5336006,E,4,14,1.6,2.5316,M,8.308,M,01,0004*6D
$GPHPD,0,0.000,59.19,-0.19,-13.15,31.5892174,120.7755600,2.532,13633107.676,24924598.791,2.532,0.000,0.000,0.000,0.000,0.000,0.000,0.000,14,14,4*43
$GPGGA,074550.20,3135.3531487,N,12046.5337807,E,4,14,1.6,2.5347,M,8.308,M,01,0004*6C
$GPHPD,0,0.000,57.57,0.24,-13.13,31.5892191,120.7755630,2.535,13633106.539,24924600.349,2.535,0.000,0.000,0.000,0.000,0.000,0.000,0.000,14,13,4*67
$GPGGA,074550.40,3135.3532329,N,12046.5339726,E,4,14,1.6,2.5833,M,8.308,M,01,0004*60
$GPHPD,0,0.000,57.69,0.21,-13.15,31.5892205,120.7755662,2.583,13633105.729,24924602.173,2.583,0.000,0.000,0.000,0.000,0.000,0.000,0.000,14,13,4*69
$GPGGA,074550.60,3135.3532760,N,12046.5341766,E,4,14,2.2,2.5867,M,8.308,M,00,0004*67
$GPHPD,0,0.000,57.72,-0.04,-13.13,31.5892213,120.7755696,2.587,13633105.527,24924604.382,2.587,0.000,0.000,0.000,0.000,0.000,0.000,0.000,14,14,4*42
$GPGGA,074550.80,3135.3533846,N,12046.5343529,E,4,13,2.9,2.5788,M,8.308,M,00,0004*6A
$GPHPD,0,0.000,58.36,-0.20,-13.13,31.5892231,120.7755725,2.579,13633104.338,24924605.876,2.579,0.000,0.000,0.000,0.000,0.000,0.000,0.000,13,13,4*4A
$GPGGA,074551.00,3135.3534885,N,12046.5345367,E,4,13,1.8,2.6083,M,8.308,M,01,0004*6D
$GPHPD,0,0.000,58.20,0.04,-13.10,31.5892248,120.7755756,2.608,13633103.231,24924607.488,2.608,0.000,0.000,0.000,0.000,0.000,0.000,0.000,13,13,4*6F
$GPGGA,074551.20,3135.3535948,N,12046.5347119,E,4,13,1.7,2.6253,M,8.308,M,01,0004*67
$GPHPD,0,0.000,58.30,0.69,-13.07,31.5892266,120.7755785,2.625,13633102.073,24924608.982,2.625,0.000,0.000,0.000,0.000,0.000,0.000,0.000,13,13,4*6C
$GPGGA,074551.40,3135.3536857,N,12046.5349007,E,4,13,1.7,2.6153,M,8.308,M,01,0004*6E
$GPHPD,0,0.000,57.91,-0.42,-13.05,31.5892281,120.7755817,2.615,13633101.161,24924610.730,2.615,0.000,0.000,0.000,0.000,0.000,0.000,0.000,13,13,4*4C
$GPGGA,074551.60,3135.3537777,N,12046.5350882,E,4,13,1.7,2.6141,M,8.308,M,00,0004*6F
$GPHPD,0,0.000,57.66,-0.40,-13.03,31.5892296,120.7755848,2.614,13633100.231,24924612.456,2.614,0.000,0.000,0.000,0.000,0.000,0.000,0.000,13,13,4*4A
$GPGGA,074551.80,3135.3538682,N,12046.5352790,E,4,15,1.7,2.6014,M,8.308,M,00,0004*6C
$GPHPD,0,0.000,57.70,-0.46,-12.98,31.5892311,120.7755880,2.601,13633099.329,24924614.230,2.601,0.000,0.000,0.000,0.000,0.000,0.000,0.000,15,15,4*4B
$GPGGA,074552.00,3135.3539775,N,12046.5354634,E,4,15,1.7,2.5844,M,8.308,M,01,0004*69
$GPHPD,0,0.000,58.59,-0.73,-12.93,31.5892330,120.7755911,2.584,13633098.147,24924615.818,2.584,0.000,0.000,0.000,0.000,0.000,0.000,0.000,15,15,4*42
$GPGGA,074552.20,3135.3540756,N,12046.5356489,E,4,15,1.7,2.5808,M,8.308,M,01,0004*6A
$GPHPD,0,0.000,57.77,-0.09,-12.90,31.5892346,120.7755941,2.581,13633097.126,24924617.484,2.581,0.000,0.000,0.000,0.000,0.000,0.000,0.000,15,15,4*48
$GPGGA,074552.40,3135.3541681,N,12046.5358452,E,4,15,1.7,2.6018,M,8.308,M,01,0004*64
$GPHPD,0,0.000,57.82,0.31,-12.85,31.5892361,120.7755974,2.602,13633096.206,24924619.313,2.602,0.000,0.000,0.000,0.000,0.000,0.000,0.000,15,14,4*65
$GPGGA,074552.60,3135.3542620,N,12046.5360268,E,4,15,1.7,2.5915,M,8.308,M,00,0004*6C
$GPHPD,0,0.000,58.09,0.24,-12.87,31.5892377,120.7756004,2.592,13633095.237,24924620.957,2.592,0.000,0.000,0.000,0.000,0.000,0.000,0.000,15,14,4*64
$GPGGA,074552.80,3135.3543629,N,12046.5362116,E,4,15,1.5,2.6003,M,8.308,M,00,0004*6D
$GPHPD,0,0.000,58.38,0.37,-12.89,31.5892394,120.7756035,2.600,13633094.175,24924622.598,2.600,0.000,0.000,0.000,0.000,0.000,0.000,0.000,15,14,4*6C
$GPGGA,074553.00,3135.3544417,N,12046.5364135,E,4,15,1.6,2.6109,M,8.308,M,01,0004*62
$GPHPD,0,0.000,58.61,0.01,-12.93,31.5892407,120.7756069,2.611,13633093.462,24924624.574,2.611,0.000,0.000,0.000,0.000,0.000,0.000,0.000,15,14,4*6A
$GPGGA,074553.20,3135.3545312,N,12046.5366096,E,4,15,1.8,2.5907,M,8.308,M,01,0004*62
$GPHPD,0,0.000,58.25,-0.33,-12.92,31.5892422,120.7756102,2.591,13633092.585,24924626.418,2.591,0.000,0.000,0.000,0.000,0.000,0.000,0.000,15,13,4*4B
$GPGGA,074553.40,3135.3546306,N,12046.5368030,E,4,15,1.8,2.6164,M,8.308,M,01,0004*6E
$GPHPD,0,0.000,58.82,-0.38,-12.96,31.5892438,120.7756134,2.616,13633091.561,24924628.172,2.616,0.000,0.000,0.000,0.000,0.000,0.000,0.000,15,13,4*49
$GPGGA,074553.60,3135.3547360,N,12046.5369896,E,4,13,1.8,2.6125,M,8.308,M,00,0004*6A
$GPHPD,0,0.000,58.06,-0.77,-12.97,31.5892456,120.7756165,2.613,13633090.439,24924629.809,2.613,0.000,0.000,0.000,0.000,0.000,0.000,0.000,13,12,4*4D
$GPGGA,074553.80,3135.3548243,N,12046.5371768,E,4,13,1.8,2.6186,M,8.308,M,00,0004*65
$GPHPD,0,0.000,59.03,-0.62,-12.98,31.5892471,120.7756196,2.619,13633089.561,24924631.552,2.619,0.000,0.000,0.000,0.000,0.000,0.000,0.000,13,11,4*46
$GPGGA,074554.00,3135.3549161,N,12046.5373651,E,4,13,1.8,2.6196,M,8.308,M,01,0004*61
$GPHPD,0,0.000,59.16,-0.29,-12.98,31.5892486,120.7756228,2.620,13633088.635,24924633.289,2.620,0.000,0.000,0.000,0.000,0.000,0.000,0.000,13,11,4*43
$GPGGA,074554.20,3135.3550168,N,12046.5375387,E,4,13,1.7,2.5984,M,8.308,M,01,0004*6D
$GPHPD,0,0.000,59.41,-0.31,-12.98,31.5892503,120.7756256,2.598,13633087.553,24924634.797,2.598,0.000,0.000,0.000,0.000,0.000,0.000,0.000,13,11,4*4C
$GPGGA,074554.40,3135.3551101,N,12046.5377353,E,4,12,1.7,2.6012,M,8.308,M,01,0004*6A
$GPHPD,0,0.000,58.31,0.23,-12.99,31.5892518,120.7756289,2.601,13633086.623,24924636.624,2.601,0.000,0.000,0.000,0.000,0.000,0.000,0.000,12,11,4*62
$GPGGA,074554.60,3135.3551972,N,12046.5379155,E,4,12,1.7,2.6134,M,8.308,M,00,0004*6A
$GPHPD,0,0.000,58.48,0.40,-12.97,31.5892533,120.7756319,2.613,13633085.748,24924638.291,2.613,0.000,0.000,0.000,0.000,0.000,0.000,0.000,12,11,4*6D
$GPGGA,074554.80,3135.3552797,N,12046.5381195,E,4,13,1.8,2.6023,M,8.308,M,00,0004*60
$GPHPD,0,0.000,58.15,-0.84,-12.97,31.5892547,120.7756353,2.602,13633084.986,24924640.271,2.602,0.000,0.000,0.000,0.000,0.000,0.000,0.000,13,11,4*40
$GPGGA,074555.00,3135.3553731,N,12046.5383108,E,4,12,1.8,2.6265,M,8.308,M,01,0004*62
$GPHPD,0,0.000,58.25,0.31,-12.94,31.5892562,120.7756385,2.627,13633084.043,24924642.034,2.627,0.000,0.000,0.000,0.000,0.000,0.000,0.000,12,11,4*6F
$GPGGA,074555.20,3135.3554477,N,12046.5384903,E,4,12,1.8,2.6012,M,8.308,M,01,0004*60
$GPHPD,0,0.000,58.50,-0.09,-12.91,31.5892575,120.7756415,2.601,13633083.344,24924643.765,2.601,0.000,0.000,0.000,0.000,0.000,0.000,0.000,12,11,4*47
$GPGGA,074555.40,3135.3555582,N,12046.5386754,E,4,12,1.8,2.6147,M,8.308,M,01,0004*63
$GPHPD,0,0.000,57.42,-0.27,-12.90,31.5892593,120.7756446,2.615,13633082.147,24924645.354,2.615,0.000,0.000,0.000,0.000,0.000,0.000,0.000,12,12,4*4B
$GPGGA,074555.60,3135.3556472,N,12046.5388618,E,4,12,1.8,2.5959,M,8.308,M,00,0004*6E
$GPHPD,0,0.000,58.73,-0.63,-12.91,31.5892608,120.7756477,2.596,13633081.257,24924647.084,2.596,0.000,0.000,0.000,0.000,0.000,0.000,0.000,12,12,4*49
$GPGGA,074555.80,3135.3557492,N,12046.5390399,E,4,12,1.8,2.6101,M,8.308,M,00,0004*6C
$GPHPD,0,0.000,59.94,0.68,-12.91,31.5892625,120.7756507,2.610,13633080.166,24924648.638,2.610,0.000,0.000,0.000,0.000,0.000,0.000,0.000,12,12,4*60
$GPGGA,074556.00,3135.3558259,N,12046.5392327,E,4,12,1.8,2.6089,M,8.308,M,01,0004*6E
$GPHPD,0,0.000,59.34,0.66,-12.93,31.5892638,120.7756539,2.609,13633079.464,24924650.517,2.609,0.000,0.000,0.000,0.000,0.000,0.000,0.000,12,12,4*61
$GPGGA,074556.20,3135.3559251,N,12046.5394201,E,4,12,1.8,2.6236,M,8.308,M,01,0004*60
$GPHPD,0,0.000,58.60,-0.06,-12.92,31.5892654,120.7756570,2.624,13633078.431,24924652.199,2.624,0.000,0.000,0.000,0.000,0.000,0.000,0.000,12,12,4*4D
$GPGGA,074556.40,3135.3560329,N,12046.5395850,E,4,12,1.7,2.6173,M,8.308,M,01,0004*60
$GPHPD,0,0.000,58.88,-0.84,-12.93,31.5892672,120.7756598,2.617,13633077.231,24924653.560,2.617,0.000,0.000,0.000,0.000,0.000,0.000,0.000,12,12,4*48
$GPGGA,074556.60,3135.3561205,N,12046.5397778,E,4,12,1.7,2.6081,M,8.308,M,00,0004*66
$GPHPD,0,0.000,58.36,-0.51,-12.93,31.5892687,120.7756630,2.608,13633076.374,24924655.376,2.608,0.000,0.000,0.000,0.000,0.000,0.000,0.000,12,12,4*48
$GPGGA,074556.80,3135.3562137,N,12046.5399716,E,4,12,1.8,2.6312,M,8.308,M,00,0004*69
$GPHPD,0,0.000,58.74,-0.56,-12.93,31.5892702,120.7756662,2.631,13633075.439,24924657.170,2.631,0.000,0.000,0.000,0.000,0.000,0.000,0.000,12,12,4*49
$GPGGA,074557.00,3135.3563053,N,12046.5401485,E,4,12,1.7,2.6014,M,8.308,M,01,0004*66
$GPHPD,0,0.000,59.83,-1.28,-12.93,31.5892718,120.7756691,2.601,13633074.494,24924658.771,2.601,0.000,0.000,0.000,0.000,0.000,0.000,0.000,12,12,4*41
$GPGGA,074557.20,3135.3563947,N,12046.5403426,E,4,12,1.8,2.5935,M,8.308,M,01,0004*65
$GPHPD,0,0.000,59.93,-1.17,-12.93,31.5892732,120.7756724,2.594,13633073.614,24924660.591,2.594,0.000,0.000,0.000,0.000,0.000,0.000,0.000,12,11,4*42
$GPGGA,074557.40,3135.3564888,N,12046.5405227,E,4,14,1.8,2.5957,M,8.308,M,01,0004*65
$GPHPD,0,0.000,59.08,-0.26,-12.94,31.5892748,120.7756754,2.596,13633072.639,24924662.215,2.596,0.000,0.000,0.000,0.000,0.000,0.000,0.000,14,13,4*4D
$GPGGA,074557.60,3135.3566035,N,12046.5406901,E,4,14,1.6,2.6342,M,8.308,M,00,0004*65
$GPHPD,0,0.000,59.11,0.00,-12.92,31.5892767,120.7756782,2.634,13633071.346,24924663.567,2.634,0.000,0.000,0.000,0.000,0.000,0.000,0.000,14,13,4*61
$GPGGA,074557.80,3135.3567028,N,12046.5408733,E,4,14,1.6,2.6339,M,8.308,M,00,0004*6B
$GPHPD,0,0.000,59.19,0.14,-12.96,31.5892784,120.7756812,2.634,13633070.303,24924665.198,2.634,0.000,0.000,0.000,0.000,0.000,0.000,0.000,14,13,4*61
$GPGGA,074558.00,3135.3567805,N,12046.5410600,E,4,14,1.6,2.6385,M,8.308,M,01,0004*65
$GPHPD,0,0.000,59.12,0.07,-12.97,31.5892797,120.7756843,2.639,13633069.575,24924666.997,2.639,0.000,0.000,0.000,0.000,0.000,0.000,0.000,14,12,4*65
$GPGGA,074558.20,3135.3568483,N,12046.5412490,E,4,14,1.7,2.5769,M,8.308,M,01,0004*67
$GPHPD,0,0.000,59.44,-0.39,-12.97,31.5892808,120.7756875,2.577,13633068.991,24924668.882,2.577,0.000,0.000,0.000,0.000,0.000,0.000,0.000,14,12,4*46
$GPGGA,074558.40,3135.3569335,N,12046.5414449,E,4,14,1.8,2.5944,M,8.308,M,01,0004*66
$GPHPD,0,0.000,59.11,0.57,-12.96,31.5892822,120.7756907,2.594,13633068.175,24924670.749,2.594,0.000,0.000,0.000,0.000,0.000,0.000,0.000,14,12,4*6D
$GPGGA,074558.60,3135.3570126,N,12046.5416305,E,4,14,1.8,2.6056,M,8.308,M,00,0004*69
$GPHPD,0,0.000,59.03,-0.17,-12.96,31.5892835,120.7756938,2.606,13633067.424,24924672.527,2.606,0.000,0.000,0.000,0.000,0.000,0.000,0.000,14,12,4*4B
$GPGGA,074558.80,3135.3571281,N,12046.5418077,E,4,14,1.7,2.6164,M,8.308,M,00,0004*6F
$GPHPD,0,0.000,58.78,-0.35,-12.96,31.5892855,120.7756968,2.616,13633066.139,24924673.991,2.616,0.000,0.000,0.000,0.000,0.000,0.000,0.000,14,12,4*4D
$GPGGA,074559.00,3135.3572234,N,12046.5419854,E,4,14,1.7,2.6117,M,8.308,M,01,0004*66
$GPHPD,0,0.000,58.54,0.11,-12.97,31.5892871,120.7756998,2.612,13633065.143,24924675.580,2.612,0.000,0.000,0.000,0.000,0.000,0.000,0.000,14,12,4*64
$GPGGA,074559.20,3135.3573226,N,12046.5421637,E,4,14,1.6,2.6169,M,8.308,M,01,0004*6E
$GPHPD,0,0.000,58.08,-0.47,-12.98,31.5892887,120.7757027,2.617,13633064.092,24924677.153,2.617,0.000,0.000,0.000,0.000,0.000,0.000,0.000,14,12,4*4D
$GPGGA,074559.40,3135.3574230,N,12046.5423469,E,4,14,1.6,2.6500,M,8.308,M,01,0004*68
$GPHPD,0,0.000,58.44,-0.44,-12.95,31.5892904,120.7757058,2.650,13633063.033,24924678.778,2.650,0.000,0.000,0.000,0.000,0.000,0.000,0.000,14,12,4*45
$GPGGA,074559.60,3135.3575014,N,12046.5425326,E,4,14,1.7,2.6032,M,8.308,M,00,0004*61
$GPHPD,0,0.000,58.76,-0.72,-12.95,31.5892917,120.7757089,2.603,13633062.293,24924680.561,2.603,0.000,0.000,0.000,0.000,0.000,0.000,0.000,14,12,4*4B
$GPGGA,074559.80,3135.3576012,N,12046.5427262,E,4,14,1.7,2.6220,M,8.308,M,00,0004*68
$GPHPD,0,0.000,59.35,0.01,-12.95,31.5892934,120.7757121,2.622,13633061.264,24924682.315,2.622,0.000,0.000,0.000,0.000,0.000,0.000,0.000,14,12,4*6A
$GPGGA,074600.00,3135.3576956,N,12046.5429018,E,4,14,1.6,2.6231,M,8.308,M,01,0004*67
$GPHPD,0,0.000,59.23,0.22,-12.95,31.5892949,120.7757150,2.623,13633060.276,24924683.883,2.623,0.000,0.000,0.000,0.000,0.000,0.000,0.000,14,12,4*67
$GPGGA,074600.20,3135.3577832,N,12046.5430950,E,4,14,1.6,2.6365,M,8.308,M,01,0004*6A
$GPHPD,0,0.000,59.57,0.67,-12.98,31.5892964,120.7757183,2.637,13633059.420,24924685.703,2.637,0.000,0.000,0.000,0.000,0.000,0.000,0.000,14,12,4*67
$GPGGA,074600.40,3135.3578865,N,12046.5432673,E,4,14,1.6,2.6266,M,8.308,M,01,0004*6F
$GPHPD,0,0.000,58.84,0.14,-12.99,31.5892981,120.7757211,2.627,13633058.298,24924687.180,2.627,0.000,0.000,0.000,0.000,0.000,0.000,0.000,14,12,4*65
$GPGGA,074600.60,3135.3579768,N,12046.5434543,E,4,14,1.6,2.6227,M,8.308,M,00,0004*6C
$GPHPD,0,0.000,58.84,0.01,-13.02,31.5892996,120.7757242,2.623,13633057.392,24924688.909,2.623,0.000,0.000,0.000,0.000,0.000,0.000,0.000,14,12,4*60
$GPGGA,074600.80,3135.3580669,N,12046.5436439,E,4,14,1.6,2.6384,M,8.308,M,00,0004*62
$GPHPD,0,0.000,58.46,0.22,-13.01,31.5893011,120.7757274,2.638,13633056.493,24924690.671,2.638,0.000,0.000,0.000,0.000,0.000,0.000,0.000,14,12,4*60
$GPGGA,074601.00,3135.3581461,N,12046.5438235,E,4,14,1.6,2.6399,M,8.308,M,01,0004*69
$GPHPD,0,0.000,58.58,-0.34,-13.03,31.5893024,120.7757304,2.640,13633055.729,24924692.376,2.640,0.000,0.000,0.000,0.000,0.000,0.000,0.000,14,12,4*46
$GPGGA,074601.20,3135.3582451,N,12046.5440091,E,4,14,1.6,2.6254,M,8.309,M,01,0004*69
$GPHPD,0,0.000,58.82,0.02,-13.01,31.5893041,120.7757335,2.625,13633054.695,24924694.038,2.625,0.000,0.000,0.000,0.000,0.000,0.000,0.000,14,12,4*62
$GPGGA,074601.40,3135.3583322,N,12046.5441945,E,4,14,1.6,2.6198,M,8.309,M,01,0004*6F
$GPHPD,0,0.000,58.82,0.37,-12.97,31.5893055,120.7757366,2.620,13633053.830,24924695.767,2.620,0.000,0.000,0.000,0.000,0.000,0.000,0.000,14,13,4*62
$GPGGA,074601.60,3135.3584385,N,12046.5443734,E,4,14,1.6,2.6145,M,8.309,M,00,0004*6C
$GPHPD,0,0.000,58.49,0.60,-12.95,31.5893073,120.7757396,2.615,13633052.680,24924697.306,2.615,0.000,0.000,0.000,0.000,0.000,0.000,0.000,14,13,4*6B
$GPGGA,074601.80,3135.3585299,N,12046.5445699,E,4,14,1.6,2.6327,M,8.309,M,00,0004*69
$GPHPD,0,0.000,58.14,0.33,-12.94,31.5893088,120.7757428,2.633,13633051.776,24924699.144,2.633,0.000,0.000,0.000,0.000,0.000,0.000,0.000,14,13,4*63
$GPGGA,074602.00,3135.3586309,N,12046.5447480,E,4,14,1.7,2.6023,M,8.309,M,01,0004*66
$GPHPD,0,0.000,57.76,-0.27,-12.91,31.5893105,120.7757458,2.602,13633050.699,24924700.704,2.602,0.000,0.000,0.000,0.000,0.000,0.000,0.000,14,13,4*44
$GPGGA,074602.20,3135.3587185,N,12046.5449418,E,4,14,1.7,2.6212,M,8.309,M,01,0004*6C
$GPHPD,0,0.000,57.90,0.01,-12.89,31.5893120,120.7757490,2.621,13633049.844,24924702.531,2.621,0.000,0.000,0.000,0.000,0.000,0.000,0.000,14,13,4*6F
$GPGGA,074602.40,3135.3588199,N,12046.5451174,E,4,14,1.7,2.6084,M,8.309,M,01,0004*63
$GPHPD,0,0.000,57.57,-0.12,-12.85,31.5893137,120.7757520,2.608,13633048.757,24924704.059,2.608,0.000,0.000,0.000,0.000,0.000,0.000,0.000,14,13,4*4A
$GPGGA,074602.60,3135.3589108,N,12046.5452962,E,4,14,1.6,2.6148,M,8.309,M,00,0004*65
$GPHPD,0,0.000,57.51,-0.28,-12.85,31.5893152,120.7757549,2.615,13633047.825,24924705.686,2.615,0.000,0.000,0.000,0.000,0.000,0.000,0.000,14,13,4*49
$GPGGA,074602.80,3135.3590122,N,12046.5454794,E,4,14,1.6,2.6134,M,8.309,M,00,0004*61
$GPHPD,0,0.000,57.14,-0.80,-12.87,31.5893169,120.7757580,2.613,13633046.752,24924707.305,2.613,0.000,0.000,0.000,0.000,0.000,0.000,0.000,14,13,4*47
$GPGGA,074603.00,3135.3591012,N,12046.5456625,E,4,14,1.7,2.6004,M,8.309,M,01,0004*60
$GPHPD,0,0.000,57.34,0.19,-12.94,31.5893184,120.7757610,2.600,13633045.856,24924708.995,2.600,0.000,0.000,0.000,0.000,0.000,0.000,0.000,14,13,4*67
$GPGGA,074603.20,3135.3591933,N,12046.5458443,E,4,14,1.7,2.6048,M,8.309,M,01,0004*6C
$GPHPD,0,0.000,57.25,0.40,-13.00,31.5893199,120.7757641,2.605,13633044.913,24924710.652,2.605,0.000,0.000,0.000,0.000,0.000,0.000,0.000,14,13,4*63
$GPGGA,074603.40,3135.3592940,N,12046.5460252,E,4,14,1.6,2.6071,M,8.309,M,01,0004*6B
$GPHPD,0,0.000,57.21,0.63,-13.03,31.5893216,120.7757671,2.607,13633043.846,24924712.247,2.607,0.000,0.000,0.000,0.000,0.000,0.000,0.000,14,14,4*61
$GPGGA,074603.60,3135.3593759,N,12046.5462297,E,4,14,1.8,2.6052,M,8.309,M,00,0004*6B
$GPHPD,0,0.000,57.61,0.45,-13.04,31.5893229,120.7757705,2.605,13633043.093,24924714.237,2.605,0.000,0.000,0.000,0.000,0.000,0.000,0.000,14,14,4*69
$GPGGA,074603.80,3135.3594773,N,12046.5464133,E,4,14,1.8,2.6098,M,8.309,M,00,0004*67
$GPHPD,0,0.000,57.86,0.31,-13.04,31.5893246,120.7757736,2.610,13633042.022,24924715.861,2.610,0.000,0.000,0.000,0.000,0.000,0.000,0.000,14,14,4*69
$GPGGA,074604.00,3135.3595892,N,12046.5465916,E,4,14,1.7,2.6427,M,8.309,M,01,0004*69
$GPHPD,0,0.000,58.05,0.10,-13.02,31.5893265,120.7757765,2.643,13633040.790,24924717.360,2.643,0.000,0.000,0.000,0.000,0.000,0.000,0.000,14,14,4*6B
$GPGGA,074604.20,3135.3597000,N,12046.5467529,E,4,14,1.6,2.6462,M,8.309,M,01,0004*68
$GPHPD,0,0.000,58.05,0.49,-13.02,31.5893283,120.7757792,2.646,13633039.540,24924718.660,2.646,0.000,0.000,0.000,0.000,0.000,0.000,0.000,14,14,4*6C
$GPGGA,074604.40,3135.3597923,N,12046.5469379,E,4,14,1.6,2.6445,M,8.309,M,01,0004*6E
$GPHPD,0,0.000,58.41,0.16,-13.01,31.5893299,120.7757823,2.645,13633038.601,24924720.354,2.645,0.000,0.000,0.000,0.000,0.000,0.000,0.000,14,14,4*65
$GPGGA,074604.60,3135.3598933,N,12046.5471254,E,4,14,1.6,2.6562,M,8.309,M,01,0004*61
$GPHPD,0,0.000,58.74,0.88,-13.02,31.5893316,120.7757854,2.656,13633037.543,24924722.027,2.656,0.000,0.000,0.000,0.000,0.000,0.000,0.000,14,14,4*6E
$GPGGA,074604.80,3135.3599786,N,12046.5473125,E,4,14,1.6,2.6519,M,8.309,M,01,0004*65
$GPHPD,0,0.000,59.22,-0.17,-13.01,31.5893330,120.7757885,2.652,13633036.707,24924723.787,2.652,0.000,0.000,0.000,0.000,0.000,0.000,0.000,14,13,4*44
$GPGGA,074605.00,3135.3600682,N,12046.5474976,E,4,14,1.6,2.6469,M,8.309,M,02,0004*66
$GPHPD,0,0.000,59.06,-0.19,-13.00,31.5893345,120.7757916,2.647,13633035.806,24924725.498,2.647,0.000,0.000,0.000,0.000,0.000,0.000,0.000,14,14,4*45
$GPGGA,074605.20,3135.3601611,N,12046.5476854,E,4,14,1.6,2.6250,M,8.309,M,02,0004*60
$GPHPD,0,0.000,59.01,0.72,-12.98,31.5893360,120.7757948,2.625,13633034.864,24924727.222,2.625,0.000,0.000,0.000,0.000,0.000,0.000,0.000,14,13,4*69
$GPGGA,074605.40,3135.3601878,N,12046.5477246,E,6,07,0.766,2.6325,M,8.3090,M,,0000*5A
$GPHPD,0,0.000,-15.79,1.22,-12.97,31.5893365,120.7757954,2.633,13633034.563,24924727.540,2.633,0.000,0.000,0.000,0.000,0.000,0.000,0.000,7,13,6*79
$GPGGA,074605.60,3135.3602208,N,12046.5477729,E,6,14,0.808,2.6412,M,8.3090,M,,0000*5C
$GPHPD,0,0.000,-15.78,1.21,-12.96,31.5893370,120.7757962,2.641,13633034.191,24924727.930,2.641,0.000,0.000,0.000,0.000,0.000,0.000,0.000,14,13,6*4B
$GPGGA,074605.80,3135.3602472,N,12046.5478118,E,6,14,0.853,2.6481,M,8.3090,M,,0000*56
$GPHPD,0,0.000,-15.79,1.20,-12.95,31.5893375,120.7757969,2.648,13633033.894,24924728.245,2.648,0.000,0.000,0.000,0.000,0.000,0.000,0.000,14,13,6*4B
$GPGGA,074606.00,3135.3603394,N,12046.5479481,E,6,14,0.827,2.6758,M,8.3090,M,,0000*53
$GPHPD,0,0.000,-15.76,1.19,-12.92,31.5893390,120.7757991,2.676,13633032.858,24924729.353,2.676,0.000,0.000,0.000,0.000,0.000,0.000,0.000,14,13,6*43
$GPGGA,074606.20,3135.3603703,N,12046.5479934,E,6,13,0.872,2.6852,M,8.3090,M,,0000*5A
$GPHPD,0,0.000,-15.81,1.17,-12.94,31.5893395,120.7757999,2.685,13633032.510,24924729.719,2.685,0.000,0.000,0.000,0.000,0.000,0.000,0.000,13,13,6*42
$GPGGA,074606.40,3135.3604013,N,12046.5480389,E,6,13,0.920,2.6945,M,8.3090,M,,0000*56
$GPHPD,0,0.000,-15.82,1.15,-12.96,31.5893400,120.7758006,2.695,13633032.161,24924730.087,2.695,0.000,0.000,0.000,0.000,0.000,0.000,0.000,13,13,6*40
$GPGGA,074606.60,3135.3604324,N,12046.5480848,E,6,14,0.971,2.7034,M,8.3090,M,,0000*58
$GPHPD,0,0.000,-15.86,1.16,-13.00,31.5893405,120.7758014,2.703,13633031.812,24924730.460,2.703,0.000,0.000,0.000,0.000,0.000,0.000,0.000,14,12,6*4A
$GPGGA,074606.80,3135.3604636,N,12046.5481308,E,6,13,1.024,2.7130,M,8.3090,M,,0000*54
$GPHPD,0,0.000,-15.90,1.20,-13.04,31.5893411,120.7758022,2.713,13633031.461,24924730.833,2.713,0.000,0.000,0.000,0.000,0.000,0.000,0.000,13,12,6*49
$GPGGA,074607.00,3135.3606498,N,12046.5484064,E,6,14,0.956,2.7677,M,8.3090,M,,0000*5B
$GPHPD,0,0.000,-15.91,1.25,-13.07,31.5893442,120.7758068,2.768,13633029.369,24924733.073,2.768,0.000,0.000,0.000,0.000,0.000,0.000,0.000,14,12,6*48
$GPGGA,074607.20,3135.3606899,N,12046.5484657,E,6,14,1.007,2.7803,M,8.3090,M,,0000*53
$GPHPD,0,0.000,-15.89,1.20,-13.05,31.5893448,120.7758078,2.780,13633028.918,24924733.555,2.780,0.000,0.000,0.000,0.000,0.000,0.000,0.000,14,12,6*41
$GPGGA,074607.40,3135.3607302,N,12046.5485252,E,6,13,1.061,2.7932,M,8.3090,M,,0000*59
$GPHPD,0,0.000,-15.88,1.17,-13.05,31.5893455,120.7758088,2.793,13633028.465,24924734.038,2.793,0.000,0.000,0.000,0.000,0.000,0.000,0.000,13,12,6*4E
$GPGGA,074607.60,3135.3607705,N,12046.5485847,E,6,13,1.117,2.8061,M,8.3090,M,,0000*56
$GPHPD,0,0.000,-15.85,1.19,-13.02,31.5893462,120.7758097,2.806,13633028.012,24924734.521,2.806,0.000,0.000,0.000,0.000,0.000,0.000,0.000,13,12,6*49
$GPGGA,074607.80,3135.3608111,N,12046.5486444,E,6,13,1.175,2.8188,M,8.3090,M,,0000*5A
$GPHPD,0,0.000,-15.76,1.22,-12.97,31.5893469,120.7758107,2.819,13633027.556,24924735.005,2.819,0.000,0.000,0.000,0.000,0.000,0.000,0.000,13,12,6*4B
$GPGGA,074608.00,3135.3615501,N,12046.5502664,E,4,13,1.7,2.6274,M,8.309,M,01,0004*64
$GPHPD,0,0.000,58.93,0.75,-12.94,31.5893592,120.7758378,2.627,13633020.317,24924750.264,2.627,0.000,0.000,0.000,0.000,0.000,0.000,0.000,13,12,4*6B
$GPGGA,074608.20,3135.3616369,N,12046.5504494,E,4,13,1.6,2.6433,M,8.309,M,01,0004*62
$GPHPD,0,0.000,58.67,-0.05,-12.91,31.5893606,120.7758408,2.643,13633019.452,24924751.966,2.643,0.000,0.000,0.000,0.000,0.000,0.000,0.000,13,12,4*45
$GPGGA,074608.40,3135.3617274,N,12046.5506382,E,4,13,1.6,2.6524,M,8.309,M,01,0004*6D
$GPHPD,0,0.000,58.69,0.71,-12.91,31.5893621,120.7758440,2.652,13633018.546,24924753.716,2.652,0.000,0.000,0.000,0.000,0.000,0.000,0.000,13,12,4*62
$GPGGA,074608.60,3135.3618180,N,12046.5508246,E,4,13,1.6,2.6452,M,8.309,M,00,0004*6E
$GPHPD,0,0.000,58.20,0.04,-12.90,31.5893636,120.7758471,2.645,13633017.634,24924755.437,2.645,0.000,0.000,0.000,0.000,0.000,0.000,0.000,13,12,4*67
$GPGGA,074608.80,3135.3619102,N,12046.5510099,E,4,13,1.6,2.6499,M,8.309,M,00,0004*65
$GPHPD,0,0.000,58.10,0.20,-12.90,31.5893652,120.7758502,2.650,13633016.696,24924757.135,2.650,0.000,0.000,0.000,0.000,0.000,0.000,0.000,13,12,4*69
$GPGGA,074609.00,3135.3620094,N,12046.5511951,E,4,13,1.6,2.6764,M,8.309,M,01,0004*64
$GPHPD,0,0.000,58.01,0.89,-12.88,31.5893668,120.7758533,2.676,13633015.659,24924758.791,2.676,0.000,0.000,0.000,0.000,0.000,0.000,0.000,13,12,4*6F
$GPGGA,074609.20,3135.3621032,N,12046.5513812,E,4,13,1.6,2.6780,M,8.309,M,01,0004*65
$GPHPD,0,0.000,57.88,-0.42,-12.86,31.5893684,120.7758564,2.678,13633014.700,24924760.489,2.678,0.000,0.000,0.000,0.000,0.000,0.000,0.000,13,12,4*48
$GPGGA,074609.40,3135.3621978,N,12046.5515696,E,4,13,1.6,2.6717,M,8.309,M,01,0004*6E
$GPHPD,0,0.000,57.92,-0.46,-12.86,31.5893700,120.7758595,2.672,13633013.735,24924762.211,2.672,0.000,0.000,0.000,0.000,0.000,0.000,0.000,13,12,4*40
$GPGGA,074609.60,3135.3622962,N,12046.5517602,E,4,13,1.6,2.6492,M,8.309,M,00,0004*64
$GPHPD,0,0.000,57.72,-0.16,-12.86,31.5893716,120.7758627,2.649,13633012.720,24924763.936,2.649,0.000,0.000,0.000,0.000,0.000,0.000,0.000,13,12,4*4C
$GPGGA,074609.80,3135.3623948,N,12046.5519420,E,4,13,1.6,2.6657,M,8.309,M,00,0004*64
$GPHPD,0,0.000,57.68,0.07,-12.82,31.5893732,120.7758657,2.666,13633011.685,24924765.555,2.666,0.000,0.000,0.000,0.000,0.000,0.000,0.000,13,12,4*6D
$GPGGA,074610.00,3135.3624897,N,12046.5521317,E,4,13,1.6,2.6732,M,8.309,M,01,0004*6B
$GPHPD,0,0.000,57.95,-1.01,-12.81,31.5893748,120.7758689,2.673,13633010.718,24924767.290,2.673,0.000,0.000,0.000,0.000,0.000,0.000,0.000,13,12,4*40
$GPGGA,074610.20,3135.3625881,N,12046.5523176,E,4,13,1.6,2.6734,M,8.309,M,01,0004*6E
$GPHPD,0,0.000,57.63,-0.65,-12.78,31.5893765,120.7758720,2.673,13633009.694,24924768.960,2.673,0.000,0.000,0.000,0.000,0.000,0.000,0.000,13,12,4*47
$GPGGA,074610.40,3135.3626871,N,12046.5525078,E,4,13,1.7,2.6533,M,8.309,M,01,0004*69
$GPHPD,0,0.000,57.52,-1.04,-12.77,31.5893781,120.7758751,2.653,13633008.669,24924770.677,2.653,0.000,0.000,0.000,0.000,0.000,0.000,0.000,13,12,4*43
$GPGGA,074610.60,3135.3627882,N,12046.5526952,E,4,13,1.7,2.6557,M,8.309,M,00,0004*67
$GPHPD,0,0.000,57.61,-0.33,-12.76,31.5893798,120.7758783,2.656,13633007.610,24924772.349,2.656,0.000,0.000,0.000,0.000,0.000,0.000,0.000,13,12,4*4B
$GPGGA,074610.80,3135.3628874,N,12046.5528821,E,4,13,1.7,2.6587,M,8.309,M,00,0004*69
$GPHPD,0,0.000,58.07,-0.55,-12.75,31.5893815,120.7758814,2.659,13633006.576,24924774.025,2.659,0.000,0.000,0.000,0.000,0.000,0.000,0.000,13,12,4*41
$GPGGA,074611.00,3135.3629864,N,12046.5530711,E,4,13,1.7,2.6407,M,8.309,M,01,0004*6D
$GPHPD,0,0.000,58.20,-0.96,-12.80,31.5893831,120.7758845,2.641,13633005.549,24924775.728,2.641,0.000,0.000,0.000,0.000,0.000,0.000,0.000,13,12,4*47
$GPGGA,074611.20,3135.3630802,N,12046.5532606,E,4,13,1.7,2.6288,M,8.309,M,01,0004*63
$GPHPD,0,0.000,59.08,-0.37,-12.82,31.5893847,120.7758877,2.629,13633004.598,24924777.468,2.629,0.000,0.000,0.000,0.000,0.000,0.000,0.000,13,12,4*4D
$GPGGA,074611.40,3135.3631728,N,12046.5534519,E,4,13,1.7,2.6337,M,8.309,M,01,0004*6D
$GPHPD,0,0.000,59.30,-0.22,-12.86,31.5893862,120.7758909,2.634,13633003.667,24924779.236,2.634,0.000,0.000,0.000,0.000,0.000,0.000,0.000,13,12,4*4E
$GPGGA,074611.60,3135.3632723,N,12046.5536380,E,4,13,1.7,2.6259,M,8.309,M,00,0004*6B
$GPHPD,0,0.000,59.29,-0.62,-12.89,31.5893879,120.7758940,2.626,13633002.627,24924780.901,2.626,0.000,0.000,0.000,0.000,0.000,0.000,0.000,13,12,4*46
$GPGGA,074611.80,3135.3633655,N,12046.5538230,E,4,13,1.6,2.6182,M,8.309,M,00,0004*64
$GPHPD,0,0.000,59.78,0.25,-12.90,31.5893894,120.7758971,2.618,13633001.675,24924782.590,2.618,0.000,0.000,0.000,0.000,0.000,0.000,0.000,13,12,4*67
$GPGGA,074612.00,3135.3634519,N,12046.5540102,E,4,13,1.6,2.6183,M,8.309,M,01,0004*6E
$GPHPD,0,0.000,59.92,0.04,-12.90,31.5893909,120.7759002,2.618,13633000.824,24924784.344,2.618,0.000,0.000,0.000,0.000,0.000,0.000,0.000,13,12,4*6B
$GPGGA,074612.20,3135.3635439,N,12046.5541990,E,4,13,1.6,2.6315,M,8.309,M,01,0004*61
$GPHPD,0,0.000,59.77,0.52,-12.93,31.5893924,120.7759033,2.632,13632999.896,24924786.086,2.632,0.000,0.000,0.000,0.000,0.000,0.000,0.000,13,12,4*63
$GPGGA,074612.40,3135.3636317,N,12046.5543892,E,4,13,1.6,2.6369,M,8.309,M,01,0004*65
$GPHPD,0,0.000,59.59,-0.33,-12.95,31.5893939,120.7759065,2.637,13632999.031,24924787.868,2.637,0.000,0.000,0.000,0.000,0.000,0.000,0.000,13,12,4*40
$GPGGA,074612.60,3135.3637246,N,12046.5545751,E,4,13,1.7,2.6294,M,8.309,M,00,0004*66
$GPHPD,0,0.000,59.05,0.29,-12.96,31.5893954,120.7759096,2.629,13632998.085,24924789.570,2.629,0.000,0.000,0.000,0.000,0.000,0.000,0.000,13,12,4*6F
$GPGGA,074612.80,3135.3638145,N,12046.5547616,E,4,13,1.7,2.6355,M,8.309,M,00,0004*6B
$GPHPD,0,0.000,59.20,0.19,-12.95,31.5893969,120.7759127,2.636,13632997.183,24924791.296,2.636,0.000,0.000,0.000,0.000,0.000,0.000,0.000,13,12,4*63
$GPGGA,074613.00,3135.3639070,N,12046.5549469,E,4,13,1.7,2.6243,M,8.309,M,01,0004*67
$GPHPD,0,0.000,58.86,0.49,-12.91,31.5893985,120.7759158,2.624,13632996.241,24924792.992,2.624,0.000,0.000,0.000,0.000,0.000,0.000,0.000,13,12,4*65
$GPGGA,074613.20,3135.3639983,N,12046.5551395,E,4,13,1.7,2.6327,M,8.309,M,01,0004*6E
$GPHPD,0,0.000,59.06,0.82,-12.89,31.5894000,120.7759190,2.633,13632995.331,24924794.783,2.633,0.000,0.000,0.000,0.000,0.000,0.000,0.000,13,12,4*68
$GPGGA,074613.40,3135.3640920,N,12046.5553177,E,4,13,1.7,2.6476,M,8.309,M,01,0004*60
$GPHPD,0,0.000,58.54,-0.01,-12.87,31.5894015,120.7759220,2.648,13632994.358,24924796.387,2.648,0.000,0.000,0.000,0.000,0.000,0.000,0.000,13,12,4*46
$GPGGA,074613.60,3135.3641823,N,12046.5555043,E,4,13,1.7,2.6301,M,8.309,M,00,0004*67
$GPHPD,0,0.000,58.30,-0.37,-12.85,31.5894030,120.7759251,2.630,13632993.450,24924798.112,2.630,0.000,0.000,0.000,0.000,0.000,0.000,0.000,13,12,4*4A
$GPGGA,074613.80,3135.3642766,N,12046.5556822,E,4,13,1.7,2.6517,M,8.309,M,00,0004*69
