$GPGGA,075619.80,3135.5485095,N,12046.8979407,E,4,17,1.4,2.7568,M,8.329,M,00,0004*6D
$GPHPD,0,0.000,306.58,-0.31,-12.97,31.5924752,120.7816323,2.757,13631062.564,24927854.655,2.757,0.000,0.000,0.000,0.000,0.000,0.000,0.000,17,16,4*7A
$GPGGA,075620.00,3135.5484030,N,12046.8981052,E,4,17,1.4,2.7418,M,8.329,M,01,0004*65
$GPHPD,0,0.000,306.28,-0.18,-13.03,31.5924734,120.7816351,2.742,13631064.409,24927857.259,2.742,0.000,0.000,0.000,0.000,0.000,0.000,0.000,17,16,4*78
$GPGGA,075620.20,3135.5482963,N,12046.8982676,E,4,17,1.4,2.7575,M,8.329,M,01,0004*67
$GPHPD,0,0.000,306.21,0.46,-13.11,31.5924716,120.7816378,2.758,13631066.252,24927859.839,2.758,0.000,0.000,0.000,0.000,0.000,0.000,0.000,17,16,4*57
$GPGGA,075620.40,3135.5481911,N,12046.8984294,E,4,17,1.6,2.7808,M,8.329,M,01,0004*6C
$GPHPD,0,0.000,306.17,-0.16,-13.17,31.5924699,120.7816405,2.781,13631068.073,24927862.403,2.781,0.000,0.000,0.000,0.000,0.000,0.000,0.000,17,17,4*74
$GPGGA,075620.60,3135.5480913,N,12046.8985812,E,4,16,1.6,2.7563,M,8.329,M,00,0004*68
$GPHPD,0,0.000,306.28,0.28,-13.21,31.5924682,120.7816430,2.756,13631069.797,24927864.815,2.756,0.000,0.000,0.000,0.000,0.000,0.000,0.000,16,16,4*50
$GPGGA,075620.80,3135.5479933,N,12046.8987332,E,4,16,1.6,2.7354,M,8.329,M,00,0004*6B
$GPHPD,0,0.000,306.51,-0.80,-13.27,31.5924666,120.7816456,2.735,13631071.496,24927867.219,2.735,0.000,0.000,0.000,0.000,0.000,0.000,0.000,16,16,4*73
$GPGGA,075621.00,3135.5478919,N,12046.8988800,E,4,16,1.6,2.7379,M,8.329,M,01,0004*60
$GPHPD,0,0.000,306.42,0.79,-13.36,31.5924649,120.7816480,2.738,13631073.233,24927869.580,2.738,0.000,0.000,0.000,0.000,0.000,0.000,0.000,16,16,4*5E
$GPGGA,075621.20,3135.5478024,N,12046.8990172,E,4,16,1.6,2.7257,M,8.329,M,01,0004*6D
$GPHPD,0,0.000,307.13,-0.14,-13.46,31.5924634,120.7816503,2.726,13631074.781,24927871.755,2.726,0.000,0.000,0.000,0.000,0.000,0.000,0.000,16,16,4*72
$GPGGA,075621.40,3135.5477213,N,12046.8991497,E,4,16,1.6,2.7349,M,8.329,M,01,0004*63
$GPHPD,0,0.000,307.71,0.63,-13.59,31.5924620,120.7816525,2.735,13631076.201,24927873.826,2.735,0.000,0.000,0.000,0.000,0.000,0.000,0.000,16,16,4*52
$GPGGA,075621.60,3135.5476423,N,12046.8992616,E,4,16,1.6,2.7519,M,8.329,M,00,0004*6F
$GPHPD,0,0.000,308.07,0.98,-13.74,31.5924607,120.7816544,2.752,13631077.549,24927875.635,2.752,0.000,0.000,0.000,0.000,0.000,0.000,0.000,16,16,4*55
$GPGGA,075621.80,3135.5475777,N,12046.8993629,E,4,16,1.6,2.7295,M,8.329,M,00,0004*6E
$GPHPD,0,0.000,309.35,-0.19,-13.92,31.5924596,120.7816560,2.730,13631078.671,24927877.233,2.730,0.000,0.000,0.000,0.000,0.000,0.000,0.000,16,15,4*70
$GPGGA,075622.00,3135.5475220,N,12046.8994410,E,4,16,1.6,2.7624,M,8.329,M,01,0004*62
$GPHPD,0,0.000,309.52,0.79,-14.15,31.5924587,120.7816574,2.762,13631079.620,24927878.500,2.762,0.000,0.000,0.000,0.000,0.000,0.000,0.000,16,15,4*5A
$GPGGA,075622.20,3135.5474804,N,12046.8994958,E,4,16,1.6,2.7556,M,8.329,M,01,0004*6A
$GPHPD,0,0.000,310.14,-1.20,-14.31,31.5924580,120.7816583,2.756,13631080.322,24927879.403,2.756,0.000,0.000,0.000,0.000,0.000,0.000,0.000,16,15,4*7B
$GPGGA,075622.40,3135.5474504,N,12046.8995355,E,4,16,1.6,2.7649,M,8.329,M,01,0004*6A
$GPHPD,0,0.000,310.49,-1.21,-14.50,31.5924575,120.7816589,2.765,13631080.828,24927880.056,2.765,0.000,0.000,0.000,0.000,0.000,0.000,0.000,16,15,4*76
$GPGGA,075622.60,3135.5474379,N,12046.8995546,E,4,17,1.6,2.7710,M,8.329,M,00,0004*6D
$GPHPD,0,0.000,310.71,-1.51,-14.67,31.5924573,120.7816592,2.771,13631081.044,24927880.359,2.771,0.000,0.000,0.000,0.000,0.000,0.000,0.000,17,15,4*7C
$GPGGA,075622.80,3135.5474380,N,12046.8995552,E,4,17,1.6,2.7733,M,8.329,M,00,0004*61
$GPHPD,0,0.000,310.71,-1.88,-14.74,31.5924573,120.7816593,2.773,13631081.044,24927880.366,2.773,0.000,0.000,0.000,0.000,0.000,0.000,0.000,17,15,4*77
$GPGGA,075623.00,3135.5474395,N,12046.8995472,E,4,17,1.6,2.7694,M,8.329,M,01,0004*62
$GPHPD,0,0.000,310.70,-2.01,-14.58,31.5924573,120.7816591,2.769,13631081.007,24927880.261,2.769,0.000,0.000,0.000,0.000,0.000,0.000,0.000,17,16,4*7A
$GPGGA,075623.20,3135.5474384,N,12046.8995520,E,4,17,1.6,2.7811,M,8.329,M,01,0004*65
$GPHPD,0,0.000,310.81,-1.96,-14.47,31.5924573,120.7816592,2.781,13631081.032,24927880.325,2.781,0.000,0.000,0.000,0.000,0.000,0.000,0.000,17,16,4*73
$GPGGA,075623.40,3135.5474402,N,12046.8995514,E,4,17,1.6,2.7753,M,8.329,M,01,0004*64
$GPHPD,0,0.000,310.79,-2.25,-14.39,31.5924573,120.7816592,2.775,13631081.005,24927880.307,2.775,0.000,0.000,0.000,0.000,0.000,0.000,0.000,17,17,4*73
$GPGGA,075623.60,3135.5474394,N,12046.8995548,E,4,17,1.6,2.7809,M,8.329,M,00,0004*66
$GPHPD,0,0.000,310.72,-1.74,-14.33,31.5924573,120.7816592,2.781,13631081.023,24927880.353,2.781,0.000,0.000,0.000,0.000,0.000,0.000,0.000,17,17,4*70
$GPGGA,075623.80,3135.5474378,N,12046.8995539,E,4,17,1.6,2.7752,M,8.329,M,00,0004*6D
$GPHPD,0,0.000,310.60,-1.94,-14.27,31.5924573,120.7816592,2.775,13631081.044,24927880.351,2.775,0.000,0.000,0.000,0.000,0.000,0.000,0.000,17,17,4*7B
$GPGGA,075624.00,3135.5474364,N,12046.8995575,E,4,17,1.6,2.7742,M,8.329,M,01,0004*67
$GPHPD,0,0.000,310.79,-2.00,-14.20,31.5924573,120.7816593,2.774,13631081.071,24927880.403,2.774,0.000,0.000,0.000,0.000,0.000,0.000,0.000,17,17,4*7D
$GPGGA,075624.20,3135.5474315,N,12046.8995605,E,4,17,1.6,2.7750,M,8.329,M,01,0004*64
$GPHPD,0,0.000,310.78,-2.20,-14.12,31.5924572,120.7816593,2.775,13631081.147,24927880.468,2.775,0.000,0.000,0.000,0.000,0.000,0.000,0.000,17,17,4*77
$GPGGA,075624.40,3135.5474277,N,12046.8995696,E,4,17,1.6,2.7705,M,8.329,M,01,0004*6D
$GPHPD,0,0.000,310.76,-2.30,-14.06,31.5924571,120.7816595,2.771,13631081.219,24927880.600,2.771,0.000,0.000,0.000,0.000,0.000,0.000,0.000,17,17,4*7C
$GPGGA,075624.60,3135.5474205,N,12046.8995754,E,4,17,1.6,2.7714,M,8.329,M,00,0004*64
$GPHPD,0,0.000,310.73,-2.33,-14.06,31.5924570,120.7816596,2.771,13631081.333,24927880.712,2.771,0.000,0.000,0.000,0.000,0.000,0.000,0.000,17,17,4*73
$GPGGA,075624.80,3135.5474203,N,12046.8995783,E,4,17,1.6,2.7643,M,8.329,M,00,0004*65
$GPHPD,0,0.000,310.73,-2.36,-14.06,31.5924570,120.7816596,2.764,13631081.342,24927880.748,2.764,0.000,0.000,0.000,0.000,0.000,0.000,0.000,17,17,4*7F
$GPGGA,075625.00,3135.5474175,N,12046.8995822,E,4,17,1.6,2.7658,M,8.329,M,01,0004*61
$GPHPD,0,0.000,310.56,-2.04,-14.04,31.5924570,120.7816597,2.766,13631081.390,24927880.811,2.766,0.000,0.000,0.000,0.000,0.000,0.000,0.000,17,17,4*76
$GPGGA,075625.20,3135.5474178,N,12046.8995823,E,4,17,1.6,2.7637,M,8.329,M,01,0004*66
$GPHPD,0,0.000,310.57,-1.79,-14.02,31.5924570,120.7816597,2.764,13631081.386,24927880.810,2.764,0.000,0.000,0.000,0.000,0.000,0.000,0.000,17,17,4*7E
$GPGGA,075625.40,3135.5474185,N,12046.8995814,E,4,18,1.4,2.7621,M,8.329,M,01,0004*6C
$GPHPD,0,0.000,310.54,-1.69,-13.98,31.5924570,120.7816597,2.762,13631081.374,24927880.796,2.762,0.000,0.000,0.000,0.000,0.000,0.000,0.000,18,17,4*7B
$GPGGA,075625.60,3135.5474177,N,12046.8995800,E,4,18,1.4,2.7683,M,8.329,M,00,0004*6F
$GPHPD,0,0.000,310.49,-1.52,-13.95,31.5924570,120.7816597,2.768,13631081.382,24927880.783,2.768,0.000,0.000,0.000,0.000,0.000,0.000,0.000,18,17,4*7F
$GPGGA,075625.80,3135.5474207,N,12046.8995794,E,4,18,1.4,2.7662,M,8.329,M,00,0004*68
$GPHPD,0,0.000,310.65,-1.88,-13.95,31.5924570,120.7816597,2.766,13631081.339,24927880.759,2.766,0.000,0.000,0.000,0.000,0.000,0.000,0.000,18,17,4*71
$GPGGA,075626.00,3135.5474250,N,12046.8995724,E,4,18,1.4,2.7729,M,8.329,M,01,0004*65
$GPHPD,0,0.000,310.57,-1.71,-14.02,31.5924571,120.7816595,2.773,13631081.263,24927880.649,2.773,0.000,0.000,0.000,0.000,0.000,0.000,0.000,18,17,4*72
$GPGGA,075626.20,3135.5474329,N,12046.8995604,E,4,18,1.4,2.7752,M,8.329,M,01,0004*67
$GPHPD,0,0.000,310.62,-1.40,-14.17,31.5924572,120.7816593,2.775,13631081.127,24927880.458,2.775,0.000,0.000,0.000,0.000,0.000,0.000,0.000,18,17,4*76
$GPGGA,075626.40,3135.5474517,N,12046.8995316,E,4,18,1.4,2.7699,M,8.329,M,01,0004*6A
$GPHPD,0,0.000,310.79,-1.77,-14.34,31.5924575,120.7816589,2.770,13631080.802,24927880.002,2.770,0.000,0.000,0.000,0.000,0.000,0.000,0.000,18,18,4*7E
$GPGGA,075626.60,3135.5474852,N,12046.8994906,E,4,18,1.4,2.7615,M,8.329,M,00,0004*6B
$GPHPD,0,0.000,310.84,-1.43,-14.45,31.5924581,120.7816582,2.762,13631080.243,24927879.312,2.762,0.000,0.000,0.000,0.000,0.000,0.000,0.000,18,18,4*76
$GPGGA,075626.80,3135.5475267,N,12046.8994353,E,4,18,1.4,2.7625,M,8.329,M,00,0004*61
$GPHPD,0,0.000,310.62,-0.79,-14.56,31.5924588,120.7816573,2.763,13631079.542,24927878.403,2.763,0.000,0.000,0.000,0.000,0.000,0.000,0.000,18,18,4*75
$GPGGA,075627.00,3135.5475795,N,12046.8993641,E,4,18,1.2,2.7394,M,8.329,M,01,0004*69
$GPHPD,0,0.000,310.51,-0.69,-14.65,31.5924597,120.7816561,2.739,13631078.648,24927877.237,2.739,0.000,0.000,0.000,0.000,0.000,0.000,0.000,18,18,4*7F
$GPGGA,075627.20,3135.5476380,N,12046.8992805,E,4,18,1.2,2.7458,M,8.329,M,01,0004*60
$GPHPD,0,0.000,310.57,0.13,-14.66,31.5924606,120.7816547,2.746,13631077.648,24927875.888,2.746,0.000,0.000,0.000,0.000,0.000,0.000,0.000,18,18,4*56
$GPGGA,075627.40,3135.5477037,N,12046.8991971,E,4,18,1.2,2.7361,M,8.329,M,01,0004*64
$GPHPD,0,0.000,310.86,-0.21,-14.57,31.5924617,120.7816533,2.736,13631076.546,24927874.500,2.736,0.000,0.000,0.000,0.000,0.000,0.000,0.000,18,18,4*77
$GPGGA,075627.60,3135.5477683,N,12046.8991084,E,4,18,1.2,2.7355,M,8.329,M,00,0004*6A
$GPHPD,0,0.000,310.53,0.00,-14.44,31.5924628,120.7816518,2.736,13631075.450,24927873.054,2.736,0.000,0.000,0.000,0.000,0.000,0.000,0.000,18,18,4*50
$GPGGA,075627.80,3135.5478290,N,12046.8990213,E,4,18,1.2,2.7313,M,8.329,M,00,0004*62
$GPHPD,0,0.000,310.33,-0.16,-14.32,31.5924638,120.7816504,2.731,13631074.412,24927871.650,2.731,0.000,0.000,0.000,0.000,0.000,0.000,0.000,18,18,4*76
$GPGGA,075628.00,3135.5478912,N,12046.8989408,E,4,18,1.2,2.7262,M,8.329,M,01,0004*66
$GPHPD,0,0.000,310.01,0.76,-14.21,31.5924649,120.7816490,2.726,13631073.365,24927870.317,2.726,0.000,0.000,0.000,0.000,0.000,0.000,0.000,18,18,4*53
$GPGGA,075628.20,3135.5479498,N,12046.8988580,E,4,18,1.2,2.7344,M,8.329,M,01,0004*6F
$GPHPD,0,0.000,309.53,0.86,-14.18,31.5924658,120.7816476,2.734,13631072.366,24927868.977,2.734,0.000,0.000,0.000,0.000,0.000,0.000,0.000,18,18,4*56
$GPGGA,075628.40,3135.5480105,N,12046.8987773,E,4,18,1.2,2.7302,M,8.329,M,01,0004*6D
$GPHPD,0,0.000,309.44,0.32,-14.14,31.5924668,120.7816463,2.730,13631071.340,24927867.650,2.730,0.000,0.000,0.000,0.000,0.000,0.000,0.000,18,18,4*56
$GPGGA,075628.60,3135.5480693,N,12046.8986897,E,4,18,1.2,2.7315,M,8.329,M,00,0004*64
$GPHPD,0,0.000,308.96,0.83,-14.12,31.5924678,120.7816448,2.732,13631070.328,24927866.251,2.732,0.000,0.000,0.000,0.000,0.000,0.000,0.000,18,18,4*57
$GPGGA,075628.80,3135.5481340,N,12046.8986051,E,4,18,1.2,2.7331,M,8.329,M,00,0004*64
$GPHPD,0,0.000,308.88,1.15,-14.13,31.5924689,120.7816434,2.733,13631069.238,24927864.854,2.733,0.000,0.000,0.000,0.000,0.000,0.000,0.000,18,18,4*57
$GPGGA,075629.00,3135.5482002,N,12046.8985231,E,4,18,1.2,2.7490,M,8.329,M,01,0004*61
$GPHPD,0,0.000,308.66,0.73,-14.11,31.5924700,120.7816421,2.749,13631068.132,24927863.480,2.749,0.000,0.000,0.000,0.000,0.000,0.000,0.000,18,18,4*5A
$GPGGA,075629.20,3135.5482666,N,12046.8984204,E,4,18,1.2,2.7404,M,8.329,M,01,0004*6D
$GPHPD,0,0.000,308.64,0.44,-14.04,31.5924711,120.7816403,2.740,13631066.982,24927861.855,2.740,0.000,0.000,0.000,0.000,0.000,0.000,0.000,18,18,4*53
$GPGGA,075629.40,3135.5483319,N,12046.8983277,E,4,18,1.2,2.7423,M,8.329,M,01,0004*61
$GPHPD,0,0.000,308.30,1.06,-13.91,31.5924722,120.7816388,2.742,13631065.867,24927860.356,2.742,0.000,0.000,0.000,0.000,0.000,0.000,0.000,18,18,4*5A
$GPGGA,075629.60,3135.5483971,N,12046.8982370,E,4,18,1.2,2.7531,M,8.329,M,00,0004*63
$GPHPD,0,0.000,308.13,1.01,-13.85,31.5924733,120.7816373,2.753,13631064.758,24927858.883,2.753,0.000,0.000,0.000,0.000,0.000,0.000,0.000,18,18,4*57
$GPGGA,075629.80,3135.5484608,N,12046.8981456,E,4,18,1.2,2.7419,M,8.329,M,00,0004*60
$GPHPD,0,0.000,308.18,0.58,-13.75,31.5924743,120.7816358,2.742,13631063.668,24927857.410,2.742,0.000,0.000,0.000,0.000,0.000,0.000,0.000,18,18,4*5C
$GPGGA,075630.00,3135.5485186,N,12046.8980551,E,4,18,1.2,2.7516,M,8.329,M,01,0004*68
$GPHPD,0,0.000,308.10,1.08,-13.66,31.5924753,120.7816343,2.752,13631062.665,24927855.981,2.752,0.000,0.000,0.000,0.000,0.000,0.000,0.000,18,18,4*52
$GPGGA,075630.20,3135.5485836,N,12046.8979743,E,4,18,1.2,2.7527,M,8.329,M,01,0004*6D
$GPHPD,0,0.000,308.58,-0.57,-13.59,31.5924764,120.7816329,2.753,13631061.578,24927854.628,2.753,0.000,0.000,0.000,0.000,0.000,0.000,0.000,18,18,4*7D
$GPGGA,075630.40,3135.5486434,N,12046.8978883,E,4,18,1.2,2.7544,M,8.329,M,01,0004*61
$GPHPD,0,0.000,308.36,0.15,-13.55,31.5924774,120.7816315,2.754,13631060.555,24927853.243,2.754,0.000,0.000,0.000,0.000,0.000,0.000,0.000,18,18,4*5C
$GPGGA,075630.60,3135.5487002,N,12046.8978035,E,4,18,1.2,2.7621,M,8.329,M,00,0004*67
$GPHPD,0,0.000,308.18,0.11,-13.54,31.5924783,120.7816301,2.762,13631059.577,24927851.890,2.762,0.000,0.000,0.000,0.000,0.000,0.000,0.000,18,18,4*54
$GPGGA,075630.80,3135.5487622,N,12046.8977169,E,4,18,1.2,2.7498,M,8.329,M,00,0004*6A
$GPHPD,0,0.000,308.51,-0.41,-13.52,31.5924794,120.7816286,2.750,13631058.521,24927850.484,2.750,0.000,0.000,0.000,0.000,0.000,0.000,0.000,18,18,4*75
$GPGGA,075631.00,3135.5488191,N,12046.8976332,E,4,18,1.2,2.7744,M,8.329,M,01,0004*6D
$GPHPD,0,0.000,308.46,0.17,-13.46,31.5924803,120.7816272,2.774,13631057.544,24927849.143,2.774,0.000,0.000,0.000,0.000,0.000,0.000,0.000,18,17,4*57
$GPGGA,075631.20,3135.5488813,N,12046.8975418,E,4,18,1.2,2.7733,M,8.329,M,01,0004*60
$GPHPD,0,0.000,308.59,-1.06,-13.41,31.5924814,120.7816257,2.773,13631056.476,24927847.679,2.773,0.000,0.000,0.000,0.000,0.000,0.000,0.000,18,17,4*72
$GPGGA,075631.40,3135.5489442,N,12046.8974533,E,4,18,1.4,2.7792,M,8.329,M,01,0004*6B
$GPHPD,0,0.000,308.60,-0.63,-13.38,31.5924824,120.7816242,2.779,13631055.404,24927846.245,2.779,0.000,0.000,0.000,0.000,0.000,0.000,0.000,18,17,4*7F
$GPGGA,075631.60,3135.5490134,N,12046.8973560,E,4,18,1.2,2.7812,M,8.329,M,00,0004*64
$GPHPD,0,0.000,308.90,-1.14,-13.38,31.5924836,120.7816226,2.781,13631054.224,24927844.669,2.781,0.000,0.000,0.000,0.000,0.000,0.000,0.000,18,17,4*7D
$GPGGA,075631.80,3135.5490871,N,12046.8972614,E,4,18,1.4,2.7536,M,8.329,M,00,0004*6E
$GPHPD,0,0.000,309.00,-1.02,-13.42,31.5924848,120.7816210,2.754,13631052.986,24927843.099,2.754,0.000,0.000,0.000,0.000,0.000,0.000,0.000,18,17,4*78
$GPGGA,075632.00,3135.5491627,N,12046.8971607,E,4,18,1.4,2.7470,M,8.329,M,01,0004*6A
$GPHPD,0,0.000,308.77,0.16,-13.47,31.5924860,120.7816193,2.747,13631051.709,24927841.444,2.747,0.000,0.000,0.000,0.000,0.000,0.000,0.000,18,17,4*5B
$GPGGA,075632.20,3135.5492356,N,12046.8970553,E,4,18,1.4,2.7572,M,8.329,M,01,0004*68
$GPHPD,0,0.000,308.73,0.30,-13.44,31.5924873,120.7816176,2.757,13631050.461,24927839.748,2.757,0.000,0.000,0.000,0.000,0.000,0.000,0.000,18,17,4*5D
$GPGGA,075632.40,3135.5493142,N,12046.8969480,E,4,18,1.4,2.7629,M,8.329,M,01,0004*62
$GPHPD,0,0.000,308.84,-0.09,-13.46,31.5924886,120.7816158,2.763,13631049.127,24927837.996,2.763,0.000,0.000,0.000,0.000,0.000,0.000,0.000,18,17,4*7A
$GPGGA,075632.60,3135.5493958,N,12046.8968335,E,4,18,1.4,2.7391,M,8.329,M,00,0004*6C
$GPHPD,0,0.000,308.31,-0.22,-13.48,31.5924899,120.7816139,2.739,13631047.737,24927836.140,2.739,0.000,0.000,0.000,0.000,0.000,0.000,0.000,18,17,4*71
$GPGGA,075632.80,3135.5494786,N,12046.8967201,E,4,18,1.4,2.7309,M,8.329,M,00,0004*60
$GPHPD,0,0.000,308.13,1.06,-13.52,31.5924913,120.7816120,2.731,13631046.332,24927834.290,2.731,0.000,0.000,0.000,0.000,0.000,0.000,0.000,18,17,4*57
$GPGGA,075633.00,3135.5495591,N,12046.8966046,E,4,18,1.4,2.7539,M,8.329,M,01,0004*68
$GPHPD,0,0.000,308.01,0.62,-13.52,31.5924927,120.7816101,2.754,13631044.955,24927832.429,2.754,0.000,0.000,0.000,0.000,0.000,0.000,0.000,18,17,4*58
$GPGGA,075633.20,3135.5496455,N,12046.8964818,E,4,17,1.4,2.7572,M,8.329,M,01,0004*61
$GPHPD,0,0.000,307.79,-0.33,-13.48,31.5924941,120.7816080,2.757,13631043.480,24927830.445,2.757,0.000,0.000,0.000,0.000,0.000,0.000,0.000,17,17,4*77
$GPGGA,075633.40,3135.5497347,N,12046.8963618,E,4,17,1.4,2.7475,M,8.329,M,01,0004*6D
$GPHPD,0,0.000,308.33,-2.79,-13.45,31.5924956,120.7816060,2.748,13631041.970,24927828.478,2.748,0.000,0.000,0.000,0.000,0.000,0.000,0.000,17,17,4*78
$GPGGA,075633.60,3135.5498203,N,12046.8962319,E,4,17,1.4,2.7627,M,8.329,M,00,0004*60
$GPHPD,0,0.000,308.46,-2.24,-13.47,31.5924970,120.7816039,2.763,13631040.492,24927826.413,2.763,0.000,0.000,0.000,0.000,0.000,0.000,0.000,17,17,4*7B
$GPGGA,075633.80,3135.5499079,N,12046.8961065,E,4,17,1.4,2.7683,M,8.329,M,00,0004*65
$GPHPD,0,0.000,309.14,-4.61,-13.50,31.5924985,120.7816018,2.768,13631038.995,24927824.390,2.768,0.000,0.000,0.000,0.000,0.000,0.000,0.000,17,17,4*7E
$GPGGA,075634.00,3135.5499993,N,12046.8959793,E,4,17,1.4,2.7537,M,8.329,M,01,0004*6F
$GPHPD,0,0.000,310.03,-5.70,-13.45,31.5925000,120.7815997,2.754,13631037.439,24927822.324,2.754,0.000,0.000,0.000,0.000,0.000,0.000,0.000,17,17,4*70
$GPGGA,075634.20,3135.5500882,N,12046.8958488,E,4,18,1.4,2.7561,M,8.329,M,01,0004*69
$GPHPD,0,0.000,310.55,-6.05,-13.40,31.5925015,120.7815975,2.756,13631035.913,24927820.232,2.756,0.000,0.000,0.000,0.000,0.000,0.000,0.000,18,17,4*73
$GPGGA,075634.40,3135.5501885,N,12046.8957262,E,4,17,1.4,2.6961,M,8.329,M,01,0004*66
$GPHPD,0,0.000,310.55,-4.36,-13.43,31.5925031,120.7815954,2.696,13631034.241,24927818.170,2.696,0.000,0.000,0.000,0.000,0.000,0.000,0.000,17,17,4*7B
$GPGGA,075634.60,3135.5502824,N,12046.8956017,E,4,17,1.4,2.6780,M,8.329,M,00,0004*6D
$GPHPD,0,0.000,309.45,0.56,-13.43,31.5925047,120.7815934,2.678,13631032.655,24927816.121,2.678,0.000,0.000,0.000,0.000,0.000,0.000,0.000,17,17,4*57
$GPGGA,075634.80,3135.5503699,N,12046.8954732,E,4,17,1.4,2.6636,M,8.329,M,00,0004*64
$GPHPD,0,0.000,309.96,0.21,-13.42,31.5925062,120.7815912,2.664,13631031.153,24927814.062,2.664,0.000,0.000,0.000,0.000,0.000,0.000,0.000,17,17,4*5D
$GPGGA,075635.00,3135.5504667,N,12046.8953435,E,4,17,1.4,2.6295,M,8.329,M,01,0004*64
$GPHPD,0,0.000,311.12,0.29,-13.38,31.5925078,120.7815891,2.630,13631029.516,24927811.934,2.630,0.000,0.000,0.000,0.000,0.000,0.000,0.000,17,17,4*5F
$GPGGA,075635.20,3135.5505572,N,12046.8952217,E,4,17,1.4,2.6422,M,8.329,M,01,0004*6D
$GPHPD,0,0.000,311.83,2.54,-13.37,31.5925093,120.7815870,2.642,13631027.984,24927809.938,2.642,0.000,0.000,0.000,0.000,0.000,0.000,0.000,17,17,4*56
$GPGGA,075635.40,3135.5506515,N,12046.8950925,E,4,18,1.4,2.6523,M,8.329,M,01,0004*6E
$GPHPD,0,0.000,310.89,3.00,-13.45,31.5925109,120.7815849,2.652,13631026.384,24927807.831,2.652,0.000,0.000,0.000,0.000,0.000,0.000,0.000,18,17,4*52
$GPGGA,075635.60,3135.5507488,N,12046.8949696,E,4,17,1.4,2.6786,M,8.329,M,00,0004*64
$GPHPD,0,0.000,310.72,2.26,-13.46,31.5925125,120.7815828,2.679,13631024.753,24927805.782,2.679,0.000,0.000,0.000,0.000,0.000,0.000,0.000,17,17,4*5F
$GPGGA,075635.80,3135.5508458,N,12046.8948412,E,4,17,1.4,2.6697,M,8.329,M,00,0004*66
$GPHPD,0,0.000,310.20,0.82,-13.45,31.5925141,120.7815807,2.670,13631023.116,24927803.669,2.670,0.000,0.000,0.000,0.000,0.000,0.000,0.000,17,17,4*5A
$GPGGA,075636.00,3135.5509348,N,12046.8947103,E,4,18,1.4,2.6872,M,8.329,M,01,0004*6B
$GPHPD,0,0.000,309.70,1.94,-13.45,31.5925156,120.7815785,2.687,13631021.588,24927801.572,2.687,0.000,0.000,0.000,0.000,0.000,0.000,0.000,18,17,4*57
$GPGGA,075636.20,3135.5510338,N,12046.8945849,E,4,17,1.4,2.7043,M,8.329,M,01,0004*67
$GPHPD,0,0.000,311.23,0.48,-13.46,31.5925172,120.7815764,2.704,13631019.928,24927799.483,2.704,0.000,0.000,0.000,0.000,0.000,0.000,0.000,17,17,4*51
$GPGGA,075636.40,3135.5511249,N,12046.8944548,E,4,17,1.4,2.7053,M,8.329,M,01,0004*6B
$GPHPD,0,0.000,310.25,0.15,-13.42,31.5925187,120.7815742,2.705,13631018.371,24927797.383,2.705,0.000,0.000,0.000,0.000,0.000,0.000,0.000,17,17,4*5A
$GPGGA,075636.60,3135.5512181,N,12046.8943210,E,4,17,1.4,2.7244,M,8.329,M,00,0004*65
$GPHPD,0,0.000,309.99,0.31,-13.41,31.5925203,120.7815720,2.724,13631016.777,24927795.227,2.724,0.000,0.000,0.000,0.000,0.000,0.000,0.000,17,17,4*5A
$GPGGA,075636.80,3135.5513089,N,12046.8941924,E,4,17,1.4,2.7076,M,8.329,M,00,0004*6E
$GPHPD,0,0.000,310.69,-1.49,-13.40,31.5925218,120.7815699,2.708,13631015.228,24927793.147,2.708,0.000,0.000,0.000,0.000,0.000,0.000,0.000,17,17,4*79
$GPGGA,075637.00,3135.5514054,N,12046.8940575,E,4,17,1.4,2.7259,M,8.329,M,01,0004*67
$GPHPD,0,0.000,311.02,-0.04,-13.34,31.5925234,120.7815676,2.726,13631013.584,24927790.958,2.726,0.000,0.000,0.000,0.000,0.000,0.000,0.000,17,17,4*73
$GPGGA,075637.20,3135.5515120,N,12046.8939277,E,4,17,1.4,2.7125,M,8.329,M,01,0004*65
$GPHPD,0,0.000,309.39,0.05,-13.31,31.5925252,120.7815655,2.713,13631011.808,24927788.772,2.713,0.000,0.000,0.000,0.000,0.000,0.000,0.000,17,16,4*5F
$GPGGA,075637.40,3135.5516116,N,12046.8937858,E,4,17,1.4,2.7150,M,8.329,M,01,0004*6E
$GPHPD,0,0.000,309.06,0.13,-13.26,31.5925269,120.7815631,2.715,13631010.107,24927786.480,2.715,0.000,0.000,0.000,0.000,0.000,0.000,0.000,17,17,4*5E
$GPGGA,075637.60,3135.5517059,N,12046.8936474,E,4,17,1.4,2.7176,M,8.329,M,00,0004*61
$GPHPD,0,0.000,308.99,-0.27,-13.18,31.5925284,120.7815608,2.718,13631008.488,24927784.262,2.718,0.000,0.000,0.000,0.000,0.000,0.000,0.000,17,17,4*74
$GPGGA,075637.80,3135.5518046,N,12046.8935107,E,4,17,1.4,2.7097,M,8.329,M,00,0004*62
$GPHPD,0,0.000,308.58,-0.60,-13.14,31.5925301,120.7815585,2.710,13631006.810,24927782.039,2.710,0.000,0.000,0.000,0.000,0.000,0.000,0.000,17,17,4*75
$GPGGA,075638.00,3135.5519031,N,12046.8933738,E,4,17,1.4,2.7206,M,8.329,M,01,0004*63
$GPHPD,0,0.000,308.99,-0.73,-13.12,31.5925317,120.7815562,2.721,13631005.134,24927779.814,2.721,0.000,0.000,0.000,0.000,0.000,0.000,0.000,17,17,4*7D
$GPGGA,075638.20,3135.5520026,N,12046.8932395,E,4,17,1.4,2.7392,M,8.329,M,01,0004*63
$GPHPD,0,0.000,309.22,-1.73,-13.10,31.5925334,120.7815540,2.739,13631003.449,24927777.615,2.739,0.000,0.000,0.000,0.000,0.000,0.000,0.000,17,17,4*76
$GPGGA,075638.40,3135.5521119,N,12046.8930990,E,4,18,1.4,2.7325,M,8.329,M,01,0004*67
$GPHPD,0,0.000,310.22,-3.08,-13.09,31.5925352,120.7815517,2.733,13631001.613,24927775.284,2.733,0.000,0.000,0.000,0.000,0.000,0.000,0.000,18,17,4*74
$GPGGA,075638.60,3135.5522204,N,12046.8929627,E,4,18,1.4,2.7277,M,8.329,M,00,0004*65
$GPHPD,0,0.000,310.59,-2.21,-13.05,31.5925370,120.7815494,2.728,13630999.796,24927773.008,2.728,0.000,0.000,0.000,0.000,0.000,0.000,0.000,18,17,4*71
$GPGGA,075638.80,3135.5523097,N,12046.8928224,E,4,18,1.4,2.7282,M,8.329,M,00,0004*6E
$GPHPD,0,0.000,310.87,-2.19,-13.05,31.5925385,120.7815470,2.728,13630998.245,24927770.796,2.728,0.000,0.000,0.000,0.000,0.000,0.000,0.000,18,17,4*70
$GPGGA,075639.00,3135.5524318,N,12046.8926897,E,4,18,1.5,2.6655,M,8.329,M,01,0004*67
$GPHPD,0,0.000,311.34,-1.28,-13.13,31.5925405,120.7815448,2.666,13630996.242,24927768.485,2.666,0.000,0.000,0.000,0.000,0.000,0.000,0.000,18,17,4*7A
$GPGGA,075639.20,3135.5525290,N,12046.8925498,E,4,18,1.4,2.6519,M,8.329,M,01,0004*6F
$GPHPD,0,0.000,311.52,0.29,-13.21,31.5925422,120.7815425,2.652,13630994.579,24927766.232,2.652,0.000,0.000,0.000,0.000,0.000,0.000,0.000,18,17,4*51
$GPGGA,075639.40,3135.5526266,N,12046.8924131,E,4,18,1.4,2.6549,M,8.329,M,01,0004*61
$GPHPD,0,0.000,311.42,1.75,-13.23,31.5925438,120.7815402,2.655,13630992.916,24927764.015,2.655,0.000,0.000,0.000,0.000,0.000,0.000,0.000,18,17,4*52
$GPGGA,075639.60,3135.5527361,N,12046.8922795,E,4,18,1.4,2.6727,M,8.329,M,00,0004*61
$GPHPD,0,0.000,311.73,2.20,-13.27,31.5925456,120.7815380,2.673,13630991.091,24927761.766,2.673,0.000,0.000,0.000,0.000,0.000,0.000,0.000,18,17,4*51
$GPGGA,075639.80,3135.5528383,N,12046.8921432,E,4,18,1.4,2.6696,M,8.329,M,00,0004*6A
$GPHPD,0,0.000,311.71,1.26,-13.29,31.5925473,120.7815357,2.670,13630989.364,24927759.527,2.670,0.000,0.000,0.000,0.000,0.000,0.000,0.000,18,17,4*59
$GPGGA,075640.00,3135.5529384,N,12046.8920092,E,4,18,1.4,2.6885,M,8.329,M,01,0004*68
$GPHPD,0,0.000,311.50,1.45,-13.26,31.5925490,120.7815335,2.689,13630987.671,24927757.328,2.689,0.000,0.000,0.000,0.000,0.000,0.000,0.000,18,17,4*51
$GPGGA,075640.20,3135.5530501,N,12046.8918740,E,4,18,1.4,2.6938,M,8.329,M,01,0004*6D
$GPHPD,0,0.000,311.40,0.78,-13.22,31.5925508,120.7815312,2.694,13630985.811,24927755.047,2.694,0.000,0.000,0.000,0.000,0.000,0.000,0.000,18,17,4*5C
$GPGGA,075640.40,3135.5531524,N,12046.8917378,E,4,18,1.4,2.6989,M,8.329,M,01,0004*67
$GPHPD,0,0.000,311.56,-0.35,-13.16,31.5925525,120.7815290,2.699,13630984.083,24927752.808,2.699,0.000,0.000,0.000,0.000,0.000,0.000,0.000,18,17,4*7A
$GPGGA,075640.60,3135.5532667,N,12046.8916042,E,4,17,1.4,2.6997,M,8.329,M,00,0004*68
$GPHPD,0,0.000,311.40,-0.69,-13.18,31.5925544,120.7815267,2.700,13630982.189,24927750.531,2.700,0.000,0.000,0.000,0.000,0.000,0.000,0.000,17,17,4*72
$GPGGA,075640.80,3135.5533602,N,12046.8914667,E,4,18,1.4,2.7221,M,8.329,M,00,0004*6F
$GPHPD,0,0.000,311.42,-1.73,-13.19,31.5925560,120.7815244,2.722,13630980.584,24927748.329,2.722,0.000,0.000,0.000,0.000,0.000,0.000,0.000,18,17,4*7E
$GPGGA,075641.00,3135.5534666,N,12046.8913271,E,4,18,1.4,2.7249,M,8.329,M,01,0004*68
$GPHPD,0,0.000,311.22,-1.54,-13.10,31.5925578,120.7815221,2.725,13630978.790,24927746.025,2.725,0.000,0.000,0.000,0.000,0.000,0.000,0.000,18,17,4*7F
$GPGGA,075641.20,3135.5535705,N,12046.8911891,E,4,18,1.4,2.7116,M,8.329,M,01,0004*60
$GPHPD,0,0.000,310.95,-1.83,-13.05,31.5925595,120.7815198,2.712,13630977.036,24927743.756,2.712,0.000,0.000,0.000,0.000,0.000,0.000,0.000,18,17,4*7C
$GPGGA,075641.40,3135.5536724,N,12046.8910501,E,4,18,1.4,2.7025,M,8.329,M,01,0004*62
$GPHPD,0,0.000,310.70,-1.17,-13.03,31.5925612,120.7815175,2.703,13630975.308,24927741.486,2.703,0.000,0.000,0.000,0.000,0.000,0.000,0.000,18,17,4*73
$GPGGA,075641.60,3135.5537730,N,12046.8909184,E,4,17,1.4,2.7084,M,8.329,M,00,0004*60
$GPHPD,0,0.000,310.24,-0.58,-13.03,31.5925629,120.7815153,2.708,13630973.612,24927739.312,2.708,0.000,0.000,0.000,0.000,0.000,0.000,0.000,17,17,4*76
$GPGGA,075641.80,3135.5538728,N,12046.8907815,E,4,17,1.4,2.7144,M,8.329,M,00,0004*6A
$GPHPD,0,0.000,309.71,0.37,-13.01,31.5925645,120.7815130,2.714,13630971.918,24927737.080,2.714,0.000,0.000,0.000,0.000,0.000,0.000,0.000,17,17,4*56
$GPGGA,075642.00,3135.5539725,N,12046.8906421,E,4,18,1.4,2.7029,M,8.329,M,01,0004*63
$GPHPD,0,0.000,309.32,0.06,-13.01,31.5925662,120.7815107,2.703,13630970.221,24927734.818,2.703,0.000,0.000,0.000,0.000,0.000,0.000,0.000,18,17,4*57
$GPGGA,075642.20,3135.5540698,N,12046.8905069,E,4,18,1.4,2.7047,M,8.329,M,01,0004*6B
$GPHPD,0,0.000,309.27,-0.66,-13.03,31.5925678,120.7815084,2.705,13630968.565,24927732.621,2.705,0.000,0.000,0.000,0.000,0.000,0.000,0.000,18,17,4*77
$GPGGA,075642.40,3135.5541710,N,12046.8903677,E,4,17,1.4,2.6978,M,8.329,M,01,0004*69
$GPHPD,0,0.000,309.26,-1.61,-13.07,31.5925695,120.7815061,2.698,13630966.847,24927730.353,2.698,0.000,0.000,0.000,0.000,0.000,0.000,0.000,17,17,4*72
$GPGGA,075642.60,3135.5542678,N,12046.8902335,E,4,18,1.4,2.7151,M,8.329,M,00,0004*69
$GPHPD,0,0.000,309.30,-1.84,-13.05,31.5925711,120.7815039,2.715,13630965.201,24927728.170,2.715,0.000,0.000,0.000,0.000,0.000,0.000,0.000,18,17,4*72
$GPGGA,075642.80,3135.5543636,N,12046.8900946,E,4,18,1.4,2.7336,M,8.329,M,00,0004*63
$GPHPD,0,0.000,309.77,-1.77,-13.06,31.5925727,120.7815016,2.734,13630963.559,24927725.937,2.734,0.000,0.000,0.000,0.000,0.000,0.000,0.000,18,17,4*7C
$GPGGA,075643.00,3135.5544628,N,12046.8899552,E,4,18,1.4,2.6996,M,8.329,M,01,0004*6A
$GPHPD,0,0.000,310.02,-1.41,-13.09,31.5925744,120.7814993,2.700,13630961.869,24927723.679,2.700,0.000,0.000,0.000,0.000,0.000,0.000,0.000,18,17,4*73
$GPGGA,075643.20,3135.5545641,N,12046.8898196,E,4,18,1.4,2.6648,M,8.329,M,01,0004*67
$GPHPD,0,0.000,310.34,0.00,-13.04,31.5925761,120.7814970,2.665,13630960.156,24927721.453,2.665,0.000,0.000,0.000,0.000,0.000,0.000,0.000,18,17,4*54
$GPGGA,075643.40,3135.5546696,N,12046.8896831,E,4,18,1.4,2.6495,M,8.329,M,01,0004*60
$GPHPD,0,0.000,310.40,1.42,-12.99,31.5925778,120.7814947,2.650,13630958.382,24927719.193,2.650,0.000,0.000,0.000,0.000,0.000,0.000,0.000,18,17,4*5B
$GPGGA,075643.60,3135.5547750,N,12046.8895519,E,4,18,1.4,2.6367,M,8.329,M,00,0004*67
$GPHPD,0,0.000,310.20,1.80,-13.00,31.5925796,120.7814925,2.637,13630956.619,24927716.997,2.637,0.000,0.000,0.000,0.000,0.000,0.000,0.000,18,17,4*5C
$GPGGA,075643.80,3135.5548728,N,12046.8894100,E,4,18,1.4,2.6726,M,8.329,M,00,0004*65
$GPHPD,0,0.000,310.03,1.93,-13.01,31.5925812,120.7814902,2.673,13630954.944,24927714.716,2.673,0.000,0.000,0.000,0.000,0.000,0.000,0.000,18,17,4*58
$GPGGA,075644.00,3135.5549747,N,12046.8892725,E,4,18,1.4,2.6793,M,8.329,M,01,0004*6A
$GPHPD,0,0.000,309.93,0.53,-12.99,31.5925829,120.7814879,2.679,13630953.218,24927712.464,2.679,0.000,0.000,0.000,0.000,0.000,0.000,0.000,18,17,4*54
$GPGGA,075644.20,3135.5550786,N,12046.8891369,E,4,18,1.4,2.6775,M,8.329,M,01,0004*6A
$GPHPD,0,0.000,309.90,0.69,-13.00,31.5925846,120.7814856,2.678,13630951.469,24927710.224,2.678,0.000,0.000,0.000,0.000,0.000,0.000,0.000,18,17,4*59
$GPGGA,075644.40,3135.5551803,N,12046.8890045,E,4,18,1.4,2.6954,M,8.329,M,01,0004*6E
$GPHPD,0,0.000,309.88,0.54,-13.00,31.5925863,120.7814834,2.695,13630949.757,24927708.035,2.695,0.000,0.000,0.000,0.000,0.000,0.000,0.000,18,17,4*51
$GPGGA,075644.60,3135.5552826,N,12046.8888580,E,4,18,1.6,2.6938,M,8.329,M,00,0004*64
$GPHPD,0,0.000,309.63,-0.12,-12.98,31.5925880,120.7814810,2.694,13630948.008,24927705.672,2.694,0.000,0.000,0.000,0.000,0.000,0.000,0.000,18,17,4*74
$GPGGA,075644.80,3135.5553848,N,12046.8887242,E,4,18,1.6,2.6989,M,8.329,M,00,0004*6F
$GPHPD,0,0.000,309.75,-0.43,-12.91,31.5925897,120.7814787,2.699,13630946.286,24927703.463,2.699,0.000,0.000,0.000,0.000,0.000,0.000,0.000,18,17,4*77
$GPGGA,075645.00,3135.5554903,N,12046.8885808,E,4,18,1.4,2.7048,M,8.329,M,01,0004*6F
$GPHPD,0,0.000,309.51,-0.21,-12.85,31.5925915,120.7814763,2.705,13630944.497,24927701.119,2.705,0.000,0.000,0.000,0.000,0.000,0.000,0.000,18,18,4*70
$GPGGA,075645.20,3135.5555946,N,12046.8884390,E,4,18,1.4,2.6846,M,8.329,M,01,0004*61
$GPHPD,0,0.000,309.40,-0.22,-12.83,31.5925932,120.7814740,2.685,13630942.729,24927698.802,2.685,0.000,0.000,0.000,0.000,0.000,0.000,0.000,18,18,4*73
$GPGGA,075645.40,3135.5556946,N,12046.8882967,E,4,18,1.6,2.6897,M,8.329,M,01,0004*6E
$GPHPD,0,0.000,309.14,-0.23,-12.86,31.5925949,120.7814716,2.690,13630941.022,24927696.503,2.690,0.000,0.000,0.000,0.000,0.000,0.000,0.000,18,18,4*74
$GPGGA,075645.60,3135.5557975,N,12046.8881570,E,4,18,1.4,2.7074,M,8.329,M,00,0004*63
$GPHPD,0,0.000,309.34,-1.43,-12.80,31.5925966,120.7814693,2.707,13630939.278,24927694.219,2.707,0.000,0.000,0.000,0.000,0.000,0.000,0.000,18,18,4*7A
$GPGGA,075645.80,3135.5559030,N,12046.8880200,E,4,18,1.4,2.7075,M,8.329,M,00,0004*6B
$GPHPD,0,0.000,309.45,-1.10,-12.75,31.5925984,120.7814670,2.708,13630937.502,24927691.953,2.708,0.000,0.000,0.000,0.000,0.000,0.000,0.000,18,18,4*75
$GPGGA,075646.00,3135.5560061,N,12046.8878726,E,4,18,1.2,2.7197,M,8.329,M,01,0004*62
$GPHPD,0,0.000,309.56,-1.68,-12.69,31.5926001,120.7814645,2.720,13630935.740,24927689.575,2.720,0.000,0.000,0.000,0.000,0.000,0.000,0.000,18,18,4*73
$GPGGA,075646.20,3135.5561120,N,12046.8877285,E,4,18,1.2,2.7114,M,8.329,M,01,0004*6D
$GPHPD,0,0.000,309.62,-2.89,-12.71,31.5926019,120.7814621,2.711,13630933.945,24927687.220,2.711,0.000,0.000,0.000,0.000,0.000,0.000,0.000,18,18,4*7E
$GPGGA,075646.40,3135.5562194,N,12046.8875775,E,4,18,1.2,2.6747,M,8.329,M,01,0004*6E
$GPHPD,0,0.000,309.93,-2.05,-12.68,31.5926037,120.7814596,2.675,13630932.114,24927684.773,2.675,0.000,0.000,0.000,0.000,0.000,0.000,0.000,18,18,4*72
$GPGGA,075646.60,3135.5563258,N,12046.8874398,E,4,18,1.2,2.6864,M,8.329,M,00,0004*67
$GPHPD,0,0.000,310.20,-1.23,-12.65,31.5926054,120.7814573,2.686,13630930.325,24927682.493,2.686,0.000,0.000,0.000,0.000,0.000,0.000,0.000,18,18,4*7F
$GPGGA,075646.80,3135.5564335,N,12046.8872952,E,4,18,1.2,2.6658,M,8.329,M,00,0004*6F
$GPHPD,0,0.000,309.97,-1.17,-12.66,31.5926072,120.7814549,2.666,13630928.503,24927680.122,2.666,0.000,0.000,0.000,0.000,0.000,0.000,0.000,18,18,4*74
$GPGGA,075647.00,3135.5565440,N,12046.8871507,E,4,18,1.2,2.6495,M,8.329,M,01,0004*6F
$GPHPD,0,0.000,310.02,-0.27,-12.66,31.5926091,120.7814525,2.650,13630926.641,24927677.736,2.650,0.000,0.000,0.000,0.000,0.000,0.000,0.000,18,18,4*75
$GPGGA,075647.20,3135.5566519,N,12046.8870035,E,4,18,1.2,2.6455,M,8.329,M,01,0004*6A
$GPHPD,0,0.000,309.85,1.36,-12.62,31.5926109,120.7814501,2.646,13630924.811,24927675.332,2.646,0.000,0.000,0.000,0.000,0.000,0.000,0.000,18,18,4*57
$GPGGA,075647.40,3135.5567555,N,12046.8868601,E,4,18,1.2,2.6584,M,8.329,M,01,0004*60
$GPHPD,0,0.000,309.77,1.98,-12.60,31.5926126,120.7814477,2.658,13630923.050,24927672.999,2.658,0.000,0.000,0.000,0.000,0.000,0.000,0.000,18,18,4*57
$GPGGA,075647.60,3135.5568657,N,12046.8867124,E,4,18,1.4,2.6491,M,8.329,M,00,0004*61
$GPHPD,0,0.000,309.86,0.57,-12.62,31.5926144,120.7814452,2.649,13630921.187,24927670.576,2.649,0.000,0.000,0.000,0.000,0.000,0.000,0.000,18,18,4*5C
$GPGGA,075647.80,3135.5569741,N,12046.8865689,E,4,18,1.2,2.6701,M,8.329,M,00,0004*66
$GPHPD,0,0.000,310.03,-0.08,-12.62,31.5926162,120.7814428,2.670,13630919.357,24927668.214,2.670,0.000,0.000,0.000,0.000,0.000,0.000,0.000,18,18,4*79
$GPGGA,075648.00,3135.5570823,N,12046.8864229,E,4,18,1.2,2.6834,M,8.329,M,01,0004*65
$GPHPD,0,0.000,309.80,0.27,-12.61,31.5926180,120.7814404,2.683,13630917.525,24927665.824,2.683,0.000,0.000,0.000,0.000,0.000,0.000,0.000,18,18,4*52
$GPGGA,075648.20,3135.5571910,N,12046.8862761,E,4,17,1.4,2.6869,M,8.329,M,01,0004*69
$GPHPD,0,0.000,309.65,-1.41,-12.61,31.5926199,120.7814379,2.687,13630915.685,24927663.420,2.687,0.000,0.000,0.000,0.000,0.000,0.000,0.000,17,16,4*74
$GPGGA,075648.40,3135.5572995,N,12046.8861320,E,4,17,1.4,2.6862,M,8.328,M,01,0004*69
$GPHPD,0,0.000,310.00,-1.28,-12.63,31.5926217,120.7814355,2.686,13630913.852,24927661.050,2.686,0.000,0.000,0.000,0.000,0.000,0.000,0.000,17,16,4*7A
$GPGGA,075648.60,3135.5574079,N,12046.8859841,E,4,17,1.4,2.6887,M,8.328,M,00,0004*6B
$GPHPD,0,0.000,310.08,-0.80,-12.61,31.5926235,120.7814331,2.689,13630912.014,24927658.635,2.689,0.000,0.000,0.000,0.000,0.000,0.000,0.000,17,16,4*75
$GPGGA,075648.80,3135.5575168,N,12046.8858383,E,4,17,1.4,2.6889,M,8.328,M,00,0004*6F
$GPHPD,0,0.000,310.15,-0.85,-12.61,31.5926253,120.7814306,2.689,13630910.172,24927656.243,2.689,0.000,0.000,0.000,0.000,0.000,0.000,0.000,17,16,4*70
$GPGGA,075649.00,3135.5576276,N,12046.8856921,E,4,17,1.6,2.6744,M,8.328,M,01,0004*68
$GPHPD,0,0.000,310.11,-0.63,-12.61,31.5926271,120.7814282,2.674,13630908.303,24927653.834,2.674,0.000,0.000,0.000,0.000,0.000,0.000,0.000,17,16,4*73
$GPGGA,075649.20,3135.5577378,N,12046.8855475,E,4,17,1.4,2.6663,M,8.328,M,01,0004*6D
$GPHPD,0,0.000,310.34,-0.13,-12.62,31.5926290,120.7814258,2.666,13630906.446,24927651.449,2.666,0.000,0.000,0.000,0.000,0.000,0.000,0.000,17,16,4*74
$GPGGA,075649.40,3135.5578476,N,12046.8854006,E,4,17,1.6,2.6640,M,8.328,M,01,0004*6F
$GPHPD,0,0.000,309.89,0.38,-12.59,31.5926308,120.7814233,2.664,13630904.589,24927649.038,2.664,0.000,0.000,0.000,0.000,0.000,0.000,0.000,17,17,4*51
$GPGGA,075649.60,3135.5579573,N,12046.8852535,E,4,17,1.4,2.6647,M,8.328,M,00,0004*6F
$GPHPD,0,0.000,309.78,-0.47,-12.62,31.5926326,120.7814209,2.665,13630902.734,24927646.625,2.665,0.000,0.000,0.000,0.000,0.000,0.000,0.000,17,17,4*70
$GPGGA,075649.80,3135.5580676,N,12046.8851086,E,4,17,1.4,2.6564,M,8.328,M,00,0004*6D
$GPHPD,0,0.000,310.02,-0.80,-12.63,31.5926345,120.7814185,2.656,13630900.874,24927644.235,2.656,0.000,0.000,0.000,0.000,0.000,0.000,0.000,17,17,4*73
$GPGGA,075650.00,3135.5581732,N,12046.8849638,E,4,17,1.4,2.6626,M,8.328,M,01,0004*63
$GPHPD,0,0.000,309.82,-1.05,-12.65,31.5926362,120.7814161,2.663,13630899.082,24927641.874,2.663,0.000,0.000,0.000,0.000,0.000,0.000,0.000,17,17,4*7C
$GPGGA,075650.20,3135.5582797,N,12046.8848183,E,4,17,1.4,2.6676,M,8.328,M,01,0004*6E
$GPHPD,0,0.000,310.11,-1.25,-12.63,31.5926380,120.7814136,2.668,13630897.275,24927639.499,2.668,0.000,0.000,0.000,0.000,0.000,0.000,0.000,17,17,4*70
$GPGGA,075650.40,3135.5583886,N,12046.8846743,E,4,17,1.4,2.6534,M,8.328,M,01,0004*67
$GPHPD,0,0.000,310.13,-1.38,-12.66,31.5926398,120.7814112,2.653,13630895.438,24927637.128,2.653,0.000,0.000,0.000,0.000,0.000,0.000,0.000,17,17,4*78
$GPGGA,075650.60,3135.5584950,N,12046.8845305,E,4,18,1.4,2.6553,M,8.328,M,00,0004*62
$GPHPD,0,0.000,310.52,-0.81,-12.68,31.5926416,120.7814088,2.655,13630893.636,24927634.774,2.655,0.000,0.000,0.000,0.000,0.000,0.000,0.000,18,18,4*75
$GPGGA,075650.80,3135.5586018,N,12046.8843818,E,4,18,1.4,2.6483,M,8.328,M,00,0004*66
$GPHPD,0,0.000,310.67,-0.40,-12.69,31.5926434,120.7814064,2.648,13630891.818,24927632.359,2.648,0.000,0.000,0.000,0.000,0.000,0.000,0.000,18,18,4*70
$GPGGA,075651.00,3135.5587091,N,12046.8842469,E,4,18,1.2,2.6470,M,8.328,M,01,0004*6F
$GPHPD,0,0.000,311.02,-1.31,-12.71,31.5926452,120.7814041,2.647,13630890.022,24927630.107,2.647,0.000,0.000,0.000,0.000,0.000,0.000,0.000,18,18,4*70
$GPGGA,075651.20,3135.5588167,N,12046.8840973,E,4,18,1.2,2.6328,M,8.328,M,01,0004*64
$GPHPD,0,0.000,310.56,0.10,-12.74,31.5926469,120.7814016,2.633,13630888.191,24927627.676,2.633,0.000,0.000,0.000,0.000,0.000,0.000,0.000,18,18,4*57
$GPGGA,075651.40,3135.5589209,N,12046.8839585,E,4,18,1.2,2.6750,M,8.328,M,01,0004*68
$GPHPD,0,0.000,310.49,1.36,-12.75,31.5926487,120.7813993,2.675,13630886.431,24927625.395,2.675,0.000,0.000,0.000,0.000,0.000,0.000,0.000,18,18,4*55
$GPGGA,075651.60,3135.5590268,N,12046.8838150,E,4,18,1.2,2.6660,M,8.328,M,00,0004*6B
$GPHPD,0,0.000,310.19,-0.59,-12.75,31.5926504,120.7813969,2.666,13630884.637,24927623.048,2.666,0.000,0.000,0.000,0.000,0.000,0.000,0.000,18,18,4*79
$GPGGA,075651.80,3135.5591326,N,12046.8836763,E,4,18,1.2,2.6567,M,8.328,M,00,0004*63
$GPHPD,0,0.000,309.84,-0.11,-12.74,31.5926522,120.7813946,2.657,13630882.854,24927620.759,2.657,0.000,0.000,0.000,0.000,0.000,0.000,0.000,18,18,4*78
$GPGGA,075652.00,3135.5592340,N,12046.8835351,E,4,18,1.2,2.6609,M,8.328,M,01,0004*67
$GPHPD,0,0.000,309.43,-0.37,-12.76,31.5926539,120.7813923,2.661,13630881.128,24927618.466,2.661,0.000,0.000,0.000,0.000,0.000,0.000,0.000,18,18,4*79
$GPGGA,075652.20,3135.5593358,N,12046.8833961,E,4,18,1.2,2.6793,M,8.328,M,01,0004*60
$GPHPD,0,0.000,309.10,0.27,-12.76,31.5926556,120.7813899,2.679,13630879.401,24927616.197,2.679,0.000,0.000,0.000,0.000,0.000,0.000,0.000,18,18,4*56
$GPGGA,075652.40,3135.5594379,N,12046.8832520,E,4,18,1.2,2.6522,M,8.328,M,01,0004*62
$GPHPD,0,0.000,308.65,-0.49,-12.75,31.5926573,120.7813875,2.652,13630877.660,24927613.864,2.652,0.000,0.000,0.000,0.000,0.000,0.000,0.000,18,18,4*7D
$GPGGA,075652.60,3135.5595389,N,12046.8831134,E,4,18,1.2,2.6493,M,8.328,M,00,0004*66
$GPHPD,0,0.000,308.60,0.26,-12.73,31.5926590,120.7813852,2.649,13630875.945,24927611.604,2.649,0.000,0.000,0.000,0.000,0.000,0.000,0.000,18,18,4*52
$GPGGA,075652.80,3135.5596367,N,12046.8829745,E,4,18,1.2,2.6632,M,8.328,M,00,0004*6B
$GPHPD,0,0.000,308.45,0.81,-12.73,31.5926606,120.7813829,2.663,13630874.276,24927609.360,2.663,0.000,0.000,0.000,0.000,0.000,0.000,0.000,18,18,4*5C
$GPGGA,075653.00,3135.5597375,N,12046.8828354,E,4,18,1.2,2.6556,M,8.328,M,01,0004*65
$GPHPD,0,0.000,308.11,-0.19,-12.70,31.5926623,120.7813806,2.656,13630872.563,24927607.095,2.656,0.000,0.000,0.000,0.000,0.000,0.000,0.000,18,17,4*75
$GPGGA,075653.20,3135.5598344,N,12046.8826954,E,4,18,1.2,2.6516,M,8.328,M,01,0004*6A
$GPHPD,0,0.000,308.10,-0.36,-12.70,31.5926639,120.7813783,2.652,13630870.904,24927604.842,2.652,0.000,0.000,0.000,0.000,0.000,0.000,0.000,18,18,4*71
$GPGGA,075653.40,3135.5599299,N,12046.8825583,E,4,18,1.2,2.6558,M,8.328,M,01,0004*63
$GPHPD,0,0.000,308.58,-1.52,-12.70,31.5926655,120.7813760,2.656,13630869.270,24927602.633,2.656,0.000,0.000,0.000,0.000,0.000,0.000,0.000,18,18,4*77
$GPGGA,075653.60,3135.5600275,N,12046.8824227,E,4,18,1.2,2.6714,M,8.328,M,00,0004*63
$GPHPD,0,0.000,308.76,-2.20,-12.68,31.5926671,120.7813737,2.671,13630867.610,24927600.429,2.671,0.000,0.000,0.000,0.000,0.000,0.000,0.000,18,18,4*77
$GPGGA,075653.80,3135.5601237,N,12046.8822861,E,4,18,1.2,2.6563,M,8.328,M,00,0004*66
$GPHPD,0,0.000,309.22,-2.09,-12.68,31.5926687,120.7813714,2.656,13630865.968,24927598.221,2.656,0.000,0.000,0.000,0.000,0.000,0.000,0.000,18,18,4*7A
$GPGGA,075654.00,3135.5602203,N,12046.8821445,E,4,18,1.2,2.6628,M,8.328,M,01,0004*69
$GPHPD,0,0.000,309.61,-1.94,-12.65,31.5926703,120.7813691,2.663,13630864.310,24927595.951,2.663,0.000,0.000,0.000,0.000,0.000,0.000,0.000,18,18,4*73
$GPGGA,075654.20,3135.5603220,N,12046.8820081,E,4,18,1.2,2.6353,M,8.328,M,01,0004*6F
$GPHPD,0,0.000,309.87,-0.46,-12.63,31.5926720,120.7813668,2.635,13630862.590,24927593.714,2.635,0.000,0.000,0.000,0.000,0.000,0.000,0.000,18,18,4*75
$GPGGA,075654.40,3135.5604268,N,12046.8818687,E,4,18,1.2,2.6101,M,8.328,M,01,0004*6C
$GPHPD,0,0.000,309.97,0.21,-12.62,31.5926738,120.7813645,2.610,13630860.819,24927591.422,2.610,0.000,0.000,0.000,0.000,0.000,0.000,0.000,18,18,4*55
$GPGGA,075654.60,3135.5605248,N,12046.8817325,E,4,18,1.2,2.6066,M,8.328,M,00,0004*6E
$GPHPD,0,0.000,309.77,1.40,-12.63,31.5926754,120.7813622,2.607,13630859.152,24927589.209,2.607,0.000,0.000,0.000,0.000,0.000,0.000,0.000,18,18,4*5D
$GPGGA,075654.80,3135.5606229,N,12046.8816014,E,4,18,1.2,2.6228,M,8.328,M,00,0004*6C
$GPHPD,0,0.000,309.86,1.11,-12.61,31.5926770,120.7813600,2.623,13630857.494,24927587.057,2.623,0.000,0.000,0.000,0.000,0.000,0.000,0.000,18,18,4*55
$GPGGA,075655.00,3135.5607232,N,12046.8814673,E,4,18,1.4,2.6344,M,8.328,M,01,0004*67
$GPHPD,0,0.000,309.76,0.80,-12.62,31.5926787,120.7813578,2.634,13630855.799,24927584.855,2.634,0.000,0.000,0.000,0.000,0.000,0.000,0.000,18,18,4*51
$GPGGA,075655.20,3135.5608215,N,12046.8813363,E,4,18,1.4,2.6735,M,8.328,M,01,0004*6E
$GPHPD,0,0.000,309.58,0.48,-12.63,31.5926804,120.7813556,2.674,13630854.138,24927582.703,2.674,0.000,0.000,0.000,0.000,0.000,0.000,0.000,18,18,4*56
$GPGGA,075655.40,3135.5609217,N,12046.8811943,E,4,17,1.6,2.6505,M,8.328,M,01,0004*6D
$GPHPD,0,0.000,309.46,-0.90,-12.66,31.5926820,120.7813532,2.651,13630852.428,24927580.407,2.651,0.000,0.000,0.000,0.000,0.000,0.000,0.000,17,17,4*77
$GPGGA,075655.60,3135.5610200,N,12046.8810604,E,4,17,1.6,2.6591,M,8.328,M,00,0004*60
$GPHPD,0,0.000,309.76,-1.19,-12.68,31.5926837,120.7813510,2.659,13630850.761,24927578.220,2.659,0.000,0.000,0.000,0.000,0.000,0.000,0.000,17,17,4*74
$GPGGA,075655.80,3135.5611206,N,12046.8809257,E,4,17,1.6,2.6518,M,8.328,M,00,0004*62
$GPHPD,0,0.000,309.96,-1.20,-12.71,31.5926853,120.7813488,2.652,13630849.060,24927576.009,2.652,0.000,0.000,0.000,0.000,0.000,0.000,0.000,17,17,4*73
$GPGGA,075656.00,3135.5612210,N,12046.8807933,E,4,17,1.6,2.6293,M,8.328,M,01,0004*6F
$GPHPD,0,0.000,309.89,-0.84,-12.73,31.5926870,120.7813466,2.629,13630847.366,24927573.828,2.629,0.000,0.000,0.000,0.000,0.000,0.000,0.000,17,17,4*74
$GPGGA,075656.20,3135.5613188,N,12046.8806559,E,4,17,1.6,2.6372,M,8.328,M,01,0004*61
$GPHPD,0,0.000,309.74,-0.32,-12.75,31.5926886,120.7813443,2.637,13630845.699,24927571.601,2.637,0.000,0.000,0.000,0.000,0.000,0.000,0.000,17,17,4*73
$GPGGA,075656.40,3135.5614206,N,12046.8805246,E,4,17,1.6,2.6312,M,8.328,M,01,0004*69
$GPHPD,0,0.000,310.00,-0.36,-12.77,31.5926903,120.7813421,2.631,13630843.988,24927569.425,2.631,0.000,0.000,0.000,0.000,0.000,0.000,0.000,17,17,4*72
$GPGGA,075656.60,3135.5615246,N,12046.8803893,E,4,17,1.6,2.6250,M,8.328,M,00,0004*6C
$GPHPD,0,0.000,310.17,-0.01,-12.79,31.5926921,120.7813398,2.625,13630842.238,24927567.188,2.625,0.000,0.000,0.000,0.000,0.000,0.000,0.000,17,17,4*76
$GPGGA,075656.80,3135.5616267,N,12046.8802573,E,4,17,1.6,2.6263,M,8.328,M,00,0004*60
$GPHPD,0,0.000,310.18,0.32,-12.80,31.5926938,120.7813376,2.626,13630840.521,24927565.001,2.626,0.000,0.000,0.000,0.000,0.000,0.000,0.000,17,17,4*55
$GPGGA,075657.00,3135.5617292,N,12046.8801216,E,4,17,1.6,2.6327,M,8.328,M,01,0004*65
$GPHPD,0,0.000,310.17,-0.65,-12.80,31.5926955,120.7813354,2.633,13630838.791,24927562.768,2.633,0.000,0.000,0.000,0.000,0.000,0.000,0.000,17,17,4*77
$GPGGA,075657.20,3135.5618305,N,12046.8799839,E,4,17,1.4,2.6282,M,8.328,M,01,0004*62
$GPHPD,0,0.000,310.21,0.22,-12.79,31.5926972,120.7813331,2.628,13630837.074,24927560.517,2.628,0.000,0.000,0.000,0.000,0.000,0.000,0.000,17,17,4*57
$GPGGA,075657.40,3135.5619338,N,12046.8798475,E,4,17,1.4,2.6370,M,8.328,M,01,0004*62
$GPHPD,0,0.000,310.16,0.45,-12.77,31.5926989,120.7813308,2.637,13630835.331,24927558.270,2.637,0.000,0.000,0.000,0.000,0.000,0.000,0.000,17,17,4*5F
$GPGGA,075657.60,3135.5620369,N,12046.8797156,E,4,17,1.4,2.6383,M,8.328,M,00,0004*68
$GPHPD,0,0.000,310.40,-0.80,-12.77,31.5927006,120.7813286,2.638,13630833.600,24927556.079,2.638,0.000,0.000,0.000,0.000,0.000,0.000,0.000,17,16,4*75
$GPGGA,075657.80,3135.5621398,N,12046.8795745,E,4,17,1.4,2.6315,M,8.328,M,00,0004*60
$GPHPD,0,0.000,310.39,-1.28,-12.75,31.5927023,120.7813262,2.632,13630831.853,24927553.778,2.632,0.000,0.000,0.000,0.000,0.000,0.000,0.000,17,17,4*7F
$GPGGA,075658.00,3135.5622422,N,12046.8794386,E,4,17,1.4,2.6283,M,8.328,M,01,0004*67
$GPHPD,0,0.000,310.89,-1.76,-12.74,31.5927040,120.7813240,2.628,13630830.124,24927551.543,2.628,0.000,0.000,0.000,0.000,0.000,0.000,0.000,17,17,4*7B
$GPGGA,075658.20,3135.5623432,N,12046.8793069,E,4,17,1.4,2.6405,M,8.328,M,01,0004*68
$GPHPD,0,0.000,311.13,-1.07,-12.74,31.5927057,120.7813218,2.641,13630828.423,24927549.367,2.641,0.000,0.000,0.000,0.000,0.000,0.000,0.000,17,17,4*76
$GPGGA,075658.40,3135.5624444,N,12046.8791701,E,4,17,1.4,2.6428,M,8.328,M,01,0004*6C
$GPHPD,0,0.000,311.19,-1.07,-12.73,31.5927074,120.7813195,2.643,13630826.710,24927547.127,2.643,0.000,0.000,0.000,0.000,0.000,0.000,0.000,17,17,4*79
$GPGGA,075658.60,3135.5625510,N,12046.8790351,E,4,17,1.4,2.6324,M,8.328,M,00,0004*65
$GPHPD,0,0.000,311.23,-0.64,-12.73,31.5927092,120.7813173,2.632,13630824.923,24927544.879,2.632,0.000,0.000,0.000,0.000,0.000,0.000,0.000,17,17,4*79
$GPGGA,075658.80,3135.5626635,N,12046.8788952,E,4,17,1.4,2.5693,M,8.328,M,00,0004*66
$GPHPD,0,0.000,310.96,-0.64,-12.72,31.5927111,120.7813149,2.569,13630823.042,24927542.536,2.569,0.000,0.000,0.000,0.000,0.000,0.000,0.000,17,17,4*7D
$GPGGA,075659.00,3135.5627662,N,12046.8787542,E,4,17,1.4,2.5987,M,8.328,M,01,0004*65
$GPHPD,0,0.000,310.82,1.97,-12.72,31.5927128,120.7813126,2.599,13630821.298,24927540.238,2.599,0.000,0.000,0.000,0.000,0.000,0.000,0.000,17,17,4*57
$GPGGA,075659.20,3135.5628707,N,12046.8786203,E,4,17,1.4,2.6094,M,8.328,M,01,0004*61
$GPHPD,0,0.000,311.15,-0.26,-12.73,31.5927145,120.7813103,2.609,13630819.543,24927538.014,2.609,0.000,0.000,0.000,0.000,0.000,0.000,0.000,17,17,4*7A
$GPGGA,075659.40,3135.5629753,N,12046.8784796,E,4,17,1.4,2.6003,M,8.328,M,01,0004*62
$GPHPD,0,0.000,310.77,-0.29,-12.75,31.5927163,120.7813080,2.600,13630817.774,24927535.708,2.600,0.000,0.000,0.000,0.000,0.000,0.000,0.000,17,17,4*77
$GPGGA,075659.60,3135.5630805,N,12046.8783433,E,4,17,1.4,2.6019,M,8.328,M,00,0004*65
$GPHPD,0,0.000,310.54,0.58,-12.75,31.5927180,120.7813057,2.602,13630816.004,24927533.452,2.602,0.000,0.000,0.000,0.000,0.000,0.000,0.000,17,17,4*51
$GPGGA,075659.80,3135.5631842,N,12046.8782024,E,4,17,1.4,2.6212,M,8.328,M,00,0004*63
$GPHPD,0,0.000,310.50,0.42,-12.75,31.5927197,120.7813034,2.621,13630814.246,24927531.149,2.621,0.000,0.000,0.000,0.000,0.000,0.000,0.000,17,17,4*56
$GPGGA,075700.00,3135.5632868,N,12046.8780680,E,4,17,1.6,2.6316,M,8.328,M,01,0004*61
$GPHPD,0,0.000,310.58,0.17,-12.78,31.5927214,120.7813011,2.632,13630812.517,24927528.930,2.632,0.000,0.000,0.000,0.000,0.000,0.000,0.000,17,17,4*57
$GPGGA,075700.20,3135.5633951,N,12046.8779335,E,4,17,1.6,2.6092,M,8.328,M,01,0004*6B
$GPHPD,0,0.000,310.73,-0.11,-12.79,31.5927233,120.7812989,2.609,13630810.707,24927526.677,2.609,0.000,0.000,0.000,0.000,0.000,0.000,0.000,17,17,4*7B
$GPGGA,075700.40,3135.5634973,N,12046.8777946,E,4,17,1.6,2.6277,M,8.328,M,01,0004*63
$GPHPD,0,0.000,310.52,-0.36,-12.79,31.5927250,120.7812966,2.628,13630808.975,24927524.407,2.628,0.000,0.000,0.000,0.000,0.000,0.000,0.000,17,17,4*7C
$GPGGA,075700.60,3135.5636041,N,12046.8776540,E,4,17,1.6,2.6002,M,8.328,M,00,0004*61
$GPHPD,0,0.000,310.63,-0.64,-12.81,31.5927267,120.7812942,2.600,13630807.174,24927522.090,2.600,0.000,0.000,0.000,0.000,0.000,0.000,0.000,17,17,4*76
$GPGGA,075700.80,3135.5637073,N,12046.8775170,E,4,17,1.6,2.6151,M,8.328,M,00,0004*6C
$GPHPD,0,0.000,310.30,-0.16,-12.80,31.5927285,120.7812920,2.615,13630805.431,24927519.836,2.615,0.000,0.000,0.000,0.000,0.000,0.000,0.000,17,17,4*76
$GPGGA,075701.00,3135.5638125,N,12046.8773797,E,4,17,1.4,2.6184,M,8.328,M,01,0004*6A
$GPHPD,0,0.000,309.95,-0.04,-12.80,31.5927302,120.7812897,2.618,13630803.660,24927517.568,2.618,0.000,0.000,0.000,0.000,0.000,0.000,0.000,17,17,4*79
$GPGGA,075701.20,3135.5639186,N,12046.8772403,E,4,17,1.4,2.6064,M,8.328,M,01,0004*60
$GPHPD,0,0.000,309.71,-0.05,-12.80,31.5927320,120.7812873,2.606,13630801.871,24927515.269,2.606,0.000,0.000,0.000,0.000,0.000,0.000,0.000,17,17,4*70
$GPGGA,075701.40,3135.5640183,N,12046.8771003,E,4,18,1.2,2.6235,M,8.328,M,01,0004*65
$GPHPD,0,0.000,309.69,0.44,-12.79,31.5927336,120.7812850,2.624,13630800.172,24927513.000,2.624,0.000,0.000,0.000,0.000,0.000,0.000,0.000,18,17,4*5E
$GPGGA,075701.60,3135.5641203,N,12046.8769546,E,4,18,1.2,2.6226,M,8.328,M,00,0004*63
$GPHPD,0,0.000,309.93,-0.07,-12.78,31.5927353,120.7812826,2.623,13630798.429,24927510.649,2.623,0.000,0.000,0.000,0.000,0.000,0.000,0.000,18,17,4*7F
$GPGGA,075701.80,3135.5642209,N,12046.8768172,E,4,18,1.2,2.6274,M,8.328,M,00,0004*61
$GPHPD,0,0.000,310.82,-1.92,-12.78,31.5927370,120.7812803,2.627,13630796.723,24927508.406,2.627,0.000,0.000,0.000,0.000,0.000,0.000,0.000,18,17,4*7B
$GPGGA,075702.00,3135.5643221,N,12046.8766784,E,4,18,1.2,2.6206,M,8.328,M,01,0004*64
$GPHPD,0,0.000,310.91,-2.35,-12.77,31.5927387,120.7812780,2.621,13630795.005,24927506.142,2.621,0.000,0.000,0.000,0.000,0.000,0.000,0.000,18,16,4*7E
$GPGGA,075702.20,3135.5644265,N,12046.8765397,E,4,18,1.2,2.6074,M,8.328,M,01,0004*63
$GPHPD,0,0.000,310.44,-0.70,-12.77,31.5927404,120.7812757,2.607,13630793.242,24927503.862,2.607,0.000,0.000,0.000,0.000,0.000,0.000,0.000,18,16,4*7A
$GPGGA,075702.40,3135.5645271,N,12046.8763998,E,4,18,1.2,2.6207,M,8.328,M,01,0004*64
$GPHPD,0,0.000,310.32,0.00,-12.78,31.5927421,120.7812733,2.621,13630791.530,24927501.589,2.621,0.000,0.000,0.000,0.000,0.000,0.000,0.000,18,16,4*51
$GPGGA,075702.60,3135.5646300,N,12046.8762632,E,4,18,1.2,2.6314,M,8.328,M,00,0004*6E
$GPHPD,0,0.000,310.16,-0.33,-12.77,31.5927438,120.7812711,2.631,13630789.793,24927499.342,2.631,0.000,0.000,0.000,0.000,0.000,0.000,0.000,18,16,4*7E
$GPGGA,075702.80,3135.5647393,N,12046.8761292,E,4,18,1.4,2.5869,M,8.328,M,00,0004*62
$GPHPD,0,0.000,309.71,0.51,-12.77,31.5927457,120.7812688,2.587,13630787.969,24927497.089,2.587,0.000,0.000,0.000,0.000,0.000,0.000,0.000,18,16,4*59
$GPGGA,075703.00,3135.5648393,N,12046.8759887,E,4,18,1.4,2.6084,M,8.328,M,01,0004*68
$GPHPD,0,0.000,309.37,1.66,-12.78,31.5927473,120.7812665,2.608,13630786.265,24927494.813,2.608,0.000,0.000,0.000,0.000,0.000,0.000,0.000,18,16,4*5A
$GPGGA,075703.20,3135.5649417,N,12046.8758495,E,4,17,1.4,2.6061,M,8.328,M,01,0004*6A
$GPHPD,0,0.000,309.49,0.25,-12.78,31.5927490,120.7812642,2.606,13630784.529,24927492.538,2.606,0.000,0.000,0.000,0.000,0.000,0.000,0.000,17,15,4*5E
$GPGGA,075703.40,3135.5650465,N,12046.8757119,E,4,17,1.4,2.5995,M,8.328,M,01,0004*6E
$GPHPD,0,0.000,309.46,0.37,-12.78,31.5927508,120.7812619,2.600,13630782.763,24927490.268,2.600,0.000,0.000,0.000,0.000,0.000,0.000,0.000,17,15,4*56
$GPGGA,075703.60,3135.5651439,N,12046.8755721,E,4,17,1.4,2.6249,M,8.328,M,00,0004*63
$GPHPD,0,0.000,309.65,0.55,-12.77,31.5927524,120.7812595,2.625,13630781.097,24927488.015,2.625,0.000,0.000,0.000,0.000,0.000,0.000,0.000,17,15,4*5B
$GPGGA,075703.80,3135.5652488,N,12046.8754365,E,4,17,1.4,2.6128,M,8.328,M,00,0004*65
$GPHPD,0,0.000,309.38,-0.07,-12.78,31.5927541,120.7812573,2.613,13630779.333,24927485.768,2.613,0.000,0.000,0.000,0.000,0.000,0.000,0.000,17,15,4*77
$GPGGA,075704.00,3135.5653529,N,12046.8752938,E,4,17,1.4,2.6130,M,8.328,M,01,0004*6D
$GPHPD,0,0.000,309.41,-0.62,-12.77,31.5927559,120.7812549,2.613,13630777.566,24927483.441,2.613,0.000,0.000,0.000,0.000,0.000,0.000,0.000,17,15,4*73
$GPGGA,075704.20,3135.5654561,N,12046.8751516,E,4,17,1.4,2.5961,M,8.328,M,01,0004*68
$GPHPD,0,0.000,309.55,-0.94,-12.74,31.5927576,120.7812525,2.596,13630775.813,24927481.125,2.596,0.000,0.000,0.000,0.000,0.000,0.000,0.000,17,15,4*73
$GPGGA,075704.40,3135.5655570,N,12046.8750104,E,4,17,1.4,2.6055,M,8.328,M,01,0004*64
$GPHPD,0,0.000,309.44,0.23,-12.72,31.5927593,120.7812502,2.606,13630774.095,24927478.835,2.606,0.000,0.000,0.000,0.000,0.000,0.000,0.000,17,15,4*53
$GPGGA,075704.60,3135.5656570,N,12046.8748717,E,4,17,1.4,2.6127,M,8.328,M,00,0004*6D
$GPHPD,0,0.000,309.61,-0.26,-12.73,31.5927610,120.7812479,2.613,13630772.394,24927476.580,2.613,0.000,0.000,0.000,0.000,0.000,0.000,0.000,17,15,4*71
$GPGGA,075704.80,3135.5657608,N,12046.8747259,E,4,17,1.4,2.6043,M,8.328,M,00,0004*6D
$GPHPD,0,0.000,309.12,0.02,-12.72,31.5927627,120.7812454,2.604,13630770.625,24927474.217,2.604,0.000,0.000,0.000,0.000,0.000,0.000,0.000,17,15,4*52
$GPGGA,075705.00,3135.5658646,N,12046.8745888,E,4,17,1.4,2.6011,M,8.328,M,01,0004*63
$GPHPD,0,0.000,308.53,1.12,-12.72,31.5927644,120.7812431,2.601,13630768.874,24927471.959,2.601,0.000,0.000,0.000,0.000,0.000,0.000,0.000,17,15,4*57
$GPGGA,075705.20,3135.5659667,N,12046.8744469,E,4,17,1.4,2.6033,M,8.328,M,01,0004*61
$GPHPD,0,0.000,308.28,0.98,-12.72,31.5927661,120.7812408,2.603,13630767.137,24927469.653,2.603,0.000,0.000,0.000,0.000,0.000,0.000,0.000,17,15,4*58
$GPGGA,075705.40,3135.5660686,N,12046.8743056,E,4,17,1.4,2.6010,M,8.328,M,01,0004*6C
$GPHPD,0,0.000,308.35,-0.63,-12.73,31.5927678,120.7812384,2.601,13630765.404,24927467.356,2.601,0.000,0.000,0.000,0.000,0.000,0.000,0.000,17,15,4*7E
$GPGGA,075705.60,3135.5661671,N,12046.8741675,E,4,17,1.4,2.6257,M,8.328,M,00,0004*62
$GPHPD,0,0.000,308.71,-1.13,-12.74,31.5927695,120.7812361,2.626,13630763.726,24927465.116,2.626,0.000,0.000,0.000,0.000,0.000,0.000,0.000,17,15,4*76
$GPGGA,075705.80,3135.5662677,N,12046.8740263,E,4,17,1.4,2.6230,M,8.328,M,00,0004*6A
$GPHPD,0,0.000,309.15,-2.57,-12.73,31.5927711,120.7812338,2.623,13630762.012,24927462.828,2.623,0.000,0.000,0.000,0.000,0.000,0.000,0.000,17,15,4*72
$GPGGA,075706.00,3135.5663666,N,12046.8738850,E,4,17,1.4,2.6244,M,8.328,M,01,0004*67
$GPHPD,0,0.000,309.70,-1.37,-12.75,31.5927728,120.7812314,2.624,13630760.322,24927460.548,2.624,0.000,0.000,0.000,0.000,0.000,0.000,0.000,17,15,4*7D
$GPGGA,075706.20,3135.5664678,N,12046.8737430,E,4,17,1.4,2.6119,M,8.328,M,01,0004*63
$GPHPD,0,0.000,310.13,-2.09,-12.76,31.5927745,120.7812291,2.612,13630758.598,24927458.246,2.612,0.000,0.000,0.000,0.000,0.000,0.000,0.000,17,15,4*74
$GPGGA,075706.40,3135.5665737,N,12046.8736044,E,4,17,1.4,2.5655,M,8.328,M,01,0004*64
$GPHPD,0,0.000,310.54,-1.18,-12.79,31.5927762,120.7812267,2.566,13630756.813,24927455.958,2.566,0.000,0.000,0.000,0.000,0.000,0.000,0.000,17,15,4*7E
$GPGGA,075706.60,3135.5666829,N,12046.8734612,E,4,17,1.4,2.5344,M,8.328,M,00,0004*66
$GPHPD,0,0.000,310.57,0.83,-12.78,31.5927780,120.7812244,2.534,13630754.973,24927453.595,2.534,0.000,0.000,0.000,0.000,0.000,0.000,0.000,17,15,4*51
$GPGGA,075706.80,3135.5667859,N,12046.8733197,E,4,17,1.4,2.5878,M,8.328,M,00,0004*67
$GPHPD,0,0.000,310.30,1.90,-12.79,31.5927798,120.7812220,2.588,13630753.224,24927451.288,2.588,0.000,0.000,0.000,0.000,0.000,0.000,0.000,17,15,4*5E
$GPGGA,075707.00,3135.5668914,N,12046.8731844,E,4,17,1.4,2.5942,M,8.328,M,01,0004*65
$GPHPD,0,0.000,310.02,0.24,-12.78,31.5927815,120.7812197,2.594,13630751.452,24927449.042,2.594,0.000,0.000,0.000,0.000,0.000,0.000,0.000,17,15,4*5D
$GPGGA,075707.20,3135.5669928,N,12046.8730434,E,4,17,1.4,2.6167,M,8.328,M,01,0004*6F
$GPHPD,0,0.000,309.67,0.05,-12.79,31.5927832,120.7812174,2.617,13630749.727,24927446.751,2.617,0.000,0.000,0.000,0.000,0.000,0.000,0.000,17,15,4*5E
$GPGGA,075707.40,3135.5670959,N,12046.8729036,E,4,18,1.2,2.6185,M,8.328,M,01,0004*6C
$GPHPD,0,0.000,309.62,-0.52,-12.76,31.5927849,120.7812151,2.619,13630747.980,24927444.465,2.619,0.000,0.000,0.000,0.000,0.000,0.000,0.000,18,17,4*76
$GPGGA,075707.60,3135.5672029,N,12046.8727682,E,4,18,1.2,2.5915,M,8.328,M,00,0004*66
$GPHPD,0,0.000,309.66,-0.60,-12.78,31.5927867,120.7812128,2.592,13630746.187,24927442.209,2.592,0.000,0.000,0.000,0.000,0.000,0.000,0.000,18,18,4*74
$GPGGA,075707.80,3135.5673073,N,12046.8726260,E,4,18,1.2,2.6007,M,8.328,M,00,0004*66
$GPHPD,0,0.000,309.56,-0.29,-12.75,31.5927885,120.7812104,2.601,13630744.417,24927439.886,2.601,0.000,0.000,0.000,0.000,0.000,0.000,0.000,18,18,4*7A
$GPGGA,075708.00,3135.5674110,N,12046.8724855,E,4,18,1.2,2.5886,M,8.328,M,01,0004*6F
$GPHPD,0,0.000,309.65,0.11,-12.77,31.5927902,120.7812081,2.589,13630742.660,24927437.587,2.589,0.000,0.000,0.000,0.000,0.000,0.000,0.000,18,18,4*5A
$GPGGA,075708.20,3135.5675127,N,12046.8723454,E,4,18,1.2,2.5934,M,8.328,M,01,0004*6A
$GPHPD,0,0.000,309.55,0.48,-12.74,31.5927919,120.7812058,2.593,13630740.932,24927435.306,2.593,0.000,0.000,0.000,0.000,0.000,0.000,0.000,18,18,4*5F
$GPGGA,075708.40,3135.5676184,N,12046.8722055,E,4,18,1.2,2.5913,M,8.328,M,01,0004*67
$GPHPD,0,0.000,309.29,1.14,-12.74,31.5927936,120.7812034,2.591,13630739.148,24927433.003,2.591,0.000,0.000,0.000,0.000,0.000,0.000,0.000,18,18,4*50
$GPGGA,075708.60,3135.5677186,N,12046.8720689,E,4,18,1.2,2.5982,M,8.328,M,00,0004*6A
$GPHPD,0,0.000,309.16,1.33,-12.75,31.5927953,120.7812011,2.598,13630737.449,24927430.772,2.598,0.000,0.000,0.000,0.000,0.000,0.000,0.000,18,18,4*54
$GPGGA,075708.80,3135.5678186,N,12046.8719293,E,4,18,1.2,2.6130,M,8.328,M,00,0004*6C
$GPHPD,0,0.000,309.09,1.05,-12.76,31.5927970,120.7811988,2.613,13630735.747,24927428.506,2.613,0.000,0.000,0.000,0.000,0.000,0.000,0.000,18,18,4*50
$GPGGA,075709.00,3135.5679178,N,12046.8717900,E,4,18,1.2,2.6105,M,8.327,M,01,0004*62
$GPHPD,0,0.000,308.76,1.07,-12.76,31.5927986,120.7811965,2.611,13630734.057,24927426.248,2.611,0.000,0.000,0.000,0.000,0.000,0.000,0.000,18,18,4*55
$GPGGA,075709.20,3135.5680194,N,12046.8716507,E,4,18,1.2,2.6130,M,8.327,M,01,0004*68
$GPHPD,0,0.000,308.94,-1.05,-12.78,31.5928003,120.7811942,2.613,13630732.332,24927423.977,2.613,0.000,0.000,0.000,0.000,0.000,0.000,0.000,18,18,4*72
$GPGGA,075709.40,3135.5681187,N,12046.8715125,E,4,18,1.2,2.6081,M,8.327,M,01,0004*61
$GPHPD,0,0.000,309.29,-2.56,-12.78,31.5928020,120.7811919,2.608,13630730.642,24927421.732,2.608,0.000,0.000,0.000,0.000,0.000,0.000,0.000,18,18,4*72
$GPGGA,075709.60,3135.5682188,N,12046.8713765,E,4,18,1.2,2.6021,M,8.327,M,00,0004*60
$GPHPD,0,0.000,309.52,-2.70,-12.76,31.5928036,120.7811896,2.602,13630728.946,24927419.509,2.602,0.000,0.000,0.000,0.000,0.000,0.000,0.000,18,18,4*76
$GPGGA,075709.80,3135.5683183,N,12046.8712357,E,4,18,1.2,2.6014,M,8.327,M,00,0004*66
$GPHPD,0,0.000,309.90,-3.64,-12.77,31.5928053,120.7811873,2.601,13630727.248,24927417.231,2.601,0.000,0.000,0.000,0.000,0.000,0.000,0.000,18,18,4*7D
$GPGGA,075710.00,3135.5684171,N,12046.8710923,E,4,18,1.2,2.5800,M,8.327,M,01,0004*68
$GPHPD,0,0.000,310.33,-2.03,-12.77,31.5928070,120.7811849,2.580,13630725.555,24927414.926,2.580,0.000,0.000,0.000,0.000,0.000,0.000,0.000,18,18,4*73
$GPGGA,075710.20,3135.5685226,N,12046.8709549,E,4,18,1.2,2.5466,M,8.327,M,01,0004*6E
$GPHPD,0,0.000,310.53,-0.28,-12.78,31.5928087,120.7811826,2.547,13630723.779,24927412.655,2.547,0.000,0.000,0.000,0.000,0.000,0.000,0.000,18,18,4*77
$GPGGA,075710.40,3135.5686267,N,12046.8708156,E,4,18,1.2,2.5333,M,8.327,M,01,0004*62
$GPHPD,0,0.000,310.47,1.13,-12.78,31.5928104,120.7811803,2.533,13630722.019,24927410.369,2.533,0.000,0.000,0.000,0.000,0.000,0.000,0.000,18,18,4*53
$GPGGA,075710.60,3135.5687368,N,12046.8706736,E,4,18,1.4,2.4889,M,8.327,M,00,0004*6D
