$GPGGA,080053.00,3135.6132357,N,12046.8026277,E,4,16,1.5,2.8232,M,8.323,M,01,0004*6E
$GPHPD,0,0.000,127.84,-0.14,-13.44,31.5935539,120.7800438,2.823,13629950.741,24926328.264,2.823,0.000,0.000,0.000,0.000,0.000,0.000,0.000,16,16,4*75
$GPGGA,080053.20,3135.6131858,N,12046.8027013,E,4,16,1.5,2.8241,M,8.323,M,01,0004*6E
$GPHPD,0,0.000,128.36,1.34,-13.41,31.5935531,120.7800450,2.824,13629951.598,24926329.442,2.824,0.000,0.000,0.000,0.000,0.000,0.000,0.000,16,16,4*5A
$GPGGA,080053.40,3135.6131353,N,12046.8027739,E,4,16,1.5,2.8275,M,8.323,M,01,0004*60
$GPHPD,0,0.000,128.40,1.27,-13.38,31.5935523,120.7800462,2.828,13629952.462,24926330.611,2.828,0.000,0.000,0.000,0.000,0.000,0.000,0.000,16,16,4*5E
$GPGGA,080053.60,3135.6130864,N,12046.8028458,E,4,16,1.5,2.8328,M,8.323,M,00,0004*6F
$GPHPD,0,0.000,128.02,0.22,-13.33,31.5935514,120.7800474,2.833,13629953.302,24926331.763,2.833,0.000,0.000,0.000,0.000,0.000,0.000,0.000,16,16,4*51
$GPGGA,080053.80,3135.6130385,N,12046.8029198,E,4,16,1.5,2.8163,M,8.323,M,00,0004*60
$GPHPD,0,0.000,127.61,-0.09,-13.26,31.5935506,120.7800487,2.816,13629954.131,24926332.935,2.816,0.000,0.000,0.000,0.000,0.000,0.000,0.000,16,16,4*7F
$GPGGA,080054.00,3135.6129888,N,12046.8029882,E,4,16,1.5,2.8173,M,8.323,M,01,0004*63
$GPHPD,0,0.000,127.48,0.13,-13.15,31.5935498,120.7800498,2.817,13629954.975,24926334.049,2.817,0.000,0.000,0.000,0.000,0.000,0.000,0.000,16,16,4*56
$GPGGA,080054.20,3135.6129463,N,12046.8030527,E,4,16,1.5,2.8223,M,8.323,M,01,0004*64
$GPHPD,0,0.000,127.23,0.31,-13.08,31.5935491,120.7800509,2.822,13629955.709,24926335.074,2.822,0.000,0.000,0.000,0.000,0.000,0.000,0.000,16,16,4*5C
$GPGGA,080054.40,3135.6128991,N,12046.8031224,E,4,16,1.5,2.8331,M,8.323,M,01,0004*64
$GPHPD,0,0.000,127.08,0.05,-12.97,31.5935483,120.7800520,2.833,13629956.520,24926336.190,2.833,0.000,0.000,0.000,0.000,0.000,0.000,0.000,16,16,4*5F
$GPGGA,080054.60,3135.6128632,N,12046.8031852,E,4,16,1.5,2.8270,M,8.323,M,00,0004*6E
$GPHPD,0,0.000,127.05,-0.20,-12.93,31.5935477,120.7800531,2.827,13629957.157,24926337.156,2.827,0.000,0.000,0.000,0.000,0.000,0.000,0.000,16,16,4*79
$GPGGA,080054.80,3135.6128189,N,12046.8032526,E,4,16,1.5,2.8316,M,8.323,M,00,0004*6B
$GPHPD,0,0.000,127.13,-0.07,-12.96,31.5935470,120.7800542,2.832,13629957.922,24926338.227,2.832,0.000,0.000,0.000,0.000,0.000,0.000,0.000,16,16,4*7D
$GPGGA,080055.00,3135.6127753,N,12046.8033219,E,4,16,1.5,2.8320,M,8.323,M,01,0004*62
$GPHPD,0,0.000,126.81,0.65,-12.92,31.5935463,120.7800554,2.832,13629958.681,24926339.316,2.832,0.000,0.000,0.000,0.000,0.000,0.000,0.000,16,16,4*54
$GPGGA,080055.20,3135.6127282,N,12046.8033956,E,4,16,1.5,2.8332,M,8.323,M,01,0004*6A
$GPHPD,0,0.000,126.34,-0.04,-12.87,31.5935455,120.7800566,2.833,13629959.499,24926340.479,2.833,0.000,0.000,0.000,0.000,0.000,0.000,0.000,16,16,4*7A
$GPGGA,080055.40,3135.6126776,N,12046.8034700,E,4,16,1.5,2.8364,M,8.323,M,01,0004*6A
$GPHPD,0,0.000,126.12,0.14,-12.87,31.5935446,120.7800578,2.836,13629960.368,24926341.671,2.836,0.000,0.000,0.000,0.000,0.000,0.000,0.000,16,16,4*57
$GPGGA,080055.60,3135.6126252,N,12046.8035470,E,4,16,1.5,2.8311,M,8.323,M,00,0004*6D
$GPHPD,0,0.000,125.46,0.23,-12.86,31.5935438,120.7800591,2.831,13629961.268,24926342.905,2.831,0.000,0.000,0.000,0.000,0.000,0.000,0.000,16,16,4*51
$GPGGA,080055.80,3135.6125720,N,12046.8036270,E,4,16,1.5,2.8380,M,8.323,M,00,0004*6D
$GPHPD,0,0.000,125.52,0.03,-12.83,31.5935429,120.7800605,2.838,13629962.185,24926344.180,2.838,0.000,0.000,0.000,0.000,0.000,0.000,0.000,16,16,4*5D
$GPGGA,080056.00,3135.6125158,N,12046.8037104,E,4,16,1.5,2.8287,M,8.323,M,01,0004*69
$GPHPD,0,0.000,124.46,0.05,-12.85,31.5935419,120.7800618,2.829,13629963.152,24926345.513,2.829,0.000,0.000,0.000,0.000,0.000,0.000,0.000,16,16,4*52
$GPGGA,080056.20,3135.6124656,N,12046.8037978,E,4,16,1.5,2.8240,M,8.323,M,01,0004*6B
$GPHPD,0,0.000,123.74,0.02,-12.84,31.5935411,120.7800633,2.824,13629964.041,24926346.859,2.824,0.000,0.000,0.000,0.000,0.000,0.000,0.000,16,16,4*57
$GPGGA,080056.40,3135.6124085,N,12046.8038856,E,4,16,1.5,2.8437,M,8.323,M,01,0004*61
$GPHPD,0,0.000,124.53,-0.93,-12.80,31.5935401,120.7800648,2.844,13629965.029,24926348.250,2.844,0.000,0.000,0.000,0.000,0.000,0.000,0.000,16,16,4*7B
$GPGGA,080056.60,3135.6123552,N,12046.8039747,E,4,16,1.5,2.8355,M,8.323,M,00,0004*67
$GPHPD,0,0.000,124.16,-1.51,-12.77,31.5935393,120.7800662,2.836,13629965.966,24926349.635,2.836,0.000,0.000,0.000,0.000,0.000,0.000,0.000,16,15,4*7E
$GPGGA,080056.80,3135.6123035,N,12046.8040582,E,4,16,1.5,2.8425,M,8.323,M,00,0004*68
$GPHPD,0,0.000,124.29,-3.12,-12.74,31.5935384,120.7800676,2.843,13629966.869,24926350.943,2.843,0.000,0.000,0.000,0.000,0.000,0.000,0.000,16,15,4*7C
$GPGGA,080057.00,3135.6122433,N,12046.8041469,E,4,16,1.5,2.8403,M,8.323,M,01,0004*62
$GPHPD,0,0.000,123.37,-3.47,-12.71,31.5935374,120.7800691,2.840,13629967.903,24926352.363,2.840,0.000,0.000,0.000,0.000,0.000,0.000,0.000,16,15,4*71
$GPGGA,080057.20,3135.6121912,N,12046.8042315,E,4,16,1.5,2.8353,M,8.323,M,01,0004*60
$GPHPD,0,0.000,122.58,-4.78,-12.68,31.5935365,120.7800705,2.835,13629968.814,24926353.687,2.835,0.000,0.000,0.000,0.000,0.000,0.000,0.000,16,14,4*71
$GPGGA,080057.40,3135.6121355,N,12046.8043196,E,4,16,1.5,2.8212,M,8.323,M,01,0004*63
$GPHPD,0,0.000,126.06,-0.79,-12.64,31.5935356,120.7800720,2.821,13629969.783,24926355.074,2.821,0.000,0.000,0.000,0.000,0.000,0.000,0.000,16,14,4*7C
$GPGGA,080057.60,3135.6120903,N,12046.8044004,E,4,16,1.5,2.8141,M,8.323,M,01,0004*61
$GPHPD,0,0.000,126.52,-0.28,-12.63,31.5935348,120.7800733,2.814,13629970.588,24926356.311,2.814,0.000,0.000,0.000,0.000,0.000,0.000,0.000,16,14,4*71
$GPGGA,080057.80,3135.6120184,N,12046.8044855,E,4,16,1.5,2.8128,M,8.323,M,00,0004*6A
$GPHPD,0,0.000,126.21,-0.90,-12.62,31.5935336,120.7800748,2.813,13629971.781,24926357.756,2.813,0.000,0.000,0.000,0.000,0.000,0.000,0.000,16,14,4*7E
$GPGGA,080058.00,3135.6119620,N,12046.8045716,E,4,16,1.5,2.8033,M,8.323,M,01,0004*6D
$GPHPD,0,0.000,127.26,-1.24,-12.60,31.5935327,120.7800762,2.803,13629972.756,24926359.123,2.803,0.000,0.000,0.000,0.000,0.000,0.000,0.000,16,14,4*7F
$GPGGA,080058.20,3135.6119059,N,12046.8046524,E,4,15,1.5,2.8110,M,8.323,M,01,0004*64
$GPHPD,0,0.000,126.54,-1.26,-12.60,31.5935318,120.7800775,2.811,13629973.716,24926360.424,2.811,0.000,0.000,0.000,0.000,0.000,0.000,0.000,15,14,4*7D
$GPGGA,080058.40,3135.6118567,N,12046.8047338,E,4,16,1.5,2.7868,M,8.323,M,01,0004*6B
$GPHPD,0,0.000,126.85,-1.81,-12.61,31.5935309,120.7800789,2.787,13629974.579,24926361.692,2.787,0.000,0.000,0.000,0.000,0.000,0.000,0.000,16,13,4*78
$GPGGA,080058.60,3135.6117991,N,12046.8048178,E,4,15,1.5,2.7895,M,8.323,M,00,0004*6A
$GPHPD,0,0.000,127.49,-0.24,-12.62,31.5935300,120.7800803,2.790,13629975.567,24926363.041,2.790,0.000,0.000,0.000,0.000,0.000,0.000,0.000,15,13,4*77
$GPGGA,080058.80,3135.6117489,N,12046.8049077,E,4,15,1.5,2.7740,M,8.323,M,00,0004*68
$GPHPD,0,0.000,127.39,-0.43,-12.63,31.5935291,120.7800818,2.774,13629976.461,24926364.417,2.774,0.000,0.000,0.000,0.000,0.000,0.000,0.000,15,13,4*77
$GPGGA,080059.00,3135.6116733,N,12046.8050105,E,4,15,1.7,2.8187,M,8.323,M,01,0004*6F
$GPHPD,0,0.000,127.65,-0.45,-12.65,31.5935279,120.7800835,2.819,13629977.742,24926366.097,2.819,0.000,0.000,0.000,0.000,0.000,0.000,0.000,15,13,4*7A
$GPGGA,080059.20,3135.6116180,N,12046.8051068,E,4,15,1.5,2.8064,M,8.323,M,01,0004*66
$GPHPD,0,0.000,127.91,-0.22,-12.67,31.5935270,120.7800851,2.806,13629978.722,24926367.581,2.806,0.000,0.000,0.000,0.000,0.000,0.000,0.000,15,13,4*73
$GPGGA,080059.40,3135.6115521,N,12046.8052060,E,4,14,1.5,2.8126,M,8.323,M,01,0004*61
$GPHPD,0,0.000,127.44,-0.42,-12.68,31.5935259,120.7800868,2.813,13629979.858,24926369.161,2.813,0.000,0.000,0.000,0.000,0.000,0.000,0.000,14,13,4*75
$GPGGA,080059.60,3135.6114889,N,12046.8053063,E,4,15,1.5,2.7811,M,8.323,M,00,0004*6D
$GPHPD,0,0.000,127.47,-0.53,-12.68,31.5935248,120.7800884,2.781,13629980.959,24926370.738,2.781,0.000,0.000,0.000,0.000,0.000,0.000,0.000,15,12,4*70
$GPGGA,080059.80,3135.6114217,N,12046.8054105,E,4,15,1.5,2.7825,M,8.323,M,00,0004*6F
$GPHPD,0,0.000,126.95,0.35,-12.67,31.5935237,120.7800902,2.783,13629982.123,24926372.386,2.783,0.000,0.000,0.000,0.000,0.000,0.000,0.000,15,12,4*5F
$GPGGA,080100.00,3135.6113442,N,12046.8055111,E,4,14,1.6,2.7875,M,8.323,M,01,0004*69
$GPHPD,0,0.000,127.33,-0.20,-12.70,31.5935224,120.7800919,2.788,13629983.427,24926374.051,2.788,0.000,0.000,0.000,0.000,0.000,0.000,0.000,14,12,4*7B
$GPGGA,080100.20,3135.6112702,N,12046.8056261,E,4,15,1.6,2.7827,M,8.323,M,01,0004*6C
$GPHPD,0,0.000,127.95,0.11,-12.66,31.5935212,120.7800938,2.783,13629984.711,24926375.869,2.783,0.000,0.000,0.000,0.000,0.000,0.000,0.000,15,11,4*58
$GPGGA,080100.40,3135.6112004,N,12046.8057352,E,4,15,1.6,2.7682,M,8.323,M,01,0004*6A
$GPHPD,0,0.000,127.77,-0.04,-12.61,31.5935200,120.7800956,2.768,13629985.922,24926377.591,2.768,0.000,0.000,0.000,0.000,0.000,0.000,0.000,15,11,4*76
$GPGGA,080100.60,3135.6111230,N,12046.8058412,E,4,15,1.6,2.7772,M,8.323,M,00,0004*6D
$GPHPD,0,0.000,128.03,-0.64,-12.58,31.5935187,120.7800974,2.777,13629987.236,24926379.320,2.777,0.000,0.000,0.000,0.000,0.000,0.000,0.000,15,11,4*74
$GPGGA,080100.80,3135.6110518,N,12046.8059428,E,4,15,1.6,2.7965,M,8.323,M,00,0004*6F
$GPHPD,0,0.000,128.23,-0.40,-12.57,31.5935175,120.7800990,2.797,13629988.452,24926380.960,2.797,0.000,0.000,0.000,0.000,0.000,0.000,0.000,15,11,4*7B
$GPGGA,080101.00,3135.6109784,N,12046.8060486,E,4,15,1.6,2.7904,M,8.323,M,01,0004*61
$GPHPD,0,0.000,128.03,-1.04,-12.57,31.5935163,120.7801008,2.790,13629989.708,24926382.663,2.790,0.000,0.000,0.000,0.000,0.000,0.000,0.000,15,11,4*75
$GPGGA,080101.20,3135.6109099,N,12046.8061495,E,4,15,1.5,2.7981,M,8.323,M,01,0004*65
$GPHPD,0,0.000,128.33,-0.34,-12.58,31.5935152,120.7801025,2.798,13629990.885,24926384.279,2.798,0.000,0.000,0.000,0.000,0.000,0.000,0.000,15,11,4*7D
$GPGGA,080101.40,3135.6108406,N,12046.8062490,E,4,16,1.7,2.8034,M,8.323,M,01,0004*6F
$GPHPD,0,0.000,128.27,-0.41,-12.58,31.5935140,120.7801042,2.803,13629992.070,24926385.882,2.803,0.000,0.000,0.000,0.000,0.000,0.000,0.000,16,14,4*71
$GPGGA,080101.60,3135.6107719,N,12046.8063485,E,4,16,1.7,2.8105,M,8.323,M,00,0004*68
$GPHPD,0,0.000,127.85,-1.11,-12.59,31.5935129,120.7801058,2.811,13629993.247,24926387.482,2.811,0.000,0.000,0.000,0.000,0.000,0.000,0.000,16,14,4*7E
$GPGGA,080101.80,3135.6107068,N,12046.8064477,E,4,15,1.7,2.7960,M,8.323,M,00,0004*6A
$GPHPD,0,0.000,128.07,-0.93,-12.58,31.5935118,120.7801075,2.796,13629994.372,24926389.058,2.796,0.000,0.000,0.000,0.000,0.000,0.000,0.000,15,14,4*72
$GPGGA,080102.00,3135.6106361,N,12046.8065459,E,4,15,1.7,2.8062,M,8.323,M,01,0004*62
$GPHPD,0,0.000,129.09,0.34,-12.59,31.5935106,120.7801091,2.806,13629995.574,24926390.653,2.806,0.000,0.000,0.000,0.000,0.000,0.000,0.000,15,13,4*5A
$GPGGA,080102.20,3135.6105692,N,12046.8066451,E,4,15,1.7,2.7853,M,8.323,M,01,0004*64
$GPHPD,0,0.000,128.52,-0.88,-12.64,31.5935095,120.7801108,2.785,13629996.725,24926392.239,2.785,0.000,0.000,0.000,0.000,0.000,0.000,0.000,15,13,4*74
$GPGGA,080102.40,3135.6105009,N,12046.8067431,E,4,15,1.7,2.7863,M,8.323,M,01,0004*62
$GPHPD,0,0.000,128.09,-0.92,-12.70,31.5935083,120.7801124,2.786,13629997.893,24926393.819,2.786,0.000,0.000,0.000,0.000,0.000,0.000,0.000,15,13,4*77
$GPGGA,080102.60,3135.6104316,N,12046.8068424,E,4,15,1.7,2.7810,M,8.323,M,00,0004*62
$GPHPD,0,0.000,128.80,-0.16,-12.74,31.5935072,120.7801140,2.781,13629999.077,24926395.420,2.781,0.000,0.000,0.000,0.000,0.000,0.000,0.000,15,13,4*7E
$GPGGA,080102.80,3135.6103640,N,12046.8069407,E,4,15,1.7,2.7719,M,8.323,M,00,0004*6B
$GPHPD,0,0.000,129.38,0.26,-12.76,31.5935061,120.7801157,2.772,13630000.236,24926396.999,2.772,0.000,0.000,0.000,0.000,0.000,0.000,0.000,15,13,4*5E
$GPGGA,080103.00,3135.6102934,N,12046.8070368,E,4,15,1.7,2.7564,M,8.323,M,01,0004*60
$GPHPD,0,0.000,129.32,0.26,-12.80,31.5935049,120.7801173,2.756,13630001.433,24926398.569,2.756,0.000,0.000,0.000,0.000,0.000,0.000,0.000,15,13,4*5E
$GPGGA,080103.20,3135.6102259,N,12046.8071363,E,4,15,1.7,2.7537,M,8.323,M,01,0004*6E
$GPHPD,0,0.000,128.91,0.08,-12.83,31.5935038,120.7801189,2.754,13630002.593,24926400.162,2.754,0.000,0.000,0.000,0.000,0.000,0.000,0.000,15,13,4*5B
$GPGGA,080103.40,3135.6101538,N,12046.8072398,E,4,16,1.7,2.7450,M,8.323,M,01,0004*6F
$GPHPD,0,0.000,129.19,0.13,-12.85,31.5935026,120.7801207,2.745,13630003.826,24926401.830,2.745,0.000,0.000,0.000,0.000,0.000,0.000,0.000,16,14,4*55
$GPGGA,080103.60,3135.6100772,N,12046.8073470,E,4,16,1.7,2.7638,M,8.323,M,00,0004*6D
$GPHPD,0,0.000,128.97,0.62,-12.85,31.5935013,120.7801225,2.764,13630005.130,24926403.569,2.764,0.000,0.000,0.000,0.000,0.000,0.000,0.000,16,14,4*59
$GPGGA,080103.80,3135.6100042,N,12046.8074524,E,4,16,1.7,2.7656,M,8.323,M,00,0004*68
$GPHPD,0,0.000,128.51,0.35,-12.86,31.5935001,120.7801242,2.766,13630006.380,24926405.265,2.766,0.000,0.000,0.000,0.000,0.000,0.000,0.000,16,14,4*57
$GPGGA,080104.00,3135.6099280,N,12046.8075678,E,4,16,1.6,2.7776,M,8.323,M,01,0004*62
$GPHPD,0,0.000,128.90,0.31,-12.89,31.5934988,120.7801261,2.778,13630007.695,24926407.101,2.778,0.000,0.000,0.000,0.000,0.000,0.000,0.000,16,14,4*5A
$GPGGA,080104.20,3135.6098482,N,12046.8076821,E,4,16,1.6,2.7673,M,8.323,M,01,0004*60
$GPHPD,0,0.000,128.82,-0.83,-12.93,31.5934975,120.7801280,2.767,13630009.059,24926408.944,2.767,0.000,0.000,0.000,0.000,0.000,0.000,0.000,16,14,4*75
$GPGGA,080104.40,3135.6097656,N,12046.8077990,E,4,16,1.6,2.7638,M,8.323,M,01,0004*67
$GPHPD,0,0.000,128.81,-0.18,-12.97,31.5934961,120.7801300,2.764,13630010.468,24926410.835,2.764,0.000,0.000,0.000,0.000,0.000,0.000,0.000,16,14,4*7C
$GPGGA,080104.60,3135.6096864,N,12046.8079214,E,4,16,1.6,2.7525,M,8.323,M,00,0004*6C
$GPHPD,0,0.000,128.57,-0.01,-13.03,31.5934948,120.7801320,2.753,13630011.840,24926412.772,2.753,0.000,0.000,0.000,0.000,0.000,0.000,0.000,16,15,4*72
$GPGGA,080104.80,3135.6095984,N,12046.8080468,E,4,16,1.6,2.7503,M,8.323,M,00,0004*61
$GPHPD,0,0.000,128.96,-0.59,-13.07,31.5934933,120.7801341,2.750,13630013.344,24926414.797,2.750,0.000,0.000,0.000,0.000,0.000,0.000,0.000,16,15,4*7D
$GPGGA,080105.00,3135.6095099,N,12046.8081636,E,4,16,1.6,2.7336,M,8.323,M,01,0004*64
$GPHPD,0,0.000,128.54,-0.91,-13.09,31.5934918,120.7801361,2.734,13630014.836,24926416.720,2.734,0.000,0.000,0.000,0.000,0.000,0.000,0.000,16,15,4*75
$GPGGA,080105.20,3135.6094061,N,12046.8082888,E,4,16,1.7,2.7718,M,8.323,M,01,0004*61
$GPHPD,0,0.000,128.69,0.10,-13.07,31.5934901,120.7801381,2.772,13630016.564,24926418.835,2.772,0.000,0.000,0.000,0.000,0.000,0.000,0.000,16,15,4*5A
$GPGGA,080105.40,3135.6093183,N,12046.8084143,E,4,16,1.7,2.7562,M,8.323,M,01,0004*6A
$GPHPD,0,0.000,128.57,-0.75,-13.03,31.5934886,120.7801402,2.756,13630018.064,24926420.860,2.756,0.000,0.000,0.000,0.000,0.000,0.000,0.000,16,15,4*7F
$GPGGA,080105.60,3135.6092322,N,12046.8085422,E,4,16,1.7,2.7720,M,8.323,M,00,0004*66
$GPHPD,0,0.000,128.40,-0.29,-13.01,31.5934872,120.7801424,2.772,13630019.545,24926422.903,2.772,0.000,0.000,0.000,0.000,0.000,0.000,0.000,16,15,4*7C
$GPGGA,080105.80,3135.6091414,N,12046.8086684,E,4,16,1.7,2.7523,M,8.323,M,00,0004*65
$GPHPD,0,0.000,128.79,-0.95,-13.00,31.5934857,120.7801445,2.752,13630021.090,24926424.954,2.752,0.000,0.000,0.000,0.000,0.000,0.000,0.000,16,15,4*72
$GPGGA,080106.00,3135.6090482,N,12046.8087976,E,4,16,1.7,2.7601,M,8.323,M,01,0004*61
$GPHPD,0,0.000,128.66,-0.33,-13.03,31.5934841,120.7801466,2.760,13630022.675,24926427.055,2.760,0.000,0.000,0.000,0.000,0.000,0.000,0.000,16,15,4*70
$GPGGA,080106.20,3135.6089539,N,12046.8089225,E,4,16,1.7,2.7995,M,8.323,M,01,0004*6B
$GPHPD,0,0.000,128.58,-0.31,-13.04,31.5934826,120.7801487,2.800,13630024.266,24926429.110,2.800,0.000,0.000,0.000,0.000,0.000,0.000,0.000,16,15,4*78
$GPGGA,080106.40,3135.6088640,N,12046.8090533,E,4,16,1.8,2.7684,M,8.323,M,01,0004*69
$GPHPD,0,0.000,128.94,-1.09,-13.02,31.5934811,120.7801509,2.768,13630025.807,24926431.211,2.768,0.000,0.000,0.000,0.000,0.000,0.000,0.000,16,15,4*70
$GPGGA,080106.60,3135.6087736,N,12046.8091785,E,4,16,1.7,2.7662,M,8.323,M,00,0004*6C
$GPHPD,0,0.000,129.02,-0.56,-13.00,31.5934796,120.7801530,2.766,13630027.344,24926433.247,2.766,0.000,0.000,0.000,0.000,0.000,0.000,0.000,16,15,4*72
$GPGGA,080106.80,3135.6086809,N,12046.8093072,E,4,15,1.8,2.7618,M,8.323,M,00,0004*6C
$GPHPD,0,0.000,128.88,-0.08,-13.00,31.5934780,120.7801551,2.762,13630028.921,24926435.339,2.762,0.000,0.000,0.000,0.000,0.000,0.000,0.000,15,14,4*70
$GPGGA,080107.00,3135.6085872,N,12046.8094370,E,4,15,1.8,2.7577,M,8.323,M,01,0004*67
$GPHPD,0,0.000,128.86,-0.51,-12.99,31.5934765,120.7801573,2.758,13630030.514,24926437.450,2.758,0.000,0.000,0.000,0.000,0.000,0.000,0.000,15,14,4*71
$GPGGA,080107.20,3135.6084937,N,12046.8095682,E,4,15,1.8,2.7561,M,8.323,M,01,0004*6A
$GPHPD,0,0.000,128.93,-1.55,-13.00,31.5934749,120.7801595,2.756,13630032.107,24926439.577,2.756,0.000,0.000,0.000,0.000,0.000,0.000,0.000,15,14,4*79
$GPGGA,080107.40,3135.6083990,N,12046.8096954,E,4,16,1.6,2.7717,M,8.323,M,01,0004*6F
$GPHPD,0,0.000,128.96,-0.96,-13.01,31.5934733,120.7801616,2.772,13630033.709,24926441.663,2.772,0.000,0.000,0.000,0.000,0.000,0.000,0.000,16,15,4*74
$GPGGA,080107.60,3135.6083059,N,12046.8098273,E,4,16,1.6,2.7648,M,8.323,M,00,0004*6B
$GPHPD,0,0.000,129.09,-1.31,-13.02,31.5934718,120.7801638,2.765,13630035.297,24926443.795,2.765,0.000,0.000,0.000,0.000,0.000,0.000,0.000,16,15,4*77
$GPGGA,080107.80,3135.6082140,N,12046.8099612,E,4,16,1.6,2.7606,M,8.323,M,00,0004*65
$GPHPD,0,0.000,128.76,-1.11,-13.01,31.5934702,120.7801660,2.761,13630036.873,24926445.945,2.761,0.000,0.000,0.000,0.000,0.000,0.000,0.000,16,15,4*7F
$GPGGA,080108.00,3135.6081213,N,12046.8100913,E,4,16,1.6,2.7586,M,8.323,M,01,0004*61
$GPHPD,0,0.000,129.27,-1.58,-13.01,31.5934687,120.7801682,2.759,13630038.452,24926448.054,2.759,0.000,0.000,0.000,0.000,0.000,0.000,0.000,16,15,4*72
$GPGGA,080108.20,3135.6080304,N,12046.8102234,E,4,16,1.6,2.7408,M,8.323,M,01,0004*6E
$GPHPD,0,0.000,128.51,-1.09,-12.98,31.5934672,120.7801704,2.741,13630040.010,24926450.176,2.741,0.000,0.000,0.000,0.000,0.000,0.000,0.000,16,14,4*76
$GPGGA,080108.40,3135.6079423,N,12046.8103591,E,4,16,1.5,2.7269,M,8.323,M,01,0004*67
$GPHPD,0,0.000,128.50,-0.72,-12.95,31.5934657,120.7801727,2.727,13630041.535,24926452.326,2.727,0.000,0.000,0.000,0.000,0.000,0.000,0.000,16,14,4*77
$GPGGA,080108.60,3135.6078413,N,12046.8104902,E,4,16,1.5,2.7450,M,8.323,M,00,0004*6B
$GPHPD,0,0.000,128.44,-0.88,-12.94,31.5934640,120.7801748,2.745,13630043.235,24926454.495,2.745,0.000,0.000,0.000,0.000,0.000,0.000,0.000,16,14,4*75
$GPGGA,080108.80,3135.6077538,N,12046.8106248,E,4,16,1.5,2.7144,M,8.323,M,00,0004*65
$GPHPD,0,0.000,127.74,-1.55,-12.94,31.5934626,120.7801771,2.714,13630044.749,24926456.628,2.714,0.000,0.000,0.000,0.000,0.000,0.000,0.000,16,14,4*7D
$GPGGA,080109.00,3135.6076480,N,12046.8107618,E,4,16,1.5,2.7394,M,8.323,M,01,0004*61
$GPHPD,0,0.000,128.52,-0.18,-12.95,31.5934608,120.7801794,2.739,13630046.529,24926458.896,2.739,0.000,0.000,0.000,0.000,0.000,0.000,0.000,16,14,4*7B
$GPGGA,080109.20,3135.6075630,N,12046.8109041,E,4,16,1.5,2.7227,M,8.323,M,01,0004*64
$GPHPD,0,0.000,128.29,-0.83,-12.95,31.5934594,120.7801817,2.723,13630048.023,24926461.107,2.723,0.000,0.000,0.000,0.000,0.000,0.000,0.000,16,14,4*7D
$GPGGA,080109.40,3135.6074577,N,12046.8110342,E,4,16,1.5,2.7506,M,8.323,M,01,0004*6F
$GPHPD,0,0.000,129.57,-0.11,-12.92,31.5934576,120.7801839,2.751,13630049.782,24926463.289,2.751,0.000,0.000,0.000,0.000,0.000,0.000,0.000,16,15,4*72
$GPGGA,080109.60,3135.6073677,N,12046.8111753,E,4,16,1.5,2.7244,M,8.323,M,00,0004*6C
$GPHPD,0,0.000,128.69,-1.17,-12.93,31.5934561,120.7801863,2.724,13630051.345,24926465.515,2.724,0.000,0.000,0.000,0.000,0.000,0.000,0.000,16,15,4*73
$GPGGA,080109.80,3135.6072691,N,12046.8113123,E,4,16,1.5,2.7288,M,8.323,M,00,0004*68
$GPHPD,0,0.000,128.73,-0.37,-12.93,31.5934545,120.7801885,2.729,13630053.022,24926467.741,2.729,0.000,0.000,0.000,0.000,0.000,0.000,0.000,16,15,4*74
$GPGGA,080110.00,3135.6071734,N,12046.8114497,E,4,16,1.5,2.7099,M,8.323,M,01,0004*6B
$GPHPD,0,0.000,129.17,-1.01,-12.92,31.5934529,120.7801908,2.710,13630054.659,24926469.956,2.710,0.000,0.000,0.000,0.000,0.000,0.000,0.000,16,15,4*77
$GPGGA,080110.20,3135.6070728,N,12046.8115859,E,4,16,1.5,2.7143,M,8.323,M,01,0004*6C
$GPHPD,0,0.000,129.11,-0.01,-12.92,31.5934512,120.7801931,2.714,13630056.363,24926472.184,2.714,0.000,0.000,0.000,0.000,0.000,0.000,0.000,16,14,4*70
$GPGGA,080110.40,3135.6069750,N,12046.8117232,E,4,16,1.5,2.7221,M,8.323,M,01,0004*6F
$GPHPD,0,0.000,129.10,-0.26,-12.94,31.5934496,120.7801954,2.722,13630058.029,24926474.409,2.722,0.000,0.000,0.000,0.000,0.000,0.000,0.000,16,14,4*79
$GPGGA,080110.60,3135.6068742,N,12046.8118611,E,4,16,1.5,2.7234,M,8.323,M,00,0004*60
$GPHPD,0,0.000,128.86,-0.79,-12.96,31.5934479,120.7801977,2.723,13630059.739,24926476.659,2.723,0.000,0.000,0.000,0.000,0.000,0.000,0.000,16,14,4*7D
$GPGGA,080110.80,3135.6067741,N,12046.8120007,E,4,16,1.5,2.7379,M,8.323,M,00,0004*60
$GPHPD,0,0.000,128.88,-0.37,-12.97,31.5934462,120.7802000,2.738,13630061.443,24926478.926,2.738,0.000,0.000,0.000,0.000,0.000,0.000,0.000,16,14,4*74
$GPGGA,080111.00,3135.6066769,N,12046.8121376,E,4,16,1.5,2.7360,M,8.323,M,01,0004*6F
$GPHPD,0,0.000,128.98,-2.17,-12.95,31.5934446,120.7802023,2.736,13630063.100,24926481.143,2.736,0.000,0.000,0.000,0.000,0.000,0.000,0.000,16,13,4*7A
$GPGGA,080111.20,3135.6065769,N,12046.8122745,E,4,16,1.5,2.7311,M,8.323,M,01,0004*6F
$GPHPD,0,0.000,128.60,0.15,-12.94,31.5934429,120.7802046,2.731,13630064.797,24926483.376,2.731,0.000,0.000,0.000,0.000,0.000,0.000,0.000,16,13,4*52
$GPGGA,080111.40,3135.6064793,N,12046.8124084,E,4,16,1.5,2.7304,M,8.323,M,01,0004*65
$GPHPD,0,0.000,128.44,-0.76,-12.94,31.5934413,120.7802068,2.730,13630066.453,24926485.559,2.730,0.000,0.000,0.000,0.000,0.000,0.000,0.000,16,14,4*7A
$GPGGA,080111.60,3135.6063805,N,12046.8125468,E,4,16,1.5,2.7306,M,8.323,M,00,0004*64
$GPHPD,0,0.000,128.50,-0.59,-12.93,31.5934397,120.7802091,2.731,13630068.136,24926487.804,2.731,0.000,0.000,0.000,0.000,0.000,0.000,0.000,16,14,4*77
$GPGGA,080111.80,3135.6062865,N,12046.8126824,E,4,15,1.7,2.7061,M,8.323,M,00,0004*69
$GPHPD,0,0.000,128.35,-0.56,-12.92,31.5934381,120.7802114,2.706,13630069.745,24926489.986,2.706,0.000,0.000,0.000,0.000,0.000,0.000,0.000,15,14,4*74
$GPGGA,080112.00,3135.6061859,N,12046.8128213,E,4,16,1.7,2.7156,M,8.323,M,01,0004*69
$GPHPD,0,0.000,128.24,0.30,-12.92,31.5934364,120.7802137,2.716,13630071.455,24926492.247,2.716,0.000,0.000,0.000,0.000,0.000,0.000,0.000,16,14,4*57
$GPGGA,080112.20,3135.6060878,N,12046.8129595,E,4,16,1.5,2.7243,M,8.323,M,01,0004*64
$GPHPD,0,0.000,128.13,-1.24,-12.90,31.5934348,120.7802160,2.724,13630073.127,24926494.485,2.724,0.000,0.000,0.000,0.000,0.000,0.000,0.000,16,14,4*78
$GPGGA,080112.40,3135.6059901,N,12046.8130958,E,4,15,1.5,2.7244,M,8.323,M,01,0004*66
$GPHPD,0,0.000,128.67,-1.09,-12.90,31.5934332,120.7802183,2.724,13630074.790,24926496.698,2.724,0.000,0.000,0.000,0.000,0.000,0.000,0.000,15,13,4*71
$GPGGA,080112.60,3135.6058893,N,12046.8132352,E,4,15,1.5,2.7131,M,8.323,M,00,0004*6D
$GPHPD,0,0.000,128.46,-1.76,-12.90,31.5934315,120.7802206,2.713,13630076.503,24926498.966,2.713,0.000,0.000,0.000,0.000,0.000,0.000,0.000,15,13,4*7B
$GPGGA,080112.80,3135.6057964,N,12046.8133764,E,4,15,1.5,2.7055,M,8.323,M,00,0004*66
$GPHPD,0,0.000,128.31,-1.15,-12.87,31.5934299,120.7802229,2.706,13630078.108,24926501.210,2.706,0.000,0.000,0.000,0.000,0.000,0.000,0.000,15,14,4*7D
$GPGGA,080113.00,3135.6057013,N,12046.8135123,E,4,15,1.5,2.6908,M,8.323,M,01,0004*64
$GPHPD,0,0.000,129.09,-1.88,-12.85,31.5934284,120.7802252,2.691,13630079.733,24926503.402,2.691,0.000,0.000,0.000,0.000,0.000,0.000,0.000,15,14,4*79
$GPGGA,080113.20,3135.6055976,N,12046.8136475,E,4,15,1.5,2.6872,M,8.323,M,01,0004*67
$GPHPD,0,0.000,129.35,-0.58,-12.86,31.5934266,120.7802275,2.687,13630081.479,24926505.637,2.687,0.000,0.000,0.000,0.000,0.000,0.000,0.000,15,14,4*78
$GPGGA,080113.40,3135.6054996,N,12046.8137854,E,4,16,1.4,2.6797,M,8.323,M,01,0004*66
$GPHPD,0,0.000,128.97,0.03,-12.85,31.5934250,120.7802298,2.680,13630083.149,24926507.870,2.680,0.000,0.000,0.000,0.000,0.000,0.000,0.000,16,15,4*5E
$GPGGA,080113.60,3135.6054035,N,12046.8139215,E,4,16,1.4,2.6680,M,8.323,M,00,0004*63
$GPHPD,0,0.000,129.32,0.07,-12.85,31.5934234,120.7802320,2.668,13630084.789,24926510.071,2.668,0.000,0.000,0.000,0.000,0.000,0.000,0.000,16,14,4*57
$GPGGA,080113.80,3135.6053020,N,12046.8140622,E,4,16,1.4,2.6807,M,8.324,M,00,0004*66
$GPHPD,0,0.000,129.56,0.31,-12.82,31.5934217,120.7802344,2.681,13630086.515,24926512.359,2.681,0.000,0.000,0.000,0.000,0.000,0.000,0.000,16,14,4*5A
$GPGGA,080114.00,3135.6052022,N,12046.8141952,E,4,16,1.4,2.6784,M,8.324,M,01,0004*66
$GPHPD,0,0.000,129.82,-0.40,-12.81,31.5934200,120.7802366,2.678,13630088.201,24926514.544,2.678,0.000,0.000,0.000,0.000,0.000,0.000,0.000,16,14,4*7D
$GPGGA,080114.20,3135.6051019,N,12046.8143381,E,4,16,1.4,2.6884,M,8.324,M,01,0004*66
$GPHPD,0,0.000,129.60,0.13,-12.81,31.5934184,120.7802390,2.688,13630089.914,24926516.852,2.688,0.000,0.000,0.000,0.000,0.000,0.000,0.000,16,14,4*5A
$GPGGA,080114.40,3135.6049998,N,12046.8144700,E,4,16,1.4,2.7022,M,8.324,M,01,0004*66
$GPHPD,0,0.000,129.67,-0.19,-12.81,31.5934167,120.7802412,2.702,13630091.631,24926519.037,2.702,0.000,0.000,0.000,0.000,0.000,0.000,0.000,16,14,4*7F
$GPGGA,080114.60,3135.6048991,N,12046.8146022,E,4,16,1.4,2.6974,M,8.324,M,00,0004*63
$GPHPD,0,0.000,129.28,-0.56,-12.80,31.5934150,120.7802434,2.697,13630093.328,24926521.218,2.697,0.000,0.000,0.000,0.000,0.000,0.000,0.000,16,13,4*72
$GPGGA,080114.80,3135.6047992,N,12046.8147406,E,4,16,1.4,2.7063,M,8.324,M,00,0004*6C
$GPHPD,0,0.000,128.93,-0.17,-12.80,31.5934133,120.7802457,2.706,13630095.027,24926523.469,2.706,0.000,0.000,0.000,0.000,0.000,0.000,0.000,16,13,4*7E
$GPGGA,080115.00,3135.6047009,N,12046.8148730,E,4,16,1.4,2.6924,M,8.324,M,01,0004*6D
$GPHPD,0,0.000,128.92,-0.21,-12.81,31.5934117,120.7802479,2.692,13630096.690,24926525.638,2.692,0.000,0.000,0.000,0.000,0.000,0.000,0.000,16,13,4*78
$GPGGA,080115.20,3135.6046021,N,12046.8150134,E,4,16,1.4,2.6915,M,8.324,M,01,0004*6D
$GPHPD,0,0.000,128.56,0.32,-12.79,31.5934100,120.7802502,2.692,13630098.377,24926527.906,2.692,0.000,0.000,0.000,0.000,0.000,0.000,0.000,16,13,4*51
$GPGGA,080115.40,3135.6045018,N,12046.8151500,E,4,17,1.4,2.6932,M,8.324,M,01,0004*64
$GPHPD,0,0.000,128.74,-0.63,-12.78,31.5934084,120.7802525,2.693,13630100.078,24926530.138,2.693,0.000,0.000,0.000,0.000,0.000,0.000,0.000,17,14,4*78
$GPGGA,080115.60,3135.6044066,N,12046.8152841,E,4,17,1.4,2.6841,M,8.324,M,00,0004*61
$GPHPD,0,0.000,129.44,-1.87,-12.81,31.5934068,120.7802547,2.684,13630101.701,24926532.309,2.684,0.000,0.000,0.000,0.000,0.000,0.000,0.000,17,15,4*7A
$GPGGA,080115.80,3135.6043093,N,12046.8154149,E,4,17,1.4,2.6760,M,8.324,M,00,0004*69
$GPHPD,0,0.000,129.30,-2.03,-12.84,31.5934052,120.7802569,2.676,13630103.347,24926534.453,2.676,0.000,0.000,0.000,0.000,0.000,0.000,0.000,17,15,4*7C
$GPGGA,080116.00,3135.6042109,N,12046.8155467,E,4,17,1.4,2.6834,M,8.324,M,01,0004*66
$GPHPD,0,0.000,128.97,-0.80,-12.86,31.5934035,120.7802591,2.683,13630105.011,24926536.616,2.683,0.000,0.000,0.000,0.000,0.000,0.000,0.000,17,15,4*7A
$GPGGA,080116.20,3135.6041153,N,12046.8156820,E,4,17,1.4,2.6778,M,8.324,M,01,0004*63
$GPHPD,0,0.000,128.71,-1.68,-12.88,31.5934019,120.7802614,2.678,13630106.642,24926538.804,2.678,0.000,0.000,0.000,0.000,0.000,0.000,0.000,17,15,4*7B
$GPGGA,080116.40,3135.6040207,N,12046.8158168,E,4,17,1.4,2.6749,M,8.324,M,01,0004*6F
$GPHPD,0,0.000,128.33,-1.53,-12.88,31.5934003,120.7802636,2.675,13630108.258,24926540.981,2.675,0.000,0.000,0.000,0.000,0.000,0.000,0.000,17,15,4*7C
$GPGGA,080116.60,3135.6039235,N,12046.8159501,E,4,17,1.4,2.6665,M,8.324,M,00,0004*66
$GPHPD,0,0.000,128.75,-1.67,-12.89,31.5933987,120.7802658,2.667,13630109.907,24926543.154,2.667,0.000,0.000,0.000,0.000,0.000,0.000,0.000,17,14,4*70
$GPGGA,080116.80,3135.6038272,N,12046.8160822,E,4,17,1.4,2.6601,M,8.324,M,00,0004*6E
$GPHPD,0,0.000,129.03,-0.83,-12.91,31.5933971,120.7802680,2.660,13630111.542,24926545.308,2.660,0.000,0.000,0.000,0.000,0.000,0.000,0.000,17,14,4*77
$GPGGA,080117.00,3135.6037288,N,12046.8162147,E,4,17,1.4,2.6678,M,8.324,M,01,0004*6A
$GPHPD,0,0.000,129.32,-0.73,-12.93,31.5933955,120.7802702,2.668,13630113.207,24926547.479,2.668,0.000,0.000,0.000,0.000,0.000,0.000,0.000,17,14,4*72
$GPGGA,080117.20,3135.6036388,N,12046.8163484,E,4,17,1.4,2.6531,M,8.324,M,01,0004*6D
$GPHPD,0,0.000,129.29,-0.34,-12.91,31.5933940,120.7802725,2.653,13630114.755,24926549.615,2.653,0.000,0.000,0.000,0.000,0.000,0.000,0.000,17,14,4*7B
$GPGGA,080117.40,3135.6035367,N,12046.8164814,E,4,17,1.5,2.6576,M,8.324,M,01,0004*69
$GPHPD,0,0.000,129.61,-0.36,-12.91,31.5933923,120.7802747,2.658,13630116.474,24926551.814,2.658,0.000,0.000,0.000,0.000,0.000,0.000,0.000,17,14,4*70
$GPGGA,080117.60,3135.6034421,N,12046.8166160,E,4,17,1.5,2.6594,M,8.324,M,00,0004*6A
$GPHPD,0,0.000,129.87,-0.15,-12.90,31.5933907,120.7802769,2.659,13630118.090,24926553.988,2.659,0.000,0.000,0.000,0.000,0.000,0.000,0.000,17,14,4*74
$GPGGA,080117.80,3135.6033382,N,12046.8167508,E,4,17,1.5,2.6600,M,8.324,M,00,0004*68
$GPHPD,0,0.000,130.03,-0.69,-12.87,31.5933890,120.7802792,2.660,13630119.838,24926556.219,2.660,0.000,0.000,0.000,0.000,0.000,0.000,0.000,17,14,4*7B
$GPGGA,080118.00,3135.6032430,N,12046.8168839,E,4,17,1.5,2.6644,M,8.324,M,01,0004*61
$GPHPD,0,0.000,129.47,-0.28,-12.89,31.5933874,120.7802814,2.664,13630121.459,24926558.378,2.664,0.000,0.000,0.000,0.000,0.000,0.000,0.000,17,14,4*7B
$GPGGA,080118.20,3135.6031444,N,12046.8170173,E,4,17,1.5,2.6705,M,8.324,M,01,0004*69
$GPHPD,0,0.000,129.63,-0.59,-12.89,31.5933857,120.7802836,2.671,13630123.129,24926560.561,2.671,0.000,0.000,0.000,0.000,0.000,0.000,0.000,17,14,4*7F
$GPGGA,080118.40,3135.6030496,N,12046.8171444,E,4,17,1.5,2.6516,M,8.324,M,01,0004*61
$GPHPD,0,0.000,129.44,-0.46,-12.88,31.5933842,120.7802857,2.652,13630124.732,24926562.646,2.652,0.000,0.000,0.000,0.000,0.000,0.000,0.000,17,15,4*78
$GPGGA,080118.60,3135.6029526,N,12046.8172796,E,4,17,1.5,2.6655,M,8.324,M,00,0004*6B
$GPHPD,0,0.000,129.37,0.34,-12.87,31.5933825,120.7802880,2.666,13630126.383,24926564.841,2.666,0.000,0.000,0.000,0.000,0.000,0.000,0.000,17,16,4*50
$GPGGA,080118.80,3135.6028559,N,12046.8174095,E,4,17,1.5,2.6736,M,8.324,M,00,0004*6A
$GPHPD,0,0.000,129.27,-0.49,-12.88,31.5933809,120.7802902,2.674,13630128.018,24926566.971,2.674,0.000,0.000,0.000,0.000,0.000,0.000,0.000,17,16,4*73
$GPGGA,080119.00,3135.6027611,N,12046.8175414,E,4,17,1.5,2.6671,M,8.324,M,01,0004*6C
$GPHPD,0,0.000,129.04,-0.96,-12.86,31.5933794,120.7802924,2.667,13630129.631,24926569.114,2.667,0.000,0.000,0.000,0.000,0.000,0.000,0.000,17,16,4*79
$GPGGA,080119.20,3135.6026608,N,12046.8176751,E,4,17,1.5,2.6738,M,8.324,M,01,0004*6A
$GPHPD,0,0.000,129.15,-0.44,-12.88,31.5933777,120.7802946,2.674,13630131.326,24926571.310,2.674,0.000,0.000,0.000,0.000,0.000,0.000,0.000,17,16,4*74
$GPGGA,080119.40,3135.6025647,N,12046.8178124,E,4,17,1.5,2.6582,M,8.324,M,01,0004*6D
$GPHPD,0,0.000,128.87,-0.82,-12.89,31.5933761,120.7802969,2.658,13630132.968,24926573.526,2.658,0.000,0.000,0.000,0.000,0.000,0.000,0.000,17,16,4*7D
$GPGGA,080119.60,3135.6024690,N,12046.8179427,E,4,17,1.5,2.6585,M,8.324,M,00,0004*65
$GPHPD,0,0.000,129.06,-0.28,-12.90,31.5933745,120.7802990,2.659,13630134.591,24926575.654,2.659,0.000,0.000,0.000,0.000,0.000,0.000,0.000,17,16,4*71
$GPGGA,080119.80,3135.6023706,N,12046.8180732,E,4,16,1.5,2.6714,M,8.324,M,00,0004*68
$GPHPD,0,0.000,129.30,-0.29,-12.90,31.5933728,120.7803012,2.671,13630136.252,24926577.801,2.671,0.000,0.000,0.000,0.000,0.000,0.000,0.000,16,16,4*7B
$GPGGA,080120.00,3135.6022734,N,12046.8182104,E,4,17,1.5,2.6724,M,8.324,M,01,0004*68
$GPHPD,0,0.000,129.54,-1.28,-12.87,31.5933712,120.7803035,2.672,13630137.910,24926580.022,2.672,0.000,0.000,0.000,0.000,0.000,0.000,0.000,17,16,4*7F
$GPGGA,080120.20,3135.6021785,N,12046.8183412,E,4,16,1.5,2.6659,M,8.324,M,01,0004*6A
$GPHPD,0,0.000,129.97,-0.41,-12.86,31.5933696,120.7803057,2.666,13630139.522,24926582.152,2.666,0.000,0.000,0.000,0.000,0.000,0.000,0.000,16,15,4*73
$GPGGA,080120.40,3135.6020830,N,12046.8184763,E,4,16,1.5,2.6579,M,8.324,M,01,0004*6F
$GPHPD,0,0.000,129.75,-0.54,-12.86,31.5933681,120.7803079,2.658,13630141.151,24926584.337,2.658,0.000,0.000,0.000,0.000,0.000,0.000,0.000,16,15,4*79
$GPGGA,080120.60,3135.6019830,N,12046.8186090,E,4,16,1.5,2.6535,M,8.324,M,00,0004*67
$GPHPD,0,0.000,129.69,-0.32,-12.83,31.5933664,120.7803102,2.654,13630142.839,24926586.520,2.654,0.000,0.000,0.000,0.000,0.000,0.000,0.000,16,15,4*71
$GPGGA,080120.80,3135.6018823,N,12046.8187445,E,4,16,1.5,2.6575,M,8.324,M,00,0004*63
$GPHPD,0,0.000,129.77,-0.33,-12.84,31.5933647,120.7803124,2.658,13630144.543,24926588.740,2.658,0.000,0.000,0.000,0.000,0.000,0.000,0.000,16,15,4*71
$GPGGA,080121.00,3135.6017806,N,12046.8188810,E,4,16,1.5,2.6756,M,8.324,M,01,0004*63
$GPHPD,0,0.000,129.41,-0.38,-12.87,31.5933630,120.7803147,2.676,13630146.263,24926590.979,2.676,0.000,0.000,0.000,0.000,0.000,0.000,0.000,16,15,4*73
$GPGGA,080121.20,3135.6016787,N,12046.8190103,E,4,16,1.5,2.6580,M,8.324,M,01,0004*6D
$GPHPD,0,0.000,129.59,-0.96,-12.85,31.5933613,120.7803168,2.658,13630147.972,24926593.131,2.658,0.000,0.000,0.000,0.000,0.000,0.000,0.000,16,15,4*7D
$GPGGA,080121.40,3135.6015822,N,12046.8191475,E,4,17,1.5,2.6567,M,8.324,M,01,0004*65
$GPHPD,0,0.000,129.81,-0.51,-12.84,31.5933597,120.7803191,2.657,13630149.620,24926595.348,2.657,0.000,0.000,0.000,0.000,0.000,0.000,0.000,17,16,4*75
$GPGGA,080121.60,3135.6014860,N,12046.8192797,E,4,17,1.5,2.6640,M,8.324,M,00,0004*6B
$GPHPD,0,0.000,129.98,-0.55,-12.87,31.5933581,120.7803213,2.664,13630151.253,24926597.502,2.664,0.000,0.000,0.000,0.000,0.000,0.000,0.000,17,16,4*77
$GPGGA,080121.80,3135.6013832,N,12046.8194149,E,4,17,1.5,2.6733,M,8.324,M,00,0004*63
$GPHPD,0,0.000,130.40,-0.96,-12.89,31.5933564,120.7803236,2.673,13630152.986,24926599.732,2.673,0.000,0.000,0.000,0.000,0.000,0.000,0.000,17,16,4*78
$GPGGA,080122.00,3135.6012824,N,12046.8195518,E,4,17,1.5,2.6630,M,8.324,M,01,0004*6C
$GPHPD,0,0.000,130.41,-1.23,-12.88,31.5933547,120.7803259,2.663,13630154.694,24926601.970,2.663,0.000,0.000,0.000,0.000,0.000,0.000,0.000,17,16,4*7F
$GPGGA,080122.20,3135.6011843,N,12046.8196827,E,4,17,1.5,2.6649,M,8.324,M,01,0004*60
$GPHPD,0,0.000,130.76,-0.64,-12.90,31.5933531,120.7803280,2.665,13630156.352,24926604.119,2.665,0.000,0.000,0.000,0.000,0.000,0.000,0.000,17,16,4*7A
$GPGGA,080122.40,3135.6010844,N,12046.8198205,E,4,17,1.5,2.6538,M,8.324,M,01,0004*61
$GPHPD,0,0.000,130.64,-0.81,-12.92,31.5933514,120.7803303,2.654,13630158.049,24926606.363,2.654,0.000,0.000,0.000,0.000,0.000,0.000,0.000,17,16,4*77
$GPGGA,080122.60,3135.6009830,N,12046.8199531,E,4,17,1.4,2.6438,M,8.324,M,00,0004*68
$GPHPD,0,0.000,130.29,-0.43,-12.92,31.5933497,120.7803326,2.644,13630159.758,24926608.553,2.644,0.000,0.000,0.000,0.000,0.000,0.000,0.000,17,16,4*70
$GPGGA,080122.80,3135.6008894,N,12046.8200901,E,4,17,1.4,2.6374,M,8.324,M,00,0004*6A
$GPHPD,0,0.000,130.26,-0.66,-12.91,31.5933482,120.7803348,2.637,13630161.364,24926610.750,2.637,0.000,0.000,0.000,0.000,0.000,0.000,0.000,17,16,4*7F
$GPGGA,080123.00,3135.6007824,N,12046.8202267,E,4,17,1.4,2.6514,M,8.324,M,01,0004*6F
$GPHPD,0,0.000,131.01,0.14,-12.90,31.5933464,120.7803371,2.651,13630163.159,24926613.020,2.651,0.000,0.000,0.000,0.000,0.000,0.000,0.000,17,16,4*5D
$GPGGA,080123.20,3135.6006787,N,12046.8203593,E,4,17,1.4,2.6567,M,8.324,M,01,0004*63
$GPHPD,0,0.000,130.68,-0.28,-12.92,31.5933446,120.7803393,2.657,13630164.900,24926615.223,2.657,0.000,0.000,0.000,0.000,0.000,0.000,0.000,17,15,4*78
$GPGGA,080123.40,3135.6005787,N,12046.8204934,E,4,17,1.4,2.6351,M,8.324,M,01,0004*63
$GPHPD,0,0.000,130.52,-0.40,-12.92,31.5933430,120.7803416,2.635,13630166.591,24926617.423,2.635,0.000,0.000,0.000,0.000,0.000,0.000,0.000,17,15,4*76
$GPGGA,080123.60,3135.6004751,N,12046.8206278,E,4,17,1.4,2.6484,M,8.324,M,00,0004*64
$GPHPD,0,0.000,129.79,0.40,-12.91,31.5933413,120.7803438,2.648,13630168.334,24926619.647,2.648,0.000,0.000,0.000,0.000,0.000,0.000,0.000,17,15,4*5D
$GPGGA,080123.80,3135.6003808,N,12046.8207623,E,4,17,1.4,2.6560,M,8.324,M,00,0004*6E
$GPHPD,0,0.000,129.37,-0.38,-12.94,31.5933397,120.7803460,2.656,13630169.945,24926621.818,2.656,0.000,0.000,0.000,0.000,0.000,0.000,0.000,17,15,4*74
$GPGGA,080124.00,3135.6002751,N,12046.8208957,E,4,17,1.4,2.6572,M,8.324,M,01,0004*62
$GPHPD,0,0.000,129.36,-0.98,-12.94,31.5933379,120.7803483,2.657,13630171.716,24926624.042,2.657,0.000,0.000,0.000,0.000,0.000,0.000,0.000,17,15,4*71
$GPGGA,080124.20,3135.6001767,N,12046.8210268,E,4,17,1.4,2.6592,M,8.324,M,01,0004*66
$GPHPD,0,0.000,128.12,-0.32,-12.91,31.5933363,120.7803504,2.659,13630173.379,24926626.197,2.659,0.000,0.000,0.000,0.000,0.000,0.000,0.000,17,15,4*72
$GPGGA,080124.40,3135.6000793,N,12046.8211617,E,4,16,1.4,2.6512,M,8.324,M,01,0004*6E
$GPHPD,0,0.000,128.89,-0.10,-12.92,31.5933347,120.7803527,2.651,13630175.035,24926628.391,2.651,0.000,0.000,0.000,0.000,0.000,0.000,0.000,16,15,4*72
$GPGGA,080124.60,3135.5999772,N,12046.8212970,E,4,16,1.4,2.6596,M,8.324,M,00,0004*69
$GPHPD,0,0.000,129.41,0.37,-12.94,31.5933330,120.7803550,2.660,13630176.758,24926630.617,2.660,0.000,0.000,0.000,0.000,0.000,0.000,0.000,16,15,4*54
$GPGGA,080124.80,3135.5998820,N,12046.8214303,E,4,16,1.4,2.6595,M,8.324,M,00,0004*65
$GPHPD,0,0.000,130.30,-0.50,-12.94,31.5933314,120.7803572,2.660,13630178.379,24926632.779,2.660,0.000,0.000,0.000,0.000,0.000,0.000,0.000,16,15,4*72
$GPGGA,080125.00,3135.5997854,N,12046.8215611,E,4,16,1.4,2.6564,M,8.324,M,01,0004*68
$GPHPD,0,0.000,130.03,-0.25,-12.95,31.5933298,120.7803594,2.656,13630180.016,24926634.919,2.656,0.000,0.000,0.000,0.000,0.000,0.000,0.000,16,15,4*7F
$GPGGA,080125.20,3135.5996922,N,12046.8217030,E,4,16,1.4,2.6509,M,8.324,M,01,0004*67
$GPHPD,0,0.000,130.82,0.51,-12.94,31.5933282,120.7803617,2.651,13630181.626,24926637.173,2.651,0.000,0.000,0.000,0.000,0.000,0.000,0.000,16,15,4*59
$GPGGA,080125.40,3135.5995826,N,12046.8218304,E,4,15,1.5,2.6468,M,8.324,M,01,0004*68
$GPHPD,0,0.000,131.85,-0.40,-12.91,31.5933264,120.7803638,2.647,13630183.440,24926639.347,2.647,0.000,0.000,0.000,0.000,0.000,0.000,0.000,15,14,4*7B
$GPGGA,080125.60,3135.5994844,N,12046.8219674,E,4,15,1.5,2.6490,M,8.324,M,00,0004*6A
$GPHPD,0,0.000,130.31,0.06,-12.89,31.5933247,120.7803661,2.649,13630185.112,24926641.571,2.649,0.000,0.000,0.000,0.000,0.000,0.000,0.000,15,14,4*56
$GPGGA,080125.80,3135.5993918,N,12046.8221053,E,4,15,1.5,2.6386,M,8.324,M,00,0004*63
$GPHPD,0,0.000,130.64,0.03,-12.87,31.5933232,120.7803684,2.639,13630186.705,24926643.774,2.639,0.000,0.000,0.000,0.000,0.000,0.000,0.000,15,14,4*52
$GPGGA,080126.00,3135.5992949,N,12046.8222416,E,4,15,1.5,2.6256,M,8.324,M,01,0004*66
$GPHPD,0,0.000,130.32,-0.53,-12.88,31.5933216,120.7803707,2.626,13630188.357,24926645.982,2.626,0.000,0.000,0.000,0.000,0.000,0.000,0.000,15,14,4*76
$GPGGA,080126.20,3135.5991906,N,12046.8223740,E,4,15,1.5,2.6467,M,8.324,M,01,0004*69
$GPHPD,0,0.000,130.96,-0.73,-12.91,31.5933198,120.7803729,2.647,13630190.106,24926648.186,2.647,0.000,0.000,0.000,0.000,0.000,0.000,0.000,15,13,4*72
$GPGGA,080126.40,3135.5990907,N,12046.8225078,E,4,15,1.6,2.6345,M,8.324,M,01,0004*61
$GPHPD,0,0.000,130.69,-0.96,-12.91,31.5933182,120.7803751,2.635,13630191.795,24926650.381,2.635,0.000,0.000,0.000,0.000,0.000,0.000,0.000,15,13,4*7C
$GPGGA,080126.60,3135.5989913,N,12046.8226417,E,4,15,1.6,2.6460,M,8.324,M,00,0004*61
$GPHPD,0,0.000,130.96,0.63,-12.94,31.5933165,120.7803774,2.646,13630193.477,24926652.575,2.646,0.000,0.000,0.000,0.000,0.000,0.000,0.000,15,13,4*52
$GPGGA,080126.80,3135.5988921,N,12046.8227700,E,4,15,1.6,2.6462,M,8.324,M,00,0004*69
$GPHPD,0,0.000,131.21,-0.17,-12.96,31.5933149,120.7803795,2.646,13630195.145,24926654.700,2.646,0.000,0.000,0.000,0.000,0.000,0.000,0.000,15,13,4*76
$GPGGA,080127.00,3135.5987915,N,12046.8229062,E,4,14,1.6,2.6475,M,8.324,M,01,0004*63
$GPHPD,0,0.000,130.76,0.30,-13.00,31.5933132,120.7803818,2.648,13630196.849,24926656.928,2.648,0.000,0.000,0.000,0.000,0.000,0.000,0.000,14,13,4*54
$GPGGA,080127.20,3135.5986869,N,12046.8230312,E,4,14,1.6,2.6566,M,8.324,M,01,0004*65
$GPHPD,0,0.000,129.78,0.09,-13.02,31.5933114,120.7803839,2.657,13630198.588,24926659.045,2.657,0.000,0.000,0.000,0.000,0.000,0.000,0.000,14,13,4*5E
$GPGGA,080127.40,3135.5985879,N,12046.8231649,E,4,15,1.6,2.6564,M,8.324,M,01,0004*68
$GPHPD,0,0.000,129.65,-0.81,-13.03,31.5933098,120.7803861,2.656,13630200.264,24926661.234,2.656,0.000,0.000,0.000,0.000,0.000,0.000,0.000,15,14,4*78
$GPGGA,080127.60,3135.5984900,N,12046.8232966,E,4,15,1.6,2.6528,M,8.324,M,00,0004*6C
$GPHPD,0,0.000,129.55,-1.05,-13.03,31.5933082,120.7803883,2.653,13630201.920,24926663.392,2.653,0.000,0.000,0.000,0.000,0.000,0.000,0.000,15,14,4*74
$GPGGA,080127.80,3135.5983953,N,12046.8234314,E,4,15,1.6,2.6502,M,8.324,M,00,0004*62
$GPHPD,0,0.000,129.37,-0.39,-13.03,31.5933066,120.7803905,2.650,13630203.538,24926665.569,2.650,0.000,0.000,0.000,0.000,0.000,0.000,0.000,15,14,4*78
$GPGGA,080128.00,3135.5982941,N,12046.8235638,E,4,15,1.6,2.6509,M,8.324,M,01,0004*67
$GPHPD,0,0.000,129.69,-0.46,-13.02,31.5933049,120.7803927,2.651,13630205.243,24926667.755,2.651,0.000,0.000,0.000,0.000,0.000,0.000,0.000,15,14,4*75
$GPGGA,080128.20,3135.5981961,N,12046.8236971,E,4,15,1.6,2.6602,M,8.324,M,01,0004*6D
$GPHPD,0,0.000,129.28,-0.71,-13.02,31.5933033,120.7803950,2.660,13630206.904,24926669.933,2.660,0.000,0.000,0.000,0.000,0.000,0.000,0.000,15,14,4*72
$GPGGA,080128.40,3135.5980987,N,12046.8238288,E,4,15,1.6,2.6476,M,8.324,M,01,0004*60
$GPHPD,0,0.000,129.20,-1.70,-13.02,31.5933016,120.7803971,2.648,13630208.553,24926672.089,2.648,0.000,0.000,0.000,0.000,0.000,0.000,0.000,15,14,4*7C
$GPGGA,080128.60,3135.5980014,N,12046.8239645,E,4,15,1.6,2.6599,M,8.324,M,00,0004*64
$GPHPD,0,0.000,129.06,-0.76,-13.02,31.5933000,120.7803994,2.660,13630210.209,24926674.292,2.660,0.000,0.000,0.000,0.000,0.000,0.000,0.000,15,13,4*7B
$GPGGA,080128.80,3135.5979050,N,12046.8240939,E,4,15,1.6,2.6501,M,8.324,M,00,0004*67
$GPHPD,0,0.000,128.72,-0.67,-13.02,31.5932984,120.7804016,2.650,13630211.840,24926676.414,2.650,0.000,0.000,0.000,0.000,0.000,0.000,0.000,15,14,4*72
$GPGGA,080129.00,3135.5978086,N,12046.8242280,E,4,14,1.6,2.6524,M,8.324,M,01,0004*68
$GPHPD,0,0.000,128.51,-0.82,-13.01,31.5932968,120.7804038,2.652,13630213.480,24926678.592,2.652,0.000,0.000,0.000,0.000,0.000,0.000,0.000,14,13,4*70
$GPGGA,080129.20,3135.5977161,N,12046.8243628,E,4,15,1.6,2.6568,M,8.324,M,01,0004*63
$GPHPD,0,0.000,128.96,-1.16,-13.00,31.5932953,120.7804060,2.657,13630215.066,24926680.757,2.657,0.000,0.000,0.000,0.000,0.000,0.000,0.000,15,13,4*74
$GPGGA,080129.40,3135.5976219,N,12046.8244975,E,4,15,1.6,2.6365,M,8.324,M,01,0004*63
$GPHPD,0,0.000,129.90,-0.94,-13.00,31.5932937,120.7804083,2.637,13630216.676,24926682.930,2.637,0.000,0.000,0.000,0.000,0.000,0.000,0.000,15,13,4*7E
$GPGGA,080129.60,3135.5975259,N,12046.8246374,E,4,15,1.6,2.6575,M,8.324,M,00,0004*69
$GPHPD,0,0.000,129.39,-0.55,-12.99,31.5932921,120.7804106,2.658,13630218.322,24926685.176,2.658,0.000,0.000,0.000,0.000,0.000,0.000,0.000,15,12,4*7C
$GPGGA,080129.80,3135.5974288,N,12046.8247717,E,4,15,1.6,2.6456,M,8.324,M,00,0004*6A
$GPHPD,0,0.000,129.57,-0.95,-12.99,31.5932905,120.7804129,2.646,13630219.972,24926687.361,2.646,0.000,0.000,0.000,0.000,0.000,0.000,0.000,15,12,4*7B
$GPGGA,080130.00,3135.5973319,N,12046.8249077,E,4,15,1.6,2.6499,M,8.324,M,01,0004*69
$GPHPD,0,0.000,129.50,0.02,-12.99,31.5932889,120.7804151,2.650,13630221.623,24926689.565,2.650,0.000,0.000,0.000,0.000,0.000,0.000,0.000,15,12,4*59
$GPGGA,080130.20,3135.5972440,N,12046.8250406,E,4,15,1.6,2.6307,M,8.324,M,01,0004*6B
$GPHPD,0,0.000,129.56,-0.46,-12.99,31.5932874,120.7804173,2.631,13630223.140,24926691.680,2.631,0.000,0.000,0.000,0.000,0.000,0.000,0.000,15,12,4*71
$GPGGA,080130.40,3135.5971315,N,12046.8251670,E,4,14,1.7,2.6447,M,8.324,M,01,0004*68
$GPHPD,0,0.000,129.56,-1.14,-13.00,31.5932855,120.7804195,2.645,13630224.993,24926693.859,2.645,0.000,0.000,0.000,0.000,0.000,0.000,0.000,14,12,4*75
$GPGGA,080130.60,3135.5970285,N,12046.8253003,E,4,14,1.7,2.6522,M,8.324,M,00,0004*60
$GPHPD,0,0.000,129.60,0.11,-13.00,31.5932838,120.7804217,2.652,13630226.726,24926696.067,2.652,0.000,0.000,0.000,0.000,0.000,0.000,0.000,14,13,4*58
$GPGGA,080130.80,3135.5969318,N,12046.8254351,E,4,14,1.7,2.6720,M,8.324,M,00,0004*60
$GPHPD,0,0.000,129.52,0.04,-13.01,31.5932822,120.7804239,2.672,13630228.371,24926698.256,2.672,0.000,0.000,0.000,0.000,0.000,0.000,0.000,14,13,4*5D
$GPGGA,080131.00,3135.5968308,N,12046.8255662,E,4,14,1.7,2.6747,M,8.324,M,01,0004*6D
$GPHPD,0,0.000,129.42,-0.75,-13.00,31.5932805,120.7804261,2.675,13630230.071,24926700.425,2.675,0.000,0.000,0.000,0.000,0.000,0.000,0.000,14,13,4*76
$GPGGA,080131.20,3135.5967384,N,12046.8257057,E,4,14,1.7,2.6662,M,8.324,M,01,0004*60
$GPHPD,0,0.000,129.36,-0.82,-12.99,31.5932790,120.7804284,2.666,13630231.665,24926702.645,2.666,0.000,0.000,0.000,0.000,0.000,0.000,0.000,14,13,4*70
$GPGGA,080131.40,3135.5966420,N,12046.8258396,E,4,15,1.6,2.6594,M,8.324,M,01,0004*65
$GPHPD,0,0.000,129.66,-0.25,-13.01,31.5932774,120.7804307,2.659,13630233.305,24926704.821,2.659,0.000,0.000,0.000,0.000,0.000,0.000,0.000,15,13,4*72
$GPGGA,080131.60,3135.5965399,N,12046.8259703,E,4,15,1.6,2.6641,M,8.324,M,01,0004*63
$GPHPD,0,0.000,129.27,-0.68,-13.00,31.5932757,120.7804328,2.664,13630235.019,24926706.992,2.664,0.000,0.000,0.000,0.000,0.000,0.000,0.000,15,13,4*70
$GPGGA,080131.80,3135.5964416,N,12046.8261051,E,4,15,1.6,2.6618,M,8.324,M,01,0004*6B
$GPHPD,0,0.000,129.12,-1.03,-13.01,31.5932740,120.7804351,2.662,13630236.687,24926709.190,2.662,0.000,0.000,0.000,0.000,0.000,0.000,0.000,15,13,4*74
$GPGGA,080132.00,3135.5963460,N,12046.8262423,E,4,15,1.6,2.6610,M,8.324,M,02,0004*6F
$GPHPD,0,0.000,129.26,-0.87,-13.00,31.5932724,120.7804374,2.661,13630238.322,24926711.402,2.661,0.000,0.000,0.000,0.000,0.000,0.000,0.000,15,13,4*79
$GPGGA,080132.20,3135.5962489,N,12046.8263827,E,4,15,1.6,2.6545,M,8.324,M,02,0004*61
$GPHPD,0,0.000,129.73,-0.90,-12.98,31.5932708,120.7804397,2.655,13630239.985,24926713.660,2.655,0.000,0.000,0.000,0.000,0.000,0.000,0.000,15,13,4*7E
$GPGGA,080132.40,3135.5961469,N,12046.8265176,E,4,14,2.3,2.6589,M,8.324,M,02,0004*66
$GPHPD,0,0.000,129.66,0.12,-12.94,31.5932691,120.7804420,2.659,13630241.706,24926715.881,2.659,0.000,0.000,0.000,0.000,0.000,0.000,0.000,14,13,4*57
$GPGGA,080132.60,3135.5960492,N,12046.8266555,E,4,15,2.3,2.6635,M,8.324,M,02,0004*62
$GPHPD,0,0.000,129.30,-0.86,-12.90,31.5932675,120.7804443,2.664,13630243.372,24926718.113,2.664,0.000,0.000,0.000,0.000,0.000,0.000,0.000,15,14,4*73
$GPGGA,080132.80,3135.5959488,N,12046.8267902,E,4,15,2.3,2.6445,M,8.324,M,00,0004*65
$GPHPD,0,0.000,129.22,-0.14,-12.87,31.5932658,120.7804465,2.645,13630245.070,24926720.322,2.645,0.000,0.000,0.000,0.000,0.000,0.000,0.000,15,14,4*7A
$GPGGA,080133.00,3135.5958505,N,12046.8269252,E,4,15,2.1,2.6412,M,8.324,M,01,0004*68
$GPHPD,0,0.000,129.06,-0.13,-12.83,31.5932642,120.7804488,2.641,13630246.739,24926722.523,2.641,0.000,0.000,0.000,0.000,0.000,0.000,0.000,15,14,4*7B
$GPGGA,080133.20,3135.5957491,N,12046.8270678,E,4,15,2.1,2.6423,M,8.324,M,01,0004*6F
$GPHPD,0,0.000,128.83,-0.38,-12.80,31.5932625,120.7804511,2.642,13630248.468,24926724.833,2.642,0.000,0.000,0.000,0.000,0.000,0.000,0.000,15,14,4*7E
$GPGGA,080133.40,3135.5956565,N,12046.8272104,E,4,15,2.1,2.6311,M,8.324,M,01,0004*6A
$GPHPD,0,0.000,129.06,-0.74,-12.76,31.5932609,120.7804535,2.631,13630250.071,24926727.092,2.631,0.000,0.000,0.000,0.000,0.000,0.000,0.000,15,14,4*7E
$GPGGA,080133.60,3135.5955498,N,12046.8273440,E,4,15,2.1,2.6519,M,8.324,M,01,0004*62
$GPHPD,0,0.000,128.97,-0.46,-12.74,31.5932592,120.7804557,2.652,13630251.856,24926729.324,2.652,0.000,0.000,0.000,0.000,0.000,0.000,0.000,15,14,4*7D
$GPGGA,080133.80,3135.5954569,N,12046.8274888,E,4,15,2.1,2.6471,M,8.324,M,00,0004*63
$GPHPD,0,0.000,129.13,-0.82,-12.72,31.5932576,120.7804581,2.647,13630253.468,24926731.612,2.647,0.000,0.000,0.000,0.000,0.000,0.000,0.000,15,14,4*75
$GPGGA,080134.00,3135.5953507,N,12046.8276201,E,4,15,2.1,2.6425,M,8.324,M,01,0004*6A
$GPHPD,0,0.000,129.28,-0.75,-12.72,31.5932558,120.7804603,2.643,13630255.242,24926733.813,2.643,0.000,0.000,0.000,0.000,0.000,0.000,0.000,15,14,4*75
$GPGGA,080134.20,3135.5952545,N,12046.8277648,E,4,15,2.3,2.6464,M,8.324,M,01,0004*60
$GPHPD,0,0.000,129.43,-0.97,-12.73,31.5932542,120.7804627,2.646,13630256.900,24926736.119,2.646,0.000,0.000,0.000,0.000,0.000,0.000,0.000,15,14,4*70
$GPGGA,080134.40,3135.5951549,N,12046.8279069,E,4,15,2.3,2.6450,M,8.324,M,01,0004*65
$GPHPD,0,0.000,129.24,-0.79,-12.75,31.5932526,120.7804651,2.645,13630258.602,24926738.412,2.645,0.000,0.000,0.000,0.000,0.000,0.000,0.000,15,14,4*77
$GPGGA,080134.60,3135.5950515,N,12046.8280455,E,4,15,2.3,2.6481,M,8.324,M,00,0004*6F
$GPHPD,0,0.000,128.87,-0.52,-12.77,31.5932509,120.7804674,2.648,13630260.350,24926740.686,2.648,0.000,0.000,0.000,0.000,0.000,0.000,0.000,15,14,4*77
$GPGGA,080134.80,3135.5949512,N,12046.8281848,E,4,15,2.4,2.6444,M,8.324,M,00,0004*61
$GPHPD,0,0.000,128.69,-0.77,-12.79,31.5932492,120.7804697,2.644,13630262.056,24926742.950,2.644,0.000,0.000,0.000,0.000,0.000,0.000,0.000,15,14,4*71
$GPGGA,080135.00,3135.5948509,N,12046.8283289,E,4,15,2.2,2.6558,M,8.324,M,01,0004*6D
$GPHPD,0,0.000,128.66,-0.75,-12.78,31.5932475,120.7804721,2.656,13630263.772,24926745.272,2.656,0.000,0.000,0.000,0.000,0.000,0.000,0.000,15,14,4*74
$GPGGA,080135.20,3135.5947284,N,12046.8284382,E,4,15,2.2,2.6179,M,8.325,M,01,0004*69
$GPHPD,0,0.000,129.24,-1.87,-12.79,31.5932455,120.7804740,2.618,13630265.733,24926747.303,2.618,0.000,0.000,0.000,0.000,0.000,0.000,0.000,15,14,4*7D
$GPGGA,080135.40,3135.5946422,N,12046.8286032,E,4,15,2.3,2.6433,M,8.325,M,01,0004*64
$GPHPD,0,0.000,128.73,-0.31,-12.76,31.5932440,120.7804767,2.643,13630267.290,24926749.795,2.643,0.000,0.000,0.000,0.000,0.000,0.000,0.000,15,14,4*77
$GPGGA,080135.60,3135.5945360,N,12046.8287360,E,4,15,2.3,2.6294,M,8.325,M,01,0004*6A
$GPHPD,0,0.000,129.26,-1.03,-12.72,31.5932423,120.7804789,2.629,13630269.067,24926752.015,2.629,0.000,0.000,0.000,0.000,0.000,0.000,0.000,15,14,4*76
$GPGGA,080135.80,3135.5944350,N,12046.8288783,E,4,15,2.3,2.6466,M,8.325,M,00,0004*6A
$GPHPD,0,0.000,129.53,-0.66,-12.70,31.5932406,120.7804813,2.647,13630270.789,24926754.319,2.647,0.000,0.000,0.000,0.000,0.000,0.000,0.000,15,14,4*79
$GPGGA,080136.00,3135.5943405,N,12046.8290241,E,4,15,2.3,2.6280,M,8.325,M,01,0004*6C
$GPHPD,0,0.000,129.21,-1.00,-12.68,31.5932390,120.7804837,2.628,13630272.426,24926756.628,2.628,0.000,0.000,0.000,0.000,0.000,0.000,0.000,15,14,4*7B
$GPGGA,080136.20,3135.5942347,N,12046.8291624,E,4,15,2.3,2.6393,M,8.325,M,01,0004*6B
$GPHPD,0,0.000,129.59,-1.04,-12.66,31.5932372,120.7804860,2.639,13630274.208,24926758.912,2.639,0.000,0.000,0.000,0.000,0.000,0.000,0.000,15,14,4*74
$GPGGA,080136.40,3135.5941289,N,12046.8292978,E,4,15,2.3,2.6389,M,8.325,M,01,0004*63
$GPHPD,0,0.000,129.82,-0.66,-12.66,31.5932355,120.7804883,2.639,13630275.984,24926761.161,2.639,0.000,0.000,0.000,0.000,0.000,0.000,0.000,15,14,4*77
$GPGGA,080136.60,3135.5940287,N,12046.8294320,E,4,15,2.3,2.6301,M,8.325,M,01,0004*6F
$GPHPD,0,0.000,129.97,-1.86,-12.66,31.5932338,120.7804905,2.630,13630277.678,24926763.363,2.630,0.000,0.000,0.000,0.000,0.000,0.000,0.000,15,14,4*74
$GPGGA,080136.80,3135.5939265,N,12046.8295736,E,4,15,2.3,2.6240,M,8.325,M,01,0004*65
$GPHPD,0,0.000,131.09,-0.02,-12.67,31.5932321,120.7804929,2.624,13630279.416,24926765.666,2.624,0.000,0.000,0.000,0.000,0.000,0.000,0.000,15,14,4*72
$GPGGA,080137.00,3135.5938261,N,12046.8297092,E,4,15,2.3,2.6245,M,8.325,M,02,0004*64
$GPHPD,0,0.000,130.82,-0.48,-12.69,31.5932304,120.7804952,2.625,13630281.116,24926767.886,2.625,0.000,0.000,0.000,0.000,0.000,0.000,0.000,15,14,4*7B
$GPGGA,080137.20,3135.5937230,N,12046.8298461,E,4,15,2.3,2.6264,M,8.325,M,02,0004*69
$GPHPD,0,0.000,131.32,-0.28,-12.70,31.5932287,120.7804974,2.626,13630282.857,24926770.137,2.626,0.000,0.000,0.000,0.000,0.000,0.000,0.000,15,14,4*7B
$GPGGA,080137.40,3135.5936157,N,12046.8299763,E,4,15,2.3,2.6109,M,8.325,M,02,0004*64
$GPHPD,0,0.000,131.17,-0.69,-12.71,31.5932269,120.7804996,2.611,13630284.644,24926772.332,2.611,0.000,0.000,0.000,0.000,0.000,0.000,0.000,15,14,4*7B
$GPGGA,080137.60,3135.5935034,N,12046.8301094,E,4,15,2.3,2.6265,M,8.325,M,02,0004*67
$GPHPD,0,0.000,131.19,0.03,-12.74,31.5932251,120.7805018,2.627,13630286.508,24926774.591,2.627,0.000,0.000,0.000,0.000,0.000,0.000,0.000,15,14,4*54
$GPGGA,080137.80,3135.5934188,N,12046.8302561,E,4,15,2.3,2.6109,M,8.325,M,02,0004*6B
$GPHPD,0,0.000,130.07,-0.71,-12.74,31.5932236,120.7805043,2.611,13630288.006,24926776.853,2.611,0.000,0.000,0.000,0.000,0.000,0.000,0.000,15,14,4*79
$GPGGA,080138.00,3135.5933075,N,12046.8303882,E,4,15,2.3,2.6251,M,8.325,M,03,0004*66
$GPHPD,0,0.000,131.84,-0.72,-12.73,31.5932218,120.7805065,2.625,13630289.854,24926779.094,2.625,0.000,0.000,0.000,0.000,0.000,0.000,0.000,15,14,4*7D
$GPGGA,080138.20,3135.5932030,N,12046.8305249,E,4,15,2.3,2.6240,M,8.325,M,03,0004*6F
$GPHPD,0,0.000,131.42,-0.63,-12.73,31.5932201,120.7805087,2.624,13630291.614,24926781.351,2.624,0.000,0.000,0.000,0.000,0.000,0.000,0.000,15,14,4*7D
$GPGGA,080138.40,3135.5930948,N,12046.8306494,E,4,15,2.2,2.6085,M,8.325,M,03,0004*62
$GPHPD,0,0.000,131.23,-0.73,-12.72,31.5932182,120.7805108,2.609,13630293.402,24926783.483,2.609,0.000,0.000,0.000,0.000,0.000,0.000,0.000,15,14,4*79
$GPGGA,080138.60,3135.5930066,N,12046.8308040,E,4,15,2.2,2.6282,M,8.325,M,03,0004*63
$GPHPD,0,0.000,130.73,-0.38,-12.70,31.5932168,120.7805134,2.628,13630294.967,24926785.861,2.628,0.000,0.000,0.000,0.000,0.000,0.000,0.000,15,14,4*74
$GPGGA,080138.80,3135.5929019,N,12046.8309251,E,4,15,2.2,2.6114,M,8.325,M,03,0004*62
$GPHPD,0,0.000,131.88,-0.87,-12.69,31.5932150,120.7805154,2.611,13630296.699,24926787.931,2.611,0.000,0.000,0.000,0.000,0.000,0.000,0.000,15,14,4*7A
$GPGGA,080139.00,3135.5927961,N,12046.8310686,E,4,15,2.2,2.6052,M,8.325,M,04,0004*61
$GPHPD,0,0.000,131.22,-0.78,-12.68,31.5932133,120.7805178,2.605,13630298.492,24926790.278,2.605,0.000,0.000,0.000,0.000,0.000,0.000,0.000,15,14,4*77
$GPGGA,080139.20,3135.5926862,N,12046.8311974,E,4,15,2.2,2.6203,M,8.325,M,04,0004*65
$GPHPD,0,0.000,131.34,-0.32,-12.68,31.5932114,120.7805200,2.620,13630300.313,24926792.471,2.620,0.000,0.000,0.000,0.000,0.000,0.000,0.000,15,14,4*74
$GPGGA,080139.40,3135.5925926,N,12046.8313360,E,4,15,2.2,2.6068,M,8.325,M,04,0004*63
$GPHPD,0,0.000,130.83,-1.50,-12.68,31.5932099,120.7805223,2.607,13630301.922,24926794.688,2.607,0.000,0.000,0.000,0.000,0.000,0.000,0.000,15,14,4*72
$GPGGA,080139.60,3135.5924912,N,12046.8314694,E,4,15,2.0,2.6137,M,8.325,M,04,0004*67
$GPHPD,0,0.000,131.17,-0.16,-12.66,31.5932082,120.7805245,2.614,13630303.632,24926796.887,2.614,0.000,0.000,0.000,0.000,0.000,0.000,0.000,15,14,4*76
$GPGGA,080139.80,3135.5923873,N,12046.8316034,E,4,15,2.0,2.6286,M,8.325,M,04,0004*6F
$GPHPD,0,0.000,131.65,-0.31,-12.67,31.5932065,120.7805267,2.629,13630305.378,24926799.108,2.629,0.000,0.000,0.000,0.000,0.000,0.000,0.000,15,14,4*72
$GPGGA,080140.00,3135.5922736,N,12046.8317188,E,4,15,2.1,2.6069,M,8.325,M,05,0004*62
$GPHPD,0,0.000,131.51,-1.47,-12.68,31.5932046,120.7805286,2.607,13630307.227,24926801.162,2.607,0.000,0.000,0.000,0.000,0.000,0.000,0.000,15,14,5*7E
$GPGGA,080140.20,3135.5921705,N,12046.8318520,E,4,15,2.1,2.6182,M,8.325,M,05,0004*6E
$GPHPD,0,0.000,131.64,-0.19,-12.67,31.5932028,120.7805309,2.618,13630308.960,24926803.369,2.618,0.000,0.000,0.000,0.000,0.000,0.000,0.000,15,14,5*7F
$GPGGA,080140.40,3135.5920685,N,12046.8319847,E,4,15,2.1,2.6128,M,8.325,M,05,0004*6D
$GPHPD,0,0.000,130.68,-1.46,-12.67,31.5932011,120.7805331,2.613,13630310.677,24926805.563,2.613,0.000,0.000,0.000,0.000,0.000,0.000,0.000,15,14,5*72
$GPGGA,080140.60,3135.5919708,N,12046.8321173,E,4,14,2.1,2.5894,M,8.325,M,05,0004*68
$GPHPD,0,0.000,131.02,-1.74,-12.65,31.5931995,120.7805353,2.589,13630312.333,24926807.731,2.589,0.000,0.000,0.000,0.000,0.000,0.000,0.000,14,13,5*78
$GPGGA,080140.80,3135.5918747,N,12046.8322526,E,4,14,2.1,2.5990,M,8.325,M,00,0004*6B
$GPHPD,0,0.000,131.22,0.04,-12.67,31.5931979,120.7805375,2.599,13630313.971,24926809.922,2.599,0.000,0.000,0.000,0.000,0.000,0.000,0.000,14,13,4*5B
$GPGGA,080141.00,3135.5917696,N,12046.8323819,E,4,14,2.1,2.5888,M,8.325,M,01,0004*69
$GPHPD,0,0.000,130.92,-1.02,-12.65,31.5931962,120.7805397,2.589,13630315.725,24926812.094,2.589,0.000,0.000,0.000,0.000,0.000,0.000,0.000,14,13,4*78
$GPGGA,080141.20,3135.5916680,N,12046.8325178,E,4,14,2.1,2.5943,M,8.325,M,01,0004*63
$GPHPD,0,0.000,130.39,-0.44,-12.61,31.5931945,120.7805420,2.594,13630317.443,24926814.324,2.594,0.000,0.000,0.000,0.000,0.000,0.000,0.000,14,13,4*7F
$GPGGA,080141.40,3135.5915720,N,12046.8326521,E,4,14,2.1,2.5869,M,8.325,M,01,0004*6F
$GPHPD,0,0.000,130.26,-1.53,-12.58,31.5931929,120.7805442,2.587,13630319.077,24926816.503,2.587,0.000,0.000,0.000,0.000,0.000,0.000,0.000,14,13,4*7E
$GPGGA,080141.60,3135.5914716,N,12046.8327841,E,4,14,2.1,2.5786,M,8.325,M,01,0004*6D
$GPHPD,0,0.000,130.60,-0.88,-12.58,31.5931912,120.7805464,2.579,13630320.770,24926818.680,2.579,0.000,0.000,0.000,0.000,0.000,0.000,0.000,14,13,4*7B
$GPGGA,080141.80,3135.5913646,N,12046.8329134,E,4,14,2.2,2.5852,M,8.325,M,01,0004*60
$GPHPD,0,0.000,130.22,-0.88,-12.57,31.5931894,120.7805486,2.585,13630322.551,24926820.862,2.585,0.000,0.000,0.000,0.000,0.000,0.000,0.000,14,13,4*7B
$GPGGA,080142.00,3135.5912677,N,12046.8330482,E,4,14,2.2,2.6021,M,8.325,M,02,0004*64
$GPHPD,0,0.000,130.33,-0.46,-12.54,31.5931878,120.7805508,2.602,13630324.200,24926823.052,2.602,0.000,0.000,0.000,0.000,0.000,0.000,0.000,14,13,4*72
$GPGGA,080142.20,3135.5911679,N,12046.8331803,E,4,14,2.2,2.5901,M,8.325,M,02,0004*67
$GPHPD,0,0.000,130.65,-1.43,-12.55,31.5931861,120.7805530,2.590,13630325.884,24926825.226,2.590,0.000,0.000,0.000,0.000,0.000,0.000,0.000,14,13,4*77
$GPGGA,080142.40,3135.5910655,N,12046.8333141,E,4,14,2.2,2.6092,M,8.325,M,02,0004*63
$GPHPD,0,0.000,130.13,-1.05,-12.55,31.5931844,120.7805552,2.609,13630327.609,24926827.436,2.609,0.000,0.000,0.000,0.000,0.000,0.000,0.000,14,13,4*7B
$GPGGA,080142.60,3135.5909637,N,12046.8334411,E,4,14,2.2,2.5951,M,8.325,M,02,0004*6F
$GPHPD,0,0.000,129.81,-0.72,-12.56,31.5931827,120.7805574,2.595,13630329.311,24926829.561,2.595,0.000,0.000,0.000,0.000,0.000,0.000,0.000,14,13,4*74
$GPGGA,080142.80,3135.5908689,N,12046.8335731,E,4,14,2.2,2.5869,M,8.325,M,02,0004*6F
$GPHPD,0,0.000,129.69,-0.55,-12.58,31.5931811,120.7805596,2.587,13630330.924,24926831.705,2.587,0.000,0.000,0.000,0.000,0.000,0.000,0.000,14,13,4*7D
$GPGGA,080143.00,3135.5907664,N,12046.8337134,E,4,14,2.2,2.6038,M,8.325,M,03,0004*65
$GPHPD,0,0.000,129.47,-0.34,-12.57,31.5931794,120.7805619,2.604,13630332.664,24926833.993,2.604,0.000,0.000,0.000,0.000,0.000,0.000,0.000,14,13,4*75
$GPGGA,080143.20,3135.5906678,N,12046.8338429,E,4,14,2.2,2.5986,M,8.325,M,03,0004*62
$GPHPD,0,0.000,129.36,-0.69,-12.57,31.5931778,120.7805640,2.599,13630334.326,24926836.129,2.599,0.000,0.000,0.000,0.000,0.000,0.000,0.000,14,13,4*7C
$GPGGA,080143.40,3135.5905731,N,12046.8339811,E,4,15,2.2,2.6079,M,8.325,M,03,0004*66
$GPHPD,0,0.000,129.58,-1.20,-12.57,31.5931762,120.7805664,2.608,13630335.950,24926838.347,2.608,0.000,0.000,0.000,0.000,0.000,0.000,0.000,15,14,4*7D
$GPGGA,080143.60,3135.5904742,N,12046.8341113,E,4,15,2.2,2.6014,M,8.325,M,03,0004*6E
$GPHPD,0,0.000,130.84,-1.65,-12.57,31.5931746,120.7805685,2.601,13630337.618,24926840.494,2.601,0.000,0.000,0.000,0.000,0.000,0.000,0.000,15,13,4*7C
$GPGGA,080143.80,3135.5903792,N,12046.8342427,E,4,15,2.2,2.5907,M,8.325,M,03,0004*63
