$GPGGA,081024.00,3135.4362357,N,12046.4281454,E,4,16,1.5,2.3593,M,8.300,M,01,0004*68
$GPHPD,0,0.000,237.94,-1.12,-11.56,31.5906039,120.7738024,2.359,13631712.936,24922843.074,2.359,0.000,0.000,0.000,0.000,0.000,0.000,0.000,16,17,4*77
$GPGGA,081024.20,3135.4362093,N,12046.4280994,E,4,16,1.5,2.3594,M,8.300,M,01,0004*66
$GPHPD,0,0.000,237.98,-1.67,-11.60,31.5906035,120.7738017,2.359,13631713.219,24922842.673,2.359,0.000,0.000,0.000,0.000,0.000,0.000,0.000,16,17,4*77
$GPGGA,081024.40,3135.4361841,N,12046.4280552,E,4,16,1.5,2.3581,M,8.300,M,01,0004*66
$GPHPD,0,0.000,238.11,-1.63,-11.65,31.5906031,120.7738009,2.358,13631713.488,24922842.287,2.358,0.000,0.000,0.000,0.000,0.000,0.000,0.000,16,17,4*72
$GPGGA,081024.60,3135.4361608,N,12046.4280111,E,4,16,1.5,2.3639,M,8.300,M,00,0004*65
$GPHPD,0,0.000,238.16,-1.36,-11.74,31.5906027,120.7738002,2.364,13631713.730,24922841.890,2.364,0.000,0.000,0.000,0.000,0.000,0.000,0.000,16,17,4*76
$GPGGA,081024.80,3135.4361372,N,12046.4279636,E,4,16,1.5,2.3645,M,8.300,M,00,0004*6C
$GPHPD,0,0.000,238.16,-1.38,-11.91,31.5906023,120.7737994,2.365,13631713.970,24922841.455,2.365,0.000,0.000,0.000,0.000,0.000,0.000,0.000,16,17,4*71
$GPGGA,081025.00,3135.4361079,N,12046.4279128,E,4,16,1.5,2.3641,M,8.300,M,01,0004*60
$GPHPD,0,0.000,238.12,-1.92,-12.19,31.5906018,120.7737985,2.364,13631714.284,24922841.013,2.364,0.000,0.000,0.000,0.000,0.000,0.000,0.000,16,17,4*7F
$GPGGA,081025.20,3135.4360759,N,12046.4278455,E,4,16,1.5,2.3610,M,8.300,M,01,0004*6C
$GPHPD,0,0.000,238.27,-1.87,-12.39,31.5906013,120.7737974,2.361,13631714.604,24922840.388,2.361,0.000,0.000,0.000,0.000,0.000,0.000,0.000,16,17,4*76
$GPGGA,081025.40,3135.4360349,N,12046.4277677,E,4,16,1.5,2.3543,M,8.300,M,01,0004*67
$GPHPD,0,0.000,238.30,-1.96,-12.55,31.5906006,120.7737961,2.354,13631715.030,24922839.688,2.354,0.000,0.000,0.000,0.000,0.000,0.000,0.000,16,17,4*71
$GPGGA,081025.60,3135.4359915,N,12046.4276794,E,4,16,1.5,2.3497,M,8.300,M,00,0004*68
$GPHPD,0,0.000,238.29,-1.64,-12.75,31.5905999,120.7737947,2.350,13631715.469,24922838.876,2.350,0.000,0.000,0.000,0.000,0.000,0.000,0.000,16,17,4*78
$GPGGA,081025.80,3135.4359401,N,12046.4275760,E,4,16,1.5,2.3397,M,8.300,M,00,0004*61
$GPHPD,0,0.000,238.27,-1.21,-12.91,31.5905990,120.7737929,2.340,13631715.991,24922837.928,2.340,0.000,0.000,0.000,0.000,0.000,0.000,0.000,16,17,4*73
$GPGGA,081026.00,3135.4358863,N,12046.4274637,E,4,16,1.5,2.3339,M,8.300,M,01,0004*64
$GPHPD,0,0.000,238.57,-0.45,-12.91,31.5905981,120.7737911,2.334,13631716.530,24922836.887,2.334,0.000,0.000,0.000,0.000,0.000,0.000,0.000,16,17,4*7D
$GPGGA,081026.20,3135.4358290,N,12046.4273448,E,4,16,1.5,2.3390,M,8.300,M,01,0004*6E
$GPHPD,0,0.000,239.13,-0.35,-12.89,31.5905972,120.7737891,2.339,13631717.105,24922835.787,2.339,0.000,0.000,0.000,0.000,0.000,0.000,0.000,16,17,4*78
$GPGGA,081026.40,3135.4357771,N,12046.4272226,E,4,16,1.5,2.3125,M,8.300,M,01,0004*6E
$GPHPD,0,0.000,239.53,-0.67,-12.92,31.5905963,120.7737870,2.313,13631717.597,24922834.616,2.313,0.000,0.000,0.000,0.000,0.000,0.000,0.000,16,17,4*79
$GPGGA,081026.60,3135.4357199,N,12046.4271026,E,4,16,1.5,2.3224,M,8.300,M,00,0004*6E
$GPHPD,0,0.000,239.87,0.10,-12.91,31.5905953,120.7737850,2.322,13631718.168,24922833.502,2.322,0.000,0.000,0.000,0.000,0.000,0.000,0.000,16,17,4*55
$GPGGA,081026.80,3135.4356634,N,12046.4269836,E,4,16,1.5,2.3119,M,8.300,M,00,0004*6C
$GPHPD,0,0.000,240.66,-0.50,-12.87,31.5905944,120.7737831,2.312,13631718.731,24922832.395,2.312,0.000,0.000,0.000,0.000,0.000,0.000,0.000,16,17,4*78
$GPGGA,081027.00,3135.4356093,N,12046.4268646,E,4,16,1.5,2.3183,M,8.300,M,01,0004*64
$GPHPD,0,0.000,241.37,-0.19,-12.91,31.5905935,120.7737811,2.318,13631719.261,24922831.275,2.318,0.000,0.000,0.000,0.000,0.000,0.000,0.000,16,17,4*7E
$GPGGA,081027.20,3135.4355591,N,12046.4267433,E,4,16,1.5,2.3243,M,8.300,M,01,0004*62
$GPHPD,0,0.000,242.07,0.08,-12.92,31.5905927,120.7737791,2.324,13631719.730,24922830.105,2.324,0.000,0.000,0.000,0.000,0.000,0.000,0.000,16,17,4*50
$GPGGA,081027.40,3135.4355060,N,12046.4266181,E,4,16,1.5,2.3299,M,8.300,M,01,0004*65
$GPHPD,0,0.000,242.63,-0.09,-12.90,31.5905918,120.7737770,2.330,13631720.233,24922828.904,2.330,0.000,0.000,0.000,0.000,0.000,0.000,0.000,16,17,4*73
$GPGGA,081027.60,3135.4354570,N,12046.4264942,E,4,16,1.5,2.3302,M,8.300,M,00,0004*65
$GPHPD,0,0.000,243.27,-0.66,-12.85,31.5905910,120.7737749,2.330,13631720.680,24922827.695,2.330,0.000,0.000,0.000,0.000,0.000,0.000,0.000,16,17,4*79
$GPGGA,081027.80,3135.4354076,N,12046.4263725,E,4,16,1.5,2.3306,M,8.300,M,00,0004*64
$GPHPD,0,0.000,243.86,-0.46,-12.77,31.5905901,120.7737729,2.331,13631721.137,24922826.515,2.331,0.000,0.000,0.000,0.000,0.000,0.000,0.000,16,17,4*7B
$GPGGA,081028.00,3135.4353635,N,12046.4262562,E,4,16,1.5,2.3298,M,8.300,M,01,0004*62
$GPHPD,0,0.000,244.27,-0.13,-12.68,31.5905894,120.7737709,2.330,13631721.530,24922825.370,2.330,0.000,0.000,0.000,0.000,0.000,0.000,0.000,16,17,4*73
$GPGGA,081028.20,3135.4353214,N,12046.4261484,E,4,16,1.5,2.3218,M,8.300,M,01,0004*65
$GPHPD,0,0.000,244.63,-0.03,-12.63,31.5905887,120.7737691,2.322,13631721.911,24922824.315,2.322,0.000,0.000,0.000,0.000,0.000,0.000,0.000,16,17,4*76
$GPGGA,081028.40,3135.4352815,N,12046.4260426,E,4,16,1.5,2.3290,M,8.300,M,01,0004*60
$GPHPD,0,0.000,244.97,-0.23,-12.61,31.5905880,120.7737674,2.329,13631722.265,24922823.271,2.329,0.000,0.000,0.000,0.000,0.000,0.000,0.000,16,17,4*7E
$GPGGA,081028.60,3135.4352429,N,12046.4259399,E,4,16,1.5,2.3236,M,8.300,M,00,0004*65
$GPHPD,0,0.000,245.05,-0.32,-12.59,31.5905874,120.7737657,2.324,13631722.607,24922822.258,2.324,0.000,0.000,0.000,0.000,0.000,0.000,0.000,16,17,4*7F
$GPGGA,081028.80,3135.4352041,N,12046.4258417,E,4,16,1.5,2.3296,M,8.300,M,00,0004*6B
$GPHPD,0,0.000,245.03,-0.16,-12.55,31.5905867,120.7737640,2.330,13631722.961,24922821.299,2.330,0.000,0.000,0.000,0.000,0.000,0.000,0.000,16,17,4*76
$GPGGA,081029.00,3135.4351677,N,12046.4257454,E,4,16,1.5,2.3267,M,8.300,M,01,0004*65
$GPHPD,0,0.000,245.20,-0.33,-12.52,31.5905861,120.7737624,2.327,13631723.284,24922820.350,2.327,0.000,0.000,0.000,0.000,0.000,0.000,0.000,16,17,4*77
$GPGGA,081029.20,3135.4351307,N,12046.4256467,E,4,16,1.5,2.3226,M,8.300,M,01,0004*61
$GPHPD,0,0.000,245.36,-0.34,-12.52,31.5905855,120.7737608,2.323,13631723.611,24922819.375,2.323,0.000,0.000,0.000,0.000,0.000,0.000,0.000,16,17,4*7B
$GPGGA,081029.40,3135.4350927,N,12046.4255539,E,4,16,1.5,2.3269,M,8.300,M,01,0004*6C
$GPHPD,0,0.000,245.42,-0.03,-12.53,31.5905849,120.7737592,2.327,13631723.965,24922818.477,2.327,0.000,0.000,0.000,0.000,0.000,0.000,0.000,16,17,4*78
$GPGGA,081029.60,3135.4350573,N,12046.4254630,E,4,16,1.5,2.3351,M,8.300,M,00,0004*63
$GPHPD,0,0.000,245.52,-0.24,-12.54,31.5905843,120.7737577,2.335,13631724.285,24922817.587,2.335,0.000,0.000,0.000,0.000,0.000,0.000,0.000,16,17,4*79
$GPGGA,081029.80,3135.4350246,N,12046.4253726,E,4,16,1.5,2.3355,M,8.300,M,00,0004*69
$GPHPD,0,0.000,245.91,-1.13,-12.53,31.5905837,120.7737562,2.336,13631724.567,24922816.688,2.336,0.000,0.000,0.000,0.000,0.000,0.000,0.000,16,17,4*75
$GPGGA,081030.00,3135.4349940,N,12046.4252821,E,4,16,1.5,2.3219,M,8.300,M,01,0004*6D
$GPHPD,0,0.000,245.83,-0.82,-12.49,31.5905832,120.7737547,2.322,13631724.820,24922815.774,2.322,0.000,0.000,0.000,0.000,0.000,0.000,0.000,16,17,4*79
$GPGGA,081030.20,3135.4349616,N,12046.4251967,E,4,16,1.5,2.3193,M,8.300,M,01,0004*62
$GPHPD,0,0.000,245.76,-0.25,-12.45,31.5905827,120.7737533,2.319,13631725.109,24922814.933,2.319,0.000,0.000,0.000,0.000,0.000,0.000,0.000,16,17,4*7A
$GPGGA,081030.40,3135.4349282,N,12046.4251124,E,4,16,1.5,2.3294,M,8.300,M,01,0004*66
$GPHPD,0,0.000,245.82,-0.16,-12.41,31.5905821,120.7737519,2.329,13631725.414,24922814.111,2.329,0.000,0.000,0.000,0.000,0.000,0.000,0.000,16,17,4*7A
$GPGGA,081030.60,3135.4348979,N,12046.4250274,E,4,16,1.5,2.3286,M,8.300,M,00,0004*6F
$GPHPD,0,0.000,246.12,-0.84,-12.39,31.5905816,120.7737505,2.329,13631725.673,24922813.263,2.329,0.000,0.000,0.000,0.000,0.000,0.000,0.000,16,17,4*7F
$GPGGA,081030.80,3135.4348657,N,12046.4249426,E,4,16,1.5,2.3449,M,8.300,M,00,0004*6E
$GPHPD,0,0.000,246.22,-0.90,-12.37,31.5905811,120.7737490,2.345,13631725.960,24922812.427,2.345,0.000,0.000,0.000,0.000,0.000,0.000,0.000,16,17,4*77
$GPGGA,081031.00,3135.4348347,N,12046.4248534,E,4,16,1.5,2.3283,M,8.300,M,01,0004*61
$GPHPD,0,0.000,246.26,-1.19,-12.35,31.5905806,120.7737476,2.328,13631726.221,24922811.532,2.328,0.000,0.000,0.000,0.000,0.000,0.000,0.000,16,17,4*74
$GPGGA,081031.20,3135.4348045,N,12046.4247708,E,4,16,1.5,2.3293,M,8.300,M,01,0004*61
$GPHPD,0,0.000,246.31,-0.52,-12.33,31.5905801,120.7737462,2.329,13631726.484,24922810.712,2.329,0.000,0.000,0.000,0.000,0.000,0.000,0.000,16,17,4*70
$GPGGA,081031.40,3135.4347745,N,12046.4246852,E,4,16,1.5,2.3300,M,8.300,M,01,0004*65
$GPHPD,0,0.000,246.55,-0.76,-12.33,31.5905796,120.7737448,2.330,13631726.738,24922809.854,2.330,0.000,0.000,0.000,0.000,0.000,0.000,0.000,16,17,4*7C
$GPGGA,081031.60,3135.4347486,N,12046.4246049,E,4,16,1.5,2.3189,M,8.300,M,00,0004*6B
$GPHPD,0,0.000,246.81,-0.56,-12.35,31.5905791,120.7737434,2.319,13631726.945,24922809.037,2.319,0.000,0.000,0.000,0.000,0.000,0.000,0.000,16,17,4*74
$GPGGA,081031.80,3135.4347220,N,12046.4245242,E,4,17,1.5,2.3174,M,8.300,M,00,0004*66
$GPHPD,0,0.000,247.20,-0.58,-12.37,31.5905787,120.7737421,2.317,13631727.160,24922808.219,2.317,0.000,0.000,0.000,0.000,0.000,0.000,0.000,17,17,4*71
$GPGGA,081032.00,3135.4346963,N,12046.4244446,E,4,17,1.5,2.3193,M,8.300,M,01,0004*6B
$GPHPD,0,0.000,247.60,-0.28,-12.40,31.5905783,120.7737407,2.319,13631727.365,24922807.408,2.319,0.000,0.000,0.000,0.000,0.000,0.000,0.000,17,17,4*7C
$GPGGA,081032.20,3135.4346721,N,12046.4243640,E,4,17,1.5,2.3208,M,8.300,M,01,0004*63
$GPHPD,0,0.000,248.02,-0.22,-12.40,31.5905779,120.7737394,2.321,13631727.547,24922806.577,2.321,0.000,0.000,0.000,0.000,0.000,0.000,0.000,17,17,4*7B
$GPGGA,081032.40,3135.4346510,N,12046.4242846,E,4,17,1.5,2.3088,M,8.300,M,01,0004*66
$GPHPD,0,0.000,248.73,-0.84,-12.36,31.5905775,120.7737381,2.309,13631727.687,24922805.743,2.309,0.000,0.000,0.000,0.000,0.000,0.000,0.000,17,17,4*71
$GPGGA,081032.60,3135.4346277,N,12046.4242109,E,4,17,1.5,2.3141,M,8.300,M,00,0004*65
$GPHPD,0,0.000,249.19,-0.21,-12.30,31.5905771,120.7737368,2.314,13631727.870,24922804.990,2.314,0.000,0.000,0.000,0.000,0.000,0.000,0.000,17,17,4*71
$GPGGA,081032.80,3135.4346087,N,12046.4241440,E,4,17,1.5,2.3199,M,8.300,M,00,0004*68
$GPHPD,0,0.000,249.84,-0.13,-12.25,31.5905768,120.7737357,2.320,13631728.005,24922804.294,2.320,0.000,0.000,0.000,0.000,0.000,0.000,0.000,17,17,4*7E
$GPGGA,081033.00,3135.4345923,N,12046.4240801,E,4,17,1.5,2.3155,M,8.300,M,01,0004*6C
$GPHPD,0,0.000,250.40,-0.59,-12.23,31.5905765,120.7737347,2.316,13631728.110,24922803.619,2.316,0.000,0.000,0.000,0.000,0.000,0.000,0.000,17,17,4*79
$GPGGA,081033.20,3135.4345747,N,12046.4240201,E,4,17,1.5,2.3133,M,8.300,M,01,0004*68
$GPHPD,0,0.000,250.81,-0.34,-12.22,31.5905762,120.7737337,2.313,13631728.239,24922802.997,2.313,0.000,0.000,0.000,0.000,0.000,0.000,0.000,17,17,4*7E
$GPGGA,081033.40,3135.4345593,N,12046.4239577,E,4,17,1.5,2.3154,M,8.300,M,01,0004*6C
$GPHPD,0,0.000,251.36,-0.31,-12.18,31.5905760,120.7737326,2.315,13631728.332,24922802.335,2.315,0.000,0.000,0.000,0.000,0.000,0.000,0.000,17,17,4*75
$GPGGA,081033.60,3135.4345432,N,12046.4239048,E,4,17,1.5,2.3148,M,8.300,M,00,0004*61
$GPHPD,0,0.000,251.71,-0.21,-12.15,31.5905757,120.7737317,2.315,13631728.455,24922801.791,2.315,0.000,0.000,0.000,0.000,0.000,0.000,0.000,17,17,4*73
$GPGGA,081033.80,3135.4345298,N,12046.4238493,E,4,17,1.5,2.3245,M,8.300,M,00,0004*64
$GPHPD,0,0.000,252.28,-0.55,-12.14,31.5905755,120.7737308,2.325,13631728.533,24922801.199,2.325,0.000,0.000,0.000,0.000,0.000,0.000,0.000,17,17,4*7D
$GPGGA,081034.00,3135.4345167,N,12046.4237943,E,4,17,1.5,2.3190,M,8.300,M,01,0004*6D
$GPHPD,0,0.000,252.70,-0.63,-12.14,31.5905753,120.7737299,2.319,13631728.609,24922800.612,2.319,0.000,0.000,0.000,0.000,0.000,0.000,0.000,17,17,4*75
$GPGGA,081034.20,3135.4345032,N,12046.4237421,E,4,17,1.5,2.3156,M,8.300,M,01,0004*6D
$GPHPD,0,0.000,252.93,-0.38,-12.15,31.5905751,120.7737290,2.316,13631728.696,24922800.061,2.316,0.000,0.000,0.000,0.000,0.000,0.000,0.000,17,17,4*78
$GPGGA,081034.40,3135.4344908,N,12046.4236912,E,4,17,1.5,2.3173,M,8.300,M,01,0004*61
$GPHPD,0,0.000,253.37,-0.53,-12.17,31.5905748,120.7737282,2.317,13631728.769,24922799.520,2.317,0.000,0.000,0.000,0.000,0.000,0.000,0.000,17,17,4*7D
$GPGGA,081034.60,3135.4344789,N,12046.4236363,E,4,17,1.5,2.3117,M,8.300,M,00,0004*6B
$GPHPD,0,0.000,253.69,-0.42,-12.22,31.5905746,120.7737273,2.312,13631728.828,24922798.927,2.312,0.000,0.000,0.000,0.000,0.000,0.000,0.000,17,17,4*70
$GPGGA,081034.80,3135.4344663,N,12046.4235779,E,4,17,1.5,2.3164,M,8.300,M,00,0004*68
$GPHPD,0,0.000,254.08,-0.35,-12.30,31.5905744,120.7737263,2.316,13631728.890,24922798.296,2.316,0.000,0.000,0.000,0.000,0.000,0.000,0.000,17,17,4*72
$GPGGA,081035.00,3135.4344525,N,12046.4235119,E,4,17,1.5,2.3189,M,8.300,M,01,0004*62
$GPHPD,0,0.000,254.36,-0.47,-12.39,31.5905742,120.7737252,2.319,13631728.953,24922797.581,2.319,0.000,0.000,0.000,0.000,0.000,0.000,0.000,17,17,4*77
$GPGGA,081035.20,3135.4344381,N,12046.4234426,E,4,17,1.5,2.3217,M,8.300,M,01,0004*64
$GPHPD,0,0.000,254.66,-0.33,-12.46,31.5905740,120.7737240,2.322,13631729.018,24922796.829,2.322,0.000,0.000,0.000,0.000,0.000,0.000,0.000,17,17,4*71
$GPGGA,081035.40,3135.4344217,N,12046.4233696,E,4,17,1.5,2.3163,M,8.300,M,01,0004*62
$GPHPD,0,0.000,255.10,-0.50,-12.53,31.5905737,120.7737228,2.316,13631729.104,24922796.044,2.316,0.000,0.000,0.000,0.000,0.000,0.000,0.000,17,17,4*71
$GPGGA,081035.60,3135.4344065,N,12046.4232906,E,4,17,1.5,2.3210,M,8.300,M,00,0004*66
$GPHPD,0,0.000,255.56,-0.54,-12.58,31.5905734,120.7737215,2.321,13631729.161,24922795.180,2.321,0.000,0.000,0.000,0.000,0.000,0.000,0.000,17,17,4*78
$GPGGA,081035.80,3135.4343928,N,12046.4232066,E,4,17,1.5,2.3108,M,8.300,M,00,0004*6A
$GPHPD,0,0.000,255.84,-0.76,-12.54,31.5905732,120.7737201,2.311,13631729.187,24922794.247,2.311,0.000,0.000,0.000,0.000,0.000,0.000,0.000,17,17,4*79
$GPGGA,081036.00,3135.4343792,N,12046.4231331,E,4,17,1.5,2.3130,M,8.300,M,01,0004*66
$GPHPD,0,0.000,256.20,-0.62,-12.41,31.5905730,120.7737189,2.313,13631729.232,24922793.440,2.313,0.000,0.000,0.000,0.000,0.000,0.000,0.000,17,17,4*7F
$GPGGA,081036.20,3135.4343677,N,12046.4230650,E,4,17,1.5,2.3085,M,8.300,M,01,0004*62
$GPHPD,0,0.000,256.53,-0.65,-12.36,31.5905728,120.7737178,2.309,13631729.258,24922792.686,2.309,0.000,0.000,0.000,0.000,0.000,0.000,0.000,17,17,4*7E
$GPGGA,081036.40,3135.4343563,N,12046.4229998,E,4,17,1.5,2.3116,M,8.300,M,01,0004*6A
$GPHPD,0,0.000,256.82,-0.66,-12.35,31.5905726,120.7737167,2.312,13631729.289,24922791.966,2.312,0.000,0.000,0.000,0.000,0.000,0.000,0.000,17,17,4*7C
$GPGGA,081036.60,3135.4343456,N,12046.4229348,E,4,17,1.5,2.3171,M,8.300,M,00,0004*68
$GPHPD,0,0.000,257.07,-0.75,-12.34,31.5905724,120.7737156,2.317,13631729.310,24922791.244,2.317,0.000,0.000,0.000,0.000,0.000,0.000,0.000,17,17,4*79
$GPGGA,081036.80,3135.4343350,N,12046.4228703,E,4,17,1.5,2.3100,M,8.300,M,00,0004*6B
$GPHPD,0,0.000,257.54,-1.16,-12.33,31.5905723,120.7737145,2.310,13631729.331,24922790.528,2.310,0.000,0.000,0.000,0.000,0.000,0.000,0.000,17,17,4*76
$GPGGA,081037.00,3135.4343279,N,12046.4228094,E,4,17,1.5,2.3045,M,8.300,M,01,0004*60
$GPHPD,0,0.000,257.79,-1.06,-12.34,31.5905721,120.7737135,2.305,13631729.310,24922789.835,2.305,0.000,0.000,0.000,0.000,0.000,0.000,0.000,17,17,4*70
$GPGGA,081037.20,3135.4343165,N,12046.4227486,E,4,17,1.5,2.3210,M,8.300,M,01,0004*66
$GPHPD,0,0.000,257.94,-0.58,-12.36,31.5905719,120.7737125,2.321,13631729.349,24922789.169,2.321,0.000,0.000,0.000,0.000,0.000,0.000,0.000,17,17,4*7D
$GPGGA,081037.40,3135.4343084,N,12046.4226830,E,4,17,1.5,2.3105,M,8.300,M,01,0004*69
$GPHPD,0,0.000,258.35,-1.14,-12.43,31.5905718,120.7737114,2.311,13631729.332,24922788.425,2.311,0.000,0.000,0.000,0.000,0.000,0.000,0.000,17,17,4*71
$GPGGA,081037.60,3135.4342982,N,12046.4226140,E,4,17,1.5,2.3068,M,8.300,M,00,0004*60
$GPHPD,0,0.000,258.58,-0.81,-12.50,31.5905716,120.7737102,2.307,13631729.338,24922787.652,2.307,0.000,0.000,0.000,0.000,0.000,0.000,0.000,17,17,4*7B
$GPGGA,081037.80,3135.4342868,N,12046.4225406,E,4,17,1.4,2.3151,M,8.300,M,00,0004*65
$GPHPD,0,0.000,259.01,-0.99,-12.58,31.5905714,120.7737090,2.315,13631729.353,24922786.833,2.315,0.000,0.000,0.000,0.000,0.000,0.000,0.000,17,17,4*7A
$GPGGA,081038.00,3135.4342762,N,12046.4224588,E,4,17,1.4,2.3150,M,8.300,M,01,0004*61
$GPHPD,0,0.000,259.21,-0.79,-12.69,31.5905713,120.7737076,2.315,13631729.339,24922785.909,2.315,0.000,0.000,0.000,0.000,0.000,0.000,0.000,17,17,4*7C
$GPGGA,081038.20,3135.4342645,N,12046.4223681,E,4,17,1.4,2.3107,M,8.300,M,01,0004*68
$GPHPD,0,0.000,259.62,-0.78,-12.82,31.5905711,120.7737061,2.311,13631729.322,24922784.883,2.311,0.000,0.000,0.000,0.000,0.000,0.000,0.000,17,17,4*73
$GPGGA,081038.40,3135.4342525,N,12046.4222681,E,4,17,1.4,2.3001,M,8.300,M,01,0004*6D
$GPHPD,0,0.000,260.10,-0.92,-12.99,31.5905709,120.7737045,2.300,13631729.292,24922783.747,2.300,0.000,0.000,0.000,0.000,0.000,0.000,0.000,17,17,4*77
$GPGGA,081038.60,3135.4342390,N,12046.4221583,E,4,17,1.4,2.2993,M,8.300,M,00,0004*67
$GPHPD,0,0.000,260.47,-0.55,-13.12,31.5905707,120.7737026,2.299,13631729.262,24922782.502,2.299,0.000,0.000,0.000,0.000,0.000,0.000,0.000,17,17,4*7A
$GPGGA,081038.80,3135.4342261,N,12046.4220381,E,4,17,1.4,2.2894,M,8.300,M,00,0004*65
$GPHPD,0,0.000,260.87,-0.59,-13.18,31.5905704,120.7737006,2.289,13631729.204,24922781.128,2.289,0.000,0.000,0.000,0.000,0.000,0.000,0.000,17,17,4*7E
$GPGGA,081039.00,3135.4342114,N,12046.4219138,E,4,17,1.4,2.2963,M,8.300,M,01,0004*6F
$GPHPD,0,0.000,261.13,-0.26,-13.19,31.5905702,120.7736986,2.296,13631729.163,24922779.714,2.296,0.000,0.000,0.000,0.000,0.000,0.000,0.000,17,17,4*71
$GPGGA,081039.20,3135.4341984,N,12046.4217830,E,4,17,1.4,2.2962,M,8.300,M,01,0004*61
$GPHPD,0,0.000,261.63,-0.46,-13.20,31.5905700,120.7736964,2.296,13631729.084,24922778.213,2.296,0.000,0.000,0.000,0.000,0.000,0.000,0.000,17,17,4*7F
$GPGGA,081039.40,3135.4341872,N,12046.4216520,E,4,17,1.4,2.2911,M,8.300,M,01,0004*66
$GPHPD,0,0.000,262.19,-0.68,-13.18,31.5905698,120.7736942,2.291,13631728.979,24922776.698,2.291,0.000,0.000,0.000,0.000,0.000,0.000,0.000,17,17,4*71
$GPGGA,081039.60,3135.4341723,N,12046.4215209,E,4,17,1.4,2.2895,M,8.300,M,00,0004*6C
$GPHPD,0,0.000,262.55,-0.50,-13.19,31.5905695,120.7736920,2.290,13631728.927,24922775.204,2.290,0.000,0.000,0.000,0.000,0.000,0.000,0.000,17,17,4*73
$GPGGA,081039.80,3135.4341598,N,12046.4213919,E,4,17,1.4,2.2834,M,8.300,M,00,0004*67
$GPHPD,0,0.000,263.13,-0.54,-13.22,31.5905693,120.7736899,2.283,13631728.845,24922773.722,2.283,0.000,0.000,0.000,0.000,0.000,0.000,0.000,17,17,4*7B
$GPGGA,081040.00,3135.4341505,N,12046.4212678,E,4,17,1.4,2.2922,M,8.300,M,01,0004*6B
$GPHPD,0,0.000,263.51,-0.10,-13.26,31.5905692,120.7736878,2.292,13631728.728,24922772.279,2.292,0.000,0.000,0.000,0.000,0.000,0.000,0.000,17,17,4*79
$GPGGA,081040.20,3135.4341422,N,12046.4211451,E,4,17,1.4,2.2835,M,8.300,M,01,0004*60
$GPHPD,0,0.000,263.98,-0.24,-13.27,31.5905690,120.7736858,2.284,13631728.599,24922770.848,2.284,0.000,0.000,0.000,0.000,0.000,0.000,0.000,17,17,4*78
$GPGGA,081040.40,3135.4341319,N,12046.4210250,E,4,17,1.4,2.2880,M,8.300,M,01,0004*61
$GPHPD,0,0.000,264.35,-0.16,-13.27,31.5905689,120.7736838,2.288,13631728.503,24922769.460,2.288,0.000,0.000,0.000,0.000,0.000,0.000,0.000,17,17,4*7A
$GPGGA,081040.60,3135.4341271,N,12046.4209080,E,4,17,1.4,2.2837,M,8.300,M,00,0004*66
$GPHPD,0,0.000,264.89,-0.58,-13.30,31.5905688,120.7736818,2.284,13631728.336,24922768.077,2.284,0.000,0.000,0.000,0.000,0.000,0.000,0.000,17,17,4*71
$GPGGA,081040.80,3135.4341225,N,12046.4207933,E,4,17,1.4,2.2872,M,8.300,M,00,0004*67
$GPHPD,0,0.000,265.24,0.14,-13.32,31.5905687,120.7736799,2.287,13631728.170,24922766.721,2.287,0.000,0.000,0.000,0.000,0.000,0.000,0.000,17,17,4*53
$GPGGA,081041.00,3135.4341168,N,12046.4206807,E,4,17,1.4,2.2829,M,8.300,M,01,0004*6C
$GPHPD,0,0.000,265.92,-0.19,-13.36,31.5905686,120.7736780,2.283,13631728.025,24922765.396,2.283,0.000,0.000,0.000,0.000,0.000,0.000,0.000,17,17,4*79
$GPGGA,081041.20,3135.4341143,N,12046.4205687,E,4,17,1.4,2.2892,M,8.300,M,01,0004*62
$GPHPD,0,0.000,266.47,0.31,-13.41,31.5905686,120.7736761,2.289,13631727.835,24922764.060,2.289,0.000,0.000,0.000,0.000,0.000,0.000,0.000,17,17,4*57
$GPGGA,081041.40,3135.4341143,N,12046.4204553,E,4,17,1.4,2.2834,M,8.300,M,01,0004*63
$GPHPD,0,0.000,267.13,0.06,-13.47,31.5905686,120.7736743,2.283,13631727.607,24922762.693,2.283,0.000,0.000,0.000,0.000,0.000,0.000,0.000,17,17,4*56
$GPGGA,081041.60,3135.4341150,N,12046.4203410,E,4,17,1.4,2.2814,M,8.300,M,00,0004*61
$GPHPD,0,0.000,267.72,0.28,-13.53,31.5905686,120.7736724,2.281,13631727.367,24922761.311,2.281,0.000,0.000,0.000,0.000,0.000,0.000,0.000,17,17,4*56
$GPGGA,081041.80,3135.4341156,N,12046.4202260,E,4,17,1.4,2.2717,M,8.300,M,00,0004*65
$GPHPD,0,0.000,268.49,0.24,-13.60,31.5905686,120.7736704,2.272,13631727.127,24922759.921,2.272,0.000,0.000,0.000,0.000,0.000,0.000,0.000,17,17,4*5B
$GPGGA,081042.00,3135.4341164,N,12046.4201066,E,4,17,1.4,2.2849,M,8.300,M,01,0004*6D
$GPHPD,0,0.000,269.26,0.61,-13.72,31.5905686,120.7736684,2.285,13631726.875,24922758.476,2.285,0.000,0.000,0.000,0.000,0.000,0.000,0.000,17,17,4*59
$GPGGA,081042.20,3135.4341244,N,12046.4199823,E,4,17,1.4,2.2749,M,8.300,M,01,0004*6A
$GPHPD,0,0.000,270.14,0.13,-13.79,31.5905687,120.7736664,2.275,13631726.511,24922756.931,2.275,0.000,0.000,0.000,0.000,0.000,0.000,0.000,17,17,4*5E
$GPGGA,081042.40,3135.4341297,N,12046.4198565,E,4,17,1.4,2.2685,M,8.300,M,01,0004*6D
$GPHPD,0,0.000,270.94,0.35,-13.86,31.5905688,120.7736643,2.269,13631726.182,24922755.383,2.269,0.000,0.000,0.000,0.000,0.000,0.000,0.000,17,17,4*56
$GPGGA,081042.60,3135.4341355,N,12046.4197307,E,4,17,1.4,2.2792,M,8.300,M,00,0004*6B
$GPHPD,0,0.000,271.83,0.44,-13.84,31.5905689,120.7736622,2.279,13631725.847,24922753.833,2.279,0.000,0.000,0.000,0.000,0.000,0.000,0.000,17,17,4*56
$GPGGA,081042.80,3135.4341455,N,12046.4196004,E,4,17,1.4,2.2752,M,8.300,M,00,0004*6F
$GPHPD,0,0.000,272.84,0.18,-13.74,31.5905691,120.7736600,2.275,13631725.442,24922752.203,2.275,0.000,0.000,0.000,0.000,0.000,0.000,0.000,17,17,4*5C
$GPGGA,081043.00,3135.4341533,N,12046.4194788,E,4,17,1.4,2.2839,M,8.300,M,01,0004*65
$GPHPD,0,0.000,273.79,0.45,-13.72,31.5905692,120.7736580,2.284,13631725.087,24922750.692,2.284,0.000,0.000,0.000,0.000,0.000,0.000,0.000,17,17,4*5A
$GPGGA,081043.20,3135.4341653,N,12046.4193552,E,4,17,1.4,2.2856,M,8.300,M,01,0004*69
$GPHPD,0,0.000,274.58,0.51,-13.72,31.5905694,120.7736559,2.286,13631724.667,24922749.132,2.286,0.000,0.000,0.000,0.000,0.000,0.000,0.000,17,17,4*55
$GPGGA,081043.40,3135.4341779,N,12046.4192331,E,4,17,1.4,2.2845,M,8.300,M,01,0004*66
$GPHPD,0,0.000,275.31,0.86,-13.69,31.5905696,120.7736539,2.285,13631724.242,24922747.586,2.285,0.000,0.000,0.000,0.000,0.000,0.000,0.000,17,17,4*59
$GPGGA,081043.60,3135.4341905,N,12046.4191123,E,4,17,1.4,2.2974,M,8.300,M,00,0004*61
$GPHPD,0,0.000,276.16,0.36,-13.63,31.5905698,120.7736519,2.297,13631723.820,24922746.056,2.297,0.000,0.000,0.000,0.000,0.000,0.000,0.000,17,17,4*52
$GPGGA,081043.80,3135.4342051,N,12046.4189938,E,4,17,1.4,2.2977,M,8.300,M,00,0004*6C
$GPHPD,0,0.000,276.67,0.26,-13.60,31.5905701,120.7736499,2.298,13631723.374,24922744.542,2.298,0.000,0.000,0.000,0.000,0.000,0.000,0.000,17,17,4*56
$GPGGA,081044.00,3135.4342204,N,12046.4188791,E,4,17,1.4,2.2941,M,8.300,M,01,0004*69
$GPHPD,0,0.000,277.02,0.34,-13.61,31.5905703,120.7736480,2.294,13631722.926,24922743.070,2.294,0.000,0.000,0.000,0.000,0.000,0.000,0.000,17,17,4*53
$GPGGA,081044.20,3135.4342329,N,12046.4187610,E,4,17,1.4,2.2962,M,8.300,M,01,0004*63
$GPHPD,0,0.000,277.36,0.31,-13.57,31.5905705,120.7736460,2.296,13631722.510,24922741.573,2.296,0.000,0.000,0.000,0.000,0.000,0.000,0.000,17,17,4*51
$GPGGA,081044.40,3135.4342524,N,12046.4186468,E,4,17,1.4,2.2954,M,8.300,M,01,0004*67
$GPHPD,0,0.000,277.83,0.46,-13.56,31.5905709,120.7736441,2.295,13631722.003,24922740.083,2.295,0.000,0.000,0.000,0.000,0.000,0.000,0.000,17,17,4*5D
$GPGGA,081044.60,3135.4342692,N,12046.4185331,E,4,17,1.4,2.3015,M,8.300,M,00,0004*6F
$GPHPD,0,0.000,278.05,0.45,-13.59,31.5905712,120.7736422,2.302,13631721.536,24922738.614,2.302,0.000,0.000,0.000,0.000,0.000,0.000,0.000,17,17,4*58
$GPGGA,081044.80,3135.4342869,N,12046.4184169,E,4,17,1.4,2.2933,M,8.300,M,00,0004*69
$GPHPD,0,0.000,278.65,0.16,-13.61,31.5905714,120.7736403,2.293,13631721.050,24922737.110,2.293,0.000,0.000,0.000,0.000,0.000,0.000,0.000,17,17,4*5F
$GPGGA,081045.00,3135.4343059,N,12046.4182996,E,4,17,1.4,2.2980,M,8.300,M,01,0004*6D
$GPHPD,0,0.000,278.84,0.61,-13.61,31.5905718,120.7736383,2.298,13631720.544,24922735.585,2.298,0.000,0.000,0.000,0.000,0.000,0.000,0.000,17,17,4*58
$GPGGA,081045.20,3135.4343223,N,12046.4181840,E,4,17,1.4,2.2972,M,8.300,M,01,0004*64
$GPHPD,0,0.000,279.29,0.49,-13.61,31.5905720,120.7736364,2.297,13631720.078,24922734.096,2.297,0.000,0.000,0.000,0.000,0.000,0.000,0.000,17,17,4*5A
$GPGGA,081045.40,3135.4343395,N,12046.4180679,E,4,17,1.4,2.3090,M,8.300,M,01,0004*6F
$GPHPD,0,0.000,279.53,0.33,-13.62,31.5905723,120.7736345,2.309,13631719.600,24922732.596,2.309,0.000,0.000,0.000,0.000,0.000,0.000,0.000,17,17,4*59
$GPGGA,081045.60,3135.4343612,N,12046.4179506,E,4,17,1.4,2.3026,M,8.300,M,00,0004*66
$GPHPD,0,0.000,279.85,0.17,-13.64,31.5905727,120.7736325,2.303,13631719.056,24922731.055,2.303,0.000,0.000,0.000,0.000,0.000,0.000,0.000,17,17,4*5C
$GPGGA,081045.80,3135.4343790,N,12046.4178308,E,4,17,1.4,2.3000,M,8.300,M,00,0004*6E
$GPHPD,0,0.000,279.98,0.58,-13.65,31.5905730,120.7736305,2.300,13631718.561,24922729.507,2.300,0.000,0.000,0.000,0.000,0.000,0.000,0.000,17,17,4*55
$GPGGA,081046.00,3135.4344014,N,12046.4177135,E,4,17,1.4,2.2961,M,8.300,M,01,0004*64
$GPHPD,0,0.000,280.18,0.75,-13.61,31.5905734,120.7736286,2.296,13631718.007,24922727.962,2.296,0.000,0.000,0.000,0.000,0.000,0.000,0.000,17,17,4*5A
$GPGGA,081046.20,3135.4344195,N,12046.4176005,E,4,17,1.4,2.3147,M,8.300,M,01,0004*60
$GPHPD,0,0.000,280.42,0.92,-13.61,31.5905737,120.7736267,2.315,13631717.522,24922726.495,2.315,0.000,0.000,0.000,0.000,0.000,0.000,0.000,17,17,4*59
$GPGGA,081046.40,3135.4344431,N,12046.4174866,E,4,17,1.4,2.3030,M,8.300,M,01,0004*63
$GPHPD,0,0.000,280.91,0.24,-13.59,31.5905741,120.7736248,2.303,13631716.958,24922724.984,2.303,0.000,0.000,0.000,0.000,0.000,0.000,0.000,17,17,4*52
$GPGGA,081046.60,3135.4344675,N,12046.4173723,E,4,17,1.4,2.3041,M,8.300,M,00,0004*6D
$GPHPD,0,0.000,281.39,0.24,-13.56,31.5905745,120.7736229,2.304,13631716.381,24922723.464,2.304,0.000,0.000,0.000,0.000,0.000,0.000,0.000,17,17,4*57
$GPGGA,081046.80,3135.4344892,N,12046.4172659,E,4,17,1.4,2.3092,M,8.300,M,00,0004*67
$GPHPD,0,0.000,281.75,0.50,-13.56,31.5905748,120.7736211,2.309,13631715.858,24922722.054,2.309,0.000,0.000,0.000,0.000,0.000,0.000,0.000,17,17,4*50
$GPGGA,081047.00,3135.4345116,N,12046.4171660,E,4,17,1.4,2.3133,M,8.300,M,01,0004*68
$GPHPD,0,0.000,282.39,0.52,-13.55,31.5905752,120.7736194,2.313,13631715.339,24922720.720,2.313,0.000,0.000,0.000,0.000,0.000,0.000,0.000,17,17,4*55
$GPGGA,081047.20,3135.4345333,N,12046.4170683,E,4,17,1.4,2.3142,M,8.300,M,01,0004*65
$GPHPD,0,0.000,283.17,0.26,-13.57,31.5905756,120.7736178,2.314,13631714.834,24922719.415,2.314,0.000,0.000,0.000,0.000,0.000,0.000,0.000,17,17,4*57
$GPGGA,081047.40,3135.4345582,N,12046.4169701,E,4,17,1.4,2.3112,M,8.300,M,01,0004*69
$GPHPD,0,0.000,283.96,0.24,-13.63,31.5905760,120.7736162,2.311,13631714.282,24922718.086,2.311,0.000,0.000,0.000,0.000,0.000,0.000,0.000,17,17,4*5D
$GPGGA,081047.60,3135.4345845,N,12046.4168752,E,4,17,1.4,2.3047,M,8.300,M,00,0004*6A
$GPHPD,0,0.000,284.65,0.71,-13.69,31.5905764,120.7736146,2.305,13631713.717,24922716.789,2.305,0.000,0.000,0.000,0.000,0.000,0.000,0.000,17,17,4*56
$GPGGA,081047.80,3135.4346078,N,12046.4167793,E,4,17,1.4,2.3168,M,8.300,M,00,0004*6F
$GPHPD,0,0.000,285.50,1.08,-13.71,31.5905768,120.7736130,2.317,13631713.193,24922715.497,2.317,0.000,0.000,0.000,0.000,0.000,0.000,0.000,17,17,4*5F
$GPGGA,081048.00,3135.4346355,N,12046.4166807,E,4,17,1.4,2.3147,M,8.300,M,01,0004*6B
$GPHPD,0,0.000,286.42,0.49,-13.79,31.5905773,120.7736113,2.315,13631712.601,24922714.147,2.315,0.000,0.000,0.000,0.000,0.000,0.000,0.000,17,17,4*5C
$GPGGA,081048.20,3135.4346653,N,12046.4165790,E,4,17,1.4,2.3139,M,8.300,M,01,0004*61
$GPHPD,0,0.000,287.30,0.55,-13.88,31.5905778,120.7736097,2.314,13631711.972,24922712.747,2.314,0.000,0.000,0.000,0.000,0.000,0.000,0.000,17,17,4*55
$GPGGA,081048.40,3135.4346964,N,12046.4164787,E,4,17,1.4,2.3181,M,8.300,M,01,0004*68
$GPHPD,0,0.000,288.34,0.71,-13.95,31.5905783,120.7736080,2.318,13631711.329,24922711.357,2.318,0.000,0.000,0.000,0.000,0.000,0.000,0.000,17,17,4*54
$GPGGA,081048.60,3135.4347330,N,12046.4163703,E,4,17,1.4,2.3198,M,8.300,M,00,0004*62
$GPHPD,0,0.000,289.13,0.92,-14.00,31.5905789,120.7736062,2.320,13631710.590,24922709.837,2.320,0.000,0.000,0.000,0.000,0.000,0.000,0.000,17,17,4*51
$GPGGA,081048.80,3135.4347759,N,12046.4162584,E,4,17,1.4,2.3101,M,8.300,M,00,0004*6B
$GPHPD,0,0.000,290.05,0.98,-14.05,31.5905796,120.7736043,2.310,13631709.755,24922708.238,2.310,0.000,0.000,0.000,0.000,0.000,0.000,0.000,17,17,4*5B
$GPGGA,081049.00,3135.4348185,N,12046.4161420,E,4,17,1.4,2.3154,M,8.300,M,01,0004*67
$GPHPD,0,0.000,290.84,1.26,-14.10,31.5905803,120.7736024,2.315,13631708.915,24922706.587,2.315,0.000,0.000,0.000,0.000,0.000,0.000,0.000,17,17,4*56
$GPGGA,081049.20,3135.4348618,N,12046.4160235,E,4,17,1.4,2.3171,M,8.300,M,01,0004*62
$GPHPD,0,0.000,291.98,1.05,-14.13,31.5905810,120.7736004,2.317,13631708.062,24922704.906,2.317,0.000,0.000,0.000,0.000,0.000,0.000,0.000,17,17,4*56
$GPGGA,081049.40,3135.4349101,N,12046.4159074,E,4,17,1.4,2.3191,M,8.300,M,01,0004*69
$GPHPD,0,0.000,293.03,1.15,-14.14,31.5905818,120.7735985,2.319,13631707.141,24922703.225,2.319,0.000,0.000,0.000,0.000,0.000,0.000,0.000,17,17,4*59
$GPGGA,081049.60,3135.4349623,N,12046.4157940,E,4,17,1.4,2.3243,M,8.300,M,00,0004*61
$GPHPD,0,0.000,294.06,1.02,-14.10,31.5905827,120.7735966,2.324,13631706.171,24922701.554,2.324,0.000,0.000,0.000,0.000,0.000,0.000,0.000,17,17,4*59
$GPGGA,081049.80,3135.4350104,N,12046.4156812,E,4,17,1.4,2.3233,M,8.300,M,00,0004*65
$GPHPD,0,0.000,295.11,0.83,-14.02,31.5905835,120.7735947,2.323,13631705.261,24922699.914,2.323,0.000,0.000,0.000,0.000,0.000,0.000,0.000,17,17,4*5C
$GPGGA,081050.00,3135.4350598,N,12046.4155718,E,4,17,1.4,2.3288,M,8.300,M,01,0004*63
$GPHPD,0,0.000,296.10,0.97,-13.90,31.5905843,120.7735929,2.329,13631704.338,24922698.307,2.329,0.000,0.000,0.000,0.000,0.000,0.000,0.000,17,17,4*5B
$GPGGA,081050.20,3135.4351088,N,12046.4154655,E,4,17,1.4,2.3345,M,8.300,M,01,0004*6D
$GPHPD,0,0.000,297.20,0.73,-13.81,31.5905851,120.7735911,2.335,13631703.428,24922696.740,2.335,0.000,0.000,0.000,0.000,0.000,0.000,0.000,17,17,4*53
$GPGGA,081050.40,3135.4351596,N,12046.4153662,E,4,17,1.4,2.3416,M,8.300,M,01,0004*63
$GPHPD,0,0.000,298.30,0.37,-13.73,31.5905860,120.7735894,2.342,13631702.506,24922695.247,2.342,0.000,0.000,0.000,0.000,0.000,0.000,0.000,17,17,4*53
$GPGGA,081050.60,3135.4352114,N,12046.4152699,E,4,17,1.4,2.3462,M,8.300,M,00,0004*6B
$GPHPD,0,0.000,299.18,0.50,-13.67,31.5905869,120.7735878,2.346,13631701.576,24922693.785,2.346,0.000,0.000,0.000,0.000,0.000,0.000,0.000,17,17,4*5E
$GPGGA,081050.80,3135.4352635,N,12046.4151742,E,4,17,1.4,2.3356,M,8.300,M,00,0004*65
$GPHPD,0,0.000,300.07,0.19,-13.62,31.5905877,120.7735862,2.336,13631700.643,24922692.328,2.336,0.000,0.000,0.000,0.000,0.000,0.000,0.000,17,17,4*5B
$GPGGA,081051.00,3135.4353156,N,12046.4150818,E,4,17,1.4,2.3402,M,8.300,M,01,0004*69
$GPHPD,0,0.000,300.97,0.57,-13.55,31.5905886,120.7735847,2.340,13631699.716,24922690.910,2.340,0.000,0.000,0.000,0.000,0.000,0.000,0.000,17,17,4*56
$GPGGA,081051.20,3135.4353700,N,12046.4149901,E,4,17,1.4,2.3433,M,8.300,M,01,0004*6D
$GPHPD,0,0.000,301.69,0.70,-13.49,31.5905895,120.7735832,2.343,13631698.759,24922689.488,2.343,0.000,0.000,0.000,0.000,0.000,0.000,0.000,17,17,4*50
$GPGGA,081051.40,3135.4354256,N,12046.4148983,E,4,17,1.4,2.3470,M,8.300,M,01,0004*66
$GPHPD,0,0.000,302.60,0.39,-13.47,31.5905904,120.7735816,2.347,13631697.784,24922688.058,2.347,0.000,0.000,0.000,0.000,0.000,0.000,0.000,17,17,4*51
$GPGGA,081051.60,3135.4354866,N,12046.4148053,E,4,17,1.4,2.3437,M,8.300,M,00,0004*6B
$GPHPD,0,0.000,303.36,0.39,-13.43,31.5905914,120.7735801,2.344,13631696.729,24922686.581,2.344,0.000,0.000,0.000,0.000,0.000,0.000,0.000,17,17,4*59
$GPGGA,081051.80,3135.4355474,N,12046.4147122,E,4,17,1.4,2.3475,M,8.300,M,00,0004*65
$GPHPD,0,0.000,304.20,0.67,-13.42,31.5905925,120.7735785,2.348,13631695.678,24922685.105,2.348,0.000,0.000,0.000,0.000,0.000,0.000,0.000,17,17,4*5F
$GPGGA,081052.00,3135.4356123,N,12046.4146128,E,4,17,1.4,2.3456,M,8.300,M,01,0004*61
$GPHPD,0,0.000,305.01,0.34,-13.40,31.5905935,120.7735769,2.346,13631694.555,24922683.529,2.346,0.000,0.000,0.000,0.000,0.000,0.000,0.000,17,17,4*5B
$GPGGA,081052.20,3135.4356750,N,12046.4145148,E,4,17,1.4,2.3546,M,8.300,M,01,0004*64
$GPHPD,0,0.000,305.93,-0.02,-13.38,31.5905946,120.7735752,2.355,13631693.467,24922681.982,2.355,0.000,0.000,0.000,0.000,0.000,0.000,0.000,17,17,4*73
$GPGGA,081052.40,3135.4357450,N,12046.4144132,E,4,17,1.4,2.3552,M,8.300,M,01,0004*69
$GPHPD,0,0.000,306.62,-0.10,-13.40,31.5905958,120.7735736,2.355,13631692.268,24922680.350,2.355,0.000,0.000,0.000,0.000,0.000,0.000,0.000,17,17,4*73
$GPGGA,081052.60,3135.4358134,N,12046.4143086,E,4,17,1.4,2.3606,M,8.300,M,00,0004*69
$GPHPD,0,0.000,307.62,-0.06,-13.39,31.5905969,120.7735718,2.361,13631691.085,24922678.690,2.361,0.000,0.000,0.000,0.000,0.000,0.000,0.000,17,17,4*79
$GPGGA,081052.80,3135.4358903,N,12046.4142022,E,4,17,1.4,2.3637,M,8.300,M,00,0004*66
$GPHPD,0,0.000,308.43,-0.52,-13.31,31.5905982,120.7735700,2.364,13631689.778,24922676.960,2.364,0.000,0.000,0.000,0.000,0.000,0.000,0.000,17,17,4*72
$GPGGA,081053.00,3135.4359730,N,12046.4140987,E,4,17,1.4,2.3636,M,8.300,M,01,0004*64
$GPHPD,0,0.000,309.05,-0.63,-13.28,31.5905996,120.7735683,2.364,13631688.394,24922675.231,2.364,0.000,0.000,0.000,0.000,0.000,0.000,0.000,17,17,4*7F
$GPGGA,081053.20,3135.4360549,N,12046.4139887,E,4,17,1.4,2.3529,M,8.300,M,01,0004*62
$GPHPD,0,0.000,309.79,-0.77,-13.30,31.5906009,120.7735665,2.353,13631687.009,24922673.428,2.353,0.000,0.000,0.000,0.000,0.000,0.000,0.000,17,17,4*7C
$GPGGA,081053.40,3135.4361361,N,12046.4138825,E,4,17,1.4,2.3553,M,8.300,M,01,0004*6D
$GPHPD,0,0.000,310.01,-0.30,-13.34,31.5906023,120.7735647,2.355,13631685.641,24922671.675,2.355,0.000,0.000,0.000,0.000,0.000,0.000,0.000,17,17,4*74
$GPGGA,081053.60,3135.4362148,N,12046.4137742,E,4,17,1.4,2.3598,M,8.300,M,00,0004*62
$GPHPD,0,0.000,310.08,0.18,-13.30,31.5906036,120.7735629,2.360,13631684.304,24922669.911,2.360,0.000,0.000,0.000,0.000,0.000,0.000,0.000,17,17,4*53
$GPGGA,081053.80,3135.4362937,N,12046.4136699,E,4,17,1.4,2.3545,M,8.300,M,00,0004*6A
$GPHPD,0,0.000,310.21,-0.28,-13.35,31.5906049,120.7735612,2.355,13631682.973,24922668.194,2.355,0.000,0.000,0.000,0.000,0.000,0.000,0.000,17,17,4*7B
$GPGGA,081054.00,3135.4363730,N,12046.4135701,E,4,17,1.4,2.3508,M,8.300,M,01,0004*66
$GPHPD,0,0.000,310.27,-0.09,-13.39,31.5906062,120.7735595,2.351,13631681.645,24922666.529,2.351,0.000,0.000,0.000,0.000,0.000,0.000,0.000,17,17,4*72
$GPGGA,081054.20,3135.4364480,N,12046.4134650,E,4,17,1.4,2.3500,M,8.300,M,01,0004*67
$GPHPD,0,0.000,310.17,-0.22,-13.39,31.5906075,120.7735578,2.350,13631680.367,24922664.826,2.350,0.000,0.000,0.000,0.000,0.000,0.000,0.000,17,17,4*79
$GPGGA,081054.40,3135.4365241,N,12046.4133663,E,4,17,1.4,2.3517,M,8.300,M,01,0004*6A
$GPHPD,0,0.000,310.49,-0.03,-13.40,31.5906087,120.7735561,2.352,13631679.087,24922663.193,2.352,0.000,0.000,0.000,0.000,0.000,0.000,0.000,17,17,4*71
$GPGGA,081054.60,3135.4365983,N,12046.4132685,E,4,17,1.4,2.3533,M,8.300,M,01,0004*62
$GPHPD,0,0.000,310.36,-0.11,-13.42,31.5906100,120.7735545,2.353,13631677.836,24922661.582,2.353,0.000,0.000,0.000,0.000,0.000,0.000,0.000,17,17,4*7A
$GPGGA,081054.80,3135.4366755,N,12046.4131683,E,4,17,1.4,2.3447,M,8.300,M,00,0004*6C
$GPHPD,0,0.000,310.34,0.03,-13.41,31.5906113,120.7735528,2.345,13631676.537,24922659.924,2.345,0.000,0.000,0.000,0.000,0.000,0.000,0.000,17,17,4*5A
$GPGGA,081055.00,3135.4367495,N,12046.4130698,E,4,17,1.4,2.3514,M,8.300,M,01,0004*66
$GPHPD,0,0.000,310.41,-0.13,-13.36,31.5906125,120.7735512,2.351,13631675.287,24922658.306,2.351,0.000,0.000,0.000,0.000,0.000,0.000,0.000,17,17,4*7C
$GPGGA,081055.20,3135.4368239,N,12046.4129739,E,4,17,1.4,2.3499,M,8.300,M,01,0004*6D
$GPHPD,0,0.000,310.55,-0.34,-13.36,31.5906137,120.7735496,2.350,13631674.036,24922656.717,2.350,0.000,0.000,0.000,0.000,0.000,0.000,0.000,17,17,4*71
$GPGGA,081055.40,3135.4368951,N,12046.4128784,E,4,17,1.4,2.3485,M,8.299,M,01,0004*65
$GPHPD,0,0.000,310.55,-0.01,-13.42,31.5906149,120.7735480,2.349,13631672.832,24922655.151,2.349,0.000,0.000,0.000,0.000,0.000,0.000,0.000,17,17,4*77
$GPGGA,081055.60,3135.4369697,N,12046.4127858,E,4,17,1.4,2.3438,M,8.299,M,00,0004*65
$GPHPD,0,0.000,310.88,-0.08,-13.50,31.5906162,120.7735464,2.344,13631671.586,24922653.600,2.344,0.000,0.000,0.000,0.000,0.000,0.000,0.000,17,17,4*7A
$GPGGA,081055.80,3135.4370448,N,12046.4126920,E,4,17,1.4,2.3447,M,8.299,M,00,0004*64
$GPHPD,0,0.000,311.00,0.10,-13.51,31.5906174,120.7735449,2.345,13631670.329,24922652.032,2.345,0.000,0.000,0.000,0.000,0.000,0.000,0.000,17,17,4*52
$GPGGA,081056.00,3135.4371187,N,12046.4125969,E,4,17,1.4,2.3524,M,8.299,M,01,0004*63
$GPHPD,0,0.000,311.26,0.15,-13.40,31.5906186,120.7735433,2.352,13631669.088,24922650.456,2.352,0.000,0.000,0.000,0.000,0.000,0.000,0.000,17,17,4*57
$GPGGA,081056.20,3135.4371928,N,12046.4125049,E,4,17,1.4,2.3516,M,8.299,M,01,0004*66
$GPHPD,0,0.000,311.65,0.05,-13.41,31.5906199,120.7735417,2.352,13631667.849,24922648.915,2.352,0.000,0.000,0.000,0.000,0.000,0.000,0.000,17,17,4*50
$GPGGA,081056.40,3135.4372677,N,12046.4124089,E,4,17,1.4,2.3486,M,8.299,M,01,0004*63
$GPHPD,0,0.000,311.66,-0.13,-13.42,31.5906211,120.7735401,2.349,13631666.592,24922647.322,2.349,0.000,0.000,0.000,0.000,0.000,0.000,0.000,17,17,4*75
$GPGGA,081056.60,3135.4373465,N,12046.4123126,E,4,17,1.4,2.3543,M,8.299,M,01,0004*6A
$GPHPD,0,0.000,311.76,0.21,-13.39,31.5906224,120.7735385,2.354,13631665.278,24922645.702,2.354,0.000,0.000,0.000,0.000,0.000,0.000,0.000,17,17,4*5D
$GPGGA,081056.80,3135.4374249,N,12046.4122133,E,4,17,1.4,2.3540,M,8.299,M,01,0004*6D
$GPHPD,0,0.000,312.01,0.06,-13.41,31.5906237,120.7735369,2.354,13631663.964,24922644.049,2.354,0.000,0.000,0.000,0.000,0.000,0.000,0.000,17,17,4*5D
$GPGGA,081057.00,3135.4375080,N,12046.4121094,E,4,17,1.4,2.3545,M,8.299,M,02,0004*6B
$GPHPD,0,0.000,312.27,0.28,-13.45,31.5906251,120.7735352,2.355,13631662.574,24922642.312,2.355,0.000,0.000,0.000,0.000,0.000,0.000,0.000,17,17,4*5E
$GPGGA,081057.20,3135.4375974,N,12046.4120033,E,4,17,1.4,2.3528,M,8.299,M,02,0004*6C
$GPHPD,0,0.000,312.35,0.70,-13.48,31.5906266,120.7735334,2.353,13631661.089,24922640.513,2.353,0.000,0.000,0.000,0.000,0.000,0.000,0.000,17,17,4*58
$GPGGA,081057.40,3135.4376883,N,12046.4118935,E,4,17,1.4,2.3537,M,8.299,M,02,0004*6A
$GPHPD,0,0.000,312.56,0.62,-13.53,31.5906281,120.7735316,2.354,13631659.576,24922638.660,2.354,0.000,0.000,0.000,0.000,0.000,0.000,0.000,17,17,4*5B
$GPGGA,081057.60,3135.4377783,N,12046.4117797,E,4,17,1.4,2.3495,M,8.299,M,02,0004*66
$GPHPD,0,0.000,312.93,-0.19,-13.57,31.5906296,120.7735297,2.350,13631658.068,24922636.764,2.350,0.000,0.000,0.000,0.000,0.000,0.000,0.000,17,17,4*79
$GPGGA,081057.80,3135.4378759,N,12046.4116677,E,4,17,1.4,2.3562,M,8.299,M,00,0004*65
$GPHPD,0,0.000,313.12,0.74,-13.60,31.5906313,120.7735278,2.356,13631656.456,24922634.845,2.356,0.000,0.000,0.000,0.000,0.000,0.000,0.000,17,17,4*57
$GPGGA,081058.00,3135.4379764,N,12046.4115489,E,4,17,1.4,2.3543,M,8.299,M,01,0004*6F
$GPHPD,0,0.000,313.18,1.09,-13.57,31.5906329,120.7735258,2.354,13631654.788,24922632.828,2.354,0.000,0.000,0.000,0.000,0.000,0.000,0.000,17,17,4*56
$GPGGA,081058.20,3135.4380755,N,12046.4114319,E,4,17,1.4,2.3575,M,8.299,M,01,0004*63
$GPHPD,0,0.000,313.59,1.08,-13.55,31.5906346,120.7735239,2.358,13631653.144,24922630.841,2.358,0.000,0.000,0.000,0.000,0.000,0.000,0.000,17,17,4*52
$GPGGA,081058.40,3135.4381785,N,12046.4113114,E,4,17,1.4,2.3614,M,8.299,M,01,0004*65
$GPHPD,0,0.000,314.01,0.11,-13.55,31.5906363,120.7735219,2.361,13631651.438,24922628.788,2.361,0.000,0.000,0.000,0.000,0.000,0.000,0.000,17,17,4*5B
$GPGGA,081058.60,3135.4382868,N,12046.4111952,E,4,17,1.4,2.3519,M,8.299,M,00,0004*6F
$GPHPD,0,0.000,314.27,-0.24,-13.51,31.5906381,120.7735199,2.352,13631649.665,24922626.757,2.352,0.000,0.000,0.000,0.000,0.000,0.000,0.000,17,17,4*78
$GPGGA,081058.80,3135.4383857,N,12046.4110739,E,4,17,1.4,2.3650,M,8.299,M,00,0004*60
$GPHPD,0,0.000,314.24,0.99,-13.50,31.5906398,120.7735179,2.365,13631648.015,24922624.719,2.365,0.000,0.000,0.000,0.000,0.000,0.000,0.000,17,17,4*5F
$GPGGA,081059.00,3135.4384877,N,12046.4109598,E,4,17,1.4,2.3813,M,8.299,M,01,0004*65
$GPHPD,0,0.000,314.60,0.26,-13.53,31.5906415,120.7735160,2.381,13631646.336,24922622.750,2.381,0.000,0.000,0.000,0.000,0.000,0.000,0.000,17,17,4*55
$GPGGA,081059.20,3135.4385924,N,12046.4108487,E,4,17,1.4,2.3698,M,8.299,M,01,0004*62
$GPHPD,0,0.000,314.66,-0.18,-13.53,31.5906432,120.7735141,2.370,13631644.624,24922620.801,2.370,0.000,0.000,0.000,0.000,0.000,0.000,0.000,17,17,4*78
$GPGGA,081059.40,3135.4386940,N,12046.4107296,E,4,17,1.4,2.3730,M,8.299,M,01,0004*6F
$GPHPD,0,0.000,314.48,0.06,-13.54,31.5906449,120.7735122,2.373,13631642.940,24922618.774,2.373,0.000,0.000,0.000,0.000,0.000,0.000,0.000,17,17,4*55
$GPGGA,081059.60,3135.4387983,N,12046.4106121,E,4,17,1.4,2.3578,M,8.299,M,00,0004*62
$GPHPD,0,0.000,314.76,0.74,-13.58,31.5906466,120.7735102,2.358,13631641.221,24922616.750,2.358,0.000,0.000,0.000,0.000,0.000,0.000,0.000,17,17,4*59
$GPGGA,081059.80,3135.4388993,N,12046.4105003,E,4,17,1.4,2.3753,M,8.299,M,00,0004*6B
$GPHPD,0,0.000,314.85,1.79,-13.53,31.5906483,120.7735083,2.375,13631639.561,24922614.814,2.375,0.000,0.000,0.000,0.000,0.000,0.000,0.000,17,17,4*50
$GPGGA,081100.00,3135.4390010,N,12046.4103853,E,4,17,1.6,2.3683,M,8.299,M,01,0004*61
$GPHPD,0,0.000,314.96,0.85,-13.51,31.5906500,120.7735064,2.368,13631637.884,24922612.836,2.368,0.000,0.000,0.000,0.000,0.000,0.000,0.000,17,17,4*5F
$GPGGA,081100.20,3135.4391044,N,12046.4102677,E,4,17,1.4,2.3753,M,8.299,M,01,0004*64
$GPHPD,0,0.000,314.91,0.59,-13.53,31.5906517,120.7735045,2.375,13631636.178,24922610.816,2.375,0.000,0.000,0.000,0.000,0.000,0.000,0.000,17,17,4*55
$GPGGA,081100.40,3135.4392040,N,12046.4101537,E,4,17,1.4,2.3948,M,8.299,M,01,0004*65
$GPHPD,0,0.000,314.98,0.41,-13.51,31.5906534,120.7735026,2.395,13631634.533,24922608.862,2.395,0.000,0.000,0.000,0.000,0.000,0.000,0.000,17,17,4*50
$GPGGA,081100.60,3135.4393069,N,12046.4100388,E,4,17,1.4,2.3975,M,8.299,M,00,0004*61
$GPHPD,0,0.000,315.61,-0.61,-13.47,31.5906551,120.7735006,2.398,13631632.839,24922606.878,2.398,0.000,0.000,0.000,0.000,0.000,0.000,0.000,17,17,4*7A
$GPGGA,081100.80,3135.4394123,N,12046.4099278,E,4,17,1.4,2.3959,M,8.299,M,00,0004*66
$GPHPD,0,0.000,316.06,-0.82,-13.45,31.5906569,120.7734988,2.396,13631631.117,24922604.926,2.396,0.000,0.000,0.000,0.000,0.000,0.000,0.000,17,17,4*7C
$GPGGA,081101.00,3135.4395163,N,12046.4098135,E,4,17,1.6,2.4041,M,8.299,M,01,0004*65
$GPHPD,0,0.000,316.42,-0.94,-13.44,31.5906586,120.7734969,2.404,13631629.409,24922602.942,2.404,0.000,0.000,0.000,0.000,0.000,0.000,0.000,17,17,4*73
$GPGGA,081101.20,3135.4396251,N,12046.4097011,E,4,17,1.4,2.3964,M,8.299,M,01,0004*65
$GPHPD,0,0.000,316.90,-0.65,-13.41,31.5906604,120.7734950,2.396,13631627.637,24922600.954,2.396,0.000,0.000,0.000,0.000,0.000,0.000,0.000,17,17,4*70
$GPGGA,081101.40,3135.4397382,N,12046.4095921,E,4,17,1.6,2.3813,M,8.299,M,01,0004*66
$GPHPD,0,0.000,317.28,-0.23,-13.40,31.5906623,120.7734932,2.381,13631625.810,24922598.982,2.381,0.000,0.000,0.000,0.000,0.000,0.000,0.000,17,17,4*70
$GPGGA,081101.60,3135.4398471,N,12046.4094814,E,4,17,1.6,2.3830,M,8.299,M,00,0004*66
$GPHPD,0,0.000,317.79,-0.03,-13.31,31.5906641,120.7734914,2.383,13631624.039,24922597.013,2.383,0.000,0.000,0.000,0.000,0.000,0.000,0.000,17,17,4*7C
$GPGGA,081101.80,3135.4399561,N,12046.4093705,E,4,17,1.6,2.3888,M,8.299,M,00,0004*62
$GPHPD,0,0.000,317.80,0.11,-13.29,31.5906659,120.7734895,2.389,13631622.267,24922595.042,2.389,0.000,0.000,0.000,0.000,0.000,0.000,0.000,17,17,4*55
$GPGGA,081102.00,3135.4400715,N,12046.4092608,E,4,17,1.6,2.3689,M,8.299,M,01,0004*6C
$GPHPD,0,0.000,318.10,0.02,-13.39,31.5906679,120.7734877,2.369,13631620.406,24922593.047,2.369,0.000,0.000,0.000,0.000,0.000,0.000,0.000,17,17,4*5E
$GPGGA,081102.20,3135.4401802,N,12046.4091456,E,4,17,1.6,2.3782,M,8.299,M,01,0004*66
$GPHPD,0,0.000,317.91,1.40,-13.37,31.5906697,120.7734858,2.378,13631618.629,24922591.026,2.378,0.000,0.000,0.000,0.000,0.000,0.000,0.000,17,17,4*5D
$GPGGA,081102.40,3135.4402945,N,12046.4090337,E,4,17,1.6,2.3888,M,8.299,M,01,0004*65
$GPHPD,0,0.000,318.19,0.94,-13.32,31.5906716,120.7734839,2.389,13631616.779,24922589.011,2.389,0.000,0.000,0.000,0.000,0.000,0.000,0.000,17,17,4*57
$GPGGA,081102.60,3135.4404119,N,12046.4089193,E,4,16,1.6,2.3712,M,8.299,M,01,0004*69
$GPHPD,0,0.000,318.48,0.24,-13.29,31.5906735,120.7734820,2.371,13631614.881,24922586.949,2.371,0.000,0.000,0.000,0.000,0.000,0.000,0.000,16,16,4*5A
$GPGGA,081102.80,3135.4405242,N,12046.4088045,E,4,16,1.6,2.3857,M,8.299,M,01,0004*6E
$GPHPD,0,0.000,318.81,0.19,-13.29,31.5906754,120.7734801,2.386,13631613.053,24922584.911,2.386,0.000,0.000,0.000,0.000,0.000,0.000,0.000,16,16,4*5A
$GPGGA,081103.00,3135.4406384,N,12046.4086896,E,4,16,1.6,2.4023,M,8.299,M,02,0004*68
$GPHPD,0,0.000,319.04,0.01,-13.28,31.5906773,120.7734782,2.402,13631611.199,24922582.861,2.402,0.000,0.000,0.000,0.000,0.000,0.000,0.000,16,16,4*5A
$GPGGA,081103.20,3135.4407541,N,12046.4085758,E,4,16,1.6,2.4167,M,8.299,M,02,0004*6B
$GPHPD,0,0.000,319.08,-0.90,-13.23,31.5906792,120.7734763,2.417,13631609.326,24922580.816,2.417,0.000,0.000,0.000,0.000,0.000,0.000,0.000,16,16,4*75
$GPGGA,081103.40,3135.4408738,N,12046.4084589,E,4,16,1.6,2.3882,M,8.299,M,02,0004*64
$GPHPD,0,0.000,319.44,-2.24,-13.17,31.5906812,120.7734743,2.388,13631607.389,24922578.710,2.388,0.000,0.000,0.000,0.000,0.000,0.000,0.000,16,16,4*77
$GPGGA,081103.60,3135.4409939,N,12046.4083458,E,4,17,1.6,2.3694,M,8.299,M,02,0004*6A
$GPHPD,0,0.000,319.34,-1.69,-13.16,31.5906832,120.7734724,2.369,13631605.455,24922576.647,2.369,0.000,0.000,0.000,0.000,0.000,0.000,0.000,17,17,4*71
$GPGGA,081103.80,3135.4411112,N,12046.4082286,E,4,17,1.9,2.3677,M,8.299,M,00,0004*68
$GPHPD,0,0.000,318.88,0.04,-13.15,31.5906852,120.7734705,2.368,13631603.552,24922574.551,2.368,0.000,0.000,0.000,0.000,0.000,0.000,0.000,17,17,4*50
$GPGGA,081104.00,3135.4412321,N,12046.4081132,E,4,17,1.9,2.3498,M,8.299,M,01,0004*6B
$GPHPD,0,0.000,318.88,0.18,-13.12,31.5906872,120.7734686,2.350,13631601.601,24922572.456,2.350,0.000,0.000,0.000,0.000,0.000,0.000,0.000,17,17,4*55
$GPGGA,081104.20,3135.4413479,N,12046.4079991,E,4,17,1.9,2.3614,M,8.299,M,01,0004*62
$GPHPD,0,0.000,318.65,1.51,-13.13,31.5906891,120.7734667,2.361,13631599.725,24922570.407,2.361,0.000,0.000,0.000,0.000,0.000,0.000,0.000,17,17,4*5A
$GPGGA,081104.40,3135.4414646,N,12046.4078793,E,4,17,1.9,2.3576,M,8.299,M,01,0004*67
$GPHPD,0,0.000,318.81,-0.02,-13.14,31.5906911,120.7734647,2.358,13631597.826,24922568.283,2.358,0.000,0.000,0.000,0.000,0.000,0.000,0.000,17,17,4*77
$GPGGA,081104.60,3135.4415808,N,12046.4077662,E,4,17,1.5,2.3724,M,8.299,M,00,0004*68
$GPHPD,0,0.000,318.95,0.23,-13.14,31.5906930,120.7734628,2.372,13631595.947,24922566.243,2.372,0.000,0.000,0.000,0.000,0.000,0.000,0.000,17,17,4*50
$GPGGA,081104.80,3135.4416966,N,12046.4076470,E,4,17,1.5,2.3940,M,8.299,M,00,0004*60
$GPHPD,0,0.000,319.01,-0.74,-13.10,31.5906949,120.7734608,2.394,13631594.061,24922564.132,2.394,0.000,0.000,0.000,0.000,0.000,0.000,0.000,17,17,4*70
$GPGGA,081105.00,3135.4418143,N,12046.4075364,E,4,17,1.5,2.3939,M,8.299,M,01,0004*66
$GPHPD,0,0.000,318.95,0.01,-13.13,31.5906969,120.7734589,2.394,13631592.165,24922562.114,2.394,0.000,0.000,0.000,0.000,0.000,0.000,0.000,17,17,4*59
$GPGGA,081105.20,3135.4419323,N,12046.4074188,E,4,17,1.4,2.3935,M,8.299,M,01,0004*6D
$GPHPD,0,0.000,319.00,-2.00,-13.13,31.5906989,120.7734570,2.394,13631590.252,24922560.009,2.394,0.000,0.000,0.000,0.000,0.000,0.000,0.000,17,17,4*78
$GPGGA,081105.40,3135.4420492,N,12046.4073006,E,4,17,1.4,2.3883,M,8.299,M,01,0004*60
$GPHPD,0,0.000,319.02,-1.01,-13.13,31.5907008,120.7734550,2.388,13631588.352,24922557.904,2.388,0.000,0.000,0.000,0.000,0.000,0.000,0.000,17,17,4*73
$GPGGA,081105.60,3135.4421673,N,12046.4071866,E,4,17,1.4,2.3841,M,8.299,M,00,0004*6D
$GPHPD,0,0.000,318.86,-0.70,-13.14,31.5907028,120.7734531,2.384,13631586.444,24922555.842,2.384,0.000,0.000,0.000,0.000,0.000,0.000,0.000,17,17,4*74
$GPGGA,081105.80,3135.4422875,N,12046.4070715,E,4,17,1.4,2.3591,M,8.299,M,00,0004*62
$GPHPD,0,0.000,318.62,-0.36,-13.15,31.5907048,120.7734512,2.359,13631584.504,24922553.755,2.359,0.000,0.000,0.000,0.000,0.000,0.000,0.000,17,17,4*72
$GPGGA,081106.00,3135.4424001,N,12046.4069485,E,4,17,1.4,2.3836,M,8.299,M,01,0004*67
$GPHPD,0,0.000,318.08,0.52,-13.13,31.5907067,120.7734491,2.384,13631582.656,24922551.616,2.384,0.000,0.000,0.000,0.000,0.000,0.000,0.000,17,17,4*56
$GPGGA,081106.20,3135.4425200,N,12046.4068384,E,4,17,1.4,2.3737,M,8.299,M,01,0004*6E
$GPHPD,0,0.000,318.21,0.92,-13.11,31.5907087,120.7734473,2.374,13631580.731,24922549.591,2.374,0.000,0.000,0.000,0.000,0.000,0.000,0.000,17,17,4*56
$GPGGA,081106.40,3135.4426332,N,12046.4067199,E,4,17,1.4,2.3837,M,8.299,M,01,0004*65
$GPHPD,0,0.000,317.98,0.35,-13.08,31.5907106,120.7734453,2.384,13631578.883,24922547.503,2.384,0.000,0.000,0.000,0.000,0.000,0.000,0.000,17,17,4*50
$GPGGA,081106.60,3135.4427511,N,12046.4066065,E,4,17,1.4,2.3871,M,8.299,M,00,0004*61
$GPHPD,0,0.000,318.18,0.07,-13.08,31.5907125,120.7734434,2.387,13631576.979,24922545.450,2.387,0.000,0.000,0.000,0.000,0.000,0.000,0.000,17,16,4*58
$GPGGA,081106.80,3135.4428635,N,12046.4064840,E,4,17,1.4,2.3831,M,8.299,M,00,0004*6C
$GPHPD,0,0.000,318.13,-0.09,-13.08,31.5907144,120.7734414,2.383,13631575.135,24922543.319,2.383,0.000,0.000,0.000,0.000,0.000,0.000,0.000,17,17,4*7B
$GPGGA,081107.00,3135.4429764,N,12046.4063667,E,4,17,1.4,2.4066,M,8.299,M,01,0004*61
$GPHPD,0,0.000,318.81,-0.27,-13.05,31.5907163,120.7734394,2.407,13631573.295,24922541.248,2.407,0.000,0.000,0.000,0.000,0.000,0.000,0.000,17,16,4*72
$GPGGA,081107.20,3135.4430917,N,12046.4062530,E,4,17,1.4,2.4002,M,8.299,M,01,0004*63
$GPHPD,0,0.000,318.90,-0.07,-13.05,31.5907182,120.7734376,2.400,13631571.427,24922539.206,2.400,0.000,0.000,0.000,0.000,0.000,0.000,0.000,17,16,4*7B
$GPGGA,081107.40,3135.4432099,N,12046.4061342,E,4,17,1.4,2.3867,M,8.299,M,01,0004*64
$GPHPD,0,0.000,319.03,-0.35,-13.03,31.5907202,120.7734356,2.387,13631569.508,24922537.085,2.387,0.000,0.000,0.000,0.000,0.000,0.000,0.000,17,15,4*7F
$GPGGA,081107.60,3135.4433166,N,12046.4060193,E,4,17,1.4,2.4479,M,8.299,M,00,0004*6C
$GPHPD,0,0.000,319.14,-1.14,-13.03,31.5907219,120.7734337,2.448,13631567.760,24922535.079,2.448,0.000,0.000,0.000,0.000,0.000,0.000,0.000,17,15,4*75
$GPGGA,081107.80,3135.4434365,N,12046.4059001,E,4,17,1.4,2.4070,M,8.299,M,00,0004*69
$GPHPD,0,0.000,319.21,-3.08,-13.01,31.5907239,120.7734317,2.407,13631565.816,24922532.944,2.407,0.000,0.000,0.000,0.000,0.000,0.000,0.000,17,15,4*72
$GPGGA,081108.00,3135.4435585,N,12046.4057911,E,4,16,1.5,2.3809,M,8.299,M,01,0004*61
$GPHPD,0,0.000,319.38,-2.06,-13.01,31.5907260,120.7734299,2.381,13631563.863,24922530.920,2.381,0.000,0.000,0.000,0.000,0.000,0.000,0.000,16,14,4*7A
$GPGGA,081108.20,3135.4436751,N,12046.4056837,E,4,16,1.7,2.3695,M,8.299,M,01,0004*66
$GPHPD,0,0.000,318.55,-0.27,-13.03,31.5907279,120.7734281,2.370,13631561.990,24922528.946,2.370,0.000,0.000,0.000,0.000,0.000,0.000,0.000,16,15,4*75
$GPGGA,081108.40,3135.4437889,N,12046.4055671,E,4,16,2.1,2.3541,M,8.299,M,01,0004*6B
$GPHPD,0,0.000,318.33,-2.69,-13.02,31.5907298,120.7734261,2.354,13631560.138,24922526.878,2.354,0.000,0.000,0.000,0.000,0.000,0.000,0.000,16,16,4*77
$GPGGA,081108.60,3135.4438985,N,12046.4054497,E,4,15,1.7,2.3729,M,8.299,M,01,0004*6A
$GPHPD,0,0.000,318.06,-0.82,-13.02,31.5907316,120.7734242,2.373,13631558.344,24922524.825,2.373,0.000,0.000,0.000,0.000,0.000,0.000,0.000,15,15,4*78
$GPGGA,081108.80,3135.4440178,N,12046.4053314,E,4,15,2.2,2.3645,M,8.299,M,00,0004*66
$GPHPD,0,0.000,318.60,0.03,-13.03,31.5907336,120.7734222,2.365,13631556.410,24922522.704,2.365,0.000,0.000,0.000,0.000,0.000,0.000,0.000,15,15,4*5B
$GPGGA,081109.00,3135.4441333,N,12046.4052193,E,4,15,1.7,2.3646,M,8.299,M,01,0004*6B
$GPHPD,0,0.000,318.35,-0.05,-13.04,31.5907356,120.7734203,2.365,13631554.543,24922520.680,2.365,0.000,0.000,0.000,0.000,0.000,0.000,0.000,15,15,4*78
$GPGGA,081109.20,3135.4442465,N,12046.4051033,E,4,15,1.7,2.3541,M,8.299,M,01,0004*62
$GPHPD,0,0.000,318.44,-1.38,-13.05,31.5907374,120.7734184,2.354,13631552.700,24922518.623,2.354,0.000,0.000,0.000,0.000,0.000,0.000,0.000,15,15,4*7D
$GPGGA,081109.40,3135.4443620,N,12046.4049863,E,4,15,1.7,2.3656,M,8.299,M,01,0004*67
$GPHPD,0,0.000,318.70,-1.16,-13.08,31.5907394,120.7734164,2.366,13631550.823,24922516.540,2.366,0.000,0.000,0.000,0.000,0.000,0.000,0.000,15,16,4*7C
$GPGGA,081109.60,3135.4444650,N,12046.4048760,E,4,16,1.5,2.4072,M,8.299,M,00,0004*6F
$GPHPD,0,0.000,318.18,0.12,-13.09,31.5907411,120.7734146,2.407,13631549.138,24922514.611,2.407,0.000,0.000,0.000,0.000,0.000,0.000,0.000,16,17,4*5D
$GPGGA,081109.80,3135.4445874,N,12046.4047601,E,4,16,1.5,2.3617,M,8.299,M,00,0004*63
$GPHPD,0,0.000,318.06,-1.17,-13.07,31.5907431,120.7734127,2.362,13631547.165,24922512.501,2.362,0.000,0.000,0.000,0.000,0.000,0.000,0.000,16,17,4*72
$GPGGA,081110.00,3135.4446995,N,12046.4046430,E,4,16,1.7,2.3645,M,8.299,M,01,0004*6B
$GPHPD,0,0.000,317.86,-0.27,-13.06,31.5907450,120.7734107,2.365,13631545.336,24922510.437,2.365,0.000,0.000,0.000,0.000,0.000,0.000,0.000,16,17,4*73
$GPGGA,081110.20,3135.4448130,N,12046.4045251,E,4,16,1.7,2.3733,M,8.299,M,01,0004*62
$GPHPD,0,0.000,317.93,-0.07,-13.04,31.5907469,120.7734088,2.373,13631543.485,24922508.355,2.373,0.000,0.000,0.000,0.000,0.000,0.000,0.000,16,17,4*78
$GPGGA,081110.40,3135.4449237,N,12046.4044132,E,4,16,1.7,2.3840,M,8.299,M,01,0004*6D
$GPHPD,0,0.000,317.99,0.59,-13.05,31.5907487,120.7734069,2.384,13631541.687,24922506.361,2.384,0.000,0.000,0.000,0.000,0.000,0.000,0.000,16,16,4*50
$GPGGA,081110.60,3135.4450397,N,12046.4042951,E,4,16,1.7,2.3806,M,8.299,M,00,0004*64
$GPHPD,0,0.000,318.00,-0.51,-13.05,31.5907507,120.7734049,2.381,13631539.800,24922504.262,2.381,0.000,0.000,0.000,0.000,0.000,0.000,0.000,16,16,4*7F
$GPGGA,081110.80,3135.4451547,N,12046.4041803,E,4,16,1.7,2.3710,M,8.299,M,00,0004*6D
$GPHPD,0,0.000,318.00,-0.37,-13.05,31.5907526,120.7734030,2.371,13631537.935,24922502.209,2.371,0.000,0.000,0.000,0.000,0.000,0.000,0.000,16,16,4*70
$GPGGA,081111.00,3135.4452662,N,12046.4040663,E,4,16,2.2,2.3913,M,8.299,M,01,0004*60
$GPHPD,0,0.000,318.11,0.73,-13.07,31.5907544,120.7734011,2.391,13631536.121,24922500.186,2.391,0.000,0.000,0.000,0.000,0.000,0.000,0.000,16,16,4*52
$GPGGA,081111.20,3135.4453837,N,12046.4039496,E,4,16,2.2,2.3677,M,8.299,M,01,0004*66
$GPHPD,0,0.000,317.87,0.65,-13.04,31.5907564,120.7733992,2.368,13631534.216,24922498.095,2.368,0.000,0.000,0.000,0.000,0.000,0.000,0.000,16,16,4*57
$GPGGA,081111.40,3135.4454966,N,12046.4038369,E,4,16,2.2,2.3705,M,8.299,M,01,0004*60
$GPHPD,0,0.000,318.08,0.24,-13.05,31.5907583,120.7733973,2.371,13631532.384,24922496.079,2.371,0.000,0.000,0.000,0.000,0.000,0.000,0.000,16,17,4*5C
$GPGGA,081111.60,3135.4456111,N,12046.4037196,E,4,16,1.7,2.3702,M,8.299,M,00,0004*65
$GPHPD,0,0.000,317.96,0.29,-13.05,31.5907602,120.7733953,2.370,13631530.521,24922493.998,2.370,0.000,0.000,0.000,0.000,0.000,0.000,0.000,16,17,4*59
$GPGGA,081111.80,3135.4457222,N,12046.4036010,E,4,16,1.7,2.3897,M,8.299,M,00,0004*64
$GPHPD,0,0.000,317.90,0.52,-13.07,31.5907620,120.7733934,2.390,13631528.703,24922491.922,2.390,0.000,0.000,0.000,0.000,0.000,0.000,0.000,16,17,4*58
$GPGGA,081112.00,3135.4458379,N,12046.4034934,E,4,16,1.7,2.3685,M,8.299,M,01,0004*6E
$GPHPD,0,0.000,318.08,0.54,-13.11,31.5907640,120.7733916,2.369,13631526.842,24922489.951,2.369,0.000,0.000,0.000,0.000,0.000,0.000,0.000,16,17,4*58
$GPGGA,081112.20,3135.4459508,N,12046.4033766,E,4,16,1.9,2.3750,M,8.299,M,01,0004*64
$GPHPD,0,0.000,317.79,0.89,-13.17,31.5907658,120.7733896,2.375,13631525.003,24922487.886,2.375,0.000,0.000,0.000,0.000,0.000,0.000,0.000,16,17,4*5C
$GPGGA,081112.40,3135.4460635,N,12046.4032657,E,4,16,1.9,2.3745,M,8.299,M,01,0004*63
$GPHPD,0,0.000,317.98,-0.21,-13.17,31.5907677,120.7733878,2.375,13631523.178,24922485.893,2.375,0.000,0.000,0.000,0.000,0.000,0.000,0.000,16,17,4*7C
$GPGGA,081112.60,3135.4461741,N,12046.4031482,E,4,16,1.9,2.3641,M,8.299,M,00,0004*6F
$GPHPD,0,0.000,318.01,-0.09,-13.20,31.5907696,120.7733858,2.364,13631521.369,24922483.832,2.364,0.000,0.000,0.000,0.000,0.000,0.000,0.000,16,16,4*7C
$GPGGA,081112.80,3135.4462903,N,12046.4030363,E,4,16,1.9,2.3435,M,8.299,M,00,0004*62
$GPHPD,0,0.000,318.13,0.57,-13.21,31.5907715,120.7733839,2.344,13631519.493,24922481.807,2.344,0.000,0.000,0.000,0.000,0.000,0.000,0.000,16,16,4*58
$GPGGA,081113.00,3135.4464034,N,12046.4029215,E,4,16,1.9,2.3509,M,8.299,M,01,0004*67
$GPHPD,0,0.000,318.20,0.54,-13.22,31.5907734,120.7733820,2.351,13631517.654,24922479.765,2.351,0.000,0.000,0.000,0.000,0.000,0.000,0.000,16,16,4*58
$GPGGA,081113.20,3135.4465161,N,12046.4028052,E,4,16,1.9,2.3466,M,8.299,M,01,0004*6D
$GPHPD,0,0.000,317.98,0.13,-13.24,31.5907753,120.7733801,2.347,13631515.818,24922477.706,2.347,0.000,0.000,0.000,0.000,0.000,0.000,0.000,16,16,4*5C
$GPGGA,081113.40,3135.4466296,N,12046.4026901,E,4,17,1.9,2.3417,M,8.299,M,01,0004*65
$GPHPD,0,0.000,318.26,-0.24,-13.26,31.5907772,120.7733782,2.342,13631513.974,24922475.658,2.342,0.000,0.000,0.000,0.000,0.000,0.000,0.000,17,17,4*7F
$GPGGA,081113.60,3135.4467421,N,12046.4025775,E,4,16,1.9,2.3530,M,8.299,M,00,0004*66
$GPHPD,0,0.000,318.19,0.45,-13.25,31.5907790,120.7733763,2.353,13631512.148,24922473.646,2.353,0.000,0.000,0.000,0.000,0.000,0.000,0.000,16,17,4*57
$GPGGA,081113.80,3135.4468567,N,12046.4024612,E,4,16,1.9,2.3507,M,8.299,M,00,0004*61
$GPHPD,0,0.000,318.37,-0.87,-13.26,31.5907809,120.7733744,2.351,13631510.285,24922471.577,2.351,0.000,0.000,0.000,0.000,0.000,0.000,0.000,16,17,4*72
$GPGGA,081114.00,3135.4469646,N,12046.4023416,E,4,16,1.6,2.3825,M,8.299,M,01,0004*6D
$GPHPD,0,0.000,318.33,-0.56,-13.23,31.5907827,120.7733724,2.383,13631508.511,24922469.507,2.383,0.000,0.000,0.000,0.000,0.000,0.000,0.000,16,17,4*78
$GPGGA,081114.20,3135.4470763,N,12046.4022292,E,4,16,1.6,2.3920,M,8.299,M,01,0004*6E
$GPHPD,0,0.000,318.47,-0.78,-13.23,31.5907846,120.7733705,2.392,13631506.697,24922467.501,2.392,0.000,0.000,0.000,0.000,0.000,0.000,0.000,16,17,4*78
$GPGGA,081114.40,3135.4471899,N,12046.4021139,E,4,16,1.6,2.3990,M,8.299,M,01,0004*69
$GPHPD,0,0.000,318.28,-0.83,-13.22,31.5907865,120.7733686,2.399,13631504.851,24922465.450,2.399,0.000,0.000,0.000,0.000,0.000,0.000,0.000,16,17,4*7E
$GPGGA,081114.60,3135.4473030,N,12046.4019968,E,4,16,1.6,2.3913,M,8.299,M,00,0004*6F
$GPHPD,0,0.000,318.54,-0.95,-13.20,31.5907884,120.7733666,2.391,13631503.007,24922463.380,2.391,0.000,0.000,0.000,0.000,0.000,0.000,0.000,16,17,4*71
$GPGGA,081114.80,3135.4474139,N,12046.4018784,E,4,16,1.5,2.4258,M,8.299,M,00,0004*63
