$GPGGA,041330.40,3135.5686435,N,12046.4847455,E,4,15,1.4,2.6264,M,8.303,M,01,0004*61
$GPHPD,0,0.000,146.06,-0.11,-14.94,31.5928107,120.7747458,2.626,13629945.017,24922754.878,2.626,0.000,0.000,0.000,0.000,0.000,0.000,0.000,15,15,4*74
$GPGGA,041330.60,3135.5685491,N,12046.4848190,E,4,16,1.4,2.6336,M,8.303,M,00,0004*69
$GPHPD,0,0.000,145.97,0.25,-14.95,31.5928092,120.7747470,2.634,13629946.507,24922756.314,2.634,0.000,0.000,0.000,0.000,0.000,0.000,0.000,16,15,4*54
$GPGGA,041330.80,3135.5684532,N,12046.4848925,E,4,16,1.4,2.6353,M,8.303,M,00,0004*6B
$GPHPD,0,0.000,146.14,-0.06,-15.00,31.5928076,120.7747482,2.635,13629948.017,24922757.759,2.635,0.000,0.000,0.000,0.000,0.000,0.000,0.000,16,15,4*7C
$GPGGA,041331.00,3135.5683589,N,12046.4849612,E,4,16,1.4,2.6274,M,8.303,M,01,0004*6A
$GPHPD,0,0.000,145.97,-0.14,-15.06,31.5928060,120.7747494,2.627,13629949.496,24922759.136,2.627,0.000,0.000,0.000,0.000,0.000,0.000,0.000,16,15,4*7C
$GPGGA,041331.20,3135.5682632,N,12046.4850352,E,4,16,1.4,2.6298,M,8.303,M,01,0004*61
$GPHPD,0,0.000,146.16,-0.06,-15.09,31.5928044,120.7747506,2.630,13629951.005,24922760.585,2.630,0.000,0.000,0.000,0.000,0.000,0.000,0.000,16,15,4*77
$GPGGA,041331.40,3135.5681709,N,12046.4851075,E,4,16,1.4,2.6283,M,8.303,M,01,0004*60
$GPHPD,0,0.000,146.08,0.01,-15.08,31.5928028,120.7747518,2.628,13629952.462,24922761.994,2.628,0.000,0.000,0.000,0.000,0.000,0.000,0.000,16,15,4*5D
$GPGGA,041331.60,3135.5680770,N,12046.4851792,E,4,16,1.4,2.6189,M,8.303,M,00,0004*6B
$GPHPD,0,0.000,146.03,-0.19,-15.07,31.5928013,120.7747530,2.619,13629953.941,24922763.405,2.619,0.000,0.000,0.000,0.000,0.000,0.000,0.000,16,15,4*75
$GPGGA,041331.80,3135.5679894,N,12046.4852464,E,4,16,1.4,2.6276,M,8.303,M,00,0004*6C
$GPHPD,0,0.000,145.94,0.13,-15.01,31.5927998,120.7747541,2.628,13629955.321,24922764.726,2.628,0.000,0.000,0.000,0.000,0.000,0.000,0.000,16,15,4*55
$GPGGA,041332.00,3135.5679061,N,12046.4853101,E,4,16,1.4,2.6205,M,8.303,M,01,0004*67
$GPHPD,0,0.000,145.77,-0.43,-14.95,31.5927984,120.7747552,2.621,13629956.633,24922765.979,2.621,0.000,0.000,0.000,0.000,0.000,0.000,0.000,16,15,4*73
$GPGGA,041332.20,3135.5678287,N,12046.4853696,E,4,16,1.4,2.6293,M,8.303,M,01,0004*68
$GPHPD,0,0.000,145.66,0.13,-14.92,31.5927971,120.7747562,2.629,13629957.853,24922767.147,2.629,0.000,0.000,0.000,0.000,0.000,0.000,0.000,16,15,4*5B
$GPGGA,041332.40,3135.5677548,N,12046.4854293,E,4,16,1.4,2.6292,M,8.303,M,01,0004*62
$GPHPD,0,0.000,145.72,-0.11,-14.89,31.5927959,120.7747572,2.629,13629959.023,24922768.297,2.629,0.000,0.000,0.000,0.000,0.000,0.000,0.000,16,15,4*70
$GPGGA,041332.60,3135.5676770,N,12046.4854856,E,4,16,1.4,2.6331,M,8.303,M,00,0004*62
$GPHPD,0,0.000,145.68,-0.25,-14.89,31.5927946,120.7747581,2.633,13629960.242,24922769.428,2.633,0.000,0.000,0.000,0.000,0.000,0.000,0.000,16,15,4*72
$GPGGA,041332.80,3135.5675990,N,12046.4855462,E,4,16,1.4,2.6320,M,8.303,M,00,0004*65
$GPHPD,0,0.000,145.29,-0.17,-14.90,31.5927933,120.7747591,2.632,13629961.473,24922770.613,2.632,0.000,0.000,0.000,0.000,0.000,0.000,0.000,16,15,4*7A
$GPGGA,041333.00,3135.5675301,N,12046.4856046,E,4,16,1.4,2.6300,M,8.303,M,01,0004*6C
$GPHPD,0,0.000,145.34,0.15,-14.93,31.5927922,120.7747601,2.630,13629962.569,24922771.718,2.630,0.000,0.000,0.000,0.000,0.000,0.000,0.000,16,15,4*52
$GPGGA,041333.20,3135.5674491,N,12046.4856612,E,4,16,1.4,2.6215,M,8.303,M,01,0004*63
$GPHPD,0,0.000,145.56,0.49,-14.95,31.5927908,120.7747610,2.622,13629963.835,24922772.872,2.622,0.000,0.000,0.000,0.000,0.000,0.000,0.000,16,16,4*57
$GPGGA,041333.40,3135.5673741,N,12046.4857274,E,4,16,1.4,2.6367,M,8.303,M,01,0004*6D
$GPHPD,0,0.000,145.34,0.40,-14.94,31.5927896,120.7747621,2.637,13629965.034,24922774.107,2.637,0.000,0.000,0.000,0.000,0.000,0.000,0.000,16,16,4*5D
$GPGGA,041333.60,3135.5672978,N,12046.4857861,E,4,16,1.4,2.6239,M,8.303,M,00,0004*6F
$GPHPD,0,0.000,145.20,0.05,-14.94,31.5927883,120.7747631,2.624,13629966.236,24922775.259,2.624,0.000,0.000,0.000,0.000,0.000,0.000,0.000,16,16,4*56
$GPGGA,041333.80,3135.5672165,N,12046.4858490,E,4,16,1.4,2.6282,M,8.303,M,00,0004*68
$GPHPD,0,0.000,145.11,0.19,-15.03,31.5927869,120.7747642,2.628,13629967.518,24922776.491,2.628,0.000,0.000,0.000,0.000,0.000,0.000,0.000,16,16,4*5D
$GPGGA,041334.00,3135.5671276,N,12046.4859185,E,4,16,1.4,2.6312,M,8.303,M,01,0004*6C
$GPHPD,0,0.000,145.15,0.11,-15.06,31.5927855,120.7747653,2.631,13629968.921,24922777.846,2.631,0.000,0.000,0.000,0.000,0.000,0.000,0.000,16,16,4*55
$GPGGA,041334.20,3135.5670452,N,12046.4859821,E,4,16,1.4,2.6231,M,8.303,M,01,0004*68
$GPHPD,0,0.000,145.09,0.17,-14.98,31.5927841,120.7747664,2.623,13629970.220,24922779.093,2.623,0.000,0.000,0.000,0.000,0.000,0.000,0.000,16,16,4*54
$GPGGA,041334.40,3135.5669698,N,12046.4860449,E,4,16,1.4,2.6339,M,8.303,M,01,0004*63
$GPHPD,0,0.000,144.98,0.40,-14.84,31.5927828,120.7747674,2.634,13629971.418,24922780.289,2.634,0.000,0.000,0.000,0.000,0.000,0.000,0.000,16,16,4*5F
$GPGGA,041334.60,3135.5669018,N,12046.4860984,E,4,16,1.4,2.6377,M,8.303,M,00,0004*68
$GPHPD,0,0.000,145.18,0.35,-14.80,31.5927817,120.7747683,2.638,13629972.492,24922781.330,2.638,0.000,0.000,0.000,0.000,0.000,0.000,0.000,16,16,4*57
$GPGGA,041334.80,3135.5668364,N,12046.4861526,E,4,16,1.4,2.6421,M,8.303,M,00,0004*6E
$GPHPD,0,0.000,145.15,0.01,-14.77,31.5927806,120.7747692,2.642,13629973.531,24922782.364,2.642,0.000,0.000,0.000,0.000,0.000,0.000,0.000,16,16,4*5E
$GPGGA,041335.00,3135.5667737,N,12046.4862012,E,4,16,1.4,2.6425,M,8.303,M,01,0004*6E
$GPHPD,0,0.000,144.89,0.11,-14.76,31.5927796,120.7747700,2.643,13629974.520,24922783.315,2.643,0.000,0.000,0.000,0.000,0.000,0.000,0.000,16,16,4*56
$GPGGA,041335.20,3135.5667135,N,12046.4862538,E,4,16,1.4,2.6398,M,8.303,M,01,0004*64
$GPHPD,0,0.000,144.81,0.13,-14.79,31.5927786,120.7747709,2.640,13629975.481,24922784.300,2.640,0.000,0.000,0.000,0.000,0.000,0.000,0.000,16,16,4*53
$GPGGA,041335.40,3135.5666529,N,12046.4863024,E,4,16,1.4,2.6347,M,8.303,M,01,0004*61
$GPHPD,0,0.000,144.96,0.38,-14.85,31.5927775,120.7747717,2.635,13629976.440,24922785.238,2.635,0.000,0.000,0.000,0.000,0.000,0.000,0.000,16,16,4*59
$GPGGA,041335.60,3135.5665906,N,12046.4863508,E,4,16,1.4,2.6392,M,8.303,M,00,0004*63
$GPHPD,0,0.000,144.86,0.61,-14.92,31.5927765,120.7747725,2.639,13629977.423,24922786.185,2.639,0.000,0.000,0.000,0.000,0.000,0.000,0.000,16,16,4*50
$GPGGA,041335.80,3135.5665244,N,12046.4864024,E,4,16,1.4,2.6297,M,8.303,M,00,0004*68
$GPHPD,0,0.000,144.83,0.33,-15.01,31.5927754,120.7747734,2.630,13629978.468,24922787.192,2.630,0.000,0.000,0.000,0.000,0.000,0.000,0.000,16,16,4*5C
$GPGGA,041336.00,3135.5664588,N,12046.4864521,E,4,16,1.4,2.6381,M,8.303,M,01,0004*62
$GPHPD,0,0.000,144.82,0.67,-15.12,31.5927743,120.7747742,2.638,13629979.500,24922788.173,2.638,0.000,0.000,0.000,0.000,0.000,0.000,0.000,16,16,4*57
$GPGGA,041336.20,3135.5663931,N,12046.4865056,E,4,16,1.4,2.6448,M,8.303,M,01,0004*6F
$GPHPD,0,0.000,144.70,0.86,-15.15,31.5927732,120.7747751,2.645,13629980.542,24922789.201,2.645,0.000,0.000,0.000,0.000,0.000,0.000,0.000,16,16,4*51
$GPGGA,041336.40,3135.5663334,N,12046.4865549,E,4,16,1.4,2.6435,M,8.303,M,01,0004*67
$GPHPD,0,0.000,144.77,0.67,-15.09,31.5927722,120.7747759,2.644,13629981.489,24922790.143,2.644,0.000,0.000,0.000,0.000,0.000,0.000,0.000,16,16,4*57
$GPGGA,041336.60,3135.5662752,N,12046.4865961,E,4,16,1.4,2.6519,M,8.303,M,00,0004*68
$GPHPD,0,0.000,144.71,0.44,-15.04,31.5927713,120.7747766,2.652,13629982.399,24922790.978,2.652,0.000,0.000,0.000,0.000,0.000,0.000,0.000,16,16,4*56
$GPGGA,041336.80,3135.5662244,N,12046.4866361,E,4,16,1.4,2.6490,M,8.303,M,00,0004*6D
$GPHPD,0,0.000,144.83,0.41,-15.03,31.5927704,120.7747773,2.649,13629983.202,24922791.756,2.649,0.000,0.000,0.000,0.000,0.000,0.000,0.000,16,16,4*5A
$GPGGA,041337.00,3135.5661768,N,12046.4866757,E,4,16,1.4,2.6517,M,8.303,M,01,0004*62
$GPHPD,0,0.000,144.77,0.44,-15.09,31.5927696,120.7747779,2.652,13629983.958,24922792.511,2.652,0.000,0.000,0.000,0.000,0.000,0.000,0.000,16,16,4*58
$GPGGA,041337.20,3135.5661263,N,12046.4867151,E,4,16,1.4,2.6517,M,8.303,M,01,0004*6F
$GPHPD,0,0.000,144.97,0.66,-15.18,31.5927688,120.7747786,2.652,13629984.755,24922793.280,2.652,0.000,0.000,0.000,0.000,0.000,0.000,0.000,16,16,4*53
$GPGGA,041337.40,3135.5660711,N,12046.4867601,E,4,16,1.4,2.6451,M,8.303,M,01,0004*69
$GPHPD,0,0.000,144.81,0.99,-15.28,31.5927679,120.7747793,2.645,13629985.630,24922794.144,2.645,0.000,0.000,0.000,0.000,0.000,0.000,0.000,16,16,4*52
$GPGGA,041337.60,3135.5660083,N,12046.4868090,E,4,16,1.4,2.6515,M,8.303,M,00,0004*66
$GPHPD,0,0.000,144.85,0.84,-15.35,31.5927668,120.7747802,2.652,13629986.621,24922795.099,2.652,0.000,0.000,0.000,0.000,0.000,0.000,0.000,16,16,4*52
$GPGGA,041337.80,3135.5659447,N,12046.4868625,E,4,16,1.4,2.6436,M,8.303,M,00,0004*66
$GPHPD,0,0.000,144.69,0.52,-15.42,31.5927657,120.7747810,2.644,13629987.632,24922796.114,2.644,0.000,0.000,0.000,0.000,0.000,0.000,0.000,16,16,4*50
$GPGGA,041338.00,3135.5658737,N,12046.4869208,E,4,16,1.4,2.6492,M,8.303,M,01,0004*61
$GPHPD,0,0.000,144.66,0.39,-15.47,31.5927646,120.7747820,2.649,13629988.759,24922797.231,2.649,0.000,0.000,0.000,0.000,0.000,0.000,0.000,16,16,4*52
$GPGGA,041338.20,3135.5657963,N,12046.4869848,E,4,16,1.4,2.6434,M,8.303,M,01,0004*61
$GPHPD,0,0.000,144.39,0.24,-15.49,31.5927633,120.7747831,2.643,13629989.988,24922798.453,2.643,0.000,0.000,0.000,0.000,0.000,0.000,0.000,16,16,4*56
$GPGGA,041338.40,3135.5657143,N,12046.4870516,E,4,16,1.4,2.6529,M,8.303,M,01,0004*6E
$GPHPD,0,0.000,144.26,0.50,-15.50,31.5927619,120.7747842,2.653,13629991.287,24922799.736,2.653,0.000,0.000,0.000,0.000,0.000,0.000,0.000,16,16,4*53
$GPGGA,041338.60,3135.5656380,N,12046.4871197,E,4,16,1.4,2.6484,M,8.303,M,00,0004*6B
$GPHPD,0,0.000,144.09,0.40,-15.49,31.5927606,120.7747853,2.648,13629992.509,24922801.001,2.648,0.000,0.000,0.000,0.000,0.000,0.000,0.000,16,16,4*56
$GPGGA,041338.80,3135.5655557,N,12046.4871888,E,4,16,1.4,2.6479,M,8.303,M,00,0004*6F
$GPHPD,0,0.000,144.29,0.48,-15.42,31.5927593,120.7747865,2.648,13629993.817,24922802.313,2.648,0.000,0.000,0.000,0.000,0.000,0.000,0.000,16,16,4*5D
$GPGGA,041339.00,3135.5654760,N,12046.4872548,E,4,16,1.4,2.6576,M,8.303,M,01,0004*6C
$GPHPD,0,0.000,143.99,0.39,-15.28,31.5927579,120.7747876,2.658,13629995.083,24922803.573,2.658,0.000,0.000,0.000,0.000,0.000,0.000,0.000,16,16,4*5F
$GPGGA,041339.20,3135.5654020,N,12046.4873140,E,4,16,1.4,2.6661,M,8.303,M,01,0004*65
$GPHPD,0,0.000,144.44,0.19,-15.16,31.5927567,120.7747886,2.666,13629996.254,24922804.718,2.666,0.000,0.000,0.000,0.000,0.000,0.000,0.000,16,16,4*54
$GPGGA,041339.40,3135.5653293,N,12046.4873706,E,4,16,1.4,2.6694,M,8.303,M,01,0004*60
$GPHPD,0,0.000,144.32,-0.01,-15.05,31.5927555,120.7747895,2.669,13629997.401,24922805.823,2.669,0.000,0.000,0.000,0.000,0.000,0.000,0.000,16,16,4*71
$GPGGA,041339.60,3135.5652612,N,12046.4874260,E,4,16,1.4,2.6679,M,8.303,M,00,0004*6E
$GPHPD,0,0.000,144.39,-0.12,-14.96,31.5927544,120.7747904,2.668,13629998.480,24922806.888,2.668,0.000,0.000,0.000,0.000,0.000,0.000,0.000,16,16,4*7E
$GPGGA,041339.80,3135.5651952,N,12046.4874801,E,4,16,1.4,2.6756,M,8.303,M,00,0004*69
$GPHPD,0,0.000,144.26,0.12,-14.89,31.5927533,120.7747913,2.676,13629999.527,24922807.924,2.676,0.000,0.000,0.000,0.000,0.000,0.000,0.000,16,16,4*5E
$GPGGA,041340.00,3135.5651266,N,12046.4875330,E,4,16,1.4,2.6693,M,8.303,M,01,0004*62
$GPHPD,0,0.000,144.42,-0.27,-14.86,31.5927521,120.7747922,2.669,13630000.608,24922808.961,2.669,0.000,0.000,0.000,0.000,0.000,0.000,0.000,16,16,4*78
$GPGGA,041340.20,3135.5650569,N,12046.4875911,E,4,16,1.4,2.6752,M,8.303,M,01,0004*6C
$GPHPD,0,0.000,144.45,0.14,-14.86,31.5927509,120.7747932,2.675,13630001.716,24922810.068,2.675,0.000,0.000,0.000,0.000,0.000,0.000,0.000,16,16,4*5F
$GPGGA,041340.40,3135.5649852,N,12046.4876486,E,4,16,1.4,2.6865,M,8.303,M,01,0004*6C
$GPHPD,0,0.000,144.66,-0.03,-14.89,31.5927498,120.7747941,2.687,13630002.851,24922811.178,2.687,0.000,0.000,0.000,0.000,0.000,0.000,0.000,16,16,4*79
$GPGGA,041340.60,3135.5649073,N,12046.4877098,E,4,16,1.4,2.6843,M,8.303,M,00,0004*6A
$GPHPD,0,0.000,144.49,-0.17,-14.94,31.5927485,120.7747952,2.684,13630004.081,24922812.370,2.684,0.000,0.000,0.000,0.000,0.000,0.000,0.000,16,16,4*79
$GPGGA,041340.80,3135.5648241,N,12046.4877745,E,4,16,1.4,2.6742,M,8.303,M,00,0004*6F
$GPHPD,0,0.000,144.62,0.06,-15.05,31.5927471,120.7747962,2.674,13630005.394,24922813.634,2.674,0.000,0.000,0.000,0.000,0.000,0.000,0.000,16,16,4*5E
$GPGGA,041341.00,3135.5647321,N,12046.4878499,E,4,16,1.4,2.6760,M,8.303,M,01,0004*62
$GPHPD,0,0.000,144.65,0.22,-15.19,31.5927455,120.7747975,2.676,13630006.853,24922815.079,2.676,0.000,0.000,0.000,0.000,0.000,0.000,0.000,16,16,4*58
$GPGGA,041341.20,3135.5646304,N,12046.4879277,E,4,16,1.4,2.6727,M,8.303,M,01,0004*62
$GPHPD,0,0.000,144.53,0.43,-15.29,31.5927438,120.7747988,2.673,13630008.455,24922816.609,2.673,0.000,0.000,0.000,0.000,0.000,0.000,0.000,16,16,4*56
$GPGGA,041341.40,3135.5645250,N,12046.4880184,E,4,15,1.4,2.6673,M,8.303,M,01,0004*6D
$GPHPD,0,0.000,144.49,0.07,-15.37,31.5927421,120.7748003,2.667,13630010.135,24922818.316,2.667,0.000,0.000,0.000,0.000,0.000,0.000,0.000,15,16,4*53
$GPGGA,041341.60,3135.5644091,N,12046.4881089,E,4,16,1.4,2.6747,M,8.303,M,00,0004*68
$GPHPD,0,0.000,144.66,0.21,-15.38,31.5927402,120.7748018,2.675,13630011.964,24922820.082,2.675,0.000,0.000,0.000,0.000,0.000,0.000,0.000,16,16,4*55
$GPGGA,041341.80,3135.5642907,N,12046.4882062,E,4,16,1.4,2.6781,M,8.303,M,00,0004*6A
$GPHPD,0,0.000,144.51,0.28,-15.39,31.5927382,120.7748034,2.678,13630013.843,24922821.944,2.678,0.000,0.000,0.000,0.000,0.000,0.000,0.000,16,16,4*5C
$GPGGA,041342.00,3135.5641682,N,12046.4883024,E,4,16,1.4,2.6827,M,8.303,M,01,0004*61
$GPHPD,0,0.000,144.58,0.21,-15.43,31.5927361,120.7748050,2.683,13630015.778,24922823.817,2.683,0.000,0.000,0.000,0.000,0.000,0.000,0.000,16,16,4*5A
$GPGGA,041342.20,3135.5640430,N,12046.4884022,E,4,16,1.4,2.6795,M,8.303,M,01,0004*6E
$GPHPD,0,0.000,144.45,0.05,-15.46,31.5927341,120.7748067,2.680,13630017.758,24922825.750,2.680,0.000,0.000,0.000,0.000,0.000,0.000,0.000,16,16,4*59
$GPGGA,041342.40,3135.5639167,N,12046.4885042,E,4,16,1.4,2.6846,M,8.303,M,01,0004*67
$GPHPD,0,0.000,144.44,-0.09,-15.44,31.5927319,120.7748084,2.685,13630019.758,24922827.715,2.685,0.000,0.000,0.000,0.000,0.000,0.000,0.000,16,16,4*76
$GPGGA,041342.60,3135.5637887,N,12046.4886095,E,4,16,1.4,2.6771,M,8.303,M,00,0004*6F
$GPHPD,0,0.000,144.40,0.11,-15.36,31.5927298,120.7748102,2.677,13630021.789,24922829.729,2.677,0.000,0.000,0.000,0.000,0.000,0.000,0.000,16,16,4*52
$GPGGA,041342.80,3135.5636608,N,12046.4887085,E,4,16,1.4,2.6879,M,8.303,M,00,0004*6E
$GPHPD,0,0.000,144.34,0.26,-15.29,31.5927277,120.7748118,2.688,13630023.806,24922831.668,2.688,0.000,0.000,0.000,0.000,0.000,0.000,0.000,16,16,4*56
$GPGGA,041343.00,3135.5635347,N,12046.4888121,E,4,16,1.4,2.6895,M,8.303,M,01,0004*69
$GPHPD,0,0.000,144.32,0.09,-15.28,31.5927256,120.7748135,2.690,13630025.807,24922833.651,2.690,0.000,0.000,0.000,0.000,0.000,0.000,0.000,16,16,4*5F
$GPGGA,041343.20,3135.5634111,N,12046.4889122,E,4,16,1.4,2.6771,M,8.303,M,01,0004*6C
$GPHPD,0,0.000,144.39,0.03,-15.27,31.5927235,120.7748152,2.677,13630027.765,24922835.577,2.677,0.000,0.000,0.000,0.000,0.000,0.000,0.000,16,16,4*5D
$GPGGA,041343.40,3135.5632855,N,12046.4890142,E,4,16,1.4,2.6863,M,8.303,M,01,0004*67
$GPHPD,0,0.000,144.32,0.42,-15.26,31.5927214,120.7748169,2.686,13630029.755,24922837.538,2.686,0.000,0.000,0.000,0.000,0.000,0.000,0.000,16,16,4*5D
$GPGGA,041343.60,3135.5631579,N,12046.4891174,E,4,16,1.4,2.6909,M,8.303,M,00,0004*6D
$GPHPD,0,0.000,144.45,-0.04,-15.25,31.5927193,120.7748186,2.691,13630031.776,24922839.525,2.691,0.000,0.000,0.000,0.000,0.000,0.000,0.000,16,16,4*76
$GPGGA,041343.80,3135.5630320,N,12046.4892182,E,4,16,1.4,2.6884,M,8.303,M,00,0004*66
$GPHPD,0,0.000,144.38,-0.26,-15.24,31.5927172,120.7748203,2.688,13630033.768,24922841.474,2.688,0.000,0.000,0.000,0.000,0.000,0.000,0.000,16,16,4*7B
$GPGGA,041344.00,3135.5629058,N,12046.4893227,E,4,16,1.4,2.6832,M,8.303,M,01,0004*6C
$GPHPD,0,0.000,144.62,0.01,-15.24,31.5927151,120.7748220,2.683,13630035.772,24922843.468,2.683,0.000,0.000,0.000,0.000,0.000,0.000,0.000,16,16,4*5E
$GPGGA,041344.20,3135.5627773,N,12046.4894226,E,4,16,1.4,2.6906,M,8.303,M,01,0004*6E
$GPHPD,0,0.000,144.87,0.40,-15.24,31.5927130,120.7748237,2.691,13630037.799,24922845.421,2.691,0.000,0.000,0.000,0.000,0.000,0.000,0.000,16,16,4*5D
$GPGGA,041344.40,3135.5626478,N,12046.4895285,E,4,16,1.4,2.6929,M,8.303,M,01,0004*64
$GPHPD,0,0.000,144.78,-0.37,-15.24,31.5927108,120.7748255,2.693,13630039.853,24922847.452,2.693,0.000,0.000,0.000,0.000,0.000,0.000,0.000,16,16,4*7E
$GPGGA,041344.60,3135.5625197,N,12046.4896319,E,4,16,1.4,2.6785,M,8.303,M,00,0004*6F
$GPHPD,0,0.000,144.81,-0.11,-15.25,31.5927087,120.7748272,2.679,13630041.881,24922849.444,2.679,0.000,0.000,0.000,0.000,0.000,0.000,0.000,16,16,4*77
$GPGGA,041344.80,3135.5623883,N,12046.4897402,E,4,16,1.4,2.6860,M,8.303,M,00,0004*63
$GPHPD,0,0.000,144.67,-0.04,-15.27,31.5927065,120.7748290,2.686,13630043.967,24922851.515,2.686,0.000,0.000,0.000,0.000,0.000,0.000,0.000,16,16,4*7E
$GPGGA,041345.00,3135.5622534,N,12046.4898458,E,4,16,1.4,2.6827,M,8.303,M,01,0004*68
$GPHPD,0,0.000,144.92,-0.05,-15.28,31.5927042,120.7748308,2.683,13630046.097,24922853.573,2.683,0.000,0.000,0.000,0.000,0.000,0.000,0.000,16,16,4*7E
$GPGGA,041345.20,3135.5621168,N,12046.4899515,E,4,16,1.4,2.6814,M,8.303,M,01,0004*6D
$GPHPD,0,0.000,144.61,0.22,-15.26,31.5927019,120.7748325,2.681,13630048.251,24922855.643,2.681,0.000,0.000,0.000,0.000,0.000,0.000,0.000,16,15,4*56
$GPGGA,041345.40,3135.5619804,N,12046.4900643,E,4,15,1.4,2.6899,M,8.303,M,01,0004*64
$GPHPD,0,0.000,144.56,0.14,-15.27,31.5926997,120.7748344,2.690,13630050.416,24922857.797,2.690,0.000,0.000,0.000,0.000,0.000,0.000,0.000,15,15,4*5A
$GPGGA,041345.60,3135.5618410,N,12046.4901761,E,4,15,1.4,2.6895,M,8.303,M,00,0004*63
$GPHPD,0,0.000,144.61,0.02,-15.28,31.5926974,120.7748363,2.690,13630052.622,24922859.957,2.690,0.000,0.000,0.000,0.000,0.000,0.000,0.000,15,15,4*55
$GPGGA,041345.80,3135.5617005,N,12046.4902880,E,4,15,1.4,2.6927,M,8.303,M,00,0004*69
$GPHPD,0,0.000,144.58,0.08,-15.25,31.5926950,120.7748381,2.693,13630054.844,24922862.124,2.693,0.000,0.000,0.000,0.000,0.000,0.000,0.000,15,15,4*5E
$GPGGA,041346.00,3135.5615622,N,12046.4904001,E,4,15,1.4,2.6950,M,8.303,M,01,0004*65
$GPHPD,0,0.000,144.51,-0.01,-15.25,31.5926927,120.7748400,2.695,13630057.035,24922864.280,2.695,0.000,0.000,0.000,0.000,0.000,0.000,0.000,15,15,4*7B
$GPGGA,041346.20,3135.5614188,N,12046.4905169,E,4,15,1.4,2.7000,M,8.303,M,01,0004*62
$GPHPD,0,0.000,144.73,-0.04,-15.25,31.5926903,120.7748419,2.700,13630059.308,24922866.523,2.700,0.000,0.000,0.000,0.000,0.000,0.000,0.000,15,15,4*7F
$GPGGA,041346.40,3135.5612751,N,12046.4906294,E,4,15,1.4,2.6976,M,8.303,M,01,0004*6B
$GPHPD,0,0.000,144.74,-0.20,-15.26,31.5926879,120.7748438,2.698,13630061.577,24922868.716,2.698,0.000,0.000,0.000,0.000,0.000,0.000,0.000,15,15,4*7D
$GPGGA,041346.60,3135.5611374,N,12046.4907412,E,4,15,1.4,2.6938,M,8.303,M,00,0004*6B
$GPHPD,0,0.000,144.68,0.03,-15.26,31.5926856,120.7748457,2.694,13630063.759,24922870.866,2.694,0.000,0.000,0.000,0.000,0.000,0.000,0.000,15,15,4*55
$GPGGA,041346.80,3135.5609922,N,12046.4908579,E,4,15,1.4,2.6973,M,8.303,M,00,0004*69
$GPHPD,0,0.000,144.75,0.23,-15.25,31.5926832,120.7748476,2.697,13630066.057,24922873.118,2.697,0.000,0.000,0.000,0.000,0.000,0.000,0.000,15,15,4*56
$GPGGA,041347.00,3135.5608477,N,12046.4909727,E,4,15,1.4,2.6973,M,8.303,M,01,0004*65
$GPHPD,0,0.000,144.69,-0.13,-15.27,31.5926808,120.7748495,2.697,13630068.342,24922875.344,2.697,0.000,0.000,0.000,0.000,0.000,0.000,0.000,15,15,4*77
$GPGGA,041347.20,3135.5607046,N,12046.4910884,E,4,15,1.4,2.6976,M,8.303,M,01,0004*65
$GPHPD,0,0.000,144.47,-0.40,-15.28,31.5926784,120.7748515,2.698,13630070.609,24922877.572,2.698,0.000,0.000,0.000,0.000,0.000,0.000,0.000,15,15,4*72
$GPGGA,041347.40,3135.5605579,N,12046.4912038,E,4,15,1.4,2.6991,M,8.303,M,01,0004*6C
$GPHPD,0,0.000,144.63,0.23,-15.28,31.5926760,120.7748534,2.699,13630072.926,24922879.817,2.699,0.000,0.000,0.000,0.000,0.000,0.000,0.000,15,15,4*55
$GPGGA,041347.60,3135.5604126,N,12046.4913241,E,4,15,1.4,2.7016,M,8.303,M,00,0004*6A
$GPHPD,0,0.000,144.73,0.00,-15.27,31.5926735,120.7748554,2.702,13630075.233,24922882.114,2.702,0.000,0.000,0.000,0.000,0.000,0.000,0.000,15,15,4*5A
$GPGGA,041347.80,3135.5602672,N,12046.4914376,E,4,15,1.4,2.6993,M,8.303,M,00,0004*63
$GPHPD,0,0.000,144.96,0.01,-15.28,31.5926711,120.7748573,2.699,13630077.528,24922884.329,2.699,0.000,0.000,0.000,0.000,0.000,0.000,0.000,15,15,4*59
$GPGGA,041348.00,3135.5601213,N,12046.4915560,E,4,15,1.4,2.6957,M,8.303,M,01,0004*6D
$GPHPD,0,0.000,145.13,0.16,-15.26,31.5926687,120.7748593,2.696,13630079.840,24922886.605,2.696,0.000,0.000,0.000,0.000,0.000,0.000,0.000,15,15,4*59
$GPGGA,041348.20,3135.5599756,N,12046.4916715,E,4,15,1.4,2.6990,M,8.303,M,01,0004*61
$GPHPD,0,0.000,145.08,0.23,-15.25,31.5926663,120.7748612,2.699,13630082.143,24922888.846,2.699,0.000,0.000,0.000,0.000,0.000,0.000,0.000,15,15,4*5F
$GPGGA,041348.40,3135.5598290,N,12046.4917887,E,4,15,1.4,2.7007,M,8.303,M,01,0004*6A
$GPHPD,0,0.000,145.02,-0.12,-15.24,31.5926638,120.7748631,2.701,13630084.462,24922891.113,2.701,0.000,0.000,0.000,0.000,0.000,0.000,0.000,15,15,4*75
$GPGGA,041348.60,3135.5596790,N,12046.4919062,E,4,15,1.4,2.7022,M,8.303,M,00,0004*68
$GPHPD,0,0.000,144.80,0.03,-15.24,31.5926613,120.7748651,2.702,13630086.830,24922893.403,2.702,0.000,0.000,0.000,0.000,0.000,0.000,0.000,15,15,4*53
$GPGGA,041348.80,3135.5595324,N,12046.4920203,E,4,15,1.4,2.7036,M,8.303,M,00,0004*64
$GPHPD,0,0.000,144.80,0.31,-15.24,31.5926589,120.7748670,2.704,13630089.143,24922895.632,2.704,0.000,0.000,0.000,0.000,0.000,0.000,0.000,15,15,4*55
$GPGGA,041349.00,3135.5593867,N,12046.4921385,E,4,15,1.4,2.7070,M,8.303,M,01,0004*6A
$GPHPD,0,0.000,144.79,0.20,-15.23,31.5926564,120.7748690,2.707,13630091.452,24922897.905,2.707,0.000,0.000,0.000,0.000,0.000,0.000,0.000,15,15,4*5C
$GPGGA,041349.20,3135.5592402,N,12046.4922551,E,4,15,1.4,2.7058,M,8.303,M,01,0004*60
$GPHPD,0,0.000,145.09,0.37,-15.23,31.5926540,120.7748709,2.706,13630093.769,24922900.164,2.706,0.000,0.000,0.000,0.000,0.000,0.000,0.000,15,15,4*52
$GPGGA,041349.40,3135.5590940,N,12046.4923715,E,4,15,1.4,2.7193,M,8.303,M,01,0004*6A
$GPHPD,0,0.000,145.22,0.41,-15.23,31.5926516,120.7748729,2.719,13630096.081,24922902.418,2.719,0.000,0.000,0.000,0.000,0.000,0.000,0.000,15,15,4*53
$GPGGA,041349.60,3135.5589477,N,12046.4924850,E,4,15,1.4,2.7180,M,8.303,M,00,0004*63
$GPHPD,0,0.000,145.20,-0.08,-15.23,31.5926491,120.7748748,2.718,13630098.388,24922904.639,2.718,0.000,0.000,0.000,0.000,0.000,0.000,0.000,15,15,4*7B
$GPGGA,041349.80,3135.5588041,N,12046.4926020,E,4,15,1.4,2.7179,M,8.303,M,00,0004*66
$GPHPD,0,0.000,145.23,0.02,-15.21,31.5926467,120.7748767,2.718,13630100.665,24922906.885,2.718,0.000,0.000,0.000,0.000,0.000,0.000,0.000,15,15,4*54
$GPGGA,041350.00,3135.5586541,N,12046.4927130,E,4,15,1.4,2.7192,M,8.304,M,01,0004*6F
$GPHPD,0,0.000,145.27,0.15,-15.20,31.5926442,120.7748786,2.719,13630103.020,24922909.097,2.719,0.000,0.000,0.000,0.000,0.000,0.000,0.000,15,15,4*5F
$GPGGA,041350.20,3135.5585070,N,12046.4928269,E,4,15,1.4,2.7199,M,8.304,M,01,0004*62
$GPHPD,0,0.000,145.16,0.28,-15.19,31.5926418,120.7748804,2.720,13630105.340,24922911.327,2.720,0.000,0.000,0.000,0.000,0.000,0.000,0.000,15,15,4*51
$GPGGA,041350.40,3135.5583584,N,12046.4929464,E,4,15,1.4,2.7157,M,8.304,M,01,0004*64
$GPHPD,0,0.000,145.05,0.03,-15.18,31.5926393,120.7748824,2.716,13630107.692,24922913.632,2.716,0.000,0.000,0.000,0.000,0.000,0.000,0.000,15,15,4*56
$GPGGA,041350.60,3135.5582113,N,12046.4930578,E,4,15,1.4,2.7174,M,8.304,M,00,0004*69
$GPHPD,0,0.000,145.13,0.14,-15.17,31.5926369,120.7748843,2.717,13630110.007,24922915.832,2.717,0.000,0.000,0.000,0.000,0.000,0.000,0.000,15,15,4*58
$GPGGA,041350.80,3135.5580682,N,12046.4931744,E,4,15,1.4,2.7174,M,8.304,M,00,0004*66
$GPHPD,0,0.000,145.09,-0.12,-15.18,31.5926345,120.7748862,2.717,13630112.275,24922918.071,2.717,0.000,0.000,0.000,0.000,0.000,0.000,0.000,15,15,4*7D
$GPGGA,041351.00,3135.5579257,N,12046.4932910,E,4,15,1.4,2.7267,M,8.304,M,01,0004*69
$GPHPD,0,0.000,145.25,0.26,-15.17,31.5926321,120.7748882,2.727,13630114.535,24922920.306,2.727,0.000,0.000,0.000,0.000,0.000,0.000,0.000,15,15,4*57
$GPGGA,041351.20,3135.5577753,N,12046.4934065,E,4,15,1.4,2.7292,M,8.304,M,01,0004*63
$GPHPD,0,0.000,145.25,0.25,-15.17,31.5926296,120.7748901,2.729,13630116.905,24922922.574,2.729,0.000,0.000,0.000,0.000,0.000,0.000,0.000,15,15,4*5F
$GPGGA,041351.40,3135.5576308,N,12046.4935199,E,4,15,1.4,2.7213,M,8.304,M,01,0004*64
$GPHPD,0,0.000,145.32,-0.11,-15.16,31.5926272,120.7748920,2.721,13630119.187,24922924.783,2.721,0.000,0.000,0.000,0.000,0.000,0.000,0.000,15,15,4*7A
$GPGGA,041351.60,3135.5574843,N,12046.4936393,E,4,15,1.4,2.7224,M,8.304,M,00,0004*6E
$GPHPD,0,0.000,145.31,0.10,-15.18,31.5926247,120.7748940,2.722,13630121.509,24922927.075,2.722,0.000,0.000,0.000,0.000,0.000,0.000,0.000,15,15,4*5F
$GPGGA,041351.80,3135.5573385,N,12046.4937520,E,4,15,1.4,2.7220,M,8.304,M,00,0004*6D
$GPHPD,0,0.000,145.46,0.03,-15.18,31.5926223,120.7748959,2.722,13630123.808,24922929.283,2.722,0.000,0.000,0.000,0.000,0.000,0.000,0.000,15,15,4*5C
$GPGGA,041352.00,3135.5571903,N,12046.4938657,E,4,15,1.4,2.7221,M,8.304,M,01,0004*6C
$GPHPD,0,0.000,145.21,-0.12,-15.19,31.5926198,120.7748978,2.722,13630126.143,24922931.517,2.722,0.000,0.000,0.000,0.000,0.000,0.000,0.000,15,15,4*71
$GPGGA,041352.20,3135.5570459,N,12046.4939818,E,4,15,1.4,2.7245,M,8.304,M,01,0004*6B
$GPHPD,0,0.000,145.17,-0.06,-15.19,31.5926174,120.7748997,2.725,13630128.429,24922933.757,2.725,0.000,0.000,0.000,0.000,0.000,0.000,0.000,15,15,4*71
$GPGGA,041352.40,3135.5569003,N,12046.4940981,E,4,15,1.4,2.7290,M,8.304,M,01,0004*69
$GPHPD,0,0.000,145.11,-0.01,-15.18,31.5926150,120.7749016,2.729,13630130.732,24922936.007,2.729,0.000,0.000,0.000,0.000,0.000,0.000,0.000,15,15,4*71
$GPGGA,041352.60,3135.5567498,N,12046.4942143,E,4,15,1.4,2.7304,M,8.304,M,00,0004*6A
$GPHPD,0,0.000,145.12,-0.27,-15.18,31.5926125,120.7749036,2.730,13630133.105,24922938.284,2.730,0.000,0.000,0.000,0.000,0.000,0.000,0.000,15,15,4*70
$GPGGA,041352.80,3135.5566060,N,12046.4943319,E,4,15,1.4,2.7249,M,8.304,M,00,0004*62
$GPHPD,0,0.000,145.08,0.32,-15.19,31.5926101,120.7749055,2.725,13630135.385,24922940.539,2.725,0.000,0.000,0.000,0.000,0.000,0.000,0.000,15,15,4*52
$GPGGA,041353.00,3135.5564588,N,12046.4944457,E,4,15,1.4,2.7289,M,8.304,M,01,0004*6D
$GPHPD,0,0.000,145.37,0.99,-15.20,31.5926076,120.7749074,2.729,13630137.706,24922942.768,2.729,0.000,0.000,0.000,0.000,0.000,0.000,0.000,15,15,4*5E
$GPGGA,041353.20,3135.5563120,N,12046.4945623,E,4,15,1.4,2.7290,M,8.304,M,01,0004*66
$GPHPD,0,0.000,145.14,0.90,-15.19,31.5926052,120.7749094,2.729,13630140.027,24922945.029,2.729,0.000,0.000,0.000,0.000,0.000,0.000,0.000,15,15,4*55
$GPGGA,041353.40,3135.5561691,N,12046.4946808,E,4,15,1.4,2.7284,M,8.304,M,01,0004*6E
$GPHPD,0,0.000,145.21,0.91,-15.19,31.5926028,120.7749113,2.728,13630142.297,24922947.289,2.728,0.000,0.000,0.000,0.000,0.000,0.000,0.000,15,15,4*50
$GPGGA,041353.60,3135.5560188,N,12046.4947963,E,4,15,1.4,2.7315,M,8.304,M,00,0004*67
$GPHPD,0,0.000,145.22,0.82,-15.18,31.5926003,120.7749133,2.732,13630144.665,24922949.557,2.732,0.000,0.000,0.000,0.000,0.000,0.000,0.000,15,15,4*5E
$GPGGA,041353.80,3135.5558720,N,12046.4949130,E,4,15,1.4,2.7357,M,8.304,M,00,0004*60
$GPHPD,0,0.000,145.06,0.77,-15.17,31.5925979,120.7749152,2.736,13630146.986,24922951.819,2.736,0.000,0.000,0.000,0.000,0.000,0.000,0.000,15,15,4*53
$GPGGA,041354.00,3135.5557231,N,12046.4950298,E,4,15,1.4,2.7398,M,8.304,M,01,0004*6E
$GPHPD,0,0.000,145.15,1.04,-15.16,31.5925954,120.7749172,2.740,13630149.338,24922954.094,2.740,0.000,0.000,0.000,0.000,0.000,0.000,0.000,15,15,4*50
$GPGGA,041354.20,3135.5555734,N,12046.4951480,E,4,15,1.4,2.7394,M,8.304,M,01,0004*6C
$GPHPD,0,0.000,145.26,1.11,-15.14,31.5925929,120.7749191,2.739,13630151.703,24922956.390,2.739,0.000,0.000,0.000,0.000,0.000,0.000,0.000,15,15,4*51
$GPGGA,041354.40,3135.5554258,N,12046.4952649,E,4,15,1.4,2.7388,M,8.304,M,01,0004*6D
$GPHPD,0,0.000,144.97,0.59,-15.11,31.5925904,120.7749211,2.739,13630154.036,24922958.659,2.739,0.000,0.000,0.000,0.000,0.000,0.000,0.000,15,15,4*5C
$GPGGA,041354.60,3135.5552789,N,12046.4953846,E,4,15,1.4,2.7329,M,8.304,M,00,0004*6A
$GPHPD,0,0.000,145.35,1.35,-15.09,31.5925880,120.7749231,2.733,13630156.365,24922960.957,2.733,0.000,0.000,0.000,0.000,0.000,0.000,0.000,15,15,4*55
$GPGGA,041354.80,3135.5551271,N,12046.4955040,E,4,15,1.4,2.7382,M,8.304,M,00,0004*6C
$GPHPD,0,0.000,145.22,0.93,-15.09,31.5925855,120.7749251,2.738,13630158.762,24922963.281,2.738,0.000,0.000,0.000,0.000,0.000,0.000,0.000,15,15,4*5E
$GPGGA,041355.00,3135.5549791,N,12046.4956209,E,4,15,1.4,2.7538,M,8.304,M,01,0004*6D
$GPHPD,0,0.000,145.22,1.03,-15.10,31.5925830,120.7749270,2.754,13630161.101,24922965.552,2.754,0.000,0.000,0.000,0.000,0.000,0.000,0.000,15,15,4*58
$GPGGA,041355.20,3135.5548283,N,12046.4957414,E,4,15,1.4,2.7521,M,8.304,M,01,0004*6B
$GPHPD,0,0.000,145.15,0.74,-15.08,31.5925805,120.7749290,2.752,13630163.487,24922967.883,2.752,0.000,0.000,0.000,0.000,0.000,0.000,0.000,15,15,4*56
$GPGGA,041355.40,3135.5546810,N,12046.4958596,E,4,15,1.4,2.7454,M,8.304,M,01,0004*64
$GPHPD,0,0.000,145.32,0.82,-15.09,31.5925780,120.7749310,2.745,13630165.818,24922970.165,2.745,0.000,0.000,0.000,0.000,0.000,0.000,0.000,15,15,4*5B
$GPGGA,041355.60,3135.5545294,N,12046.4959772,E,4,15,1.4,2.7617,M,8.304,M,00,0004*6E
$GPHPD,0,0.000,145.05,0.98,-15.06,31.5925755,120.7749330,2.762,13630168.209,24922972.466,2.762,0.000,0.000,0.000,0.000,0.000,0.000,0.000,15,15,4*52
$GPGGA,041355.80,3135.5543822,N,12046.4960980,E,4,15,1.4,2.7549,M,8.304,M,00,0004*60
$GPHPD,0,0.000,144.73,0.52,-15.07,31.5925730,120.7749350,2.755,13630170.544,24922974.779,2.755,0.000,0.000,0.000,0.000,0.000,0.000,0.000,15,15,4*5C
$GPGGA,041356.00,3135.5542312,N,12046.4962184,E,4,15,1.4,2.7546,M,8.304,M,01,0004*62
$GPHPD,0,0.000,145.08,0.69,-15.08,31.5925705,120.7749370,2.755,13630172.933,24922977.110,2.755,0.000,0.000,0.000,0.000,0.000,0.000,0.000,15,15,4*56
$GPGGA,041356.20,3135.5540834,N,12046.4963384,E,4,15,1.4,2.7592,M,8.304,M,01,0004*67
$GPHPD,0,0.000,145.03,0.96,-15.08,31.5925681,120.7749390,2.759,13630175.275,24922979.417,2.759,0.000,0.000,0.000,0.000,0.000,0.000,0.000,15,15,4*5C
$GPGGA,041356.40,3135.5539343,N,12046.4964633,E,4,15,1.4,2.7572,M,8.304,M,01,0004*64
$GPHPD,0,0.000,145.05,0.60,-15.07,31.5925656,120.7749411,2.757,13630177.645,24922981.791,2.757,0.000,0.000,0.000,0.000,0.000,0.000,0.000,15,15,4*57
$GPGGA,041356.60,3135.5537814,N,12046.4965791,E,4,15,1.4,2.7573,M,8.304,M,00,0004*69
$GPHPD,0,0.000,145.28,0.55,-15.06,31.5925630,120.7749430,2.757,13630180.051,24922984.077,2.757,0.000,0.000,0.000,0.000,0.000,0.000,0.000,15,15,4*5D
$GPGGA,041356.80,3135.5536319,N,12046.4966998,E,4,15,1.4,2.7621,M,8.304,M,00,0004*60
$GPHPD,0,0.000,144.79,0.81,-15.05,31.5925605,120.7749450,2.762,13630182.419,24922986.403,2.762,0.000,0.000,0.000,0.000,0.000,0.000,0.000,15,15,4*5D
$GPGGA,041357.00,3135.5534828,N,12046.4968226,E,4,15,1.4,2.7686,M,8.304,M,01,0004*6E
$GPHPD,0,0.000,144.82,0.77,-15.04,31.5925580,120.7749470,2.769,13630184.785,24922988.752,2.769,0.000,0.000,0.000,0.000,0.000,0.000,0.000,15,15,4*54
$GPGGA,041357.20,3135.5533341,N,12046.4969399,E,4,15,1.4,2.7579,M,8.304,M,01,0004*68
$GPHPD,0,0.000,144.58,0.35,-15.04,31.5925556,120.7749490,2.758,13630187.134,24922991.032,2.758,0.000,0.000,0.000,0.000,0.000,0.000,0.000,15,15,4*56
$GPGGA,041357.40,3135.5531849,N,12046.4970610,E,4,15,1.4,2.7640,M,8.304,M,01,0004*6A
$GPHPD,0,0.000,144.28,0.58,-15.05,31.5925531,120.7749510,2.764,13630189.498,24922993.360,2.764,0.000,0.000,0.000,0.000,0.000,0.000,0.000,15,15,4*58
$GPGGA,041357.60,3135.5530366,N,12046.4971825,E,4,15,1.4,2.7577,M,8.304,M,00,0004*60
$GPHPD,0,0.000,144.35,0.86,-15.02,31.5925506,120.7749530,2.758,13630191.851,24922995.689,2.758,0.000,0.000,0.000,0.000,0.000,0.000,0.000,15,15,4*52
$GPGGA,041357.80,3135.5528898,N,12046.4973081,E,4,15,1.4,2.7627,M,8.304,M,00,0004*6F
$GPHPD,0,0.000,144.33,1.01,-15.02,31.5925482,120.7749551,2.763,13630194.190,24922998.057,2.763,0.000,0.000,0.000,0.000,0.000,0.000,0.000,15,15,4*59
$GPGGA,041358.00,3135.5527402,N,12046.4974263,E,4,15,1.4,2.7717,M,8.304,M,01,0004*62
$GPHPD,0,0.000,144.14,0.67,-15.01,31.5925457,120.7749571,2.772,13630196.554,24923000.354,2.772,0.000,0.000,0.000,0.000,0.000,0.000,0.000,15,15,4*53
$GPGGA,041358.20,3135.5525921,N,12046.4975495,E,4,15,1.4,2.7719,M,8.304,M,01,0004*6E
$GPHPD,0,0.000,144.45,1.27,-14.99,31.5925432,120.7749592,2.772,13630198.906,24923002.701,2.772,0.000,0.000,0.000,0.000,0.000,0.000,0.000,15,15,4*5F
$GPGGA,041358.40,3135.5524455,N,12046.4976708,E,4,15,1.4,2.7690,M,8.304,M,01,0004*63
$GPHPD,0,0.000,144.28,0.92,-14.96,31.5925408,120.7749612,2.769,13630201.234,24923005.017,2.769,0.000,0.000,0.000,0.000,0.000,0.000,0.000,15,15,4*58
$GPGGA,041358.60,3135.5522980,N,12046.4977947,E,4,15,1.4,2.7781,M,8.304,M,00,0004*66
$GPHPD,0,0.000,144.42,0.75,-14.95,31.5925383,120.7749632,2.778,13630203.580,24923007.370,2.778,0.000,0.000,0.000,0.000,0.000,0.000,0.000,15,15,4*52
$GPGGA,041358.80,3135.5521506,N,12046.4979178,E,4,15,1.4,2.7692,M,8.304,M,00,0004*60
$GPHPD,0,0.000,144.60,0.93,-14.94,31.5925358,120.7749653,2.769,13630205.922,24923009.712,2.769,0.000,0.000,0.000,0.000,0.000,0.000,0.000,15,15,4*56
$GPGGA,041359.00,3135.5519987,N,12046.4980353,E,4,15,1.4,2.7750,M,8.304,M,01,0004*64
$GPHPD,0,0.000,144.64,1.29,-14.90,31.5925333,120.7749673,2.775,13630208.318,24923012.013,2.775,0.000,0.000,0.000,0.000,0.000,0.000,0.000,15,15,4*5B
$GPGGA,041359.20,3135.5518537,N,12046.4981610,E,4,15,1.4,2.7818,M,8.304,M,01,0004*60
$GPHPD,0,0.000,144.15,1.08,-14.89,31.5925309,120.7749694,2.782,13630210.631,24923014.373,2.782,0.000,0.000,0.000,0.000,0.000,0.000,0.000,15,15,4*52
$GPGGA,041359.40,3135.5517018,N,12046.4982836,E,4,15,1.4,2.7825,M,8.304,M,01,0004*66
$GPHPD,0,0.000,144.07,0.59,-14.87,31.5925284,120.7749714,2.783,13630213.037,24923016.735,2.783,0.000,0.000,0.000,0.000,0.000,0.000,0.000,15,15,4*50
$GPGGA,041359.60,3135.5515553,N,12046.4984044,E,4,15,1.4,2.7822,M,8.304,M,00,0004*61
$GPHPD,0,0.000,143.85,0.58,-14.84,31.5925259,120.7749734,2.782,13630215.362,24923019.045,2.782,0.000,0.000,0.000,0.000,0.000,0.000,0.000,15,15,4*57
$GPGGA,041359.80,3135.5514050,N,12046.4985275,E,4,15,1.4,2.7897,M,8.304,M,00,0004*67
$GPHPD,0,0.000,143.61,0.62,-14.84,31.5925234,120.7749755,2.790,13630217.746,24923021.404,2.790,0.000,0.000,0.000,0.000,0.000,0.000,0.000,15,15,4*52
$GPGGA,041400.00,3135.5512611,N,12046.4986534,E,4,15,1.4,2.7857,M,8.304,M,01,0004*6D
$GPHPD,0,0.000,143.43,0.69,-14.83,31.5925210,120.7749776,2.786,13630220.044,24923023.759,2.786,0.000,0.000,0.000,0.000,0.000,0.000,0.000,15,14,4*50
$GPGGA,041400.20,3135.5511135,N,12046.4987800,E,4,15,1.4,2.7842,M,8.304,M,01,0004*62
$GPHPD,0,0.000,143.54,1.07,-14.81,31.5925186,120.7749797,2.784,13630222.397,24923026.145,2.784,0.000,0.000,0.000,0.000,0.000,0.000,0.000,15,14,4*5F
$GPGGA,041400.40,3135.5509661,N,12046.4989053,E,4,15,1.4,2.7907,M,8.304,M,01,0004*6B
$GPHPD,0,0.000,143.60,0.46,-14.81,31.5925161,120.7749818,2.791,13630224.744,24923028.514,2.791,0.000,0.000,0.000,0.000,0.000,0.000,0.000,15,14,4*5F
$GPGGA,041400.60,3135.5508181,N,12046.4990312,E,4,15,1.4,2.7759,M,8.304,M,00,0004*6B
$GPHPD,0,0.000,143.47,0.71,-14.80,31.5925136,120.7749839,2.776,13630227.101,24923030.894,2.776,0.000,0.000,0.000,0.000,0.000,0.000,0.000,15,14,4*56
$GPGGA,041400.80,3135.5506721,N,12046.4991575,E,4,15,1.4,2.7921,M,8.304,M,00,0004*60
$GPHPD,0,0.000,143.35,0.70,-14.78,31.5925112,120.7749860,2.792,13630229.430,24923033.266,2.792,0.000,0.000,0.000,0.000,0.000,0.000,0.000,15,14,4*52
$GPGGA,041401.00,3135.5505254,N,12046.4992850,E,4,15,1.4,2.7912,M,8.304,M,01,0004*65
$GPHPD,0,0.000,143.04,0.91,-14.77,31.5925088,120.7749881,2.791,13630231.771,24923035.658,2.791,0.000,0.000,0.000,0.000,0.000,0.000,0.000,15,14,4*5D
$GPGGA,041401.20,3135.5503793,N,12046.4994084,E,4,15,1.4,2.7999,M,8.304,M,01,0004*6B
$GPHPD,0,0.000,142.96,0.50,-14.75,31.5925063,120.7749901,2.800,13630234.096,24923037.996,2.800,0.000,0.000,0.000,0.000,0.000,0.000,0.000,15,15,4*51
$GPGGA,041401.40,3135.5502349,N,12046.4995356,E,4,15,1.4,2.7823,M,8.304,M,01,0004*62
$GPHPD,0,0.000,142.83,0.55,-14.74,31.5925039,120.7749923,2.782,13630236.404,24923040.370,2.782,0.000,0.000,0.000,0.000,0.000,0.000,0.000,15,15,4*51
$GPGGA,041401.60,3135.5500898,N,12046.4996643,E,4,15,1.4,2.7914,M,8.304,M,00,0004*63
$GPHPD,0,0.000,142.74,1.14,-14.72,31.5925015,120.7749944,2.791,13630238.725,24923042.767,2.791,0.000,0.000,0.000,0.000,0.000,0.000,0.000,15,15,4*5A
$GPGGA,041401.80,3135.5499399,N,12046.4997941,E,4,15,1.4,2.7935,M,8.304,M,00,0004*69
$GPHPD,0,0.000,142.61,0.65,-14.70,31.5924990,120.7749966,2.794,13630241.117,24923045.204,2.794,0.000,0.000,0.000,0.000,0.000,0.000,0.000,15,15,4*50
$GPGGA,041402.00,3135.5497952,N,12046.4999221,E,4,15,1.4,2.7828,M,8.304,M,01,0004*6E
$GPHPD,0,0.000,142.60,0.61,-14.67,31.5924966,120.7749987,2.783,13630243.431,24923047.590,2.783,0.000,0.000,0.000,0.000,0.000,0.000,0.000,15,15,4*5E
$GPGGA,041402.20,3135.5496482,N,12046.5000460,E,4,15,1.4,2.7867,M,8.304,M,01,0004*6D
$GPHPD,0,0.000,142.74,-0.33,-14.65,31.5924941,120.7750008,2.787,13630245.770,24923049.940,2.787,0.000,0.000,0.000,0.000,0.000,0.000,0.000,15,15,4*7F
$GPGGA,041402.40,3135.5495040,N,12046.5001768,E,4,15,1.4,2.7877,M,8.304,M,01,0004*69
$GPHPD,0,0.000,142.35,-0.17,-14.64,31.5924917,120.7750029,2.788,13630248.082,24923052.356,2.788,0.000,0.000,0.000,0.000,0.000,0.000,0.000,15,15,4*7D
$GPGGA,041402.60,3135.5493575,N,12046.5003054,E,4,15,1.4,2.7821,M,8.304,M,00,0004*66
$GPHPD,0,0.000,142.50,-0.52,-14.62,31.5924893,120.7750051,2.782,13630250.423,24923054.760,2.782,0.000,0.000,0.000,0.000,0.000,0.000,0.000,15,15,4*7A
$GPGGA,041402.80,3135.5492116,N,12046.5004363,E,4,15,1.4,2.7820,M,8.304,M,00,0004*69
$GPHPD,0,0.000,142.11,-0.31,-14.60,31.5924869,120.7750073,2.782,13630252.760,24923057.187,2.782,0.000,0.000,0.000,0.000,0.000,0.000,0.000,15,15,4*77
$GPGGA,041403.00,3135.5490681,N,12046.5005663,E,4,15,1.4,2.7816,M,8.304,M,01,0004*6B
$GPHPD,0,0.000,142.21,-0.48,-14.60,31.5924845,120.7750094,2.782,13630255.061,24923059.590,2.782,0.000,0.000,0.000,0.000,0.000,0.000,0.000,15,15,4*70
$GPGGA,041403.20,3135.5489208,N,12046.5006942,E,4,15,1.4,2.7791,M,8.304,M,01,0004*6B
$GPHPD,0,0.000,141.64,-0.22,-14.58,31.5924820,120.7750116,2.779,13630257.412,24923061.990,2.779,0.000,0.000,0.000,0.000,0.000,0.000,0.000,15,15,4*78
$GPGGA,041403.40,3135.5487787,N,12046.5008282,E,4,15,1.4,2.7765,M,8.304,M,01,0004*63
$GPHPD,0,0.000,141.35,-0.36,-14.58,31.5924796,120.7750138,2.777,13630259.701,24923064.433,2.777,0.000,0.000,0.000,0.000,0.000,0.000,0.000,15,15,4*79
$GPGGA,041403.60,3135.5486346,N,12046.5009596,E,4,15,1.4,2.7713,M,8.304,M,00,0004*6A
$GPHPD,0,0.000,141.52,-0.04,-14.57,31.5924772,120.7750160,2.771,13630262.014,24923066.856,2.771,0.000,0.000,0.000,0.000,0.000,0.000,0.000,15,15,4*77
$GPGGA,041403.80,3135.5484903,N,12046.5010903,E,4,15,1.4,2.7737,M,8.304,M,00,0004*63
$GPHPD,0,0.000,141.54,-0.10,-14.59,31.5924748,120.7750182,2.774,13630264.327,24923069.272,2.774,0.000,0.000,0.000,0.000,0.000,0.000,0.000,15,15,4*79
$GPGGA,041404.00,3135.5483469,N,12046.5012202,E,4,15,1.4,2.7738,M,8.304,M,01,0004*6C
$GPHPD,0,0.000,141.61,0.04,-14.56,31.5924724,120.7750203,2.774,13630266.627,24923071.673,2.774,0.000,0.000,0.000,0.000,0.000,0.000,0.000,15,15,4*53
$GPGGA,041404.20,3135.5482015,N,12046.5013520,E,4,15,1.4,2.7816,M,8.304,M,01,0004*65
$GPHPD,0,0.000,141.47,-0.09,-14.55,31.5924700,120.7750225,2.782,13630268.959,24923074.108,2.782,0.000,0.000,0.000,0.000,0.000,0.000,0.000,15,15,4*70
$GPGGA,041404.40,3135.5480605,N,12046.5014832,E,4,15,1.4,2.7765,M,8.304,M,01,0004*64
$GPHPD,0,0.000,141.33,-0.22,-14.55,31.5924677,120.7750247,2.777,13630271.226,24923076.511,2.777,0.000,0.000,0.000,0.000,0.000,0.000,0.000,15,15,4*7A
$GPGGA,041404.60,3135.5479149,N,12046.5016154,E,4,15,1.4,2.7757,M,8.304,M,00,0004*64
$GPHPD,0,0.000,141.33,-0.28,-14.53,31.5924652,120.7750269,2.776,13630273.562,24923078.953,2.776,0.000,0.000,0.000,0.000,0.000,0.000,0.000,15,15,4*7C
$GPGGA,041404.80,3135.5477726,N,12046.5017473,E,4,15,1.4,2.7636,M,8.304,M,00,0004*6C
$GPHPD,0,0.000,141.31,-0.37,-14.51,31.5924629,120.7750291,2.764,13630275.850,24923081.371,2.764,0.000,0.000,0.000,0.000,0.000,0.000,0.000,15,15,4*7F
$GPGGA,041405.00,3135.5476306,N,12046.5018784,E,4,15,1.4,2.7723,M,8.304,M,01,0004*62
$GPHPD,0,0.000,141.11,-0.01,-14.50,31.5924605,120.7750313,2.772,13630278.132,24923083.779,2.772,0.000,0.000,0.000,0.000,0.000,0.000,0.000,15,15,4*72
$GPGGA,041405.20,3135.5474899,N,12046.5020121,E,4,15,1.4,2.7718,M,8.304,M,01,0004*65
$GPHPD,0,0.000,140.87,-0.05,-14.49,31.5924582,120.7750335,2.772,13630280.400,24923086.210,2.772,0.000,0.000,0.000,0.000,0.000,0.000,0.000,15,15,4*74
$GPGGA,041405.40,3135.5473447,N,12046.5021440,E,4,15,1.4,2.7747,M,8.304,M,01,0004*62
$GPHPD,0,0.000,140.68,-0.11,-14.49,31.5924557,120.7750357,2.775,13630282.729,24923088.646,2.775,0.000,0.000,0.000,0.000,0.000,0.000,0.000,15,15,4*7F
$GPGGA,041405.60,3135.5472072,N,12046.5022776,E,4,15,1.4,2.7705,M,8.304,M,00,0004*61
$GPHPD,0,0.000,140.53,-0.13,-14.48,31.5924535,120.7750380,2.771,13630284.952,24923091.057,2.771,0.000,0.000,0.000,0.000,0.000,0.000,0.000,15,15,4*70
$GPGGA,041405.80,3135.5470695,N,12046.5024115,E,4,15,1.4,2.7752,M,8.304,M,00,0004*65
$GPHPD,0,0.000,140.33,-0.02,-14.48,31.5924512,120.7750402,2.775,13630287.179,24923093.473,2.775,0.000,0.000,0.000,0.000,0.000,0.000,0.000,15,15,4*7C
$GPGGA,041406.00,3135.5469295,N,12046.5025481,E,4,15,1.4,2.7698,M,8.304,M,01,0004*6D
$GPHPD,0,0.000,140.19,-0.39,-14.48,31.5924488,120.7750425,2.770,13630289.443,24923095.935,2.770,0.000,0.000,0.000,0.000,0.000,0.000,0.000,15,15,4*70
$GPGGA,041406.20,3135.5467907,N,12046.5026834,E,4,15,1.4,2.7746,M,8.304,M,01,0004*62
$GPHPD,0,0.000,139.87,-0.21,-14.47,31.5924465,120.7750447,2.775,13630291.688,24923098.374,2.775,0.000,0.000,0.000,0.000,0.000,0.000,0.000,15,15,4*76
$GPGGA,041406.40,3135.5466533,N,12046.5028167,E,4,15,1.4,2.7760,M,8.304,M,01,0004*6B
$GPHPD,0,0.000,139.56,-0.21,-14.49,31.5924442,120.7750469,2.776,13630293.909,24923100.781,2.776,0.000,0.000,0.000,0.000,0.000,0.000,0.000,15,15,4*77
$GPGGA,041406.60,3135.5465152,N,12046.5029579,E,4,15,1.4,2.7713,M,8.304,M,00,0004*66
$GPHPD,0,0.000,139.41,-0.49,-14.46,31.5924419,120.7750493,2.771,13630296.156,24923103.288,2.771,0.000,0.000,0.000,0.000,0.000,0.000,0.000,15,15,4*73
$GPGGA,041406.80,3135.5463789,N,12046.5030934,E,4,15,1.4,2.7595,M,8.304,M,00,0004*6F
$GPHPD,0,0.000,139.46,-0.02,-14.45,31.5924396,120.7750516,2.760,13630298.366,24923105.715,2.760,0.000,0.000,0.000,0.000,0.000,0.000,0.000,15,15,4*7C
$GPGGA,041407.00,3135.5462405,N,12046.5032281,E,4,15,1.4,2.7645,M,8.304,M,01,0004*68
$GPHPD,0,0.000,139.29,-0.08,-14.42,31.5924373,120.7750538,2.765,13630300.604,24923108.145,2.765,0.000,0.000,0.000,0.000,0.000,0.000,0.000,15,15,4*70
$GPGGA,041407.20,3135.5461021,N,12046.5033619,E,4,15,1.4,2.7685,M,8.304,M,01,0004*63
$GPHPD,0,0.000,139.27,-0.29,-14.38,31.5924350,120.7750560,2.769,13630302.840,24923110.564,2.769,0.000,0.000,0.000,0.000,0.000,0.000,0.000,15,15,4*7E
$GPGGA,041407.40,3135.5459670,N,12046.5034995,E,4,15,1.4,2.7648,M,8.304,M,01,0004*61
$GPHPD,0,0.000,139.18,-0.14,-14.36,31.5924328,120.7750583,2.765,13630305.037,24923113.009,2.765,0.000,0.000,0.000,0.000,0.000,0.000,0.000,15,15,4*72
$GPGGA,041407.60,3135.5458269,N,12046.5036369,E,4,15,1.4,2.7676,M,8.304,M,00,0004*69
$GPHPD,0,0.000,139.37,-0.43,-14.35,31.5924304,120.7750606,2.768,13630307.305,24923115.482,2.768,0.000,0.000,0.000,0.000,0.000,0.000,0.000,15,15,4*7F
$GPGGA,041407.80,3135.5456889,N,12046.5037746,E,4,15,1.5,2.7551,M,8.304,M,00,0004*62
$GPHPD,0,0.000,139.26,-0.51,-14.33,31.5924281,120.7750629,2.755,13630309.543,24923117.945,2.755,0.000,0.000,0.000,0.000,0.000,0.000,0.000,15,15,4*75
$GPGGA,041408.00,3135.5455516,N,12046.5039097,E,4,15,1.5,2.7582,M,8.304,M,01,0004*67
$GPHPD,0,0.000,139.53,0.06,-14.30,31.5924259,120.7750652,2.758,13630311.767,24923120.374,2.758,0.000,0.000,0.000,0.000,0.000,0.000,0.000,15,15,4*53
$GPGGA,041408.20,3135.5454127,N,12046.5040441,E,4,15,1.5,2.7586,M,8.304,M,01,0004*67
$GPHPD,0,0.000,139.47,-0.25,-14.26,31.5924235,120.7750674,2.759,13630314.011,24923122.803,2.759,0.000,0.000,0.000,0.000,0.000,0.000,0.000,15,15,4*79
$GPGGA,041408.40,3135.5452752,N,12046.5041806,E,4,15,1.5,2.7652,M,8.304,M,01,0004*67
$GPHPD,0,0.000,139.65,-0.31,-14.25,31.5924213,120.7750697,2.765,13630316.240,24923125.249,2.765,0.000,0.000,0.000,0.000,0.000,0.000,0.000,15,15,4*71
$GPGGA,041408.60,3135.5451345,N,12046.5043140,E,4,15,1.5,2.7540,M,8.304,M,00,0004*6C
$GPHPD,0,0.000,139.85,-0.43,-14.25,31.5924189,120.7750719,2.754,13630318.508,24923127.676,2.754,0.000,0.000,0.000,0.000,0.000,0.000,0.000,15,15,4*72
$GPGGA,041408.80,3135.5449932,N,12046.5044470,E,4,15,1.5,2.7583,M,8.304,M,00,0004*6F
$GPHPD,0,0.000,140.15,-0.38,-14.25,31.5924166,120.7750741,2.758,13630320.784,24923130.103,2.758,0.000,0.000,0.000,0.000,0.000,0.000,0.000,15,15,4*7B
$GPGGA,041409.00,3135.5448537,N,12046.5045798,E,4,15,1.5,2.7508,M,8.304,M,01,0004*68
$GPHPD,0,0.000,140.45,-0.43,-14.24,31.5924142,120.7750763,2.751,13630323.034,24923132.516,2.751,0.000,0.000,0.000,0.000,0.000,0.000,0.000,15,15,4*78
$GPGGA,041409.20,3135.5447112,N,12046.5047097,E,4,15,1.5,2.7550,M,8.304,M,01,0004*61
$GPHPD,0,0.000,140.95,-0.08,-14.22,31.5924119,120.7750785,2.755,13630325.320,24923134.912,2.755,0.000,0.000,0.000,0.000,0.000,0.000,0.000,15,15,4*74
$GPGGA,041409.40,3135.5445692,N,12046.5048429,E,4,15,1.5,2.7504,M,8.304,M,01,0004*65
$GPHPD,0,0.000,141.32,-0.07,-14.21,31.5924095,120.7750807,2.750,13630327.607,24923137.344,2.750,0.000,0.000,0.000,0.000,0.000,0.000,0.000,15,15,4*7C
$GPGGA,041409.60,3135.5444240,N,12046.5049718,E,4,15,1.5,2.7560,M,8.304,M,00,0004*6E
$GPHPD,0,0.000,142.05,0.12,-14.21,31.5924071,120.7750829,2.756,13630329.930,24923139.744,2.756,0.000,0.000,0.000,0.000,0.000,0.000,0.000,15,15,4*5B
$GPGGA,041409.80,3135.5442780,N,12046.5050990,E,4,15,1.5,2.7519,M,8.304,M,00,0004*67
$GPHPD,0,0.000,142.19,-0.18,-14.23,31.5924046,120.7750850,2.752,13630332.261,24923142.127,2.752,0.000,0.000,0.000,0.000,0.000,0.000,0.000,15,15,4*73
$GPGGA,041410.00,3135.5441336,N,12046.5052212,E,4,15,1.5,2.7526,M,8.304,M,01,0004*63
$GPHPD,0,0.000,142.24,-0.39,-14.23,31.5924022,120.7750870,2.753,13630334.559,24923144.441,2.753,0.000,0.000,0.000,0.000,0.000,0.000,0.000,15,15,4*77
$GPGGA,041410.20,3135.5439864,N,12046.5053489,E,4,15,1.5,2.7543,M,8.304,M,01,0004*64
$GPHPD,0,0.000,142.14,-0.06,-14.23,31.5923998,120.7750891,2.754,13630336.908,24923146.838,2.754,0.000,0.000,0.000,0.000,0.000,0.000,0.000,15,15,4*72
$GPGGA,041410.40,3135.5438425,N,12046.5054732,E,4,15,1.5,2.7584,M,8.304,M,01,0004*65
$GPHPD,0,0.000,142.39,-0.59,-14.23,31.5923974,120.7750912,2.758,13630339.203,24923149.175,2.758,0.000,0.000,0.000,0.000,0.000,0.000,0.000,15,15,4*7F
$GPGGA,041410.60,3135.5436962,N,12046.5056006,E,4,15,1.5,2.7606,M,8.304,M,00,0004*6D
$GPHPD,0,0.000,142.48,-0.35,-14.23,31.5923949,120.7750933,2.761,13630341.539,24923151.562,2.761,0.000,0.000,0.000,0.000,0.000,0.000,0.000,15,15,4*74
$GPGGA,041410.80,3135.5435531,N,12046.5057260,E,4,15,1.5,2.7487,M,8.304,M,00,0004*62
$GPHPD,0,0.000,142.64,-0.30,-14.25,31.5923926,120.7750954,2.749,13630343.825,24923153.907,2.749,0.000,0.000,0.000,0.000,0.000,0.000,0.000,15,15,4*7E
$GPGGA,041411.00,3135.5434044,N,12046.5058497,E,4,15,1.5,2.7498,M,8.304,M,01,0004*63
$GPHPD,0,0.000,143.05,-0.57,-14.25,31.5923901,120.7750975,2.750,13630346.187,24923156.264,2.750,0.000,0.000,0.000,0.000,0.000,0.000,0.000,15,15,4*70
$GPGGA,041411.20,3135.5432625,N,12046.5059777,E,4,15,1.5,2.7394,M,8.304,M,01,0004*61
$GPHPD,0,0.000,143.12,-0.55,-14.26,31.5923877,120.7750996,2.739,13630348.462,24923158.634,2.739,0.000,0.000,0.000,0.000,0.000,0.000,0.000,15,15,4*75
$GPGGA,041411.40,3135.5431138,N,12046.5061029,E,4,15,1.5,2.7445,M,8.304,M,01,0004*63
$GPHPD,0,0.000,143.27,-0.17,-14.24,31.5923852,120.7751017,2.745,13630350.827,24923161.009,2.745,0.000,0.000,0.000,0.000,0.000,0.000,0.000,15,15,4*77
$GPGGA,041411.60,3135.5429663,N,12046.5062255,E,4,15,1.5,2.7375,M,8.304,M,00,0004*6E
$GPHPD,0,0.000,143.03,-0.68,-14.25,31.5923828,120.7751038,2.738,13630353.170,24923163.346,2.738,0.000,0.000,0.000,0.000,0.000,0.000,0.000,15,15,4*7A
$GPGGA,041411.80,3135.5428196,N,12046.5063494,E,4,15,1.5,2.7381,M,8.305,M,00,0004*6C
$GPHPD,0,0.000,143.13,0.30,-14.26,31.5923803,120.7751058,2.738,13630355.504,24923165.694,2.738,0.000,0.000,0.000,0.000,0.000,0.000,0.000,15,15,4*5A
$GPGGA,041412.00,3135.5426731,N,12046.5064740,E,4,15,1.5,2.7347,M,8.305,M,01,0004*64
$GPHPD,0,0.000,143.09,-0.21,-14.27,31.5923779,120.7751079,2.735,13630357.837,24923168.049,2.735,0.000,0.000,0.000,0.000,0.000,0.000,0.000,15,15,4*78
$GPGGA,041412.20,3135.5425284,N,12046.5066008,E,4,15,1.5,2.7343,M,8.305,M,01,0004*63
$GPHPD,0,0.000,143.02,0.06,-14.25,31.5923755,120.7751100,2.734,13630360.149,24923170.420,2.734,0.000,0.000,0.000,0.000,0.000,0.000,0.000,15,15,4*5E
$GPGGA,041412.40,3135.5423839,N,12046.5067313,E,4,15,1.5,2.7388,M,8.305,M,01,0004*60
$GPHPD,0,0.000,143.18,-0.05,-14.25,31.5923731,120.7751122,2.739,13630362.465,24923172.835,2.739,0.000,0.000,0.000,0.000,0.000,0.000,0.000,15,15,4*7A
$GPGGA,041412.60,3135.5422343,N,12046.5068527,E,4,15,1.5,2.7385,M,8.305,M,00,0004*67
$GPHPD,0,0.000,143.09,0.27,-14.26,31.5923706,120.7751142,2.739,13630364.835,24923175.170,2.739,0.000,0.000,0.000,0.000,0.000,0.000,0.000,15,15,4*56
$GPGGA,041412.80,3135.5420901,N,12046.5069780,E,4,15,1.5,2.7440,M,8.305,M,00,0004*67
$GPHPD,0,0.000,142.90,-0.14,-14.24,31.5923682,120.7751163,2.744,13630367.137,24923177.520,2.744,0.000,0.000,0.000,0.000,0.000,0.000,0.000,15,15,4*7D
$GPGGA,041413.00,3135.5419500,N,12046.5071076,E,4,15,1.5,2.7465,M,8.305,M,01,0004*68
$GPHPD,0,0.000,143.03,-0.12,-14.24,31.5923658,120.7751185,2.747,13630369.389,24923179.898,2.747,0.000,0.000,0.000,0.000,0.000,0.000,0.000,15,15,4*76
$GPGGA,041413.20,3135.5418022,N,12046.5072317,E,4,15,1.5,2.7315,M,8.305,M,01,0004*69
$GPHPD,0,0.000,143.37,-0.31,-14.26,31.5923634,120.7751205,2.732,13630371.739,24923182.255,2.732,0.000,0.000,0.000,0.000,0.000,0.000,0.000,15,15,4*7A
$GPGGA,041413.40,3135.5416529,N,12046.5073529,E,4,15,1.7,2.7412,M,8.305,M,01,0004*67
$GPHPD,0,0.000,143.41,-0.18,-14.30,31.5923609,120.7751225,2.741,13630374.105,24923184.585,2.741,0.000,0.000,0.000,0.000,0.000,0.000,0.000,15,15,4*7B
$GPGGA,041413.60,3135.5415087,N,12046.5074778,E,4,15,1.5,2.7411,M,8.305,M,00,0004*66
$GPHPD,0,0.000,143.07,-0.87,-14.29,31.5923585,120.7751246,2.741,13630376.406,24923186.931,2.741,0.000,0.000,0.000,0.000,0.000,0.000,0.000,15,15,4*70
$GPGGA,041413.80,3135.5413614,N,12046.5075991,E,4,15,1.5,2.7390,M,8.305,M,00,0004*64
$GPHPD,0,0.000,143.00,-1.00,-14.30,31.5923560,120.7751267,2.739,13630378.743,24923189.251,2.739,0.000,0.000,0.000,0.000,0.000,0.000,0.000,15,15,4*77
$GPGGA,041414.00,3135.5412187,N,12046.5077249,E,4,15,1.5,2.7326,M,8.305,M,01,0004*67
$GPHPD,0,0.000,142.93,-0.58,-14.31,31.5923536,120.7751287,2.733,13630381.025,24923191.598,2.733,0.000,0.000,0.000,0.000,0.000,0.000,0.000,15,15,4*76
$GPGGA,041414.20,3135.5410712,N,12046.5078473,E,4,15,1.5,2.7341,M,8.305,M,01,0004*6C
$GPHPD,0,0.000,143.49,-0.49,-14.33,31.5923512,120.7751308,2.734,13630383.367,24923193.933,2.734,0.000,0.000,0.000,0.000,0.000,0.000,0.000,15,15,4*7A
$GPGGA,041414.40,3135.5409289,N,12046.5079716,E,4,15,1.5,2.7142,M,8.305,M,01,0004*65
$GPHPD,0,0.000,143.04,-0.40,-14.35,31.5923488,120.7751329,2.714,13630385.640,24923196.260,2.714,0.000,0.000,0.000,0.000,0.000,0.000,0.000,15,15,4*73
$GPGGA,041414.60,3135.5407830,N,12046.5080908,E,4,15,1.5,2.7186,M,8.305,M,00,0004*6F
$GPHPD,0,0.000,143.25,-0.13,-14.31,31.5923464,120.7751348,2.719,13630387.953,24923198.546,2.719,0.000,0.000,0.000,0.000,0.000,0.000,0.000,15,15,4*75
$GPGGA,041414.80,3135.5406383,N,12046.5082157,E,4,15,1.5,2.7278,M,8.305,M,00,0004*61
$GPHPD,0,0.000,143.32,-0.36,-14.30,31.5923440,120.7751369,2.728,13630390.261,24923200.895,2.728,0.000,0.000,0.000,0.000,0.000,0.000,0.000,15,15,4*7D
$GPGGA,041415.00,3135.5404943,N,12046.5083394,E,4,15,1.5,2.7204,M,8.305,M,01,0004*6A
$GPHPD,0,0.000,143.37,-0.33,-14.29,31.5923416,120.7751390,2.720,13630392.557,24923203.224,2.720,0.000,0.000,0.000,0.000,0.000,0.000,0.000,15,14,4*72
$GPGGA,041415.20,3135.5403512,N,12046.5084604,E,4,15,1.5,2.7164,M,8.305,M,01,0004*69
$GPHPD,0,0.000,143.80,-0.38,-14.28,31.5923392,120.7751410,2.716,13630394.834,24923205.516,2.716,0.000,0.000,0.000,0.000,0.000,0.000,0.000,15,15,4*7F
$GPGGA,041415.40,3135.5402047,N,12046.5085803,E,4,15,1.5,2.7156,M,8.305,M,01,0004*62
$GPHPD,0,0.000,143.77,-0.37,-14.27,31.5923367,120.7751430,2.716,13630397.157,24923207.815,2.716,0.000,0.000,0.000,0.000,0.000,0.000,0.000,15,15,4*7C
$GPGGA,041415.60,3135.5400607,N,12046.5087066,E,4,15,1.5,2.7137,M,8.305,M,00,0004*6F
$GPHPD,0,0.000,143.56,-0.36,-14.26,31.5923343,120.7751451,2.714,13630399.458,24923210.176,2.714,0.000,0.000,0.000,0.000,0.000,0.000,0.000,15,15,4*70
$GPGGA,041415.80,3135.5399129,N,12046.5088296,E,4,15,1.5,2.7074,M,8.305,M,00,0004*69
$GPHPD,0,0.000,143.92,-0.31,-14.22,31.5923319,120.7751472,2.707,13630401.806,24923212.519,2.707,0.000,0.000,0.000,0.000,0.000,0.000,0.000,15,15,4*7B
$GPGGA,041416.00,3135.5397692,N,12046.5089509,E,4,15,1.5,2.7143,M,8.305,M,01,0004*6F
$GPHPD,0,0.000,143.86,-0.32,-14.19,31.5923295,120.7751492,2.714,13630404.093,24923214.819,2.714,0.000,0.000,0.000,0.000,0.000,0.000,0.000,15,15,4*74
$GPGGA,041416.20,3135.5396213,N,12046.5090693,E,4,15,1.5,2.7140,M,8.305,M,01,0004*6A
$GPHPD,0,0.000,143.93,-0.37,-14.19,31.5923270,120.7751512,2.714,13630406.433,24923217.107,2.714,0.000,0.000,0.000,0.000,0.000,0.000,0.000,15,15,4*7E
$GPGGA,041416.40,3135.5394719,N,12046.5091926,E,4,15,1.5,2.7115,M,8.305,M,01,0004*61
$GPHPD,0,0.000,144.05,-0.35,-14.19,31.5923245,120.7751532,2.712,13630408.804,24923219.464,2.712,0.000,0.000,0.000,0.000,0.000,0.000,0.000,15,15,4*78
$GPGGA,041416.60,3135.5393272,N,12046.5093189,E,4,15,1.5,2.7024,M,8.305,M,01,0004*60
$GPHPD,0,0.000,143.79,-0.58,-14.20,31.5923221,120.7751553,2.702,13630411.115,24923221.829,2.702,0.000,0.000,0.000,0.000,0.000,0.000,0.000,15,15,4*7F
$GPGGA,041416.80,3135.5391759,N,12046.5094351,E,4,15,1.5,2.7053,M,8.305,M,00,0004*61
$GPHPD,0,0.000,144.21,-0.49,-14.20,31.5923196,120.7751573,2.705,13630413.499,24923224.111,2.705,0.000,0.000,0.000,0.000,0.000,0.000,0.000,15,15,4*7C
$GPGGA,041417.00,3135.5390295,N,12046.5095622,E,4,15,1.5,2.7041,M,8.305,M,01,0004*6E
$GPHPD,0,0.000,144.07,-0.74,-14.19,31.5923172,120.7751594,2.704,13630415.836,24923226.495,2.704,0.000,0.000,0.000,0.000,0.000,0.000,0.000,15,15,4*7B
$GPGGA,041417.20,3135.5388822,N,12046.5096810,E,4,15,1.5,2.6961,M,8.305,M,01,0004*65
$GPHPD,0,0.000,144.30,-0.32,-14.21,31.5923147,120.7751614,2.696,13630418.168,24923228.785,2.696,0.000,0.000,0.000,0.000,0.000,0.000,0.000,15,15,4*78
$GPGGA,041417.40,3135.5387338,N,12046.5098026,E,4,15,1.5,2.6938,M,8.305,M,01,0004*63
$GPHPD,0,0.000,144.31,-0.23,-14.21,31.5923122,120.7751634,2.694,13630420.522,24923231.115,2.694,0.000,0.000,0.000,0.000,0.000,0.000,0.000,15,15,4*7E
$GPGGA,041417.60,3135.5385849,N,12046.5099219,E,4,15,1.5,2.6957,M,8.305,M,00,0004*69
$GPHPD,0,0.000,144.38,-0.46,-14.20,31.5923097,120.7751654,2.696,13630422.879,24923233.420,2.696,0.000,0.000,0.000,0.000,0.000,0.000,0.000,15,15,4*7C
$GPGGA,041417.80,3135.5384370,N,12046.5100414,E,4,15,1.5,2.6833,M,8.305,M,00,0004*6E
$GPHPD,0,0.000,144.45,-0.35,-14.21,31.5923073,120.7751674,2.683,13630425.221,24923235.722,2.683,0.000,0.000,0.000,0.000,0.000,0.000,0.000,15,15,4*7C
$GPGGA,041418.00,3135.5382855,N,12046.5101631,E,4,15,1.5,2.6894,M,8.305,M,01,0004*6B
$GPHPD,0,0.000,144.49,-0.18,-14.23,31.5923048,120.7751694,2.689,13630427.619,24923238.072,2.689,0.000,0.000,0.000,0.000,0.000,0.000,0.000,15,15,4*79
$GPGGA,041418.20,3135.5381371,N,12046.5102845,E,4,15,1.5,2.6893,M,8.305,M,01,0004*6E
$GPHPD,0,0.000,144.53,-0.15,-14.21,31.5923023,120.7751714,2.689,13630429.973,24923240.399,2.689,0.000,0.000,0.000,0.000,0.000,0.000,0.000,15,15,4*7D
$GPGGA,041418.40,3135.5379887,N,12046.5104050,E,4,15,1.5,2.6864,M,8.305,M,01,0004*6F
$GPHPD,0,0.000,144.59,-0.54,-14.21,31.5922998,120.7751734,2.686,13630432.324,24923242.716,2.686,0.000,0.000,0.000,0.000,0.000,0.000,0.000,15,15,4*7B
$GPGGA,041418.60,3135.5378350,N,12046.5105263,E,4,15,1.5,2.6923,M,8.305,M,00,0004*6D
$GPHPD,0,0.000,144.83,-0.33,-14.20,31.5922973,120.7751754,2.692,13630434.753,24923245.073,2.692,0.000,0.000,0.000,0.000,0.000,0.000,0.000,15,15,4*7E
$GPGGA,041418.80,3135.5376845,N,12046.5106440,E,4,15,1.5,2.6947,M,8.305,M,00,0004*64
$GPHPD,0,0.000,144.78,-0.41,-14.21,31.5922947,120.7751774,2.695,13630437.129,24923247.369,2.695,0.000,0.000,0.000,0.000,0.000,0.000,0.000,15,15,4*79
$GPGGA,041419.00,3135.5375363,N,12046.5107643,E,4,15,1.5,2.6888,M,8.305,M,01,0004*62
$GPHPD,0,0.000,145.07,-0.39,-14.22,31.5922923,120.7751794,2.689,13630439.477,24923249.682,2.689,0.000,0.000,0.000,0.000,0.000,0.000,0.000,15,15,4*7E
$GPGGA,041419.20,3135.5373864,N,12046.5108862,E,4,15,1.5,2.6857,M,8.305,M,01,0004*6A
$GPHPD,0,0.000,144.85,-0.56,-14.23,31.5922898,120.7751814,2.686,13630441.853,24923252.024,2.686,0.000,0.000,0.000,0.000,0.000,0.000,0.000,15,15,4*7E
$GPGGA,041419.40,3135.5372347,N,12046.5110047,E,4,15,1.5,2.6840,M,8.305,M,01,0004*67
$GPHPD,0,0.000,145.21,-0.41,-14.22,31.5922872,120.7751834,2.684,13630444.247,24923254.336,2.684,0.000,0.000,0.000,0.000,0.000,0.000,0.000,15,15,4*7C
$GPGGA,041419.60,3135.5370813,N,12046.5111209,E,4,15,1.5,2.6856,M,8.305,M,00,0004*62
$GPHPD,0,0.000,145.11,-0.26,-14.25,31.5922847,120.7751853,2.686,13630446.661,24923256.630,2.686,0.000,0.000,0.000,0.000,0.000,0.000,0.000,15,15,4*7D
$GPGGA,041419.80,3135.5369340,N,12046.5112429,E,4,15,1.5,2.6772,M,8.305,M,00,0004*67
$GPHPD,0,0.000,144.94,-0.35,-14.26,31.5922822,120.7751874,2.677,13630449.000,24923258.959,2.677,0.000,0.000,0.000,0.000,0.000,0.000,0.000,15,15,4*76
$GPGGA,041420.00,3135.5367814,N,12046.5113587,E,4,15,1.5,2.6781,M,8.305,M,01,0004*68
$GPHPD,0,0.000,145.33,-0.18,-14.27,31.5922797,120.7751893,2.678,13630451.402,24923261.243,2.678,0.000,0.000,0.000,0.000,0.000,0.000,0.000,15,15,4*79
$GPGGA,041420.20,3135.5366336,N,12046.5114787,E,4,15,1.5,2.6804,M,8.305,M,01,0004*67
$GPHPD,0,0.000,145.16,-0.49,-14.27,31.5922772,120.7751913,2.680,13630453.744,24923263.551,2.680,0.000,0.000,0.000,0.000,0.000,0.000,0.000,15,15,4*7D
$GPGGA,041420.40,3135.5364846,N,12046.5115963,E,4,15,1.5,2.6726,M,8.305,M,01,0004*65
$GPHPD,0,0.000,145.22,-0.40,-14.28,31.5922747,120.7751933,2.673,13630456.098,24923265.836,2.673,0.000,0.000,0.000,0.000,0.000,0.000,0.000,15,15,4*71
$GPGGA,041420.60,3135.5363362,N,12046.5117119,E,4,15,1.5,2.6775,M,8.305,M,00,0004*6D
$GPHPD,0,0.000,145.18,-0.19,-14.28,31.5922723,120.7751952,2.678,13630458.440,24923268.094,2.678,0.000,0.000,0.000,0.000,0.000,0.000,0.000,15,15,4*73
$GPGGA,041420.80,3135.5361865,N,12046.5118327,E,4,15,1.5,2.6770,M,8.305,M,00,0004*68
$GPHPD,0,0.000,145.05,-0.58,-14.27,31.5922698,120.7751972,2.677,13630460.811,24923270.422,2.677,0.000,0.000,0.000,0.000,0.000,0.000,0.000,15,15,4*75
$GPGGA,041421.00,3135.5360406,N,12046.5119496,E,4,15,1.5,2.6697,M,8.305,M,01,0004*6C
$GPHPD,0,0.000,145.20,-0.58,-14.26,31.5922673,120.7751992,2.670,13630463.120,24923272.680,2.670,0.000,0.000,0.000,0.000,0.000,0.000,0.000,15,15,4*78
$GPGGA,041421.20,3135.5358932,N,12046.5120677,E,4,15,1.5,2.6684,M,8.305,M,01,0004*6A
