$GPGGA,041636.00,3135.4961426,N,12046.5534844,E,4,16,1.4,2.8727,M,8.308,M,01,0004*63
$GPHPD,0,0.000,59.06,-0.28,-14.70,31.5916024,120.7758914,2.873,13631113.767,24924005.749,2.873,0.000,0.000,0.000,0.000,0.000,0.000,0.000,16,16,4*47
$GPGGA,041636.20,3135.4961920,N,12046.5535780,E,4,16,1.4,2.8703,M,8.308,M,01,0004*6A
$GPHPD,0,0.000,58.94,-0.02,-14.67,31.5916032,120.7758930,2.870,13631113.254,24924006.591,2.870,0.000,0.000,0.000,0.000,0.000,0.000,0.000,16,16,4*43
$GPGGA,041636.40,3135.4962347,N,12046.5536706,E,4,16,1.4,2.8657,M,8.308,M,01,0004*69
$GPHPD,0,0.000,59.11,-0.05,-14.60,31.5916039,120.7758945,2.866,13631112.833,24924007.459,2.866,0.000,0.000,0.000,0.000,0.000,0.000,0.000,16,16,4*48
$GPGGA,041636.60,3135.4962812,N,12046.5537601,E,4,16,1.4,2.8692,M,8.308,M,00,0004*6F
$GPHPD,0,0.000,59.07,-0.29,-14.57,31.5916047,120.7758960,2.869,13631112.352,24924008.267,2.869,0.000,0.000,0.000,0.000,0.000,0.000,0.000,16,16,4*43
$GPGGA,041636.80,3135.4963244,N,12046.5538502,E,4,16,1.4,2.8735,M,8.308,M,00,0004*6A
$GPHPD,0,0.000,59.26,-0.38,-14.55,31.5916054,120.7758975,2.874,13631111.920,24924009.102,2.874,0.000,0.000,0.000,0.000,0.000,0.000,0.000,16,16,4*49
$GPGGA,041637.00,3135.4963685,N,12046.5539362,E,4,16,1.4,2.8769,M,8.308,M,01,0004*63
$GPHPD,0,0.000,59.28,-0.37,-14.50,31.5916061,120.7758989,2.877,13631111.466,24924009.882,2.877,0.000,0.000,0.000,0.000,0.000,0.000,0.000,16,16,4*46
$GPGGA,041637.20,3135.4964106,N,12046.5540234,E,4,16,1.4,2.8723,M,8.308,M,01,0004*68
$GPHPD,0,0.000,59.30,-0.55,-14.47,31.5916068,120.7759004,2.872,13631111.043,24924010.689,2.872,0.000,0.000,0.000,0.000,0.000,0.000,0.000,16,16,4*47
$GPGGA,041637.40,3135.4964517,N,12046.5541057,E,4,16,1.4,2.8688,M,8.308,M,01,0004*6C
$GPHPD,0,0.000,59.27,-0.49,-14.45,31.5916075,120.7759018,2.869,13631110.624,24924011.442,2.869,0.000,0.000,0.000,0.000,0.000,0.000,0.000,16,16,4*4D
$GPGGA,041637.60,3135.4964934,N,12046.5541902,E,4,16,1.4,2.8707,M,8.308,M,00,0004*6D
$GPHPD,0,0.000,59.30,0.06,-14.44,31.5916082,120.7759032,2.871,13631110.202,24924012.218,2.871,0.000,0.000,0.000,0.000,0.000,0.000,0.000,16,16,4*66
$GPGGA,041637.80,3135.4965333,N,12046.5542721,E,4,16,1.4,2.8668,M,8.308,M,00,0004*6B
$GPHPD,0,0.000,59.35,-0.17,-14.44,31.5916089,120.7759045,2.867,13631109.800,24924012.973,2.867,0.000,0.000,0.000,0.000,0.000,0.000,0.000,16,16,4*43
$GPGGA,041638.00,3135.4965728,N,12046.5543531,E,4,16,1.4,2.8710,M,8.308,M,01,0004*6F
$GPHPD,0,0.000,59.53,0.01,-14.48,31.5916095,120.7759059,2.871,13631109.401,24924013.720,2.871,0.000,0.000,0.000,0.000,0.000,0.000,0.000,16,16,4*61
$GPGGA,041638.20,3135.4966176,N,12046.5544381,E,4,16,1.4,2.8734,M,8.308,M,01,0004*6F
$GPHPD,0,0.000,59.43,-0.22,-14.51,31.5916103,120.7759073,2.873,13631108.935,24924014.484,2.873,0.000,0.000,0.000,0.000,0.000,0.000,0.000,16,16,4*43
$GPGGA,041638.40,3135.4966590,N,12046.5545234,E,4,16,1.4,2.8616,M,8.308,M,01,0004*6A
$GPHPD,0,0.000,59.54,-0.24,-14.53,31.5916110,120.7759087,2.862,13631108.519,24924015.272,2.862,0.000,0.000,0.000,0.000,0.000,0.000,0.000,16,16,4*44
$GPGGA,041638.60,3135.4966974,N,12046.5546170,E,4,16,1.4,2.8626,M,8.308,M,00,0004*6C
$GPHPD,0,0.000,59.40,-0.33,-14.55,31.5916116,120.7759103,2.863,13631108.161,24924016.177,2.863,0.000,0.000,0.000,0.000,0.000,0.000,0.000,16,16,4*44
$GPGGA,041638.80,3135.4967424,N,12046.5547069,E,4,16,1.4,2.8628,M,8.308,M,00,0004*6D
$GPHPD,0,0.000,59.45,0.02,-14.61,31.5916124,120.7759118,2.863,13631107.703,24924016.999,2.863,0.000,0.000,0.000,0.000,0.000,0.000,0.000,16,16,4*67
$GPGGA,041639.00,3135.4967916,N,12046.5548039,E,4,16,1.4,2.8610,M,8.308,M,01,0004*68
$GPHPD,0,0.000,59.51,0.12,-14.67,31.5916132,120.7759134,2.861,13631107.199,24924017.882,2.861,0.000,0.000,0.000,0.000,0.000,0.000,0.000,16,16,4*63
$GPGGA,041639.20,3135.4968374,N,12046.5549024,E,4,16,1.4,2.8667,M,8.308,M,01,0004*66
$GPHPD,0,0.000,59.51,0.54,-14.69,31.5916140,120.7759150,2.867,13631106.746,24924018.804,2.867,0.000,0.000,0.000,0.000,0.000,0.000,0.000,16,16,4*6C
$GPGGA,041639.40,3135.4968876,N,12046.5550003,E,4,16,1.4,2.8635,M,8.308,M,01,0004*63
$GPHPD,0,0.000,59.61,0.17,-14.70,31.5916148,120.7759167,2.864,13631106.229,24924019.692,2.864,0.000,0.000,0.000,0.000,0.000,0.000,0.000,16,16,4*60
$GPGGA,041639.60,3135.4969344,N,12046.5551003,E,4,16,1.4,2.8711,M,8.308,M,00,0004*6D
$GPHPD,0,0.000,59.76,0.29,-14.70,31.5916156,120.7759183,2.871,13631105.765,24924020.625,2.871,0.000,0.000,0.000,0.000,0.000,0.000,0.000,16,16,4*66
$GPGGA,041639.80,3135.4969864,N,12046.5552044,E,4,16,1.4,2.8639,M,8.308,M,00,0004*61
$GPHPD,0,0.000,59.43,0.07,-14.68,31.5916164,120.7759201,2.864,13631105.236,24924021.578,2.864,0.000,0.000,0.000,0.000,0.000,0.000,0.000,16,16,4*64
$GPGGA,041640.00,3135.4970313,N,12046.5553017,E,4,16,1.4,2.8586,M,8.308,M,01,0004*65
$GPHPD,0,0.000,60.03,-0.14,-14.64,31.5916172,120.7759217,2.859,13631104.793,24924022.490,2.859,0.000,0.000,0.000,0.000,0.000,0.000,0.000,16,16,4*46
$GPGGA,041640.20,3135.4970778,N,12046.5554007,E,4,16,1.4,2.8623,M,8.308,M,01,0004*64
$GPHPD,0,0.000,60.08,-0.13,-14.59,31.5916180,120.7759233,2.862,13631104.332,24924023.413,2.862,0.000,0.000,0.000,0.000,0.000,0.000,0.000,16,16,4*4A
$GPGGA,041640.40,3135.4971236,N,12046.5554875,E,4,16,1.4,2.8581,M,8.308,M,01,0004*6A
$GPHPD,0,0.000,59.91,-0.10,-14.54,31.5916187,120.7759248,2.858,13631103.856,24924024.193,2.858,0.000,0.000,0.000,0.000,0.000,0.000,0.000,16,16,4*41
$GPGGA,041640.60,3135.4971632,N,12046.5555731,E,4,16,1.4,2.8658,M,8.308,M,00,0004*60
$GPHPD,0,0.000,59.68,-0.12,-14.52,31.5916194,120.7759262,2.866,13631103.465,24924024.994,2.866,0.000,0.000,0.000,0.000,0.000,0.000,0.000,16,16,4*4A
$GPGGA,041640.80,3135.4972080,N,12046.5556546,E,4,16,1.4,2.8586,M,8.308,M,00,0004*63
$GPHPD,0,0.000,59.53,0.04,-14.49,31.5916201,120.7759276,2.859,13631102.992,24924025.716,2.859,0.000,0.000,0.000,0.000,0.000,0.000,0.000,16,16,4*69
$GPGGA,041641.00,3135.4972456,N,12046.5557317,E,4,16,1.4,2.8611,M,8.308,M,01,0004*6A
$GPHPD,0,0.000,59.22,-0.22,-14.46,31.5916208,120.7759289,2.861,13631102.613,24924026.427,2.861,0.000,0.000,0.000,0.000,0.000,0.000,0.000,16,16,4*44
$GPGGA,041641.20,3135.4972824,N,12046.5558060,E,4,16,1.4,2.8595,M,8.308,M,01,0004*62
$GPHPD,0,0.000,59.10,-0.60,-14.41,31.5916214,120.7759301,2.860,13631102.239,24924027.109,2.860,0.000,0.000,0.000,0.000,0.000,0.000,0.000,16,16,4*4C
$GPGGA,041641.40,3135.4973182,N,12046.5558723,E,4,16,1.4,2.8562,M,8.308,M,01,0004*68
$GPHPD,0,0.000,58.68,-0.12,-14.35,31.5916220,120.7759312,2.856,13631101.864,24924027.700,2.856,0.000,0.000,0.000,0.000,0.000,0.000,0.000,16,16,4*4F
$GPGGA,041641.60,3135.4973515,N,12046.5559405,E,4,16,1.4,2.8592,M,8.308,M,00,0004*68
$GPHPD,0,0.000,58.57,-0.33,-14.30,31.5916225,120.7759323,2.859,13631101.528,24924028.329,2.859,0.000,0.000,0.000,0.000,0.000,0.000,0.000,16,16,4*47
$GPGGA,041641.80,3135.4973822,N,12046.5560019,E,4,16,1.4,2.8596,M,8.308,M,00,0004*68
$GPHPD,0,0.000,58.37,-0.44,-14.29,31.5916230,120.7759334,2.860,13631101.215,24924028.890,2.860,0.000,0.000,0.000,0.000,0.000,0.000,0.000,16,16,4*4B
$GPGGA,041642.00,3135.4974184,N,12046.5560664,E,4,16,1.4,2.8517,M,8.308,M,01,0004*65
$GPHPD,0,0.000,58.43,-0.01,-14.35,31.5916236,120.7759344,2.852,13631100.831,24924029.457,2.852,0.000,0.000,0.000,0.000,0.000,0.000,0.000,16,16,4*4E
$GPGGA,041642.20,3135.4974539,N,12046.5561355,E,4,16,1.4,2.8557,M,8.308,M,01,0004*67
$GPHPD,0,0.000,58.22,0.33,-14.39,31.5916242,120.7759356,2.856,13631100.465,24924030.084,2.856,0.000,0.000,0.000,0.000,0.000,0.000,0.000,16,16,4*66
$GPGGA,041642.40,3135.4974872,N,12046.5562005,E,4,16,1.4,2.8567,M,8.308,M,01,0004*65
$GPHPD,0,0.000,58.42,0.55,-14.40,31.5916248,120.7759367,2.857,13631100.123,24924030.674,2.857,0.000,0.000,0.000,0.000,0.000,0.000,0.000,16,16,4*68
$GPGGA,041642.60,3135.4975255,N,12046.5562741,E,4,16,1.4,2.8580,M,8.308,M,00,0004*66
$GPHPD,0,0.000,58.39,0.20,-14.40,31.5916254,120.7759379,2.858,13631099.726,24924031.338,2.858,0.000,0.000,0.000,0.000,0.000,0.000,0.000,16,16,4*6A
$GPGGA,041642.80,3135.4975638,N,12046.5563435,E,4,16,1.4,2.8543,M,8.308,M,00,0004*69
$GPHPD,0,0.000,58.41,0.44,-14.41,31.5916261,120.7759391,2.854,13631099.322,24924031.952,2.854,0.000,0.000,0.000,0.000,0.000,0.000,0.000,16,16,4*60
$GPGGA,041643.00,3135.4976018,N,12046.5564146,E,4,16,1.4,2.8642,M,8.308,M,01,0004*62
$GPHPD,0,0.000,58.55,-0.05,-14.40,31.5916267,120.7759402,2.864,13631098.925,24924032.588,2.864,0.000,0.000,0.000,0.000,0.000,0.000,0.000,16,16,4*43
$GPGGA,041643.20,3135.4976395,N,12046.5564906,E,4,16,1.4,2.8556,M,8.308,M,01,0004*6C
$GPHPD,0,0.000,58.47,-0.04,-14.39,31.5916273,120.7759415,2.856,13631098.542,24924033.285,2.856,0.000,0.000,0.000,0.000,0.000,0.000,0.000,16,16,4*4A
$GPGGA,041643.40,3135.4976763,N,12046.5565609,E,4,16,1.4,2.8589,M,8.308,M,01,0004*64
$GPHPD,0,0.000,58.64,-0.11,-14.36,31.5916279,120.7759427,2.859,13631098.160,24924033.919,2.859,0.000,0.000,0.000,0.000,0.000,0.000,0.000,16,16,4*41
$GPGGA,041643.60,3135.4977120,N,12046.5566300,E,4,16,1.4,2.8564,M,8.308,M,00,0004*6B
$GPHPD,0,0.000,58.46,-0.10,-14.30,31.5916285,120.7759438,2.856,13631097.792,24924034.544,2.856,0.000,0.000,0.000,0.000,0.000,0.000,0.000,16,16,4*4C
$GPGGA,041643.80,3135.4977446,N,12046.5566954,E,4,16,1.4,2.8582,M,8.308,M,00,0004*63
$GPHPD,0,0.000,58.58,0.04,-14.23,31.5916291,120.7759449,2.858,13631097.460,24924035.143,2.858,0.000,0.000,0.000,0.000,0.000,0.000,0.000,16,16,4*66
$GPGGA,041644.00,3135.4977756,N,12046.5567550,E,4,16,1.4,2.8443,M,8.308,M,01,0004*6A
$GPHPD,0,0.000,58.60,-0.11,-14.18,31.5916296,120.7759459,2.844,13631097.139,24924035.681,2.844,0.000,0.000,0.000,0.000,0.000,0.000,0.000,16,16,4*4A
$GPGGA,041644.20,3135.4978021,N,12046.5568109,E,4,16,1.4,2.8568,M,8.308,M,01,0004*6F
$GPHPD,0,0.000,58.77,-0.04,-14.14,31.5916300,120.7759468,2.857,13631096.875,24924036.201,2.857,0.000,0.000,0.000,0.000,0.000,0.000,0.000,16,16,4*47
$GPGGA,041644.40,3135.4978298,N,12046.5568627,E,4,16,1.4,2.8600,M,8.308,M,01,0004*6F
$GPHPD,0,0.000,58.49,-0.19,-14.10,31.5916305,120.7759477,2.860,13631096.586,24924036.664,2.860,0.000,0.000,0.000,0.000,0.000,0.000,0.000,16,16,4*4F
$GPGGA,041644.60,3135.4978538,N,12046.5569094,E,4,16,1.4,2.8666,M,8.308,M,00,0004*6E
$GPHPD,0,0.000,58.46,-0.42,-14.09,31.5916309,120.7759485,2.867,13631096.339,24924037.088,2.867,0.000,0.000,0.000,0.000,0.000,0.000,0.000,16,16,4*40
$GPGGA,041644.80,3135.4978784,N,12046.5569565,E,4,16,1.4,2.8654,M,8.308,M,00,0004*6F
$GPHPD,0,0.000,58.40,-0.77,-14.09,31.5916313,120.7759493,2.865,13631096.084,24924037.513,2.865,0.000,0.000,0.000,0.000,0.000,0.000,0.000,16,16,4*4E
$GPGGA,041645.00,3135.4979017,N,12046.5570071,E,4,16,1.4,2.8635,M,8.308,M,01,0004*64
$GPHPD,0,0.000,58.37,-0.61,-14.10,31.5916317,120.7759501,2.864,13631095.855,24924037.987,2.864,0.000,0.000,0.000,0.000,0.000,0.000,0.000,16,16,4*49
$GPGGA,041645.20,3135.4979259,N,12046.5570516,E,4,16,1.4,2.8589,M,8.308,M,01,0004*6E
$GPHPD,0,0.000,58.21,-0.56,-14.12,31.5916321,120.7759509,2.859,13631095.600,24924038.383,2.859,0.000,0.000,0.000,0.000,0.000,0.000,0.000,16,16,4*4A
$GPGGA,041645.40,3135.4979536,N,12046.5571008,E,4,16,1.4,2.8560,M,8.308,M,01,0004*6A
$GPHPD,0,0.000,58.28,-0.64,-14.15,31.5916326,120.7759517,2.856,13631095.305,24924038.815,2.856,0.000,0.000,0.000,0.000,0.000,0.000,0.000,16,16,4*49
$GPGGA,041645.60,3135.4979784,N,12046.5571556,E,4,16,1.4,2.8540,M,8.308,M,00,0004*6E
$GPHPD,0,0.000,58.32,-0.71,-14.18,31.5916330,120.7759526,2.854,13631095.063,24924039.331,2.854,0.000,0.000,0.000,0.000,0.000,0.000,0.000,16,16,4*41
$GPGGA,041645.80,3135.4980070,N,12046.5572125,E,4,16,1.4,2.8529,M,8.308,M,00,0004*66
$GPHPD,0,0.000,58.25,-0.10,-14.23,31.5916335,120.7759535,2.853,13631094.771,24924039.851,2.853,0.000,0.000,0.000,0.000,0.000,0.000,0.000,16,16,4*47
$GPGGA,041646.00,3135.4980393,N,12046.5572760,E,4,16,1.4,2.8596,M,8.308,M,01,0004*61
$GPHPD,0,0.000,58.18,-0.21,-14.31,31.5916340,120.7759546,2.860,13631094.440,24924040.429,2.860,0.000,0.000,0.000,0.000,0.000,0.000,0.000,16,16,4*42
$GPGGA,041646.20,3135.4980736,N,12046.5573459,E,4,16,1.4,2.8554,M,8.308,M,01,0004*6E
$GPHPD,0,0.000,58.07,-0.53,-14.38,31.5916346,120.7759558,2.855,13631094.093,24924041.072,2.855,0.000,0.000,0.000,0.000,0.000,0.000,0.000,16,16,4*48
$GPGGA,041646.40,3135.4981136,N,12046.5574236,E,4,16,1.4,2.8534,M,8.308,M,01,0004*61
$GPHPD,0,0.000,57.97,-0.27,-14.46,31.5916352,120.7759571,2.853,13631093.681,24924041.776,2.853,0.000,0.000,0.000,0.000,0.000,0.000,0.000,16,16,4*4B
$GPGGA,041646.60,3135.4981577,N,12046.5575074,E,4,16,1.4,2.8575,M,8.308,M,00,0004*63
$GPHPD,0,0.000,58.04,-0.43,-14.54,31.5916360,120.7759585,2.858,13631093.223,24924042.530,2.858,0.000,0.000,0.000,0.000,0.000,0.000,0.000,16,16,4*4A
$GPGGA,041646.80,3135.4982032,N,12046.5575953,E,4,16,1.4,2.8535,M,8.308,M,00,0004*62
$GPHPD,0,0.000,57.98,-0.57,-14.65,31.5916367,120.7759599,2.854,13631092.753,24924043.325,2.854,0.000,0.000,0.000,0.000,0.000,0.000,0.000,16,16,4*4D
$GPGGA,041647.00,3135.4982549,N,12046.5576953,E,4,16,1.4,2.8458,M,8.308,M,01,0004*6A
$GPHPD,0,0.000,57.77,-0.61,-14.76,31.5916376,120.7759616,2.846,13631092.219,24924044.230,2.846,0.000,0.000,0.000,0.000,0.000,0.000,0.000,16,16,4*46
$GPGGA,041647.20,3135.4983124,N,12046.5578040,E,4,16,1.4,2.8516,M,8.308,M,01,0004*68
$GPHPD,0,0.000,57.78,-0.24,-14.85,31.5916385,120.7759634,2.852,13631091.621,24924045.206,2.852,0.000,0.000,0.000,0.000,0.000,0.000,0.000,16,16,4*40
$GPGGA,041647.40,3135.4983717,N,12046.5579202,E,4,16,1.4,2.8461,M,8.308,M,01,0004*6C
$GPHPD,0,0.000,57.82,-0.48,-14.95,31.5916395,120.7759653,2.846,13631091.012,24924046.262,2.846,0.000,0.000,0.000,0.000,0.000,0.000,0.000,16,16,4*49
$GPGGA,041647.60,3135.4984384,N,12046.5580438,E,4,16,1.4,2.8561,M,8.308,M,00,0004*6E
$GPHPD,0,0.000,57.66,-0.32,-15.00,31.5916406,120.7759674,2.856,13631090.313,24924047.364,2.856,0.000,0.000,0.000,0.000,0.000,0.000,0.000,16,16,4*4E
$GPGGA,041647.80,3135.4985077,N,12046.5581699,E,4,16,1.4,2.8476,M,8.308,M,00,0004*61
$GPHPD,0,0.000,57.65,-0.15,-15.05,31.5916418,120.7759695,2.848,13631089.582,24924048.481,2.848,0.000,0.000,0.000,0.000,0.000,0.000,0.000,16,16,4*48
$GPGGA,041648.00,3135.4985760,N,12046.5583036,E,4,16,1.4,2.8445,M,8.308,M,01,0004*67
$GPHPD,0,0.000,57.75,-0.27,-15.08,31.5916429,120.7759717,2.845,13631088.880,24924049.695,2.845,0.000,0.000,0.000,0.000,0.000,0.000,0.000,16,16,4*44
$GPGGA,041648.20,3135.4986494,N,12046.5584397,E,4,16,1.4,2.8334,M,8.308,M,01,0004*60
$GPHPD,0,0.000,57.73,0.01,-15.08,31.5916442,120.7759740,2.833,13631088.111,24924050.909,2.833,0.000,0.000,0.000,0.000,0.000,0.000,0.000,16,16,4*67
$GPGGA,041648.40,3135.4987231,N,12046.5585796,E,4,16,1.4,2.8315,M,8.308,M,01,0004*69
$GPHPD,0,0.000,57.85,0.14,-15.07,31.5916454,120.7759763,2.832,13631087.345,24924052.167,2.832,0.000,0.000,0.000,0.000,0.000,0.000,0.000,16,16,4*6D
$GPGGA,041648.60,3135.4987934,N,12046.5587179,E,4,16,1.4,2.8270,M,8.308,M,00,0004*63
$GPHPD,0,0.000,57.99,0.15,-15.07,31.5916466,120.7759786,2.827,13631086.624,24924053.426,2.827,0.000,0.000,0.000,0.000,0.000,0.000,0.000,16,16,4*69
$GPGGA,041648.80,3135.4988627,N,12046.5588558,E,4,16,1.4,2.8347,M,8.308,M,00,0004*62
$GPHPD,0,0.000,58.13,0.02,-15.06,31.5916477,120.7759809,2.835,13631085.916,24924054.685,2.835,0.000,0.000,0.000,0.000,0.000,0.000,0.000,16,16,4*6A
$GPGGA,041649.00,3135.4989375,N,12046.5589971,E,4,16,1.4,2.8284,M,8.308,M,01,0004*61
$GPHPD,0,0.000,58.43,-0.05,-15.04,31.5916490,120.7759833,2.828,13631085.137,24924055.954,2.828,0.000,0.000,0.000,0.000,0.000,0.000,0.000,16,16,4*4E
$GPGGA,041649.20,3135.4990053,N,12046.5591386,E,4,16,1.4,2.8265,M,8.308,M,01,0004*68
$GPHPD,0,0.000,58.47,0.17,-15.03,31.5916501,120.7759856,2.827,13631084.459,24924057.265,2.827,0.000,0.000,0.000,0.000,0.000,0.000,0.000,16,16,4*6E
$GPGGA,041649.40,3135.4990792,N,12046.5592827,E,4,16,1.4,2.8269,M,8.308,M,01,0004*6B
$GPHPD,0,0.000,58.65,-0.34,-15.02,31.5916513,120.7759880,2.827,13631083.698,24924058.573,2.827,0.000,0.000,0.000,0.000,0.000,0.000,0.000,16,16,4*4C
$GPGGA,041649.60,3135.4991516,N,12046.5594275,E,4,16,1.4,2.8214,M,8.308,M,01,0004*67
$GPHPD,0,0.000,58.95,-0.21,-15.01,31.5916525,120.7759905,2.821,13631082.961,24924059.897,2.821,0.000,0.000,0.000,0.000,0.000,0.000,0.000,16,16,4*43
$GPGGA,041649.80,3135.4992233,N,12046.5595726,E,4,16,1.4,2.8178,M,8.308,M,00,0004*60
$GPHPD,0,0.000,58.85,0.00,-14.98,31.5916537,120.7759929,2.818,13631082.234,24924061.229,2.818,0.000,0.000,0.000,0.000,0.000,0.000,0.000,16,16,4*6F
$GPGGA,041650.00,3135.4992977,N,12046.5597201,E,4,16,1.4,2.8240,M,8.308,M,01,0004*60
$GPHPD,0,0.000,59.15,-0.01,-14.97,31.5916550,120.7759953,2.824,13631081.473,24924062.575,2.824,0.000,0.000,0.000,0.000,0.000,0.000,0.000,16,16,4*43
$GPGGA,041650.20,3135.4993741,N,12046.5598686,E,4,16,1.4,2.8199,M,8.308,M,01,0004*6B
$GPHPD,0,0.000,59.23,-0.64,-14.95,31.5916562,120.7759978,2.820,13631080.686,24924063.921,2.820,0.000,0.000,0.000,0.000,0.000,0.000,0.000,16,16,4*4A
$GPGGA,041650.40,3135.4994520,N,12046.5600217,E,4,16,1.4,2.8110,M,8.308,M,01,0004*60
$GPHPD,0,0.000,59.38,-0.27,-14.93,31.5916575,120.7760004,2.811,13631079.887,24924065.313,2.811,0.000,0.000,0.000,0.000,0.000,0.000,0.000,16,16,4*4B
$GPGGA,041650.60,3135.4995244,N,12046.5601758,E,4,16,1.4,2.8169,M,8.308,M,00,0004*66
$GPHPD,0,0.000,59.49,-0.02,-14.91,31.5916587,120.7760029,2.817,13631079.168,24924066.750,2.817,0.000,0.000,0.000,0.000,0.000,0.000,0.000,16,16,4*42
$GPGGA,041650.80,3135.4996016,N,12046.5603319,E,4,16,1.4,2.8186,M,8.308,M,00,0004*6C
$GPHPD,0,0.000,59.35,-0.11,-14.90,31.5916600,120.7760055,2.819,13631078.385,24924068.183,2.819,0.000,0.000,0.000,0.000,0.000,0.000,0.000,16,16,4*4B
$GPGGA,041651.00,3135.4996803,N,12046.5604915,E,4,16,1.4,2.8195,M,8.308,M,01,0004*6B
$GPHPD,0,0.000,59.47,0.06,-14.92,31.5916613,120.7760082,2.820,13631077.587,24924069.649,2.820,0.000,0.000,0.000,0.000,0.000,0.000,0.000,16,16,4*64
$GPGGA,041651.20,3135.4997577,N,12046.5606506,E,4,16,1.4,2.8121,M,8.308,M,01,0004*65
$GPHPD,0,0.000,59.21,0.18,-14.92,31.5916626,120.7760108,2.812,13631076.808,24924071.117,2.812,0.000,0.000,0.000,0.000,0.000,0.000,0.000,16,16,4*60
$GPGGA,041651.40,3135.4998382,N,12046.5608117,E,4,16,1.4,2.8188,M,8.308,M,01,0004*69
$GPHPD,0,0.000,59.37,0.59,-14.92,31.5916640,120.7760135,2.819,13631075.988,24924072.591,2.819,0.000,0.000,0.000,0.000,0.000,0.000,0.000,16,16,4*6F
$GPGGA,041651.60,3135.4999179,N,12046.5609762,E,4,16,1.4,2.8147,M,8.308,M,00,0004*6B
$GPHPD,0,0.000,59.49,0.22,-14.91,31.5916653,120.7760163,2.815,13631075.186,24924074.111,2.815,0.000,0.000,0.000,0.000,0.000,0.000,0.000,16,16,4*64
$GPGGA,041651.80,3135.4999978,N,12046.5611435,E,4,16,1.4,2.8234,M,8.308,M,00,0004*63
$GPHPD,0,0.000,59.36,0.32,-14.93,31.5916666,120.7760191,2.823,13631074.387,24924075.663,2.823,0.000,0.000,0.000,0.000,0.000,0.000,0.000,16,16,4*65
$GPGGA,041652.00,3135.5000821,N,12046.5613070,E,4,16,1.4,2.8191,M,8.308,M,01,0004*67
$GPHPD,0,0.000,59.24,-0.06,-14.94,31.5916680,120.7760218,2.819,13631073.518,24924077.144,2.819,0.000,0.000,0.000,0.000,0.000,0.000,0.000,16,16,4*46
$GPGGA,041652.20,3135.5001628,N,12046.5614729,E,4,16,1.4,2.8241,M,8.308,M,01,0004*61
$GPHPD,0,0.000,59.34,0.15,-14.96,31.5916694,120.7760245,2.824,13631072.705,24924078.675,2.824,0.000,0.000,0.000,0.000,0.000,0.000,0.000,16,16,4*62
$GPGGA,041652.40,3135.5002438,N,12046.5616431,E,4,16,1.4,2.8216,M,8.308,M,01,0004*6D
$GPHPD,0,0.000,59.35,-0.19,-14.97,31.5916707,120.7760274,2.822,13631071.896,24924080.256,2.822,0.000,0.000,0.000,0.000,0.000,0.000,0.000,16,16,4*4E
$GPGGA,041652.60,3135.5003298,N,12046.5618092,E,4,16,1.4,2.8177,M,8.308,M,00,0004*64
$GPHPD,0,0.000,59.28,-0.27,-14.96,31.5916722,120.7760302,2.818,13631071.008,24924081.758,2.818,0.000,0.000,0.000,0.000,0.000,0.000,0.000,16,16,4*4C
$GPGGA,041652.80,3135.5004152,N,12046.5619814,E,4,16,1.4,2.8140,M,8.308,M,00,0004*6B
$GPHPD,0,0.000,59.25,-0.23,-14.97,31.5916736,120.7760330,2.814,13631070.141,24924083.337,2.814,0.000,0.000,0.000,0.000,0.000,0.000,0.000,16,16,4*42
$GPGGA,041653.00,3135.5004983,N,12046.5621532,E,4,16,1.4,2.8197,M,8.308,M,01,0004*6F
$GPHPD,0,0.000,59.40,-0.27,-14.96,31.5916750,120.7760359,2.820,13631069.305,24924084.925,2.820,0.000,0.000,0.000,0.000,0.000,0.000,0.000,16,16,4*4F
$GPGGA,041653.20,3135.5005843,N,12046.5623263,E,4,16,1.4,2.8141,M,8.308,M,01,0004*6B
$GPHPD,0,0.000,59.57,-0.22,-14.95,31.5916764,120.7760388,2.814,13631068.431,24924086.512,2.814,0.000,0.000,0.000,0.000,0.000,0.000,0.000,16,16,4*4F
$GPGGA,041653.40,3135.5006682,N,12046.5624948,E,4,16,1.4,2.8092,M,8.308,M,01,0004*67
$GPHPD,0,0.000,59.28,-0.27,-14.95,31.5916778,120.7760416,2.809,13631067.578,24924088.055,2.809,0.000,0.000,0.000,0.000,0.000,0.000,0.000,16,16,4*44
$GPGGA,041653.60,3135.5007539,N,12046.5626666,E,4,16,1.4,2.8119,M,8.308,M,00,0004*65
$GPHPD,0,0.000,59.40,-0.19,-14.93,31.5916792,120.7760444,2.812,13631066.706,24924089.628,2.812,0.000,0.000,0.000,0.000,0.000,0.000,0.000,16,16,4*45
$GPGGA,041653.80,3135.5008369,N,12046.5628427,E,4,16,1.4,2.8091,M,8.308,M,00,0004*6F
$GPHPD,0,0.000,59.54,-0.31,-14.94,31.5916806,120.7760474,2.809,13631065.880,24924091.268,2.809,0.000,0.000,0.000,0.000,0.000,0.000,0.000,16,16,4*47
$GPGGA,041654.00,3135.5009201,N,12046.5630125,E,4,16,1.4,2.8089,M,8.308,M,01,0004*68
$GPHPD,0,0.000,59.56,0.12,-14.94,31.5916820,120.7760502,2.809,13631065.040,24924092.831,2.809,0.000,0.000,0.000,0.000,0.000,0.000,0.000,16,16,4*6C
$GPGGA,041654.20,3135.5010057,N,12046.5631833,E,4,16,1.4,2.8113,M,8.308,M,01,0004*6E
$GPHPD,0,0.000,59.54,-0.42,-14.94,31.5916834,120.7760531,2.811,13631064.167,24924094.393,2.811,0.000,0.000,0.000,0.000,0.000,0.000,0.000,16,16,4*43
$GPGGA,041654.40,3135.5010910,N,12046.5633557,E,4,16,1.4,2.8065,M,8.308,M,01,0004*6F
$GPHPD,0,0.000,59.68,-0.26,-14.94,31.5916849,120.7760559,2.807,13631063.301,24924095.975,2.807,0.000,0.000,0.000,0.000,0.000,0.000,0.000,16,16,4*4C
$GPGGA,041654.60,3135.5011703,N,12046.5635269,E,4,16,1.4,2.8109,M,8.309,M,00,0004*67
$GPHPD,0,0.000,59.79,0.39,-14.95,31.5916862,120.7760588,2.811,13631062.519,24924097.578,2.811,0.000,0.000,0.000,0.000,0.000,0.000,0.000,16,16,4*66
$GPGGA,041654.80,3135.5012574,N,12046.5636970,E,4,16,1.4,2.8166,M,8.309,M,00,0004*61
$GPHPD,0,0.000,59.50,0.19,-14.95,31.5916876,120.7760616,2.817,13631061.623,24924099.122,2.817,0.000,0.000,0.000,0.000,0.000,0.000,0.000,16,16,4*62
$GPGGA,041655.00,3135.5013382,N,12046.5638682,E,4,16,1.4,2.8036,M,8.309,M,01,0004*6F
$GPHPD,0,0.000,59.56,-0.05,-14.94,31.5916890,120.7760645,2.804,13631060.819,24924100.716,2.804,0.000,0.000,0.000,0.000,0.000,0.000,0.000,16,16,4*4D
$GPGGA,041655.20,3135.5014224,N,12046.5640383,E,4,16,1.4,2.8085,M,8.309,M,01,0004*64
$GPHPD,0,0.000,59.69,0.10,-14.93,31.5916904,120.7760673,2.809,13631059.965,24924102.277,2.809,0.000,0.000,0.000,0.000,0.000,0.000,0.000,16,16,4*66
$GPGGA,041655.40,3135.5015072,N,12046.5642107,E,4,16,1.4,2.8139,M,8.309,M,01,0004*68
$GPHPD,0,0.000,59.51,-0.15,-14.92,31.5916918,120.7760702,2.814,13631059.106,24924103.862,2.814,0.000,0.000,0.000,0.000,0.000,0.000,0.000,16,16,4*4C
$GPGGA,041655.60,3135.5015907,N,12046.5643831,E,4,16,1.4,2.8057,M,8.309,M,00,0004*64
$GPHPD,0,0.000,59.68,-0.41,-14.90,31.5916932,120.7760731,2.806,13631058.267,24924105.455,2.806,0.000,0.000,0.000,0.000,0.000,0.000,0.000,16,16,4*46
$GPGGA,041655.80,3135.5016738,N,12046.5645535,E,4,16,1.4,2.8060,M,8.309,M,00,0004*60
$GPHPD,0,0.000,59.59,-0.05,-14.85,31.5916946,120.7760759,2.806,13631057.428,24924107.026,2.806,0.000,0.000,0.000,0.000,0.000,0.000,0.000,16,16,4*4D
$GPGGA,041656.00,3135.5017572,N,12046.5647262,E,4,16,1.4,2.8069,M,8.309,M,01,0004*69
$GPHPD,0,0.000,59.78,-0.35,-14.82,31.5916960,120.7760788,2.807,13631056.590,24924108.623,2.807,0.000,0.000,0.000,0.000,0.000,0.000,0.000,16,16,4*4D
$GPGGA,041656.20,3135.5018400,N,12046.5649009,E,4,16,1.4,2.8005,M,8.309,M,01,0004*6B
$GPHPD,0,0.000,59.52,-0.05,-14.80,31.5916973,120.7760817,2.801,13631055.765,24924110.247,2.801,0.000,0.000,0.000,0.000,0.000,0.000,0.000,16,16,4*4B
$GPGGA,041656.40,3135.5019227,N,12046.5650727,E,4,16,1.4,2.7977,M,8.309,M,01,0004*6F
$GPHPD,0,0.000,59.69,0.29,-14.77,31.5916987,120.7760845,2.798,13631054.936,24924111.837,2.798,0.000,0.000,0.000,0.000,0.000,0.000,0.000,16,16,4*61
$GPGGA,041656.60,3135.5020088,N,12046.5652435,E,4,16,1.4,2.7968,M,8.309,M,00,0004*6D
$GPHPD,0,0.000,59.83,-0.08,-14.76,31.5917001,120.7760874,2.797,13631054.056,24924113.396,2.797,0.000,0.000,0.000,0.000,0.000,0.000,0.000,16,16,4*43
$GPGGA,041656.80,3135.5020893,N,12046.5654135,E,4,16,1.4,2.7940,M,8.309,M,00,0004*68
$GPHPD,0,0.000,60.03,-0.01,-14.76,31.5917015,120.7760902,2.794,13631053.253,24924114.977,2.794,0.000,0.000,0.000,0.000,0.000,0.000,0.000,16,16,4*4F
$GPGGA,041657.00,3135.5021759,N,12046.5655893,E,4,16,1.4,2.7987,M,8.309,M,01,0004*67
$GPHPD,0,0.000,59.98,0.14,-14.73,31.5917029,120.7760932,2.799,13631052.376,24924116.593,2.799,0.000,0.000,0.000,0.000,0.000,0.000,0.000,16,16,4*64
$GPGGA,041657.20,3135.5022587,N,12046.5657614,E,4,16,1.4,2.8034,M,8.309,M,01,0004*6A
$GPHPD,0,0.000,60.26,-0.34,-14.72,31.5917043,120.7760960,2.803,13631051.546,24924118.186,2.803,0.000,0.000,0.000,0.000,0.000,0.000,0.000,16,16,4*46
$GPGGA,041657.40,3135.5023415,N,12046.5659337,E,4,16,1.4,2.7896,M,8.309,M,01,0004*62
$GPHPD,0,0.000,60.00,-0.64,-14.71,31.5917057,120.7760989,2.790,13631050.716,24924119.782,2.790,0.000,0.000,0.000,0.000,0.000,0.000,0.000,16,16,4*43
$GPGGA,041657.60,3135.5024254,N,12046.5661107,E,4,16,1.4,2.7953,M,8.309,M,00,0004*67
$GPHPD,0,0.000,59.74,-0.08,-14.69,31.5917071,120.7761018,2.795,13631049.880,24924121.428,2.795,0.000,0.000,0.000,0.000,0.000,0.000,0.000,16,16,4*4D
$GPGGA,041657.80,3135.5025139,N,12046.5662842,E,4,16,1.4,2.7868,M,8.309,M,00,0004*62
$GPHPD,0,0.000,59.46,-0.29,-14.67,31.5917086,120.7761047,2.787,13631048.971,24924123.004,2.787,0.000,0.000,0.000,0.000,0.000,0.000,0.000,16,16,4*45
$GPGGA,041658.00,3135.5025961,N,12046.5664554,E,4,16,1.4,2.7849,M,8.309,M,01,0004*6E
$GPHPD,0,0.000,59.56,0.06,-14.65,31.5917099,120.7761076,2.785,13631048.147,24924124.590,2.785,0.000,0.000,0.000,0.000,0.000,0.000,0.000,16,16,4*68
$GPGGA,041658.20,3135.5026865,N,12046.5666313,E,4,16,1.4,2.7858,M,8.309,M,01,0004*6D
$GPHPD,0,0.000,59.30,-0.02,-14.64,31.5917114,120.7761105,2.786,13631047.216,24924126.185,2.786,0.000,0.000,0.000,0.000,0.000,0.000,0.000,16,16,4*4B
$GPGGA,041658.40,3135.5027692,N,12046.5668064,E,4,16,1.4,2.7915,M,8.309,M,01,0004*69
$GPHPD,0,0.000,59.37,0.13,-14.63,31.5917128,120.7761134,2.792,13631046.393,24924127.815,2.792,0.000,0.000,0.000,0.000,0.000,0.000,0.000,16,16,4*67
$GPGGA,041658.60,3135.5028569,N,12046.5669826,E,4,16,1.4,2.7913,M,8.309,M,00,0004*6B
$GPHPD,0,0.000,59.31,0.07,-14.62,31.5917143,120.7761164,2.791,13631045.501,24924129.429,2.791,0.000,0.000,0.000,0.000,0.000,0.000,0.000,16,16,4*6E
$GPGGA,041658.80,3135.5029420,N,12046.5671568,E,4,16,1.4,2.7946,M,8.309,M,00,0004*66
$GPHPD,0,0.000,59.30,0.28,-14.62,31.5917157,120.7761193,2.795,13631044.642,24924131.034,2.795,0.000,0.000,0.000,0.000,0.000,0.000,0.000,16,16,4*6B
$GPGGA,041659.00,3135.5030282,N,12046.5673275,E,4,16,1.4,2.7924,M,8.309,M,01,0004*65
$GPHPD,0,0.000,59.36,0.27,-14.65,31.5917171,120.7761221,2.792,13631043.761,24924132.591,2.792,0.000,0.000,0.000,0.000,0.000,0.000,0.000,16,16,4*65
$GPGGA,041659.20,3135.5031147,N,12046.5675014,E,4,16,1.4,2.7926,M,8.309,M,01,0004*6D
$GPHPD,0,0.000,59.41,0.29,-14.64,31.5917186,120.7761250,2.793,13631042.881,24924134.184,2.793,0.000,0.000,0.000,0.000,0.000,0.000,0.000,16,16,4*62
$GPGGA,041659.40,3135.5031988,N,12046.5676741,E,4,16,1.4,2.7977,M,8.309,M,01,0004*60
$GPHPD,0,0.000,59.23,0.36,-14.66,31.5917200,120.7761279,2.798,13631042.033,24924135.777,2.798,0.000,0.000,0.000,0.000,0.000,0.000,0.000,16,16,4*66
$GPGGA,041659.60,3135.5032815,N,12046.5678430,E,4,16,1.4,2.7976,M,8.309,M,01,0004*6E
$GPHPD,0,0.000,59.51,0.41,-14.67,31.5917214,120.7761307,2.798,13631041.198,24924137.333,2.798,0.000,0.000,0.000,0.000,0.000,0.000,0.000,16,16,4*6A
$GPGGA,041659.80,3135.5033670,N,12046.5680167,E,4,16,1.4,2.8010,M,8.309,M,00,0004*6B
$GPHPD,0,0.000,59.37,0.19,-14.68,31.5917228,120.7761336,2.801,13631040.332,24924138.929,2.801,0.000,0.000,0.000,0.000,0.000,0.000,0.000,16,16,4*68
$GPGGA,041700.00,3135.5034516,N,12046.5681876,E,4,16,1.4,2.7941,M,8.309,M,01,0004*61
$GPHPD,0,0.000,59.55,-0.18,-14.69,31.5917242,120.7761365,2.794,13631039.474,24924140.498,2.794,0.000,0.000,0.000,0.000,0.000,0.000,0.000,16,16,4*48
$GPGGA,041700.20,3135.5035386,N,12046.5683626,E,4,17,1.4,2.7945,M,8.309,M,01,0004*61
$GPHPD,0,0.000,59.42,-0.10,-14.67,31.5917256,120.7761394,2.795,13631038.589,24924142.101,2.795,0.000,0.000,0.000,0.000,0.000,0.000,0.000,17,16,4*47
$GPGGA,041700.40,3135.5036250,N,12046.5685353,E,4,17,1.3,2.8050,M,8.309,M,01,0004*6A
$GPHPD,0,0.000,59.67,-0.28,-14.66,31.5917271,120.7761423,2.805,13631037.709,24924143.681,2.805,0.000,0.000,0.000,0.000,0.000,0.000,0.000,17,17,4*4E
$GPGGA,041700.60,3135.5037082,N,12046.5687097,E,4,17,1.3,2.7960,M,8.309,M,00,0004*69
$GPHPD,0,0.000,59.63,-0.62,-14.65,31.5917285,120.7761452,2.796,13631036.877,24924145.299,2.796,0.000,0.000,0.000,0.000,0.000,0.000,0.000,17,17,4*46
$GPGGA,041700.80,3135.5037910,N,12046.5688845,E,4,17,1.3,2.7892,M,8.309,M,00,0004*61
$GPHPD,0,0.000,59.63,-0.27,-14.62,31.5917299,120.7761481,2.789,13631036.052,24924146.925,2.789,0.000,0.000,0.000,0.000,0.000,0.000,0.000,17,17,4*43
$GPGGA,041701.00,3135.5038766,N,12046.5690568,E,4,17,1.3,2.7899,M,8.309,M,01,0004*69
$GPHPD,0,0.000,59.21,-0.08,-14.60,31.5917313,120.7761509,2.790,13631035.182,24924148.505,2.790,0.000,0.000,0.000,0.000,0.000,0.000,0.000,17,17,4*47
$GPGGA,041701.20,3135.5039623,N,12046.5692293,E,4,17,1.3,2.7910,M,8.309,M,01,0004*6B
$GPHPD,0,0.000,59.26,-0.36,-14.58,31.5917327,120.7761538,2.791,13631034.311,24924150.086,2.791,0.000,0.000,0.000,0.000,0.000,0.000,0.000,17,17,4*4D
$GPGGA,041701.40,3135.5040475,N,12046.5693963,E,4,17,1.3,2.7873,M,8.309,M,01,0004*63
$GPHPD,0,0.000,58.92,-0.14,-14.57,31.5917341,120.7761566,2.787,13631033.437,24924151.604,2.787,0.000,0.000,0.000,0.000,0.000,0.000,0.000,17,17,4*4E
$GPGGA,041701.60,3135.5041341,N,12046.5695705,E,4,17,1.3,2.7917,M,8.309,M,00,0004*6A
$GPHPD,0,0.000,58.97,0.07,-14.56,31.5917356,120.7761595,2.792,13631032.556,24924153.200,2.792,0.000,0.000,0.000,0.000,0.000,0.000,0.000,17,17,4*6A
$GPGGA,041701.80,3135.5042199,N,12046.5697397,E,4,17,1.3,2.7856,M,8.309,M,00,0004*69
$GPHPD,0,0.000,58.89,-0.07,-14.56,31.5917370,120.7761623,2.786,13631031.677,24924154.741,2.786,0.000,0.000,0.000,0.000,0.000,0.000,0.000,17,17,4*46
$GPGGA,041702.00,3135.5043023,N,12046.5699106,E,4,17,1.3,2.7830,M,8.309,M,01,0004*66
$GPHPD,0,0.000,58.97,-0.01,-14.60,31.5917384,120.7761652,2.783,13631030.850,24924156.322,2.783,0.000,0.000,0.000,0.000,0.000,0.000,0.000,17,17,4*4E
$GPGGA,041702.20,3135.5043889,N,12046.5700787,E,4,17,1.3,2.7789,M,8.309,M,01,0004*6F
$GPHPD,0,0.000,58.85,-0.02,-14.60,31.5917398,120.7761680,2.779,13631029.957,24924157.845,2.779,0.000,0.000,0.000,0.000,0.000,0.000,0.000,17,17,4*49
$GPGGA,041702.40,3135.5044742,N,12046.5702467,E,4,17,1.3,2.7826,M,8.309,M,01,0004*63
$GPHPD,0,0.000,59.05,-0.23,-14.61,31.5917412,120.7761708,2.783,13631029.083,24924159.374,2.783,0.000,0.000,0.000,0.000,0.000,0.000,0.000,17,17,4*41
$GPGGA,041702.60,3135.5045598,N,12046.5704170,E,4,17,1.3,2.7787,M,8.309,M,00,0004*65
$GPHPD,0,0.000,59.04,-0.29,-14.62,31.5917427,120.7761736,2.779,13631028.209,24924160.929,2.779,0.000,0.000,0.000,0.000,0.000,0.000,0.000,17,17,4*4B
$GPGGA,041702.80,3135.5046451,N,12046.5705860,E,4,17,1.3,2.7746,M,8.309,M,00,0004*68
$GPHPD,0,0.000,59.00,0.06,-14.62,31.5917441,120.7761764,2.775,13631027.337,24924162.470,2.775,0.000,0.000,0.000,0.000,0.000,0.000,0.000,17,17,4*68
$GPGGA,041703.00,3135.5047317,N,12046.5707544,E,4,17,1.3,2.7784,M,8.309,M,01,0004*63
$GPHPD,0,0.000,58.69,0.11,-14.63,31.5917455,120.7761792,2.778,13631026.445,24924163.997,2.778,0.000,0.000,0.000,0.000,0.000,0.000,0.000,17,17,4*6B
$GPGGA,041703.20,3135.5048163,N,12046.5709235,E,4,17,1.3,2.7750,M,8.309,M,01,0004*69
$GPHPD,0,0.000,58.77,-0.11,-14.64,31.5917469,120.7761821,2.775,13631025.583,24924165.544,2.775,0.000,0.000,0.000,0.000,0.000,0.000,0.000,17,17,4*4A
$GPGGA,041703.40,3135.5049020,N,12046.5710924,E,4,17,1.3,2.7722,M,8.309,M,01,0004*6E
$GPHPD,0,0.000,58.33,0.15,-14.62,31.5917484,120.7761849,2.772,13631024.705,24924167.081,2.772,0.000,0.000,0.000,0.000,0.000,0.000,0.000,17,17,4*6B
$GPGGA,041703.60,3135.5049924,N,12046.5712624,E,4,17,1.3,2.7689,M,8.309,M,00,0004*6D
$GPHPD,0,0.000,58.15,0.47,-14.62,31.5917499,120.7761877,2.769,13631023.762,24924168.605,2.769,0.000,0.000,0.000,0.000,0.000,0.000,0.000,17,17,4*6A
$GPGGA,041703.80,3135.5050754,N,12046.5714267,E,4,17,1.3,2.7763,M,8.309,M,00,0004*62
$GPHPD,0,0.000,58.27,0.34,-14.60,31.5917513,120.7761904,2.776,13631022.913,24924170.103,2.776,0.000,0.000,0.000,0.000,0.000,0.000,0.000,17,17,4*6A
$GPGGA,041704.00,3135.5051628,N,12046.5715956,E,4,17,1.3,2.7716,M,8.309,M,01,0004*6D
$GPHPD,0,0.000,58.34,-0.02,-14.59,31.5917527,120.7761933,2.772,13631022.011,24924171.631,2.772,0.000,0.000,0.000,0.000,0.000,0.000,0.000,17,17,4*45
$GPGGA,041704.20,3135.5052530,N,12046.5717658,E,4,17,1.3,2.7790,M,8.309,M,01,0004*6B
$GPHPD,0,0.000,58.22,0.01,-14.56,31.5917542,120.7761961,2.779,13631021.071,24924173.158,2.779,0.000,0.000,0.000,0.000,0.000,0.000,0.000,17,17,4*68
$GPGGA,041704.40,3135.5053402,N,12046.5719323,E,4,17,1.3,2.7780,M,8.309,M,01,0004*6A
$GPHPD,0,0.000,58.33,-0.09,-14.54,31.5917557,120.7761989,2.778,13631020.167,24924174.658,2.778,0.000,0.000,0.000,0.000,0.000,0.000,0.000,17,17,4*4A
$GPGGA,041704.60,3135.5054246,N,12046.5721026,E,4,17,1.3,2.7765,M,8.309,M,00,0004*6E
$GPHPD,0,0.000,58.31,-0.46,-14.55,31.5917571,120.7762017,2.777,13631019.310,24924176.220,2.777,0.000,0.000,0.000,0.000,0.000,0.000,0.000,17,17,4*4A
$GPGGA,041704.80,3135.5055135,N,12046.5722713,E,4,17,1.3,2.7734,M,8.309,M,00,0004*60
$GPHPD,0,0.000,58.28,-0.21,-14.54,31.5917586,120.7762045,2.773,13631018.386,24924177.737,2.773,0.000,0.000,0.000,0.000,0.000,0.000,0.000,17,17,4*41
$GPGGA,041705.00,3135.5056025,N,12046.5724391,E,4,17,1.3,2.7810,M,8.309,M,01,0004*6A
$GPHPD,0,0.000,58.22,-0.19,-14.53,31.5917600,120.7762073,2.781,13631017.459,24924179.242,2.781,0.000,0.000,0.000,0.000,0.000,0.000,0.000,17,17,4*4C
$GPGGA,041705.20,3135.5056879,N,12046.5726076,E,4,17,1.3,2.7705,M,8.309,M,01,0004*6A
$GPHPD,0,0.000,58.24,-0.25,-14.55,31.5917615,120.7762101,2.771,13631016.584,24924180.777,2.771,0.000,0.000,0.000,0.000,0.000,0.000,0.000,17,17,4*46
$GPGGA,041705.40,3135.5057756,N,12046.5727786,E,4,17,1.3,2.7714,M,8.309,M,01,0004*66
$GPHPD,0,0.000,58.03,0.27,-14.58,31.5917629,120.7762130,2.771,13631015.682,24924182.329,2.771,0.000,0.000,0.000,0.000,0.000,0.000,0.000,17,17,4*67
$GPGGA,041705.60,3135.5058598,N,12046.5729448,E,4,17,1.3,2.7709,M,8.309,M,01,0004*68
$GPHPD,0,0.000,58.30,0.23,-14.59,31.5917643,120.7762157,2.771,13631014.819,24924183.842,2.771,0.000,0.000,0.000,0.000,0.000,0.000,0.000,17,17,4*65
$GPGGA,041705.80,3135.5059476,N,12046.5731117,E,4,17,1.3,2.7707,M,8.309,M,01,0004*6E
$GPHPD,0,0.000,58.05,-0.08,-14.58,31.5917658,120.7762185,2.771,13631013.907,24924185.344,2.771,0.000,0.000,0.000,0.000,0.000,0.000,0.000,17,17,4*41
$GPGGA,041706.00,3135.5060353,N,12046.5732834,E,4,17,1.3,2.7730,M,8.309,M,02,0004*63
$GPHPD,0,0.000,58.25,0.02,-14.60,31.5917673,120.7762214,2.773,13631013.006,24924186.904,2.773,0.000,0.000,0.000,0.000,0.000,0.000,0.000,17,17,4*68
$GPGGA,041706.20,3135.5061224,N,12046.5734508,E,4,17,1.4,2.7663,M,8.309,M,02,0004*65
$GPHPD,0,0.000,58.33,0.12,-14.62,31.5917687,120.7762242,2.766,13631012.105,24924188.415,2.766,0.000,0.000,0.000,0.000,0.000,0.000,0.000,17,17,4*64
$GPGGA,041706.40,3135.5062087,N,12046.5736215,E,4,17,1.3,2.7693,M,8.309,M,02,0004*6A
$GPHPD,0,0.000,58.15,-0.27,-14.61,31.5917701,120.7762270,2.769,13631011.222,24924189.971,2.769,0.000,0.000,0.000,0.000,0.000,0.000,0.000,17,17,4*4D
$GPGGA,041706.60,3135.5062969,N,12046.5737864,E,4,17,1.3,2.7638,M,8.309,M,02,0004*6D
$GPHPD,0,0.000,58.11,-0.07,-14.62,31.5917716,120.7762298,2.764,13631010.300,24924191.446,2.764,0.000,0.000,0.000,0.000,0.000,0.000,0.000,17,17,4*48
$GPGGA,041706.80,3135.5063859,N,12046.5739534,E,4,17,1.3,2.7579,M,8.309,M,00,0004*62
$GPHPD,0,0.000,58.00,0.07,-14.62,31.5917731,120.7762326,2.758,13631009.371,24924192.942,2.758,0.000,0.000,0.000,0.000,0.000,0.000,0.000,17,17,4*60
$GPGGA,041707.00,3135.5064722,N,12046.5741187,E,4,17,1.3,2.7662,M,8.309,M,01,0004*64
$GPHPD,0,0.000,57.98,0.42,-14.62,31.5917745,120.7762353,2.766,13631008.477,24924194.433,2.766,0.000,0.000,0.000,0.000,0.000,0.000,0.000,17,17,4*63
$GPGGA,041707.20,3135.5065609,N,12046.5742868,E,4,17,1.3,2.7615,M,8.309,M,01,0004*64
$GPHPD,0,0.000,57.70,0.31,-14.61,31.5917760,120.7762381,2.762,13631007.555,24924195.943,2.762,0.000,0.000,0.000,0.000,0.000,0.000,0.000,17,17,4*6F
$GPGGA,041707.40,3135.5066465,N,12046.5744486,E,4,17,1.3,2.7684,M,8.309,M,01,0004*6B
$GPHPD,0,0.000,57.98,0.26,-14.61,31.5917774,120.7762408,2.768,13631006.664,24924197.396,2.768,0.000,0.000,0.000,0.000,0.000,0.000,0.000,17,17,4*6C
$GPGGA,041707.60,3135.5067367,N,12046.5746149,E,4,17,1.3,2.7690,M,8.309,M,01,0004*6C
$GPHPD,0,0.000,57.78,0.10,-14.62,31.5917789,120.7762436,2.769,13631005.717,24924198.876,2.769,0.000,0.000,0.000,0.000,0.000,0.000,0.000,17,17,4*67
$GPGGA,041707.80,3135.5068232,N,12046.5747815,E,4,17,1.3,2.7751,M,8.309,M,01,0004*61
$GPHPD,0,0.000,57.70,0.19,-14.63,31.5917804,120.7762464,2.775,13631004.823,24924200.382,2.775,0.000,0.000,0.000,0.000,0.000,0.000,0.000,17,17,4*61
$GPGGA,041708.00,3135.5069144,N,12046.5749473,E,4,17,1.3,2.7723,M,8.309,M,02,0004*61
$GPHPD,0,0.000,57.49,-0.33,-14.62,31.5917819,120.7762491,2.772,13631003.860,24924201.850,2.772,0.000,0.000,0.000,0.000,0.000,0.000,0.000,17,17,4*4C
$GPGGA,041708.20,3135.5070040,N,12046.5751147,E,4,17,1.3,2.7707,M,8.309,M,02,0004*63
$GPHPD,0,0.000,57.63,-0.24,-14.63,31.5917834,120.7762519,2.771,13631002.923,24924203.347,2.771,0.000,0.000,0.000,0.000,0.000,0.000,0.000,17,17,4*45
$GPGGA,041708.40,3135.5070929,N,12046.5752824,E,4,17,1.3,2.7639,M,8.309,M,02,0004*60
$GPHPD,0,0.000,57.34,-0.22,-14.61,31.5917849,120.7762547,2.764,13631001.997,24924204.852,2.764,0.000,0.000,0.000,0.000,0.000,0.000,0.000,17,17,4*46
$GPGGA,041708.60,3135.5071821,N,12046.5754463,E,4,17,1.3,2.7701,M,8.309,M,00,0004*6B
$GPHPD,0,0.000,57.03,0.00,-14.59,31.5917864,120.7762574,2.770,13631001.059,24924206.309,2.770,0.000,0.000,0.000,0.000,0.000,0.000,0.000,17,17,4*67
$GPGGA,041708.80,3135.5072742,N,12046.5756156,E,4,17,1.3,2.7615,M,8.309,M,00,0004*69
$GPHPD,0,0.000,57.11,-0.10,-14.58,31.5917879,120.7762603,2.762,13631000.091,24924207.814,2.762,0.000,0.000,0.000,0.000,0.000,0.000,0.000,17,17,4*45
$GPGGA,041709.00,3135.5073665,N,12046.5757800,E,4,17,1.3,2.7602,M,8.309,M,01,0004*69
$GPHPD,0,0.000,56.71,0.23,-14.56,31.5917894,120.7762630,2.760,13630999.110,24924209.259,2.760,0.000,0.000,0.000,0.000,0.000,0.000,0.000,17,17,4*6F
$GPGGA,041709.20,3135.5074578,N,12046.5759457,E,4,17,1.3,2.7639,M,8.309,M,01,0004*6B
$GPHPD,0,0.000,56.52,0.28,-14.56,31.5917910,120.7762658,2.764,13630998.146,24924210.726,2.764,0.000,0.000,0.000,0.000,0.000,0.000,0.000,17,17,4*61
$GPGGA,041709.40,3135.5075520,N,12046.5761105,E,4,17,1.3,2.7562,M,8.309,M,01,0004*65
$GPHPD,0,0.000,56.16,0.19,-14.56,31.5917925,120.7762685,2.756,13630997.138,24924212.165,2.756,0.000,0.000,0.000,0.000,0.000,0.000,0.000,17,17,4*60
$GPGGA,041709.60,3135.5076448,N,12046.5762738,E,4,17,1.3,2.7575,M,8.309,M,00,0004*67
$GPHPD,0,0.000,55.94,0.40,-14.54,31.5917941,120.7762712,2.758,13630996.148,24924213.593,2.758,0.000,0.000,0.000,0.000,0.000,0.000,0.000,17,17,4*60
$GPGGA,041709.80,3135.5077405,N,12046.5764383,E,4,17,1.3,2.7587,M,8.309,M,00,0004*6E
$GPHPD,0,0.000,55.50,-0.08,-14.53,31.5917957,120.7762740,2.759,13630995.119,24924215.020,2.759,0.000,0.000,0.000,0.000,0.000,0.000,0.000,17,17,4*42
$GPGGA,041710.00,3135.5078359,N,12046.5766022,E,4,17,1.3,2.7611,M,8.309,M,01,0004*68
$GPHPD,0,0.000,55.32,-0.16,-14.50,31.5917973,120.7762767,2.761,13630994.093,24924216.441,2.761,0.000,0.000,0.000,0.000,0.000,0.000,0.000,17,17,4*4B
$GPGGA,041710.20,3135.5079362,N,12046.5767638,E,4,17,1.3,2.7583,M,8.309,M,01,0004*67
$GPHPD,0,0.000,54.93,-0.43,-14.49,31.5917989,120.7762794,2.758,13630992.992,24924217.806,2.758,0.000,0.000,0.000,0.000,0.000,0.000,0.000,17,17,4*40
$GPGGA,041710.40,3135.5080339,N,12046.5769307,E,4,17,1.3,2.7557,M,8.309,M,01,0004*67
$GPHPD,0,0.000,54.88,-0.51,-14.47,31.5918006,120.7762822,2.756,13630991.940,24924219.249,2.756,0.000,0.000,0.000,0.000,0.000,0.000,0.000,17,17,4*47
$GPGGA,041710.60,3135.5081325,N,12046.5770924,E,4,17,1.3,2.7447,M,8.309,M,00,0004*6B
$GPHPD,0,0.000,54.44,-0.11,-14.45,31.5918022,120.7762849,2.745,13630990.864,24924220.625,2.745,0.000,0.000,0.000,0.000,0.000,0.000,0.000,17,17,4*48
$GPGGA,041710.80,3135.5082306,N,12046.5772559,E,4,17,1.3,2.7549,M,8.309,M,00,0004*6C
$GPHPD,0,0.000,54.16,0.12,-14.43,31.5918038,120.7762876,2.755,13630989.798,24924222.026,2.755,0.000,0.000,0.000,0.000,0.000,0.000,0.000,17,17,4*63
$GPGGA,041711.00,3135.5083311,N,12046.5774176,E,4,17,1.3,2.7475,M,8.309,M,01,0004*62
$GPHPD,0,0.000,53.78,-0.04,-14.42,31.5918055,120.7762903,2.748,13630988.695,24924223.391,2.748,0.000,0.000,0.000,0.000,0.000,0.000,0.000,17,17,4*4C
$GPGGA,041711.20,3135.5084323,N,12046.5775768,E,4,17,1.3,2.7505,M,8.309,M,01,0004*68
$GPHPD,0,0.000,53.58,0.18,-14.42,31.5918072,120.7762929,2.751,13630987.577,24924224.721,2.751,0.000,0.000,0.000,0.000,0.000,0.000,0.000,17,17,4*6B
$GPGGA,041711.40,3135.5085332,N,12046.5777368,E,4,17,1.3,2.7475,M,8.309,M,01,0004*6F
$GPHPD,0,0.000,53.34,0.20,-14.41,31.5918089,120.7762956,2.748,13630986.465,24924226.063,2.748,0.000,0.000,0.000,0.000,0.000,0.000,0.000,17,17,4*65
$GPGGA,041711.60,3135.5086351,N,12046.5778975,E,4,17,1.3,2.7549,M,8.309,M,00,0004*6D
$GPHPD,0,0.000,52.84,0.28,-14.43,31.5918106,120.7762983,2.755,13630985.340,24924227.408,2.755,0.000,0.000,0.000,0.000,0.000,0.000,0.000,17,17,4*60
$GPGGA,041711.80,3135.5087399,N,12046.5780559,E,4,17,1.3,2.7509,M,8.309,M,00,0004*67
$GPHPD,0,0.000,52.15,1.24,-14.45,31.5918123,120.7763009,2.751,13630984.170,24924228.708,2.751,0.000,0.000,0.000,0.000,0.000,0.000,0.000,17,17,4*62
$GPGGA,041712.00,3135.5088443,N,12046.5782160,E,4,17,1.3,2.7486,M,8.309,M,01,0004*68
$GPHPD,0,0.000,52.22,0.33,-14.44,31.5918141,120.7763036,2.749,13630983.008,24924230.030,2.749,0.000,0.000,0.000,0.000,0.000,0.000,0.000,17,17,4*64
$GPGGA,041712.20,3135.5089473,N,12046.5783734,E,4,17,1.3,2.7509,M,8.309,M,01,0004*68
$GPHPD,0,0.000,52.15,0.55,-14.45,31.5918158,120.7763062,2.751,13630981.861,24924231.329,2.751,0.000,0.000,0.000,0.000,0.000,0.000,0.000,17,16,4*66
$GPGGA,041712.40,3135.5090517,N,12046.5785308,E,4,17,1.3,2.7543,M,8.309,M,01,0004*66
$GPHPD,0,0.000,52.17,0.14,-14.45,31.5918175,120.7763088,2.754,13630980.694,24924232.619,2.754,0.000,0.000,0.000,0.000,0.000,0.000,0.000,17,16,4*6A
$GPGGA,041712.60,3135.5091533,N,12046.5786905,E,4,17,1.3,2.7503,M,8.309,M,00,0004*62
$GPHPD,0,0.000,52.10,0.31,-14.45,31.5918192,120.7763115,2.750,13630979.571,24924233.953,2.750,0.000,0.000,0.000,0.000,0.000,0.000,0.000,17,16,4*68
$GPGGA,041712.80,3135.5092564,N,12046.5788508,E,4,16,1.3,2.7432,M,8.309,M,00,0004*60
$GPHPD,0,0.000,52.18,0.25,-14.43,31.5918209,120.7763142,2.743,13630978.428,24924235.286,2.743,0.000,0.000,0.000,0.000,0.000,0.000,0.000,16,16,4*68
$GPGGA,041713.00,3135.5093586,N,12046.5790096,E,4,16,1.3,2.7425,M,8.309,M,01,0004*68
$GPHPD,0,0.000,52.12,0.62,-14.43,31.5918226,120.7763168,2.743,13630977.295,24924236.606,2.743,0.000,0.000,0.000,0.000,0.000,0.000,0.000,16,16,4*64
$GPGGA,041713.20,3135.5094642,N,12046.5791666,E,4,16,1.3,2.7485,M,8.309,M,01,0004*64
$GPHPD,0,0.000,52.20,0.45,-14.42,31.5918244,120.7763194,2.749,13630976.110,24924237.884,2.749,0.000,0.000,0.000,0.000,0.000,0.000,0.000,16,16,4*6C
$GPGGA,041713.40,3135.5095675,N,12046.5793285,E,4,16,1.3,2.7491,M,8.309,M,01,0004*69
$GPHPD,0,0.000,52.58,0.01,-14.39,31.5918261,120.7763221,2.749,13630974.968,24924239.235,2.749,0.000,0.000,0.000,0.000,0.000,0.000,0.000,16,16,4*6E
$GPGGA,041713.60,3135.5096699,N,12046.5794845,E,4,16,1.3,2.7597,M,8.309,M,00,0004*6D
$GPHPD,0,0.000,52.33,-0.37,-14.39,31.5918278,120.7763247,2.760,13630973.826,24924240.520,2.760,0.000,0.000,0.000,0.000,0.000,0.000,0.000,16,16,4*42
$GPGGA,041713.80,3135.5097701,N,12046.5796412,E,4,16,1.3,2.7526,M,8.309,M,00,0004*64
$GPHPD,0,0.000,52.20,-0.84,-14.38,31.5918295,120.7763274,2.753,13630972.717,24924241.826,2.753,0.000,0.000,0.000,0.000,0.000,0.000,0.000,16,16,4*4C
$GPGGA,041714.00,3135.5098747,N,12046.5797989,E,4,17,1.3,2.7514,M,8.309,M,01,0004*69
$GPHPD,0,0.000,52.54,-0.39,-14.36,31.5918312,120.7763300,2.751,13630971.548,24924243.119,2.751,0.000,0.000,0.000,0.000,0.000,0.000,0.000,17,17,4*47
$GPGGA,041714.20,3135.5099752,N,12046.5799621,E,4,17,1.3,2.7462,M,8.309,M,01,0004*6D
$GPHPD,0,0.000,52.78,-0.31,-14.35,31.5918329,120.7763327,2.746,13630970.448,24924244.502,2.746,0.000,0.000,0.000,0.000,0.000,0.000,0.000,17,17,4*46
$GPGGA,041714.40,3135.5100769,N,12046.5801220,E,4,17,1.3,2.7428,M,8.309,M,01,0004*67
$GPHPD,0,0.000,53.05,-0.26,-14.34,31.5918346,120.7763354,2.743,13630969.324,24924245.838,2.743,0.000,0.000,0.000,0.000,0.000,0.000,0.000,17,17,4*47
$GPGGA,041714.60,3135.5101762,N,12046.5802803,E,4,17,1.3,2.7394,M,8.309,M,01,0004*67
$GPHPD,0,0.000,53.44,0.16,-14.34,31.5918363,120.7763380,2.739,13630968.232,24924247.169,2.739,0.000,0.000,0.000,0.000,0.000,0.000,0.000,17,17,4*6A
$GPGGA,041714.80,3135.5102746,N,12046.5804452,E,4,17,1.3,2.7476,M,8.309,M,01,0004*69
$GPHPD,0,0.000,53.86,-0.12,-14.32,31.5918379,120.7763408,2.748,13630967.165,24924248.584,2.748,0.000,0.000,0.000,0.000,0.000,0.000,0.000,17,17,4*41
$GPGGA,041715.00,3135.5103746,N,12046.5806036,E,4,17,1.3,2.7496,M,8.310,M,02,0004*60
$GPHPD,0,0.000,54.12,-0.20,-14.30,31.5918396,120.7763434,2.750,13630966.062,24924249.912,2.750,0.000,0.000,0.000,0.000,0.000,0.000,0.000,17,17,4*43
$GPGGA,041715.20,3135.5104709,N,12046.5807671,E,4,17,1.3,2.7446,M,8.310,M,02,0004*67
$GPHPD,0,0.000,54.64,-0.29,-14.30,31.5918412,120.7763461,2.745,13630965.023,24924251.323,2.745,0.000,0.000,0.000,0.000,0.000,0.000,0.000,17,17,4*47
$GPGGA,041715.40,3135.5105659,N,12046.5809314,E,4,17,1.3,2.7452,M,8.310,M,02,0004*69
$GPHPD,0,0.000,54.90,-0.47,-14.28,31.5918428,120.7763489,2.745,13630964.003,24924252.751,2.745,0.000,0.000,0.000,0.000,0.000,0.000,0.000,17,17,4*43
$GPGGA,041715.60,3135.5106608,N,12046.5810968,E,4,17,1.3,2.7379,M,8.310,M,00,0004*69
$GPHPD,0,0.000,55.21,-0.95,-14.27,31.5918443,120.7763516,2.738,13630962.987,24924254.193,2.738,0.000,0.000,0.000,0.000,0.000,0.000,0.000,17,17,4*4F
$GPGGA,041715.80,3135.5107494,N,12046.5812604,E,4,17,1.3,2.7362,M,8.310,M,00,0004*6C
$GPHPD,0,0.000,55.74,-0.61,-14.24,31.5918458,120.7763543,2.736,13630962.057,24924255.650,2.736,0.000,0.000,0.000,0.000,0.000,0.000,0.000,17,17,4*40
$GPGGA,041716.00,3135.5108416,N,12046.5814237,E,4,17,1.3,2.7342,M,8.310,M,01,0004*63
$GPHPD,0,0.000,55.92,-0.37,-14.23,31.5918474,120.7763571,2.734,13630961.075,24924257.083,2.734,0.000,0.000,0.000,0.000,0.000,0.000,0.000,17,17,4*4A
$GPGGA,041716.20,3135.5109307,N,12046.5815851,E,4,17,1.3,2.7325,M,8.310,M,01,0004*6D
$GPHPD,0,0.000,56.21,0.01,-14.21,31.5918488,120.7763598,2.733,13630960.134,24924258.510,2.733,0.000,0.000,0.000,0.000,0.000,0.000,0.000,17,17,4*6A
$GPGGA,041716.40,3135.5110193,N,12046.5817462,E,4,17,1.3,2.7299,M,8.310,M,01,0004*64
$GPHPD,0,0.000,56.67,-0.05,-14.18,31.5918503,120.7763624,2.730,13630959.198,24924259.937,2.730,0.000,0.000,0.000,0.000,0.000,0.000,0.000,17,17,4*49
$GPGGA,041716.60,3135.5111057,N,12046.5819068,E,4,17,1.3,2.7281,M,8.310,M,00,0004*66
$GPHPD,0,0.000,57.21,0.34,-14.16,31.5918518,120.7763651,2.728,13630958.294,24924261.371,2.728,0.000,0.000,0.000,0.000,0.000,0.000,0.000,17,17,4*6E
$GPGGA,041716.80,3135.5111919,N,12046.5820667,E,4,17,1.3,2.7266,M,8.310,M,00,0004*61
$GPHPD,0,0.000,57.61,0.37,-14.16,31.5918532,120.7763678,2.727,13630957.390,24924262.797,2.727,0.000,0.000,0.000,0.000,0.000,0.000,0.000,17,17,4*6F
$GPGGA,041717.00,3135.5112757,N,12046.5822264,E,4,17,1.3,2.7330,M,8.310,M,01,0004*69
$GPHPD,0,0.000,57.91,0.05,-14.16,31.5918546,120.7763704,2.733,13630956.521,24924264.235,2.733,0.000,0.000,0.000,0.000,0.000,0.000,0.000,17,17,4*6E
$GPGGA,041717.20,3135.5113567,N,12046.5823857,E,4,17,1.3,2.7311,M,8.310,M,01,0004*63
$GPHPD,0,0.000,58.03,-0.20,-14.14,31.5918559,120.7763731,2.731,13630955.690,24924265.684,2.731,0.000,0.000,0.000,0.000,0.000,0.000,0.000,17,17,4*4F
$GPGGA,041717.40,3135.5114364,N,12046.5825415,E,4,17,1.3,2.7350,M,8.310,M,01,0004*6E
$GPHPD,0,0.000,57.98,-0.19,-14.12,31.5918573,120.7763757,2.735,13630954.871,24924267.099,2.735,0.000,0.000,0.000,0.000,0.000,0.000,0.000,17,17,4*4E
$GPGGA,041717.60,3135.5115158,N,12046.5827024,E,4,17,1.3,2.7501,M,8.310,M,00,0004*67
$GPHPD,0,0.000,57.88,-0.11,-14.11,31.5918586,120.7763784,2.750,13630954.066,24924268.577,2.750,0.000,0.000,0.000,0.000,0.000,0.000,0.000,17,16,4*45
$GPGGA,041717.80,3135.5115970,N,12046.5828563,E,4,17,1.3,2.7469,M,8.310,M,00,0004*6D
$GPHPD,0,0.000,57.77,-0.48,-14.09,31.5918600,120.7763809,2.747,13630953.221,24924269.960,2.747,0.000,0.000,0.000,0.000,0.000,0.000,0.000,17,16,4*4A
$GPGGA,041718.00,3135.5116719,N,12046.5830100,E,4,17,1.3,2.7598,M,8.310,M,01,0004*6E
$GPHPD,0,0.000,57.80,-0.81,-14.09,31.5918612,120.7763835,2.760,13630952.466,24924271.377,2.760,0.000,0.000,0.000,0.000,0.000,0.000,0.000,17,16,4*4A
$GPGGA,041718.20,3135.5117519,N,12046.5831626,E,4,17,1.3,2.7510,M,8.310,M,01,0004*6D
$GPHPD,0,0.000,57.32,-1.30,-14.12,31.5918625,120.7763860,2.751,13630951.636,24924272.752,2.751,0.000,0.000,0.000,0.000,0.000,0.000,0.000,17,16,4*42
$GPGGA,041718.40,3135.5118337,N,12046.5833141,E,4,17,1.3,2.7398,M,8.310,M,01,0004*6C
$GPHPD,0,0.000,57.53,-0.84,-14.13,31.5918639,120.7763886,2.740,13630950.778,24924274.102,2.740,0.000,0.000,0.000,0.000,0.000,0.000,0.000,17,16,4*40
$GPGGA,041718.60,3135.5119151,N,12046.5834589,E,4,17,1.3,2.7311,M,8.310,M,00,0004*6A
$GPHPD,0,0.000,57.58,-0.58,-14.15,31.5918653,120.7763910,2.731,13630949.913,24924275.374,2.731,0.000,0.000,0.000,0.000,0.000,0.000,0.000,17,16,4*47
$GPGGA,041718.80,3135.5119962,N,12046.5836120,E,4,17,1.3,2.7226,M,8.310,M,00,0004*6C
$GPHPD,0,0.000,57.75,-0.28,-14.13,31.5918666,120.7763935,2.723,13630949.068,24924276.748,2.723,0.000,0.000,0.000,0.000,0.000,0.000,0.000,17,17,4*44
$GPGGA,041719.00,3135.5120741,N,12046.5837563,E,4,17,1.3,2.7197,M,8.310,M,01,0004*6A
$GPHPD,0,0.000,58.01,0.22,-14.03,31.5918679,120.7763959,2.720,13630948.251,24924278.035,2.720,0.000,0.000,0.000,0.000,0.000,0.000,0.000,17,17,4*60
$GPGGA,041719.20,3135.5121456,N,12046.5838946,E,4,17,1.3,2.7181,M,8.310,M,01,0004*6F
$GPHPD,0,0.000,58.20,-0.39,-13.97,31.5918691,120.7763982,2.718,13630947.514,24924279.286,2.718,0.000,0.000,0.000,0.000,0.000,0.000,0.000,17,17,4*4C
$GPGGA,041719.40,3135.5122147,N,12046.5840229,E,4,17,1.3,2.7176,M,8.310,M,01,0004*6A
$GPHPD,0,0.000,58.46,-0.55,-13.90,31.5918702,120.7764004,2.718,13630946.790,24924280.431,2.718,0.000,0.000,0.000,0.000,0.000,0.000,0.000,17,17,4*49
$GPGGA,041719.60,3135.5122780,N,12046.5841479,E,4,17,1.3,2.7191,M,8.310,M,00,0004*6F
$GPHPD,0,0.000,58.32,-0.55,-13.81,31.5918713,120.7764025,2.719,13630946.141,24924281.570,2.719,0.000,0.000,0.000,0.000,0.000,0.000,0.000,17,17,4*46
$GPGGA,041719.80,3135.5123341,N,12046.5842584,E,4,17,1.3,2.7139,M,8.310,M,00,0004*6B
$GPHPD,0,0.000,58.26,-0.61,-13.68,31.5918722,120.7764043,2.714,13630945.566,24924282.576,2.714,0.000,0.000,0.000,0.000,0.000,0.000,0.000,17,17,4*46
$GPGGA,041720.00,3135.5123828,N,12046.5843520,E,4,17,1.3,2.7113,M,8.310,M,01,0004*6B
$GPHPD,0,0.000,58.20,-0.33,-13.49,31.5918730,120.7764059,2.711,13630945.063,24924283.421,2.711,0.000,0.000,0.000,0.000,0.000,0.000,0.000,17,17,4*4E
$GPGGA,041720.20,3135.5124213,N,12046.5844296,E,4,17,1.3,2.7195,M,8.310,M,01,0004*6F
$GPHPD,0,0.000,58.31,0.07,-13.36,31.5918737,120.7764072,2.720,13630944.672,24924284.133,2.720,0.000,0.000,0.000,0.000,0.000,0.000,0.000,17,17,4*64
$GPGGA,041720.40,3135.5124534,N,12046.5844891,E,4,17,1.3,2.7155,M,8.310,M,01,0004*6A
$GPHPD,0,0.000,58.38,-0.17,-13.26,31.5918742,120.7764082,2.716,13630944.335,24924284.663,2.716,0.000,0.000,0.000,0.000,0.000,0.000,0.000,17,17,4*49
$GPGGA,041720.60,3135.5124781,N,12046.5845394,E,4,17,1.3,2.7115,M,8.310,M,00,0004*6E
$GPHPD,0,0.000,58.27,0.07,-13.19,31.5918746,120.7764090,2.712,13630944.085,24924285.126,2.712,0.000,0.000,0.000,0.000,0.000,0.000,0.000,17,17,4*6F
$GPGGA,041720.80,3135.5124983,N,12046.5845784,E,4,17,1.3,2.7088,M,8.310,M,00,0004*6C
$GPHPD,0,0.000,58.21,0.26,-13.11,31.5918750,120.7764096,2.709,13630943.877,24924285.479,2.709,0.000,0.000,0.000,0.000,0.000,0.000,0.000,17,17,4*6E
$GPGGA,041721.00,3135.5125115,N,12046.5846057,E,4,17,1.3,2.7088,M,8.310,M,01,0004*68
$GPHPD,0,0.000,58.36,0.23,-13.03,31.5918752,120.7764101,2.709,13630943.744,24924285.731,2.709,0.000,0.000,0.000,0.000,0.000,0.000,0.000,17,17,4*63
$GPGGA,041721.20,3135.5125193,N,12046.5846221,E,4,17,1.3,2.7113,M,8.310,M,01,0004*64
$GPHPD,0,0.000,58.40,0.28,-12.98,31.5918753,120.7764104,2.711,13630943.666,24924285.883,2.711,0.000,0.000,0.000,0.000,0.000,0.000,0.000,17,17,4*69
$GPGGA,041721.40,3135.5125213,N,12046.5846273,E,4,17,1.3,2.7089,M,8.310,M,01,0004*6C
$GPHPD,0,0.000,58.41,0.17,-12.92,31.5918754,120.7764105,2.709,13630943.648,24924285.934,2.709,0.000,0.000,0.000,0.000,0.000,0.000,0.000,17,17,4*69
$GPGGA,041721.60,3135.5125214,N,12046.5846243,E,4,17,1.3,2.7099,M,8.310,M,00,0004*6A
$GPHPD,0,0.000,58.22,0.41,-12.95,31.5918754,120.7764104,2.710,13630943.641,24924285.898,2.710,0.000,0.000,0.000,0.000,0.000,0.000,0.000,17,17,4*67
$GPGGA,041721.80,3135.5125222,N,12046.5846283,E,4,17,1.3,2.7107,M,8.310,M,00,0004*6B
$GPHPD,0,0.000,58.33,0.14,-13.02,31.5918754,120.7764105,2.711,13630943.637,24924285.941,2.711,0.000,0.000,0.000,0.000,0.000,0.000,0.000,17,17,4*6D
$GPGGA,041722.00,3135.5125216,N,12046.5846249,E,4,17,1.3,2.7131,M,8.310,M,01,0004*65
$GPHPD,0,0.000,58.26,0.24,-13.07,31.5918754,120.7764104,2.713,13630943.639,24924285.904,2.713,0.000,0.000,0.000,0.000,0.000,0.000,0.000,17,17,4*61
$GPGGA,041722.20,3135.5125215,N,12046.5846268,E,4,17,1.3,2.7079,M,8.310,M,01,0004*6A
$GPHPD,0,0.000,58.41,0.12,-13.11,31.5918754,120.7764104,2.708,13630943.644,24924285.927,2.708,0.000,0.000,0.000,0.000,0.000,0.000,0.000,17,17,4*69
$GPGGA,041722.40,3135.5125229,N,12046.5846249,E,4,17,1.3,2.7076,M,8.310,M,01,0004*6F
$GPHPD,0,0.000,58.30,0.22,-13.15,31.5918754,120.7764104,2.708,13630943.621,24924285.896,2.708,0.000,0.000,0.000,0.000,0.000,0.000,0.000,17,17,4*60
$GPGGA,041722.60,3135.5125218,N,12046.5846236,E,4,17,1.3,2.7090,M,8.310,M,00,0004*6E
$GPHPD,0,0.000,58.46,0.36,-13.18,31.5918754,120.7764104,2.709,13630943.634,24924285.887,2.709,0.000,0.000,0.000,0.000,0.000,0.000,0.000,17,17,4*6D
$GPGGA,041722.80,3135.5125212,N,12046.5846262,E,4,17,1.3,2.7115,M,8.310,M,00,0004*67
$GPHPD,0,0.000,58.40,0.10,-13.24,31.5918754,120.7764104,2.712,13630943.647,24924285.922,2.712,0.000,0.000,0.000,0.000,0.000,0.000,0.000,17,17,4*6A
$GPGGA,041723.00,3135.5125218,N,12046.5846249,E,4,17,1.3,2.7094,M,8.310,M,01,0004*64
$GPHPD,0,0.000,58.36,0.31,-13.27,31.5918754,120.7764104,2.709,13630943.636,24924285.903,2.709,0.000,0.000,0.000,0.000,0.000,0.000,0.000,17,17,4*6E
$GPGGA,041723.20,3135.5125216,N,12046.5846238,E,4,17,1.3,2.7122,M,8.310,M,01,0004*62
$GPHPD,0,0.000,58.31,0.14,-13.31,31.5918754,120.7764104,2.712,13630943.637,24924285.890,2.712,0.000,0.000,0.000,0.000,0.000,0.000,0.000,17,17,4*63
$GPGGA,041723.40,3135.5125209,N,12046.5846271,E,4,17,1.3,2.7093,M,8.310,M,01,0004*6C
$GPHPD,0,0.000,58.51,0.30,-13.36,31.5918753,120.7764105,2.709,13630943.653,24924285.934,2.709,0.000,0.000,0.000,0.000,0.000,0.000,0.000,17,17,4*6F
$GPGGA,041723.60,3135.5125218,N,12046.5846243,E,4,17,1.3,2.7104,M,8.310,M,00,0004*61
$GPHPD,0,0.000,58.26,0.15,-13.40,31.5918754,120.7764104,2.710,13630943.635,24924285.895,2.710,0.000,0.000,0.000,0.000,0.000,0.000,0.000,17,17,4*65
$GPGGA,041723.80,3135.5125231,N,12046.5846268,E,4,17,1.3,2.7134,M,8.310,M,00,0004*6E
$GPHPD,0,0.000,58.50,0.17,-13.44,31.5918754,120.7764104,2.713,13630943.622,24924285.918,2.713,0.000,0.000,0.000,0.000,0.000,0.000,0.000,17,17,4*60
$GPGGA,041724.00,3135.5125221,N,12046.5846235,E,4,17,1.3,2.7085,M,8.310,M,01,0004*62
$GPHPD,0,0.000,58.42,0.10,-13.48,31.5918754,120.7764104,2.709,13630943.629,24924285.884,2.709,0.000,0.000,0.000,0.000,0.000,0.000,0.000,17,17,4*67
$GPGGA,041724.20,3135.5125220,N,12046.5846242,E,4,17,1.3,2.7133,M,8.310,M,01,0004*6D
$GPHPD,0,0.000,58.44,0.40,-13.51,31.5918754,120.7764104,2.713,13630943.632,24924285.893,2.713,0.000,0.000,0.000,0.000,0.000,0.000,0.000,17,17,4*60
$GPGGA,041724.40,3135.5125196,N,12046.5846234,E,4,17,1.3,2.7125,M,8.310,M,01,0004*63
$GPHPD,0,0.000,58.43,0.14,-13.54,31.5918753,120.7764104,2.713,13630943.664,24924285.897,2.713,0.000,0.000,0.000,0.000,0.000,0.000,0.000,17,17,4*63
$GPGGA,041724.60,3135.5125209,N,12046.5846237,E,4,17,1.3,2.7127,M,8.310,M,00,0004*64
$GPHPD,0,0.000,58.37,0.39,-13.57,31.5918753,120.7764104,2.713,13630943.647,24924285.893,2.713,0.000,0.000,0.000,0.000,0.000,0.000,0.000,17,17,4*69
$GPGGA,041724.80,3135.5125226,N,12046.5846248,E,4,17,1.3,2.7127,M,8.310,M,00,0004*6F
$GPHPD,0,0.000,58.42,0.12,-13.59,31.5918754,120.7764104,2.713,13630943.625,24924285.897,2.713,0.000,0.000,0.000,0.000,0.000,0.000,0.000,17,17,4*6B
$GPGGA,041725.00,3135.5125222,N,12046.5846230,E,4,17,1.3,2.7121,M,8.310,M,01,0004*6A
$GPHPD,0,0.000,58.42,0.07,-13.62,31.5918754,120.7764104,2.712,13630943.627,24924285.877,2.712,0.000,0.000,0.000,0.000,0.000,0.000,0.000,17,17,4*6B
$GPGGA,041725.20,3135.5125216,N,12046.5846254,E,4,17,1.3,2.7126,M,8.310,M,01,0004*6A
$GPHPD,0,0.000,58.51,0.18,-13.64,31.5918754,120.7764104,2.713,13630943.640,24924285.910,2.713,0.000,0.000,0.000,0.000,0.000,0.000,0.000,17,17,4*60
$GPGGA,041725.40,3135.5125223,N,12046.5846245,E,4,17,1.3,2.7110,M,8.310,M,01,0004*6F
$GPHPD,0,0.000,58.39,0.14,-13.66,31.5918754,120.7764104,2.711,13630943.628,24924285.895,2.711,0.000,0.000,0.000,0.000,0.000,0.000,0.000,17,17,4*62
$GPGGA,041725.60,3135.5125228,N,12046.5846251,E,4,17,1.3,2.7065,M,8.310,M,00,0004*61
$GPHPD,0,0.000,58.39,0.05,-13.69,31.5918754,120.7764104,2.707,13630943.622,24924285.899,2.707,0.000,0.000,0.000,0.000,0.000,0.000,0.000,17,17,4*6B
$GPGGA,041725.80,3135.5125233,N,12046.5846247,E,4,17,1.3,2.7104,M,8.310,M,00,0004*64
$GPHPD,0,0.000,58.45,0.48,-13.70,31.5918754,120.7764104,2.710,13630943.614,24924285.891,2.710,0.000,0.000,0.000,0.000,0.000,0.000,0.000,17,17,4*6C
$GPGGA,041726.00,3135.5125219,N,12046.5846233,E,4,17,1.3,2.7138,M,8.310,M,01,0004*6A
$GPHPD,0,0.000,58.52,0.29,-13.72,31.5918754,120.7764104,2.714,13630943.632,24924285.883,2.714,0.000,0.000,0.000,0.000,0.000,0.000,0.000,17,17,4*68
$GPGGA,041726.20,3135.5125239,N,12046.5846230,E,4,17,1.3,2.7143,M,8.310,M,01,0004*65
$GPHPD,0,0.000,58.49,0.08,-13.74,31.5918754,120.7764104,2.714,13630943.603,24924285.867,2.714,0.000,0.000,0.000,0.000,0.000,0.000,0.000,17,17,4*6F
$GPGGA,041726.40,3135.5125232,N,12046.5846228,E,4,17,1.3,2.7093,M,8.310,M,01,0004*6D
$GPHPD,0,0.000,58.63,0.15,-13.76,31.5918754,120.7764104,2.709,13630943.612,24924285.869,2.709,0.000,0.000,0.000,0.000,0.000,0.000,0.000,17,17,4*67
$GPGGA,041726.60,3135.5125229,N,12046.5846240,E,4,17,1.3,2.7098,M,8.310,M,00,0004*61
$GPHPD,0,0.000,58.50,0.20,-13.78,31.5918754,120.7764104,2.710,13630943.619,24924285.885,2.710,0.000,0.000,0.000,0.000,0.000,0.000,0.000,17,17,4*66
$GPGGA,041726.80,3135.5125226,N,12046.5846253,E,4,17,1.3,2.7051,M,8.310,M,00,0004*67
$GPHPD,0,0.000,58.58,0.24,-13.80,31.5918754,120.7764104,2.705,13630943.626,24924285.903,2.705,0.000,0.000,0.000,0.000,0.000,0.000,0.000,17,17,4*6E
$GPGGA,041727.00,3135.5125209,N,12046.5846247,E,4,17,1.3,2.7081,M,8.310,M,01,0004*6A
