$GPGGA,041819.20,3135.5290700,N,12046.6181243,E,4,17,1.3,2.7051,M,8.312,M,01,0004*61
$GPHPD,0,0.000,57.38,0.38,-12.67,31.5921512,120.7769687,2.705,13630775.844,24924593.511,2.705,0.000,0.000,0.000,0.000,0.000,0.000,0.000,17,17,4*67
$GPGGA,041819.40,3135.5291065,N,12046.6181895,E,4,17,1.3,2.7039,M,8.312,M,01,0004*6D
$GPHPD,0,0.000,56.91,0.00,-12.72,31.5921518,120.7769698,2.704,13630775.456,24924594.085,2.704,0.000,0.000,0.000,0.000,0.000,0.000,0.000,17,17,4*6E
$GPGGA,041819.60,3135.5291378,N,12046.6182489,E,4,17,1.3,2.7083,M,8.312,M,01,0004*63
$GPHPD,0,0.000,56.56,-0.09,-12.65,31.5921523,120.7769708,2.708,13630775.131,24924594.619,2.708,0.000,0.000,0.000,0.000,0.000,0.000,0.000,17,17,4*40
$GPGGA,041819.80,3135.5291654,N,12046.6182944,E,4,17,1.3,2.7074,M,8.312,M,01,0004*62
$GPHPD,0,0.000,56.37,-0.14,-12.65,31.5921528,120.7769716,2.707,13630774.830,24924595.007,2.707,0.000,0.000,0.000,0.000,0.000,0.000,0.000,17,17,4*4E
$GPGGA,041820.00,3135.5291893,N,12046.6183415,E,4,17,1.3,2.7082,M,8.312,M,02,0004*67
$GPHPD,0,0.000,56.19,0.19,-12.72,31.5921532,120.7769724,2.708,13630774.585,24924595.436,2.708,0.000,0.000,0.000,0.000,0.000,0.000,0.000,17,17,4*6B
$GPGGA,041820.20,3135.5292131,N,12046.6183833,E,4,17,1.3,2.7128,M,8.312,M,02,0004*6E
$GPHPD,0,0.000,55.99,0.24,-12.77,31.5921536,120.7769731,2.713,13630774.331,24924595.801,2.713,0.000,0.000,0.000,0.000,0.000,0.000,0.000,17,17,4*6A
$GPGGA,041820.40,3135.5292394,N,12046.6184237,E,4,17,1.3,2.7011,M,8.312,M,02,0004*67
$GPHPD,0,0.000,55.93,-0.09,-12.86,31.5921540,120.7769737,2.701,13630774.038,24924596.135,2.701,0.000,0.000,0.000,0.000,0.000,0.000,0.000,17,17,4*4C
$GPGGA,041820.60,3135.5292641,N,12046.6184705,E,4,17,1.3,2.7085,M,8.312,M,02,0004*61
$GPHPD,0,0.000,55.87,0.27,-12.97,31.5921544,120.7769745,2.709,13630773.782,24924596.556,2.709,0.000,0.000,0.000,0.000,0.000,0.000,0.000,17,17,4*69
$GPGGA,041820.80,3135.5292873,N,12046.6185124,E,4,17,1.3,2.7055,M,8.312,M,00,0004*6B
$GPHPD,0,0.000,55.68,0.01,-13.07,31.5921548,120.7769752,2.706,13630773.536,24924596.926,2.706,0.000,0.000,0.000,0.000,0.000,0.000,0.000,17,17,4*68
$GPGGA,041821.00,3135.5293180,N,12046.6185635,E,4,17,1.3,2.7074,M,8.312,M,01,0004*63
$GPHPD,0,0.000,55.63,0.21,-13.18,31.5921553,120.7769761,2.707,13630773.203,24924597.363,2.707,0.000,0.000,0.000,0.000,0.000,0.000,0.000,17,16,4*6F
$GPGGA,041821.20,3135.5293450,N,12046.6186135,E,4,17,1.3,2.7037,M,8.312,M,01,0004*6A
$GPHPD,0,0.000,55.56,0.24,-13.28,31.5921558,120.7769769,2.704,13630772.919,24924597.809,2.704,0.000,0.000,0.000,0.000,0.000,0.000,0.000,17,16,4*6A
$GPGGA,041821.40,3135.5293776,N,12046.6186694,E,4,17,1.3,2.7061,M,8.312,M,01,0004*64
$GPHPD,0,0.000,55.44,0.09,-13.39,31.5921563,120.7769778,2.706,13630772.569,24924598.293,2.706,0.000,0.000,0.000,0.000,0.000,0.000,0.000,17,16,4*63
$GPGGA,041821.60,3135.5294099,N,12046.6187254,E,4,17,1.3,2.7040,M,8.312,M,00,0004*6C
$GPHPD,0,0.000,55.44,0.69,-13.48,31.5921568,120.7769788,2.704,13630772.222,24924598.781,2.704,0.000,0.000,0.000,0.000,0.000,0.000,0.000,17,16,4*69
$GPGGA,041821.80,3135.5294450,N,12046.6187885,E,4,17,1.3,2.7093,M,8.312,M,00,0004*6B
$GPHPD,0,0.000,55.54,0.56,-13.51,31.5921574,120.7769798,2.709,13630771.850,24924599.337,2.709,0.000,0.000,0.000,0.000,0.000,0.000,0.000,17,16,4*64
$GPGGA,041822.00,3135.5294800,N,12046.6188475,E,4,17,1.3,2.7076,M,8.312,M,01,0004*6F
$GPHPD,0,0.000,55.48,0.39,-13.44,31.5921580,120.7769808,2.708,13630771.472,24924599.845,2.708,0.000,0.000,0.000,0.000,0.000,0.000,0.000,17,16,4*6B
$GPGGA,041822.20,3135.5295089,N,12046.6188967,E,4,17,1.3,2.7038,M,8.312,M,01,0004*61
$GPHPD,0,0.000,55.58,0.23,-13.40,31.5921585,120.7769816,2.704,13630771.160,24924600.270,2.704,0.000,0.000,0.000,0.000,0.000,0.000,0.000,17,16,4*66
$GPGGA,041822.40,3135.5295367,N,12046.6189406,E,4,17,1.3,2.6995,M,8.312,M,01,0004*60
$GPHPD,0,0.000,55.52,0.44,-13.43,31.5921589,120.7769823,2.700,13630770.853,24924600.637,2.700,0.000,0.000,0.000,0.000,0.000,0.000,0.000,17,16,4*6B
$GPGGA,041822.60,3135.5295612,N,12046.6189846,E,4,17,1.3,2.7027,M,8.312,M,00,0004*6D
$GPHPD,0,0.000,55.73,0.59,-13.46,31.5921594,120.7769831,2.703,13630770.593,24924601.025,2.703,0.000,0.000,0.000,0.000,0.000,0.000,0.000,17,16,4*6B
$GPGGA,041822.80,3135.5295865,N,12046.6190270,E,4,17,1.3,2.6964,M,8.312,M,00,0004*65
$GPHPD,0,0.000,55.66,0.34,-13.50,31.5921598,120.7769838,2.696,13630770.319,24924601.389,2.696,0.000,0.000,0.000,0.000,0.000,0.000,0.000,17,16,4*67
$GPGGA,041823.00,3135.5296126,N,12046.6190727,E,4,17,1.3,2.7014,M,8.312,M,01,0004*68
$GPHPD,0,0.000,55.65,0.54,-13.57,31.5921602,120.7769845,2.701,13630770.040,24924601.788,2.701,0.000,0.000,0.000,0.000,0.000,0.000,0.000,17,16,4*65
$GPGGA,041823.20,3135.5296408,N,12046.6191231,E,4,17,1.3,2.7029,M,8.312,M,01,0004*6E
$GPHPD,0,0.000,55.67,0.36,-13.65,31.5921607,120.7769854,2.703,13630769.741,24924602.232,2.703,0.000,0.000,0.000,0.000,0.000,0.000,0.000,17,16,4*6E
$GPGGA,041823.40,3135.5296713,N,12046.6191708,E,4,17,1.3,2.7037,M,8.312,M,01,0004*61
$GPHPD,0,0.000,55.86,0.13,-13.76,31.5921612,120.7769862,2.704,13630769.403,24924602.630,2.704,0.000,0.000,0.000,0.000,0.000,0.000,0.000,17,16,4*66
$GPGGA,041823.60,3135.5297041,N,12046.6192292,E,4,17,1.3,2.7018,M,8.312,M,00,0004*6B
$GPHPD,0,0.000,55.74,0.28,-13.89,31.5921617,120.7769872,2.702,13630769.054,24924603.143,2.702,0.000,0.000,0.000,0.000,0.000,0.000,0.000,17,16,4*63
$GPGGA,041823.80,3135.5297437,N,12046.6192939,E,4,17,1.3,2.7001,M,8.312,M,00,0004*62
$GPHPD,0,0.000,55.56,0.58,-14.00,31.5921624,120.7769882,2.700,13630768.622,24924603.692,2.700,0.000,0.000,0.000,0.000,0.000,0.000,0.000,17,16,4*60
$GPGGA,041824.00,3135.5297851,N,12046.6193628,E,4,17,1.3,2.6860,M,8.312,M,01,0004*60
$GPHPD,0,0.000,55.61,0.43,-14.13,31.5921631,120.7769894,2.686,13630768.172,24924604.282,2.686,0.000,0.000,0.000,0.000,0.000,0.000,0.000,17,16,4*6F
$GPGGA,041824.20,3135.5298326,N,12046.6194496,E,4,16,1.4,2.7117,M,8.312,M,01,0004*68
$GPHPD,0,0.000,55.53,0.29,-14.23,31.5921639,120.7769908,2.712,13630767.671,24924605.052,2.712,0.000,0.000,0.000,0.000,0.000,0.000,0.000,16,16,4*69
$GPGGA,041824.40,3135.5298860,N,12046.6195416,E,4,16,1.4,2.7065,M,8.312,M,01,0004*6A
$GPHPD,0,0.000,55.21,0.39,-14.34,31.5921648,120.7769924,2.707,13630767.098,24924605.851,2.707,0.000,0.000,0.000,0.000,0.000,0.000,0.000,16,16,4*69
$GPGGA,041824.60,3135.5299447,N,12046.6196399,E,4,16,1.4,2.7033,M,8.312,M,00,0004*61
$GPHPD,0,0.000,55.27,0.02,-14.45,31.5921657,120.7769940,2.703,13630766.461,24924606.694,2.703,0.000,0.000,0.000,0.000,0.000,0.000,0.000,16,16,4*6A
$GPGGA,041824.80,3135.5300081,N,12046.6197491,E,4,16,1.4,2.7107,M,8.312,M,00,0004*68
$GPHPD,0,0.000,54.98,0.10,-14.53,31.5921668,120.7769958,2.711,13630765.780,24924607.642,2.711,0.000,0.000,0.000,0.000,0.000,0.000,0.000,16,16,4*6B
$GPGGA,041825.00,3135.5300774,N,12046.6198661,E,4,16,1.4,2.7087,M,8.312,M,01,0004*66
$GPHPD,0,0.000,54.81,-0.01,-14.62,31.5921680,120.7769978,2.709,13630765.030,24924608.650,2.709,0.000,0.000,0.000,0.000,0.000,0.000,0.000,16,16,4*48
$GPGGA,041825.20,3135.5301485,N,12046.6199875,E,4,16,1.4,2.7089,M,8.312,M,01,0004*6C
$GPHPD,0,0.000,54.63,0.34,-14.68,31.5921691,120.7769998,2.709,13630764.264,24924609.699,2.709,0.000,0.000,0.000,0.000,0.000,0.000,0.000,16,16,4*6D
$GPGGA,041825.40,3135.5302253,N,12046.6201149,E,4,16,1.4,2.7102,M,8.312,M,01,0004*62
$GPHPD,0,0.000,54.73,0.57,-14.72,31.5921704,120.7770019,2.710,13630763.429,24924610.789,2.710,0.000,0.000,0.000,0.000,0.000,0.000,0.000,16,16,4*67
$GPGGA,041825.60,3135.5303067,N,12046.6202454,E,4,16,1.4,2.7137,M,8.312,M,01,0004*68
$GPHPD,0,0.000,54.48,1.05,-14.72,31.5921718,120.7770041,2.714,13630762.534,24924611.888,2.714,0.000,0.000,0.000,0.000,0.000,0.000,0.000,16,16,4*6A
$GPGGA,041825.80,3135.5303884,N,12046.6203780,E,4,16,1.4,2.7065,M,8.312,M,00,0004*6F
$GPHPD,0,0.000,54.38,0.90,-14.74,31.5921731,120.7770063,2.707,13630761.640,24924613.012,2.707,0.000,0.000,0.000,0.000,0.000,0.000,0.000,16,16,4*67
$GPGGA,041826.00,3135.5304706,N,12046.6205144,E,4,16,1.4,2.7074,M,8.312,M,01,0004*6F
$GPHPD,0,0.000,54.23,0.47,-14.75,31.5921745,120.7770086,2.707,13630760.746,24924614.178,2.707,0.000,0.000,0.000,0.000,0.000,0.000,0.000,16,16,4*62
$GPGGA,041826.20,3135.5305532,N,12046.6206501,E,4,16,1.4,2.7116,M,8.312,M,01,0004*6A
$GPHPD,0,0.000,54.66,1.27,-14.73,31.5921759,120.7770108,2.712,13630759.845,24924615.333,2.712,0.000,0.000,0.000,0.000,0.000,0.000,0.000,16,16,4*62
$GPGGA,041826.40,3135.5306325,N,12046.6207868,E,4,16,1.4,2.7148,M,8.312,M,01,0004*67
$GPHPD,0,0.000,54.72,1.21,-14.73,31.5921772,120.7770131,2.715,13630758.993,24924616.520,2.715,0.000,0.000,0.000,0.000,0.000,0.000,0.000,16,16,4*6E
$GPGGA,041826.60,3135.5307089,N,12046.6209209,E,4,17,1.4,2.7197,M,8.312,M,00,0004*60
$GPHPD,0,0.000,54.62,0.41,-14.73,31.5921785,120.7770153,2.720,13630758.177,24924617.692,2.720,0.000,0.000,0.000,0.000,0.000,0.000,0.000,17,17,4*6D
$GPGGA,041826.80,3135.5307907,N,12046.6210579,E,4,17,1.4,2.7223,M,8.312,M,00,0004*65
$GPHPD,0,0.000,54.43,0.32,-14.74,31.5921798,120.7770176,2.722,13630757.290,24924618.868,2.722,0.000,0.000,0.000,0.000,0.000,0.000,0.000,17,17,4*67
$GPGGA,041827.00,3135.5308667,N,12046.6211902,E,4,17,1.4,2.7247,M,8.312,M,01,0004*68
$GPHPD,0,0.000,54.47,-0.12,-14.75,31.5921811,120.7770198,2.725,13630756.476,24924620.021,2.725,0.000,0.000,0.000,0.000,0.000,0.000,0.000,17,17,4*42
$GPGGA,041827.20,3135.5309422,N,12046.6213204,E,4,17,1.4,2.7301,M,8.312,M,01,0004*64
$GPHPD,0,0.000,54.51,0.23,-14.75,31.5921824,120.7770220,2.730,13630755.665,24924621.151,2.730,0.000,0.000,0.000,0.000,0.000,0.000,0.000,17,17,4*68
$GPGGA,041827.40,3135.5310260,N,12046.6214544,E,4,16,1.5,2.7468,M,8.312,M,01,0004*66
$GPHPD,0,0.000,53.74,-0.54,-14.76,31.5921838,120.7770242,2.747,13630754.743,24924622.279,2.747,0.000,0.000,0.000,0.000,0.000,0.000,0.000,16,17,4*40
$GPGGA,041827.60,3135.5311091,N,12046.6215865,E,4,17,1.4,2.7319,M,8.312,M,00,0004*66
$GPHPD,0,0.000,53.35,-0.60,-14.78,31.5921852,120.7770264,2.732,13630753.828,24924623.388,2.732,0.000,0.000,0.000,0.000,0.000,0.000,0.000,17,17,4*4E
$GPGGA,041827.80,3135.5311947,N,12046.6217153,E,4,17,1.4,2.7353,M,8.312,M,00,0004*6A
$GPHPD,0,0.000,52.95,0.17,-14.78,31.5921866,120.7770286,2.735,13630752.871,24924624.443,2.735,0.000,0.000,0.000,0.000,0.000,0.000,0.000,17,17,4*69
$GPGGA,041828.00,3135.5312807,N,12046.6218469,E,4,17,1.4,2.7172,M,8.312,M,01,0004*68
$GPHPD,0,0.000,52.62,0.05,-14.80,31.5921880,120.7770308,2.717,13630751.913,24924625.529,2.717,0.000,0.000,0.000,0.000,0.000,0.000,0.000,17,17,4*60
$GPGGA,041828.20,3135.5313662,N,12046.6219794,E,4,17,1.4,2.7199,M,8.312,M,01,0004*63
$GPHPD,0,0.000,52.37,0.47,-14.80,31.5921894,120.7770330,2.720,13630750.964,24924626.629,2.720,0.000,0.000,0.000,0.000,0.000,0.000,0.000,17,17,4*69
$GPGGA,041828.40,3135.5314574,N,12046.6221132,E,4,17,1.3,2.7165,M,8.312,M,01,0004*63
$GPHPD,0,0.000,52.00,-0.04,-14.79,31.5921910,120.7770352,2.717,13630749.937,24924627.712,2.717,0.000,0.000,0.000,0.000,0.000,0.000,0.000,17,17,4*4E
$GPGGA,041828.60,3135.5315473,N,12046.6222467,E,4,17,1.3,2.7166,M,8.312,M,00,0004*62
$GPHPD,0,0.000,51.89,0.05,-14.80,31.5921925,120.7770374,2.717,13630748.928,24924628.798,2.717,0.000,0.000,0.000,0.000,0.000,0.000,0.000,17,17,4*66
$GPGGA,041828.80,3135.5316373,N,12046.6223813,E,4,17,1.3,2.7214,M,8.312,M,00,0004*60
$GPHPD,0,0.000,51.90,0.32,-14.81,31.5921940,120.7770397,2.721,13630747.920,24924629.897,2.721,0.000,0.000,0.000,0.000,0.000,0.000,0.000,17,17,4*63
$GPGGA,041829.00,3135.5317297,N,12046.6225179,E,4,17,1.3,2.7258,M,8.312,M,01,0004*69
$GPHPD,0,0.000,51.67,0.31,-14.80,31.5921955,120.7770420,2.726,13630746.881,24924631.006,2.726,0.000,0.000,0.000,0.000,0.000,0.000,0.000,17,17,4*64
$GPGGA,041829.20,3135.5318218,N,12046.6226595,E,4,17,1.3,2.7238,M,8.312,M,01,0004*60
$GPHPD,0,0.000,51.53,0.27,-14.79,31.5921970,120.7770443,2.724,13630745.857,24924632.178,2.724,0.000,0.000,0.000,0.000,0.000,0.000,0.000,17,17,4*63
$GPGGA,041829.40,3135.5319203,N,12046.6228008,E,4,17,1.3,2.7157,M,8.312,M,01,0004*68
$GPHPD,0,0.000,51.08,0.04,-14.79,31.5921987,120.7770467,2.716,13630744.742,24924633.308,2.716,0.000,0.000,0.000,0.000,0.000,0.000,0.000,17,17,4*6C
$GPGGA,041829.60,3135.5320118,N,12046.6229437,E,4,17,1.3,2.7189,M,8.312,M,00,0004*62
$GPHPD,0,0.000,50.96,0.25,-14.79,31.5922002,120.7770491,2.719,13630743.729,24924634.498,2.719,0.000,0.000,0.000,0.000,0.000,0.000,0.000,17,17,4*64
$GPGGA,041829.80,3135.5321116,N,12046.6230829,E,4,17,1.3,2.7206,M,8.312,M,00,0004*6C
$GPHPD,0,0.000,50.70,0.18,-14.77,31.5922019,120.7770514,2.721,13630742.590,24924635.596,2.721,0.000,0.000,0.000,0.000,0.000,0.000,0.000,17,17,4*65
$GPGGA,041830.00,3135.5322100,N,12046.6232263,E,4,17,1.3,2.7223,M,8.312,M,01,0004*68
$GPHPD,0,0.000,50.59,0.50,-14.76,31.5922035,120.7770538,2.722,13630741.480,24924636.752,2.722,0.000,0.000,0.000,0.000,0.000,0.000,0.000,17,17,4*69
$GPGGA,041830.20,3135.5323110,N,12046.6233693,E,4,17,1.3,2.7226,M,8.312,M,01,0004*65
$GPHPD,0,0.000,50.86,1.15,-14.75,31.5922052,120.7770562,2.723,13630740.332,24924637.889,2.723,0.000,0.000,0.000,0.000,0.000,0.000,0.000,17,17,4*61
$GPGGA,041830.40,3135.5324118,N,12046.6235123,E,4,17,1.3,2.7211,M,8.312,M,01,0004*62
$GPHPD,0,0.000,50.54,1.23,-14.74,31.5922069,120.7770585,2.721,13630739.187,24924639.026,2.721,0.000,0.000,0.000,0.000,0.000,0.000,0.000,17,16,4*6B
$GPGGA,041830.60,3135.5325151,N,12046.6236553,E,4,17,1.3,2.7268,M,8.312,M,00,0004*63
$GPHPD,0,0.000,50.24,1.67,-14.73,31.5922086,120.7770609,2.727,13630738.007,24924640.149,2.727,0.000,0.000,0.000,0.000,0.000,0.000,0.000,17,16,4*63
$GPGGA,041830.80,3135.5326197,N,12046.6237992,E,4,17,1.3,2.7255,M,8.312,M,00,0004*6A
$GPHPD,0,0.000,50.09,1.68,-14.73,31.5922103,120.7770633,2.726,13630736.810,24924641.275,2.726,0.000,0.000,0.000,0.000,0.000,0.000,0.000,17,16,4*6B
$GPGGA,041831.00,3135.5327240,N,12046.6239463,E,4,17,1.3,2.7293,M,8.312,M,01,0004*6D
$GPHPD,0,0.000,50.04,1.42,-14.71,31.5922121,120.7770658,2.729,13630735.623,24924642.442,2.729,0.000,0.000,0.000,0.000,0.000,0.000,0.000,17,16,4*6D
$GPGGA,041831.20,3135.5328297,N,12046.6240903,E,4,17,1.3,2.7218,M,8.312,M,01,0004*6C
$GPHPD,0,0.000,49.40,0.60,-14.72,31.5922138,120.7770682,2.722,13630734.411,24924643.563,2.722,0.000,0.000,0.000,0.000,0.000,0.000,0.000,17,15,4*6A
$GPGGA,041831.40,3135.5329348,N,12046.6242313,E,4,16,1.4,2.7318,M,8.312,M,01,0004*66
$GPHPD,0,0.000,48.91,0.56,-14.73,31.5922156,120.7770705,2.732,13630733.201,24924644.651,2.732,0.000,0.000,0.000,0.000,0.000,0.000,0.000,16,15,4*61
$GPGGA,041831.60,3135.5330410,N,12046.6243758,E,4,16,1.4,2.7350,M,8.312,M,01,0004*60
$GPHPD,0,0.000,48.49,-0.03,-14.72,31.5922174,120.7770729,2.735,13630731.982,24924645.775,2.735,0.000,0.000,0.000,0.000,0.000,0.000,0.000,16,15,4*42
$GPGGA,041831.80,3135.5331443,N,12046.6245216,E,4,16,1.4,2.7501,M,8.312,M,00,0004*63
$GPHPD,0,0.000,48.09,-0.62,-14.77,31.5922191,120.7770754,2.750,13630730.807,24924646.932,2.750,0.000,0.000,0.000,0.000,0.000,0.000,0.000,16,15,4*46
$GPGGA,041832.00,3135.5332555,N,12046.6246605,E,4,15,1.5,2.7123,M,8.312,M,01,0004*6F
$GPHPD,0,0.000,47.60,-0.99,-14.81,31.5922209,120.7770777,2.712,13630729.506,24924647.960,2.712,0.000,0.000,0.000,0.000,0.000,0.000,0.000,15,14,4*48
$GPGGA,041832.20,3135.5333636,N,12046.6248040,E,4,15,1.5,2.7159,M,8.312,M,01,0004*6E
$GPHPD,0,0.000,48.12,0.61,-14.80,31.5922227,120.7770801,2.716,13630728.258,24924649.061,2.716,0.000,0.000,0.000,0.000,0.000,0.000,0.000,15,14,4*60
$GPGGA,041832.40,3135.5334728,N,12046.6249473,E,4,16,1.5,2.7151,M,8.312,M,01,0004*6F
$GPHPD,0,0.000,47.97,-0.18,-14.75,31.5922245,120.7770825,2.715,13630726.995,24924650.153,2.715,0.000,0.000,0.000,0.000,0.000,0.000,0.000,16,14,4*46
$GPGGA,041832.60,3135.5335799,N,12046.6250888,E,4,15,1.5,2.7185,M,8.312,M,01,0004*6C
$GPHPD,0,0.000,48.00,-0.01,-14.75,31.5922263,120.7770848,2.719,13630725.757,24924651.235,2.719,0.000,0.000,0.000,0.000,0.000,0.000,0.000,15,14,4*42
$GPGGA,041832.80,3135.5336893,N,12046.6252339,E,4,15,1.5,2.7134,M,8.312,M,01,0004*6D
$GPHPD,0,0.000,48.09,0.08,-14.76,31.5922282,120.7770872,2.713,13630724.494,24924652.348,2.713,0.000,0.000,0.000,0.000,0.000,0.000,0.000,15,14,4*6F
$GPGGA,041833.00,3135.5337965,N,12046.6253763,E,4,15,1.5,2.7169,M,8.312,M,02,0004*6C
$GPHPD,0,0.000,48.13,0.53,-14.73,31.5922299,120.7770896,2.717,13630723.257,24924653.441,2.717,0.000,0.000,0.000,0.000,0.000,0.000,0.000,15,14,4*6E
$GPGGA,041833.20,3135.5339032,N,12046.6255236,E,4,16,1.4,2.7202,M,8.312,M,02,0004*64
$GPHPD,0,0.000,48.21,0.35,-14.70,31.5922317,120.7770921,2.720,13630722.037,24924654.596,2.720,0.000,0.000,0.000,0.000,0.000,0.000,0.000,16,15,4*6D
$GPGGA,041833.40,3135.5340118,N,12046.6256684,E,4,16,1.4,2.7242,M,8.312,M,02,0004*6F
$GPHPD,0,0.000,48.17,1.05,-14.69,31.5922335,120.7770945,2.724,13630720.785,24924655.710,2.724,0.000,0.000,0.000,0.000,0.000,0.000,0.000,16,15,4*61
$GPGGA,041833.60,3135.5341150,N,12046.6258117,E,4,16,1.4,2.7338,M,8.312,M,02,0004*6F
$GPHPD,0,0.000,48.50,0.53,-14.63,31.5922353,120.7770969,2.734,13630719.606,24924656.837,2.734,0.000,0.000,0.000,0.000,0.000,0.000,0.000,16,14,4*6C
$GPGGA,041833.80,3135.5342224,N,12046.6259571,E,4,16,1.4,2.7320,M,8.312,M,00,0004*6C
$GPHPD,0,0.000,48.61,0.15,-14.55,31.5922370,120.7770993,2.732,13630718.372,24924657.965,2.732,0.000,0.000,0.000,0.000,0.000,0.000,0.000,16,14,4*6D
$GPGGA,041834.00,3135.5343288,N,12046.6260986,E,4,16,1.4,2.7265,M,8.312,M,01,0004*6B
$GPHPD,0,0.000,48.90,0.20,-14.55,31.5922388,120.7771016,2.727,13630717.145,24924659.052,2.727,0.000,0.000,0.000,0.000,0.000,0.000,0.000,16,14,4*6D
$GPGGA,041834.20,3135.5344320,N,12046.6262427,E,4,16,1.4,2.7278,M,8.312,M,01,0004*65
$GPHPD,0,0.000,49.11,-0.02,-14.62,31.5922405,120.7771040,2.728,13630715.968,24924660.189,2.728,0.000,0.000,0.000,0.000,0.000,0.000,0.000,16,14,4*45
$GPGGA,041834.40,3135.5345358,N,12046.6263874,E,4,16,1.4,2.7235,M,8.312,M,01,0004*6F
$GPHPD,0,0.000,49.21,0.15,-14.67,31.5922423,120.7771065,2.724,13630714.784,24924661.329,2.724,0.000,0.000,0.000,0.000,0.000,0.000,0.000,16,14,4*6F
$GPGGA,041834.60,3135.5346349,N,12046.6265335,E,4,16,1.4,2.7175,M,8.312,M,00,0004*60
$GPHPD,0,0.000,49.69,0.58,-14.66,31.5922439,120.7771089,2.718,13630713.669,24924662.514,2.718,0.000,0.000,0.000,0.000,0.000,0.000,0.000,16,14,4*6C
$GPGGA,041834.80,3135.5347378,N,12046.6266802,E,4,15,1.5,2.7143,M,8.312,M,00,0004*66
$GPHPD,0,0.000,50.10,0.70,-14.69,31.5922456,120.7771113,2.714,13630712.502,24924663.684,2.714,0.000,0.000,0.000,0.000,0.000,0.000,0.000,15,14,4*63
$GPGGA,041835.00,3135.5348322,N,12046.6268259,E,4,15,1.5,2.7206,M,8.312,M,01,0004*66
$GPHPD,0,0.000,50.52,0.49,-14.72,31.5922472,120.7771138,2.721,13630711.453,24924664.891,2.721,0.000,0.000,0.000,0.000,0.000,0.000,0.000,15,14,4*61
$GPGGA,041835.20,3135.5349333,N,12046.6269746,E,4,15,1.5,2.7214,M,8.312,M,01,0004*6C
$GPHPD,0,0.000,51.03,0.47,-14.70,31.5922489,120.7771162,2.721,13630710.315,24924666.096,2.721,0.000,0.000,0.000,0.000,0.000,0.000,0.000,15,14,4*6A
$GPGGA,041835.40,3135.5350312,N,12046.6271195,E,4,15,1.5,2.7225,M,8.312,M,01,0004*62
$GPHPD,0,0.000,51.32,0.40,-14.71,31.5922505,120.7771187,2.723,13630709.215,24924667.273,2.723,0.000,0.000,0.000,0.000,0.000,0.000,0.000,15,14,4*61
$GPGGA,041835.60,3135.5351272,N,12046.6272667,E,4,15,1.5,2.7279,M,8.312,M,00,0004*67
$GPHPD,0,0.000,52.13,0.40,-14.75,31.5922521,120.7771211,2.728,13630708.147,24924668.489,2.728,0.000,0.000,0.000,0.000,0.000,0.000,0.000,15,14,4*66
$GPGGA,041835.80,3135.5352194,N,12046.6274161,E,4,15,1.5,2.7268,M,8.312,M,00,0004*66
$GPHPD,0,0.000,52.57,0.21,-14.78,31.5922537,120.7771236,2.727,13630707.137,24924669.754,2.727,0.000,0.000,0.000,0.000,0.000,0.000,0.000,15,14,4*64
$GPGGA,041836.00,3135.5353110,N,12046.6275648,E,4,15,1.5,2.7318,M,8.312,M,01,0004*6A
$GPHPD,0,0.000,52.88,0.70,-14.81,31.5922552,120.7771261,2.732,13630706.135,24924671.014,2.732,0.000,0.000,0.000,0.000,0.000,0.000,0.000,15,14,4*6C
$GPGGA,041836.20,3135.5353991,N,12046.6277122,E,4,15,1.5,2.7401,M,8.312,M,01,0004*6F
$GPHPD,0,0.000,53.39,0.11,-14.84,31.5922567,120.7771285,2.740,13630705.179,24924672.278,2.740,0.000,0.000,0.000,0.000,0.000,0.000,0.000,15,14,4*69
$GPGGA,041836.40,3135.5354916,N,12046.6278657,E,4,15,1.5,2.7400,M,8.312,M,01,0004*6A
$GPHPD,0,0.000,53.80,0.02,-14.87,31.5922582,120.7771311,2.740,13630704.173,24924673.590,2.740,0.000,0.000,0.000,0.000,0.000,0.000,0.000,15,14,4*66
$GPGGA,041836.60,3135.5355854,N,12046.6280119,E,4,15,1.5,2.7228,M,8.312,M,00,0004*69
$GPHPD,0,0.000,53.77,0.26,-14.87,31.5922598,120.7771335,2.723,13630703.134,24924674.807,2.723,0.000,0.000,0.000,0.000,0.000,0.000,0.000,15,14,4*65
$GPGGA,041836.80,3135.5356780,N,12046.6281639,E,4,15,1.5,2.7363,M,8.312,M,00,0004*68
$GPHPD,0,0.000,53.78,0.98,-14.90,31.5922613,120.7771361,2.736,13630702.124,24924676.101,2.736,0.000,0.000,0.000,0.000,0.000,0.000,0.000,15,14,4*65
$GPGGA,041837.00,3135.5357672,N,12046.6283090,E,4,15,1.5,2.7339,M,8.312,M,01,0004*65
$GPHPD,0,0.000,53.74,0.48,-14.94,31.5922628,120.7771385,2.734,13630701.148,24924677.331,2.734,0.000,0.000,0.000,0.000,0.000,0.000,0.000,15,14,4*6B
$GPGGA,041837.20,3135.5358586,N,12046.6284585,E,4,15,1.5,2.7406,M,8.312,M,01,0004*6D
$GPHPD,0,0.000,53.60,0.59,-14.97,31.5922643,120.7771410,2.741,13630700.150,24924678.602,2.741,0.000,0.000,0.000,0.000,0.000,0.000,0.000,15,14,4*69
$GPGGA,041837.40,3135.5359480,N,12046.6286082,E,4,17,1.5,2.7513,M,8.312,M,01,0004*6A
$GPHPD,0,0.000,53.83,0.84,-14.97,31.5922658,120.7771435,2.751,13630699.180,24924679.887,2.751,0.000,0.000,0.000,0.000,0.000,0.000,0.000,17,16,4*67
$GPGGA,041837.60,3135.5360396,N,12046.6287588,E,4,17,1.5,2.7499,M,8.312,M,00,0004*6E
$GPHPD,0,0.000,54.08,0.49,-14.97,31.5922673,120.7771460,2.750,13630698.181,24924681.169,2.750,0.000,0.000,0.000,0.000,0.000,0.000,0.000,17,16,4*65
$GPGGA,041837.80,3135.5361305,N,12046.6289081,E,4,17,1.5,2.7480,M,8.312,M,00,0004*61
$GPHPD,0,0.000,54.14,0.78,-14.99,31.5922688,120.7771485,2.748,13630697.190,24924682.440,2.748,0.000,0.000,0.000,0.000,0.000,0.000,0.000,17,16,4*69
$GPGGA,041838.00,3135.5362170,N,12046.6290589,E,4,17,1.5,2.7457,M,8.312,M,01,0004*6B
$GPHPD,0,0.000,54.57,1.22,-14.99,31.5922703,120.7771510,2.746,13630696.264,24924683.755,2.746,0.000,0.000,0.000,0.000,0.000,0.000,0.000,17,16,4*60
$GPGGA,041838.20,3135.5363071,N,12046.6292107,E,4,17,1.5,2.7576,M,8.312,M,01,0004*6A
$GPHPD,0,0.000,54.62,1.52,-14.98,31.5922718,120.7771535,2.758,13630695.289,24924685.061,2.758,0.000,0.000,0.000,0.000,0.000,0.000,0.000,17,15,4*68
$GPGGA,041838.40,3135.5363991,N,12046.6293619,E,4,17,1.5,2.7562,M,8.312,M,01,0004*67
$GPHPD,0,0.000,54.23,-0.02,-14.96,31.5922733,120.7771560,2.756,13630694.285,24924686.349,2.756,0.000,0.000,0.000,0.000,0.000,0.000,0.000,17,16,4*47
$GPGGA,041838.60,3135.5364889,N,12046.6295177,E,4,17,1.4,2.7676,M,8.312,M,00,0004*65
$GPHPD,0,0.000,55.08,1.31,-14.93,31.5922748,120.7771586,2.768,13630693.322,24924687.705,2.768,0.000,0.000,0.000,0.000,0.000,0.000,0.000,17,16,4*64
$GPGGA,041838.80,3135.5365783,N,12046.6296722,E,4,17,1.4,2.7775,M,8.312,M,00,0004*68
$GPHPD,0,0.000,54.95,1.03,-14.89,31.5922763,120.7771612,2.778,13630692.362,24924689.047,2.778,0.000,0.000,0.000,0.000,0.000,0.000,0.000,17,15,4*65
$GPGGA,041839.00,3135.5366676,N,12046.6298284,E,4,17,1.4,2.7846,M,8.312,M,01,0004*60
$GPHPD,0,0.000,54.82,0.50,-14.84,31.5922778,120.7771638,2.785,13630691.408,24924690.411,2.785,0.000,0.000,0.000,0.000,0.000,0.000,0.000,17,16,4*6F
$GPGGA,041839.20,3135.5367677,N,12046.6299783,E,4,17,1.4,2.7499,M,8.312,M,01,0004*6F
$GPHPD,0,0.000,54.91,0.12,-14.80,31.5922795,120.7771663,2.750,13630690.286,24924691.636,2.750,0.000,0.000,0.000,0.000,0.000,0.000,0.000,17,16,4*65
$GPGGA,041839.40,3135.5368506,N,12046.6301393,E,4,17,1.4,2.7797,M,8.312,M,01,0004*6B
$GPHPD,0,0.000,55.60,1.30,-14.76,31.5922808,120.7771690,2.780,13630689.432,24924693.094,2.780,0.000,0.000,0.000,0.000,0.000,0.000,0.000,17,16,4*68
$GPGGA,041839.60,3135.5369411,N,12046.6302992,E,4,17,1.4,2.7927,M,8.312,M,00,0004*63
$GPHPD,0,0.000,55.29,-0.35,-14.73,31.5922824,120.7771717,2.793,13630688.468,24924694.495,2.793,0.000,0.000,0.000,0.000,0.000,0.000,0.000,17,16,4*45
$GPGGA,041839.80,3135.5370325,N,12046.6304572,E,4,16,1.4,2.7837,M,8.312,M,00,0004*60
$GPHPD,0,0.000,55.79,-0.40,-14.69,31.5922839,120.7771743,2.784,13630687.486,24924695.869,2.784,0.000,0.000,0.000,0.000,0.000,0.000,0.000,16,15,4*47
$GPGGA,041840.00,3135.5371212,N,12046.6306176,E,4,16,1.4,2.7779,M,8.312,M,01,0004*64
$GPHPD,0,0.000,56.01,0.14,-14.66,31.5922854,120.7771770,2.778,13630686.548,24924697.286,2.778,0.000,0.000,0.000,0.000,0.000,0.000,0.000,16,15,4*68
$GPGGA,041840.20,3135.5372121,N,12046.6307762,E,4,16,1.4,2.7796,M,8.312,M,01,0004*65
$GPHPD,0,0.000,56.21,-0.09,-14.65,31.5922869,120.7771796,2.780,13630685.576,24924698.670,2.780,0.000,0.000,0.000,0.000,0.000,0.000,0.000,16,15,4*42
$GPGGA,041840.40,3135.5373033,N,12046.6309387,E,4,16,1.4,2.7800,M,8.312,M,01,0004*61
$GPHPD,0,0.000,56.52,-0.09,-14.64,31.5922884,120.7771823,2.780,13630684.606,24924700.098,2.780,0.000,0.000,0.000,0.000,0.000,0.000,0.000,16,15,4*40
$GPGGA,041840.60,3135.5373866,N,12046.6311022,E,4,16,1.4,2.7794,M,8.312,M,00,0004*6D
$GPHPD,0,0.000,57.07,0.58,-14.67,31.5922898,120.7771850,2.779,13630683.751,24924701.585,2.779,0.000,0.000,0.000,0.000,0.000,0.000,0.000,16,15,4*6E
$GPGGA,041840.80,3135.5374735,N,12046.6312643,E,4,16,1.4,2.7725,M,8.312,M,00,0004*65
$GPHPD,0,0.000,57.07,0.66,-14.69,31.5922912,120.7771877,2.773,13630682.842,24924703.033,2.773,0.000,0.000,0.000,0.000,0.000,0.000,0.000,16,15,4*6D
$GPGGA,041841.00,3135.5375622,N,12046.6314270,E,4,16,1.4,2.7678,M,8.312,M,01,0004*60
$GPHPD,0,0.000,57.21,0.37,-14.69,31.5922927,120.7771905,2.768,13630681.909,24924704.479,2.768,0.000,0.000,0.000,0.000,0.000,0.000,0.000,16,15,4*6F
$GPGGA,041841.20,3135.5376498,N,12046.6315901,E,4,16,1.4,2.7619,M,8.313,M,01,0004*68
$GPHPD,0,0.000,57.50,0.31,-14.70,31.5922942,120.7771932,2.762,13630680.992,24924705.936,2.762,0.000,0.000,0.000,0.000,0.000,0.000,0.000,16,15,4*64
$GPGGA,041841.40,3135.5377341,N,12046.6317554,E,4,16,1.4,2.7699,M,8.313,M,01,0004*6A
$GPHPD,0,0.000,57.72,0.77,-14.72,31.5922956,120.7771959,2.770,13630680.126,24924707.438,2.770,0.000,0.000,0.000,0.000,0.000,0.000,0.000,16,15,4*6A
$GPGGA,041841.60,3135.5378203,N,12046.6319191,E,4,16,1.4,2.7654,M,8.313,M,00,0004*63
$GPHPD,0,0.000,57.69,0.13,-14.73,31.5922970,120.7771987,2.765,13630679.231,24924708.910,2.765,0.000,0.000,0.000,0.000,0.000,0.000,0.000,16,15,4*6F
$GPGGA,041841.80,3135.5379126,N,12046.6320883,E,4,16,1.4,2.7681,M,8.313,M,00,0004*60
$GPHPD,0,0.000,58.03,0.68,-14.73,31.5922985,120.7772015,2.768,13630678.259,24924710.413,2.768,0.000,0.000,0.000,0.000,0.000,0.000,0.000,16,15,4*63
$GPGGA,041842.00,3135.5379968,N,12046.6322520,E,4,16,1.4,2.7760,M,8.313,M,01,0004*60
$GPHPD,0,0.000,58.62,1.12,-14.72,31.5922999,120.7772042,2.776,13630677.392,24924711.897,2.776,0.000,0.000,0.000,0.000,0.000,0.000,0.000,16,15,4*6E
$GPGGA,041842.20,3135.5380836,N,12046.6324189,E,4,16,1.4,2.7758,M,8.313,M,01,0004*64
$GPHPD,0,0.000,58.64,1.39,-14.73,31.5923014,120.7772070,2.776,13630676.494,24924713.404,2.776,0.000,0.000,0.000,0.000,0.000,0.000,0.000,16,15,4*68
$GPGGA,041842.40,3135.5381643,N,12046.6325891,E,4,16,1.4,2.7870,M,8.313,M,01,0004*6B
$GPHPD,0,0.000,58.49,0.96,-14.75,31.5923027,120.7772098,2.787,13630675.689,24924714.986,2.787,0.000,0.000,0.000,0.000,0.000,0.000,0.000,16,15,4*6E
$GPGGA,041842.60,3135.5382479,N,12046.6327507,E,4,16,1.4,2.7948,M,8.313,M,00,0004*6A
$GPHPD,0,0.000,58.20,0.47,-14.74,31.5923041,120.7772125,2.795,13630674.826,24924716.448,2.795,0.000,0.000,0.000,0.000,0.000,0.000,0.000,16,15,4*6C
$GPGGA,041842.80,3135.5383335,N,12046.6329159,E,4,17,1.4,2.8031,M,8.313,M,00,0004*62
$GPHPD,0,0.000,58.12,0.37,-14.76,31.5923056,120.7772153,2.803,13630673.942,24924717.942,2.803,0.000,0.000,0.000,0.000,0.000,0.000,0.000,17,15,4*6C
$GPGGA,041843.00,3135.5384192,N,12046.6330841,E,4,17,1.3,2.8070,M,8.313,M,01,0004*68
$GPHPD,0,0.000,57.98,-0.16,-14.77,31.5923070,120.7772181,2.807,13630673.062,24924719.471,2.807,0.000,0.000,0.000,0.000,0.000,0.000,0.000,17,16,4*4E
$GPGGA,041843.20,3135.5385098,N,12046.6332459,E,4,17,1.3,2.8064,M,8.313,M,01,0004*62
$GPHPD,0,0.000,57.77,-0.38,-14.76,31.5923085,120.7772208,2.806,13630672.100,24924720.895,2.806,0.000,0.000,0.000,0.000,0.000,0.000,0.000,17,16,4*42
$GPGGA,041843.40,3135.5385939,N,12046.6334068,E,4,17,1.3,2.7957,M,8.313,M,01,0004*60
$GPHPD,0,0.000,58.31,-0.23,-14.74,31.5923099,120.7772234,2.796,13630671.229,24924722.345,2.796,0.000,0.000,0.000,0.000,0.000,0.000,0.000,17,16,4*4A
$GPGGA,041843.60,3135.5386767,N,12046.6335709,E,4,17,1.4,2.7976,M,8.313,M,00,0004*60
$GPHPD,0,0.000,58.40,0.02,-14.75,31.5923113,120.7772262,2.798,13630670.382,24924723.842,2.798,0.000,0.000,0.000,0.000,0.000,0.000,0.000,17,16,4*6F
$GPGGA,041843.80,3135.5387615,N,12046.6337372,E,4,17,1.4,2.7937,M,8.313,M,00,0004*64
$GPHPD,0,0.000,58.49,-0.20,-14.74,31.5923127,120.7772290,2.794,13630669.511,24924725.354,2.794,0.000,0.000,0.000,0.000,0.000,0.000,0.000,17,16,4*4E
$GPGGA,041844.00,3135.5388471,N,12046.6339033,E,4,17,1.5,2.7859,M,8.313,M,01,0004*65
$GPHPD,0,0.000,58.56,0.17,-14.72,31.5923141,120.7772317,2.786,13630668.629,24924726.858,2.786,0.000,0.000,0.000,0.000,0.000,0.000,0.000,17,16,4*6C
$GPGGA,041844.20,3135.5389307,N,12046.6340694,E,4,17,1.5,2.7973,M,8.313,M,01,0004*6C
$GPHPD,0,0.000,58.63,0.34,-14.71,31.5923155,120.7772345,2.797,13630667.775,24924728.374,2.797,0.000,0.000,0.000,0.000,0.000,0.000,0.000,17,16,4*66
$GPGGA,041844.40,3135.5390144,N,12046.6342349,E,4,17,1.5,2.7853,M,8.313,M,01,0004*63
$GPHPD,0,0.000,58.61,-0.07,-14.70,31.5923169,120.7772372,2.785,13630666.918,24924729.883,2.785,0.000,0.000,0.000,0.000,0.000,0.000,0.000,17,16,4*45
$GPGGA,041844.60,3135.5390956,N,12046.6344004,E,4,17,1.5,2.7831,M,8.313,M,00,0004*63
$GPHPD,0,0.000,58.79,0.51,-14.68,31.5923183,120.7772400,2.783,13630666.097,24924731.406,2.783,0.000,0.000,0.000,0.000,0.000,0.000,0.000,17,16,4*6B
$GPGGA,041844.80,3135.5391788,N,12046.6345671,E,4,17,1.5,2.7822,M,8.313,M,00,0004*66
$GPHPD,0,0.000,58.89,0.45,-14.66,31.5923196,120.7772428,2.782,13630665.250,24924732.931,2.782,0.000,0.000,0.000,0.000,0.000,0.000,0.000,17,16,4*61
$GPGGA,041845.00,3135.5392598,N,12046.6347275,E,4,17,1.5,2.7971,M,8.313,M,01,0004*6B
$GPHPD,0,0.000,58.79,0.42,-14.66,31.5923210,120.7772455,2.797,13630664.421,24924734.394,2.797,0.000,0.000,0.000,0.000,0.000,0.000,0.000,17,16,4*6C
$GPGGA,041845.20,3135.5393421,N,12046.6348934,E,4,17,1.5,2.7917,M,8.313,M,01,0004*6A
$GPHPD,0,0.000,58.99,-0.26,-14.68,31.5923224,120.7772482,2.792,13630663.586,24924735.915,2.792,0.000,0.000,0.000,0.000,0.000,0.000,0.000,17,16,4*47
$GPGGA,041845.40,3135.5394254,N,12046.6350572,E,4,17,1.4,2.7957,M,8.313,M,01,0004*6D
$GPHPD,0,0.000,59.04,-0.16,-14.70,31.5923238,120.7772510,2.796,13630662.731,24924737.405,2.796,0.000,0.000,0.000,0.000,0.000,0.000,0.000,17,16,4*4E
$GPGGA,041845.60,3135.5395089,N,12046.6352189,E,4,17,1.4,2.7978,M,8.313,M,00,0004*62
$GPHPD,0,0.000,59.27,0.68,-14.71,31.5923251,120.7772536,2.798,13630661.870,24924738.869,2.798,0.000,0.000,0.000,0.000,0.000,0.000,0.000,17,16,4*61
$GPGGA,041845.80,3135.5395887,N,12046.6353813,E,4,17,1.4,2.7987,M,8.313,M,00,0004*61
$GPHPD,0,0.000,59.21,0.61,-14.72,31.5923265,120.7772564,2.799,13630661.062,24924740.363,2.799,0.000,0.000,0.000,0.000,0.000,0.000,0.000,17,16,4*68
$GPGGA,041846.00,3135.5396724,N,12046.6355484,E,4,17,1.4,2.7982,M,8.313,M,01,0004*6F
$GPHPD,0,0.000,58.42,-0.89,-14.72,31.5923279,120.7772591,2.798,13630660.209,24924741.890,2.798,0.000,0.000,0.000,0.000,0.000,0.000,0.000,17,16,4*48
$GPGGA,041846.20,3135.5397524,N,12046.6357127,E,4,17,1.5,2.7965,M,8.313,M,01,0004*68
$GPHPD,0,0.000,58.76,0.28,-14.72,31.5923292,120.7772619,2.797,13630659.402,24924743.406,2.797,0.000,0.000,0.000,0.000,0.000,0.000,0.000,17,16,4*69
$GPGGA,041846.40,3135.5398357,N,12046.6358775,E,4,17,1.4,2.8048,M,8.313,M,01,0004*65
$GPHPD,0,0.000,58.62,0.45,-14.71,31.5923306,120.7772646,2.805,13630658.550,24924744.908,2.805,0.000,0.000,0.000,0.000,0.000,0.000,0.000,17,15,4*62
$GPGGA,041846.60,3135.5399199,N,12046.6360412,E,4,17,1.4,2.8133,M,8.313,M,00,0004*63
$GPHPD,0,0.000,58.60,0.39,-14.71,31.5923320,120.7772674,2.813,13630657.683,24924746.392,2.813,0.000,0.000,0.000,0.000,0.000,0.000,0.000,17,15,4*67
$GPGGA,041846.80,3135.5400120,N,12046.6361995,E,4,17,1.4,2.7821,M,8.313,M,00,0004*6E
$GPHPD,0,0.000,58.62,0.36,-14.72,31.5923335,120.7772700,2.782,13630656.692,24924747.764,2.782,0.000,0.000,0.000,0.000,0.000,0.000,0.000,17,15,4*62
$GPGGA,041847.00,3135.5400877,N,12046.6363665,E,4,17,1.5,2.8017,M,8.313,M,01,0004*6C
$GPHPD,0,0.000,58.96,0.88,-14.74,31.5923348,120.7772728,2.802,13630655.952,24924749.338,2.802,0.000,0.000,0.000,0.000,0.000,0.000,0.000,17,15,4*69
$GPGGA,041847.20,3135.5401702,N,12046.6365301,E,4,17,1.5,2.8098,M,8.313,M,01,0004*64
$GPHPD,0,0.000,58.80,0.52,-14.76,31.5923362,120.7772755,2.810,13630655.109,24924750.830,2.810,0.000,0.000,0.000,0.000,0.000,0.000,0.000,17,15,4*64
$GPGGA,041847.40,3135.5402490,N,12046.6366954,E,4,17,1.4,2.8231,M,8.313,M,01,0004*60
$GPHPD,0,0.000,58.83,0.27,-14.78,31.5923375,120.7772783,2.823,13630654.321,24924752.364,2.823,0.000,0.000,0.000,0.000,0.000,0.000,0.000,17,16,4*64
$GPGGA,041847.60,3135.5403301,N,12046.6368601,E,4,17,1.4,2.8326,M,8.313,M,00,0004*6B
$GPHPD,0,0.000,58.80,0.55,-14.79,31.5923388,120.7772810,2.833,13630653.500,24924753.878,2.833,0.000,0.000,0.000,0.000,0.000,0.000,0.000,17,16,4*61
$GPGGA,041847.80,3135.5404120,N,12046.6370249,E,4,17,1.4,2.8284,M,8.313,M,00,0004*6B
$GPHPD,0,0.000,58.87,0.48,-14.81,31.5923402,120.7772837,2.828,13630652.668,24924755.389,2.828,0.000,0.000,0.000,0.000,0.000,0.000,0.000,17,16,4*62
$GPGGA,041848.00,3135.5404926,N,12046.6371826,E,4,17,1.4,2.8266,M,8.313,M,01,0004*6D
$GPHPD,0,0.000,59.00,0.19,-14.82,31.5923415,120.7772864,2.827,13630651.839,24924756.821,2.827,0.000,0.000,0.000,0.000,0.000,0.000,0.000,17,16,4*68
$GPGGA,041848.20,3135.5405806,N,12046.6373472,E,4,17,1.3,2.8278,M,8.313,M,01,0004*6A
$GPHPD,0,0.000,58.88,0.19,-14.81,31.5923430,120.7772891,2.828,13630650.920,24924758.293,2.828,0.000,0.000,0.000,0.000,0.000,0.000,0.000,17,16,4*62
$GPGGA,041848.40,3135.5406626,N,12046.6375097,E,4,17,1.3,2.8253,M,8.313,M,01,0004*63
$GPHPD,0,0.000,59.11,0.53,-14.82,31.5923444,120.7772918,2.825,13630650.081,24924759.776,2.825,0.000,0.000,0.000,0.000,0.000,0.000,0.000,17,16,4*60
$GPGGA,041848.60,3135.5407415,N,12046.6376749,E,4,17,1.3,2.8369,M,8.313,M,00,0004*6C
$GPHPD,0,0.000,58.93,0.42,-14.82,31.5923457,120.7772946,2.837,13630649.292,24924761.308,2.837,0.000,0.000,0.000,0.000,0.000,0.000,0.000,17,16,4*6C
$GPGGA,041848.80,3135.5408234,N,12046.6378378,E,4,17,1.3,2.8274,M,8.313,M,00,0004*6D
$GPHPD,0,0.000,59.02,0.14,-14.83,31.5923471,120.7772973,2.827,13630648.456,24924762.796,2.827,0.000,0.000,0.000,0.000,0.000,0.000,0.000,17,16,4*6A
$GPGGA,041849.00,3135.5409109,N,12046.6380018,E,4,17,1.3,2.8097,M,8.313,M,01,0004*64
$GPHPD,0,0.000,59.05,0.27,-14.83,31.5923485,120.7773000,2.810,13630647.542,24924764.264,2.810,0.000,0.000,0.000,0.000,0.000,0.000,0.000,17,15,4*6C
$GPGGA,041849.20,3135.5409908,N,12046.6381655,E,4,17,1.3,2.8170,M,8.313,M,01,0004*69
$GPHPD,0,0.000,59.17,0.78,-14.82,31.5923498,120.7773028,2.817,13630646.736,24924765.773,2.817,0.000,0.000,0.000,0.000,0.000,0.000,0.000,17,15,4*60
$GPGGA,041849.40,3135.5410696,N,12046.6383243,E,4,17,1.3,2.8158,M,8.313,M,01,0004*64
$GPHPD,0,0.000,59.33,1.03,-14.84,31.5923512,120.7773054,2.816,13630645.935,24924767.229,2.816,0.000,0.000,0.000,0.000,0.000,0.000,0.000,17,16,4*60
$GPGGA,041849.60,3135.5411523,N,12046.6384882,E,4,17,1.3,2.8169,M,8.313,M,00,0004*69
$GPHPD,0,0.000,59.31,0.99,-14.86,31.5923525,120.7773081,2.817,13630645.090,24924768.724,2.817,0.000,0.000,0.000,0.000,0.000,0.000,0.000,17,16,4*6F
$GPGGA,041849.80,3135.5412326,N,12046.6386556,E,4,17,1.3,2.8117,M,8.313,M,00,0004*68
$GPHPD,0,0.000,59.73,1.07,-14.87,31.5923539,120.7773109,2.812,13630644.285,24924770.275,2.812,0.000,0.000,0.000,0.000,0.000,0.000,0.000,17,16,4*6D
$GPGGA,041850.00,3135.5413138,N,12046.6388192,E,4,17,1.3,2.8223,M,8.313,M,01,0004*63
$GPHPD,0,0.000,59.36,1.18,-14.89,31.5923552,120.7773137,2.822,13630643.460,24924771.775,2.822,0.000,0.000,0.000,0.000,0.000,0.000,0.000,17,15,4*61
$GPGGA,041850.20,3135.5413898,N,12046.6389803,E,4,17,1.3,2.8286,M,8.313,M,01,0004*6D
$GPHPD,0,0.000,59.42,1.11,-14.91,31.5923565,120.7773163,2.829,13630642.704,24924773.275,2.829,0.000,0.000,0.000,0.000,0.000,0.000,0.000,17,15,4*60
$GPGGA,041850.40,3135.5414701,N,12046.6391442,E,4,17,1.3,2.8314,M,8.313,M,01,0004*69
$GPHPD,0,0.000,59.32,0.72,-14.91,31.5923578,120.7773191,2.831,13630641.893,24924774.784,2.831,0.000,0.000,0.000,0.000,0.000,0.000,0.000,17,16,4*6F
$GPGGA,041850.60,3135.5415497,N,12046.6393086,E,4,17,1.3,2.8361,M,8.313,M,00,0004*6B
$GPHPD,0,0.000,59.10,0.13,-14.91,31.5923592,120.7773218,2.836,13630641.092,24924776.303,2.836,0.000,0.000,0.000,0.000,0.000,0.000,0.000,17,15,4*6D
$GPGGA,041850.80,3135.5416324,N,12046.6394714,E,4,17,1.3,2.8424,M,8.313,M,00,0004*64
$GPHPD,0,0.000,59.10,0.02,-14.90,31.5923605,120.7773245,2.842,13630640.244,24924777.784,2.842,0.000,0.000,0.000,0.000,0.000,0.000,0.000,17,15,4*6B
$GPGGA,041851.00,3135.5417146,N,12046.6396340,E,4,16,1.4,2.8412,M,8.313,M,01,0004*6F
$GPHPD,0,0.000,59.23,0.13,-14.91,31.5923619,120.7773272,2.841,13630639.403,24924779.266,2.841,0.000,0.000,0.000,0.000,0.000,0.000,0.000,16,15,4*6E
$GPGGA,041851.20,3135.5417953,N,12046.6397976,E,4,16,1.5,2.8387,M,8.313,M,01,0004*65
$GPHPD,0,0.000,59.42,0.08,-14.91,31.5923633,120.7773300,2.839,13630638.585,24924780.769,2.839,0.000,0.000,0.000,0.000,0.000,0.000,0.000,16,15,4*6D
$GPGGA,041851.40,3135.5418763,N,12046.6399615,E,4,16,1.4,2.8402,M,8.313,M,01,0004*6E
$GPHPD,0,0.000,59.45,0.55,-14.89,31.5923646,120.7773327,2.840,13630637.764,24924782.274,2.840,0.000,0.000,0.000,0.000,0.000,0.000,0.000,16,15,4*65
$GPGGA,041851.60,3135.5419602,N,12046.6401276,E,4,16,1.4,2.8400,M,8.313,M,00,0004*6F
$GPHPD,0,0.000,59.65,0.27,-14.89,31.5923660,120.7773355,2.840,13630636.906,24924783.788,2.840,0.000,0.000,0.000,0.000,0.000,0.000,0.000,16,15,4*6F
$GPGGA,041851.80,3135.5420374,N,12046.6402903,E,4,16,1.4,2.8437,M,8.313,M,00,0004*61
$GPHPD,0,0.000,59.72,0.13,-14.92,31.5923673,120.7773382,2.844,13630636.136,24924785.301,2.844,0.000,0.000,0.000,0.000,0.000,0.000,0.000,16,15,4*64
$GPGGA,041852.00,3135.5421199,N,12046.6404556,E,4,16,1.5,2.8510,M,8.313,M,01,0004*64
$GPHPD,0,0.000,59.61,0.02,-14.92,31.5923687,120.7773409,2.851,13630635.296,24924786.814,2.851,0.000,0.000,0.000,0.000,0.000,0.000,0.000,16,15,4*6F
$GPGGA,041852.20,3135.5422013,N,12046.6406218,E,4,17,1.5,2.8558,M,8.313,M,01,0004*64
$GPHPD,0,0.000,59.65,0.33,-14.92,31.5923700,120.7773437,2.856,13630634.473,24924788.344,2.856,0.000,0.000,0.000,0.000,0.000,0.000,0.000,17,16,4*64
$GPGGA,041852.40,3135.5422861,N,12046.6407878,E,4,17,1.5,2.8478,M,8.313,M,01,0004*61
$GPHPD,0,0.000,59.50,0.62,-14.91,31.5923714,120.7773465,2.848,13630633.602,24924789.852,2.848,0.000,0.000,0.000,0.000,0.000,0.000,0.000,17,16,4*69
$GPGGA,041852.60,3135.5423664,N,12046.6409584,E,4,17,1.4,2.8569,M,8.313,M,00,0004*68
$GPHPD,0,0.000,59.39,0.57,-14.91,31.5923728,120.7773493,2.857,13630632.804,24924791.441,2.857,0.000,0.000,0.000,0.000,0.000,0.000,0.000,17,16,4*68
$GPGGA,041852.80,3135.5424494,N,12046.6411255,E,4,17,1.4,2.8548,M,8.313,M,00,0004*6D
$GPHPD,0,0.000,59.39,0.73,-14.92,31.5923742,120.7773521,2.855,13630631.960,24924792.973,2.855,0.000,0.000,0.000,0.000,0.000,0.000,0.000,17,16,4*66
$GPGGA,041853.00,3135.5425309,N,12046.6412909,E,4,17,1.4,2.8634,M,8.313,M,01,0004*6E
$GPHPD,0,0.000,59.29,1.07,-14.88,31.5923755,120.7773548,2.863,13630631.135,24924794.493,2.863,0.000,0.000,0.000,0.000,0.000,0.000,0.000,17,16,4*6A
$GPGGA,041853.20,3135.5426166,N,12046.6414593,E,4,17,1.3,2.8712,M,8.313,M,01,0004*6F
$GPHPD,0,0.000,58.98,0.49,-14.88,31.5923769,120.7773577,2.871,13630630.255,24924796.025,2.871,0.000,0.000,0.000,0.000,0.000,0.000,0.000,17,16,4*66
$GPGGA,041853.40,3135.5427010,N,12046.6416263,E,4,17,1.3,2.8721,M,8.313,M,01,0004*62
$GPHPD,0,0.000,59.35,1.06,-14.88,31.5923784,120.7773604,2.872,13630629.392,24924797.547,2.872,0.000,0.000,0.000,0.000,0.000,0.000,0.000,17,16,4*6C
$GPGGA,041853.60,3135.5427838,N,12046.6417941,E,4,17,1.3,2.8776,M,8.313,M,00,0004*6B
$GPHPD,0,0.000,59.27,1.03,-14.87,31.5923797,120.7773632,2.878,13630628.553,24924799.088,2.878,0.000,0.000,0.000,0.000,0.000,0.000,0.000,17,16,4*60
$GPGGA,041853.80,3135.5428701,N,12046.6419634,E,4,17,1.3,2.8730,M,8.313,M,00,0004*6E
$GPHPD,0,0.000,58.75,0.60,-14.85,31.5923812,120.7773661,2.873,13630627.667,24924800.628,2.873,0.000,0.000,0.000,0.000,0.000,0.000,0.000,17,17,4*6D
$GPGGA,041854.00,3135.5429582,N,12046.6421299,E,4,17,1.3,2.8709,M,8.313,M,01,0004*6A
$GPHPD,0,0.000,58.64,0.85,-14.83,31.5923826,120.7773688,2.871,13630626.749,24924802.122,2.871,0.000,0.000,0.000,0.000,0.000,0.000,0.000,17,17,4*63
$GPGGA,041854.20,3135.5430382,N,12046.6423006,E,4,17,1.3,2.8931,M,8.313,M,01,0004*65
$GPHPD,0,0.000,58.70,0.44,-14.84,31.5923840,120.7773717,2.893,13630625.956,24924803.715,2.893,0.000,0.000,0.000,0.000,0.000,0.000,0.000,17,16,4*6A
$GPGGA,041854.40,3135.5431231,N,12046.6424685,E,4,17,1.4,2.8883,M,8.313,M,01,0004*6E
$GPHPD,0,0.000,58.34,-0.26,-14.85,31.5923854,120.7773745,2.888,13630625.087,24924805.245,2.888,0.000,0.000,0.000,0.000,0.000,0.000,0.000,17,15,4*40
$GPGGA,041854.60,3135.5432128,N,12046.6426360,E,4,17,1.3,2.8812,M,8.313,M,00,0004*66
$GPHPD,0,0.000,58.53,0.04,-14.86,31.5923869,120.7773773,2.881,13630624.149,24924806.743,2.881,0.000,0.000,0.000,0.000,0.000,0.000,0.000,17,15,4*66
$GPGGA,041854.80,3135.5432986,N,12046.6428031,E,4,17,1.3,2.8914,M,8.313,M,00,0004*6A
$GPHPD,0,0.000,58.90,0.37,-14.90,31.5923883,120.7773801,2.891,13630623.266,24924808.258,2.891,0.000,0.000,0.000,0.000,0.000,0.000,0.000,17,15,4*68
$GPGGA,041855.00,3135.5433832,N,12046.6429691,E,4,17,1.4,2.8808,M,8.313,M,01,0004*6B
$GPHPD,0,0.000,58.84,0.06,-14.92,31.5923897,120.7773828,2.881,13630622.397,24924809.767,2.881,0.000,0.000,0.000,0.000,0.000,0.000,0.000,17,16,4*66
$GPGGA,041855.20,3135.5434666,N,12046.6431363,E,4,17,1.4,2.8870,M,8.313,M,01,0004*6F
$GPHPD,0,0.000,59.10,1.02,-14.93,31.5923911,120.7773856,2.887,13630621.548,24924811.298,2.887,0.000,0.000,0.000,0.000,0.000,0.000,0.000,17,15,4*60
$GPGGA,041855.40,3135.5435519,N,12046.6433026,E,4,16,1.5,2.8818,M,8.313,M,01,0004*6D
$GPHPD,0,0.000,59.02,0.63,-14.94,31.5923925,120.7773884,2.882,13630620.671,24924812.807,2.882,0.000,0.000,0.000,0.000,0.000,0.000,0.000,16,16,4*6F
$GPGGA,041855.60,3135.5436324,N,12046.6434687,E,4,16,1.5,2.8905,M,8.313,M,01,0004*63
$GPHPD,0,0.000,59.09,0.23,-14.93,31.5923939,120.7773911,2.891,13630619.861,24924814.341,2.891,0.000,0.000,0.000,0.000,0.000,0.000,0.000,16,16,4*6D
$GPGGA,041855.80,3135.5437193,N,12046.6436351,E,4,16,1.5,2.8972,M,8.313,M,01,0004*6E
$GPHPD,0,0.000,58.94,0.09,-14.94,31.5923953,120.7773939,2.897,13630618.960,24924815.841,2.897,0.000,0.000,0.000,0.000,0.000,0.000,0.000,16,16,4*6A
$GPGGA,041856.00,3135.5438020,N,12046.6438038,E,4,16,1.5,2.8932,M,8.313,M,02,0004*66
$GPHPD,0,0.000,59.02,0.20,-14.93,31.5923967,120.7773967,2.893,13630618.124,24924817.394,2.893,0.000,0.000,0.000,0.000,0.000,0.000,0.000,16,16,4*6D
$GPGGA,041856.20,3135.5438875,N,12046.6439720,E,4,16,1.4,2.8861,M,8.313,M,02,0004*65
$GPHPD,0,0.000,59.07,0.59,-14.92,31.5923981,120.7773995,2.886,13630617.247,24924818.924,2.886,0.000,0.000,0.000,0.000,0.000,0.000,0.000,16,15,4*66
$GPGGA,041856.40,3135.5439686,N,12046.6441395,E,4,17,1.3,2.9039,M,8.313,M,02,0004*67
$GPHPD,0,0.000,59.19,0.67,-14.91,31.5923995,120.7774023,2.904,13630616.432,24924820.472,2.904,0.000,0.000,0.000,0.000,0.000,0.000,0.000,17,17,4*62
$GPGGA,041856.60,3135.5440510,N,12046.6443042,E,4,17,1.3,2.8962,M,8.313,M,02,0004*6A
$GPHPD,0,0.000,59.19,0.51,-14.90,31.5924009,120.7774051,2.896,13630615.592,24924821.978,2.896,0.000,0.000,0.000,0.000,0.000,0.000,0.000,17,17,4*66
$GPGGA,041856.80,3135.5441339,N,12046.6444721,E,4,17,1.3,2.8980,M,8.313,M,00,0004*63
$GPHPD,0,0.000,59.22,1.12,-14.88,31.5924022,120.7774079,2.898,13630614.752,24924823.520,2.898,0.000,0.000,0.000,0.000,0.000,0.000,0.000,17,17,4*6E
$GPGGA,041857.00,3135.5442191,N,12046.6446407,E,4,17,1.3,2.9000,M,8.313,M,01,0004*6D
$GPHPD,0,0.000,59.53,1.14,-14.88,31.5924037,120.7774107,2.900,13630613.880,24924825.057,2.900,0.000,0.000,0.000,0.000,0.000,0.000,0.000,17,17,4*66
$GPGGA,041857.20,3135.5443037,N,12046.6448101,E,4,17,1.3,2.8983,M,8.313,M,01,0004*6D
$GPHPD,0,0.000,59.34,1.15,-14.87,31.5924051,120.7774135,2.898,13630613.018,24924826.607,2.898,0.000,0.000,0.000,0.000,0.000,0.000,0.000,17,17,4*61
$GPGGA,041857.40,3135.5443850,N,12046.6449758,E,4,17,1.3,2.8958,M,8.313,M,01,0004*6F
$GPHPD,0,0.000,59.29,0.47,-14.87,31.5924064,120.7774163,2.896,13630612.196,24924828.132,2.896,0.000,0.000,0.000,0.000,0.000,0.000,0.000,17,17,4*67
$GPGGA,041857.60,3135.5444629,N,12046.6451456,E,4,17,1.3,2.9143,M,8.313,M,00,0004*6C
$GPHPD,0,0.000,59.33,0.77,-14.87,31.5924077,120.7774191,2.914,13630611.430,24924829.726,2.914,0.000,0.000,0.000,0.000,0.000,0.000,0.000,17,17,4*68
$GPGGA,041857.80,3135.5445441,N,12046.6453140,E,4,17,1.3,2.9094,M,8.313,M,00,0004*64
$GPHPD,0,0.000,59.13,1.20,-14.88,31.5924091,120.7774219,2.909,13630610.615,24924831.284,2.909,0.000,0.000,0.000,0.000,0.000,0.000,0.000,17,17,4*6D
$GPGGA,041858.00,3135.5446286,N,12046.6454822,E,4,17,1.3,2.9254,M,8.313,M,01,0004*68
$GPHPD,0,0.000,58.73,1.32,-14.89,31.5924105,120.7774247,2.925,13630609.753,24924832.820,2.925,0.000,0.000,0.000,0.000,0.000,0.000,0.000,17,17,4*63
$GPGGA,041858.20,3135.5447117,N,12046.6456478,E,4,17,1.3,2.9160,M,8.313,M,01,0004*65
$GPHPD,0,0.000,58.86,-0.24,-14.88,31.5924119,120.7774275,2.916,13630608.905,24924834.333,2.916,0.000,0.000,0.000,0.000,0.000,0.000,0.000,17,17,4*4C
$GPGGA,041858.40,3135.5447955,N,12046.6458190,E,4,17,1.3,2.9169,M,8.313,M,01,0004*69
$GPHPD,0,0.000,59.20,-0.22,-14.88,31.5924133,120.7774303,2.917,13630608.058,24924835.910,2.917,0.000,0.000,0.000,0.000,0.000,0.000,0.000,17,17,4*44
$GPGGA,041858.60,3135.5448830,N,12046.6459873,E,4,17,1.3,2.9382,M,8.313,M,00,0004*65
$GPHPD,0,0.000,59.19,0.10,-14.87,31.5924147,120.7774331,2.938,13630607.153,24924837.430,2.938,0.000,0.000,0.000,0.000,0.000,0.000,0.000,17,17,4*67
$GPGGA,041858.80,3135.5449659,N,12046.6461515,E,4,17,1.3,2.9403,M,8.313,M,00,0004*63
$GPHPD,0,0.000,59.00,-0.58,-14.86,31.5924161,120.7774359,2.940,13630606.305,24924838.927,2.940,0.000,0.000,0.000,0.000,0.000,0.000,0.000,17,17,4*41
$GPGGA,041859.00,3135.5450552,N,12046.6463215,E,4,17,1.3,2.9130,M,8.313,M,01,0004*6B
$GPHPD,0,0.000,58.83,-0.51,-14.82,31.5924176,120.7774387,2.913,13630605.378,24924840.457,2.913,0.000,0.000,0.000,0.000,0.000,0.000,0.000,17,17,4*4F
$GPGGA,041859.20,3135.5451366,N,12046.6464918,E,4,17,1.4,2.8970,M,8.313,M,01,0004*62
$GPHPD,0,0.000,58.96,0.31,-14.82,31.5924189,120.7774415,2.897,13630604.564,24924842.037,2.897,0.000,0.000,0.000,0.000,0.000,0.000,0.000,17,17,4*66
$GPGGA,041859.40,3135.5452197,N,12046.6466637,E,4,17,1.3,2.9114,M,8.313,M,01,0004*67
$GPHPD,0,0.000,59.16,1.66,-14.77,31.5924203,120.7774444,2.911,13630603.728,24924843.626,2.911,0.000,0.000,0.000,0.000,0.000,0.000,0.000,17,17,4*69
$GPGGA,041859.60,3135.5453199,N,12046.6468384,E,4,17,1.3,2.9244,M,8.313,M,00,0004*6E
$GPHPD,0,0.000,58.64,0.95,-14.74,31.5924220,120.7774473,2.924,13630602.656,24924845.149,2.924,0.000,0.000,0.000,0.000,0.000,0.000,0.000,17,17,4*67
$GPGGA,041859.80,3135.5454083,N,12046.6470095,E,4,17,1.3,2.9296,M,8.313,M,00,0004*68
$GPHPD,0,0.000,59.18,0.08,-14.70,31.5924235,120.7774502,2.930,13630601.744,24924846.697,2.930,0.000,0.000,0.000,0.000,0.000,0.000,0.000,17,17,4*68
$GPGGA,041900.00,3135.5454875,N,12046.6471811,E,4,17,1.3,2.9038,M,8.313,M,01,0004*6E
$GPHPD,0,0.000,59.04,-0.33,-14.70,31.5924248,120.7774530,2.904,13630600.963,24924848.306,2.904,0.000,0.000,0.000,0.000,0.000,0.000,0.000,17,17,4*42
$GPGGA,041900.20,3135.5455682,N,12046.6473550,E,4,17,1.3,2.9215,M,8.313,M,01,0004*6C
$GPHPD,0,0.000,58.96,1.05,-14.69,31.5924261,120.7774559,2.922,13630600.166,24924849.933,2.922,0.000,0.000,0.000,0.000,0.000,0.000,0.000,17,16,4*6C
$GPGGA,041900.40,3135.5456664,N,12046.6475264,E,4,17,1.3,2.9229,M,8.313,M,01,0004*68
$GPHPD,0,0.000,58.45,0.49,-14.68,31.5924278,120.7774588,2.923,13630599.115,24924851.428,2.923,0.000,0.000,0.000,0.000,0.000,0.000,0.000,17,17,4*66
$GPGGA,041900.60,3135.5457515,N,12046.6476971,E,4,17,1.3,2.9276,M,8.313,M,00,0004*69
$GPHPD,0,0.000,58.70,-0.05,-14.69,31.5924292,120.7774616,2.928,13630598.249,24924852.991,2.928,0.000,0.000,0.000,0.000,0.000,0.000,0.000,17,17,4*43
$GPGGA,041900.80,3135.5458406,N,12046.6478687,E,4,17,1.3,2.9336,M,8.313,M,00,0004*66
$GPHPD,0,0.000,58.74,0.39,-14.71,31.5924307,120.7774645,2.934,13630597.328,24924854.541,2.934,0.000,0.000,0.000,0.000,0.000,0.000,0.000,17,17,4*69
$GPGGA,041901.00,3135.5459231,N,12046.6480445,E,4,17,1.3,2.9385,M,8.313,M,01,0004*6E
$GPHPD,0,0.000,59.13,1.26,-14.71,31.5924321,120.7774674,2.939,13630596.509,24924856.181,2.939,0.000,0.000,0.000,0.000,0.000,0.000,0.000,17,17,4*6E
$GPGGA,041901.20,3135.5460090,N,12046.6482161,E,4,17,1.3,2.9446,M,8.313,M,01,0004*66
$GPHPD,0,0.000,58.66,0.17,-14.70,31.5924335,120.7774703,2.945,13630595.633,24924857.750,2.945,0.000,0.000,0.000,0.000,0.000,0.000,0.000,17,17,4*69
$GPGGA,041901.40,3135.5461024,N,12046.6483940,E,4,17,1.3,2.9481,M,8.313,M,01,0004*6F
$GPHPD,0,0.000,58.63,0.16,-14.68,31.5924350,120.7774732,2.948,13630594.664,24924859.351,2.948,0.000,0.000,0.000,0.000,0.000,0.000,0.000,17,17,4*6D
$GPGGA,041901.60,3135.5461922,N,12046.6485632,E,4,17,1.3,2.9258,M,8.314,M,00,0004*6A
$GPHPD,0,0.000,58.32,0.26,-14.67,31.5924365,120.7774761,2.926,13630593.728,24924860.868,2.926,0.000,0.000,0.000,0.000,0.000,0.000,0.000,17,17,4*60
$GPGGA,041901.80,3135.5462766,N,12046.6487412,E,4,17,1.3,2.9577,M,8.314,M,00,0004*61
$GPHPD,0,0.000,58.55,0.92,-14.68,31.5924379,120.7774790,2.958,13630592.886,24924862.523,2.958,0.000,0.000,0.000,0.000,0.000,0.000,0.000,17,17,4*68
$GPGGA,041902.00,3135.5463658,N,12046.6489127,E,4,17,1.3,2.9487,M,8.314,M,01,0004*65
$GPHPD,0,0.000,58.58,-1.16,-14.69,31.5924394,120.7774819,2.949,13630591.964,24924864.072,2.949,0.000,0.000,0.000,0.000,0.000,0.000,0.000,17,16,4*41
$GPGGA,041902.20,3135.5464530,N,12046.6490805,E,4,17,1.3,2.9500,M,8.314,M,01,0004*62
$GPHPD,0,0.000,58.74,-0.20,-14.68,31.5924409,120.7774847,2.950,13630591.062,24924865.588,2.950,0.000,0.000,0.000,0.000,0.000,0.000,0.000,17,16,4*4C
$GPGGA,041902.40,3135.5465403,N,12046.6492480,E,4,16,1.4,2.9443,M,8.314,M,01,0004*67
$GPHPD,0,0.000,58.60,-0.64,-14.67,31.5924423,120.7774875,2.944,13630590.158,24924867.099,2.944,0.000,0.000,0.000,0.000,0.000,0.000,0.000,16,15,4*43
$GPGGA,041902.60,3135.5466191,N,12046.6494079,E,4,16,1.4,2.9436,M,8.314,M,00,0004*6F
$GPHPD,0,0.000,58.78,-0.53,-14.66,31.5924437,120.7774901,2.944,13630589.360,24924868.569,2.944,0.000,0.000,0.000,0.000,0.000,0.000,0.000,16,15,4*4C
$GPGGA,041902.80,3135.5466953,N,12046.6495667,E,4,16,1.4,2.9401,M,8.314,M,00,0004*6B
$GPHPD,0,0.000,58.84,0.32,-14.59,31.5924449,120.7774928,2.940,13630588.596,24924870.040,2.940,0.000,0.000,0.000,0.000,0.000,0.000,0.000,16,15,4*62
$GPGGA,041903.00,3135.5467703,N,12046.6497185,E,4,16,1.4,2.9369,M,8.314,M,01,0004*69
$GPHPD,0,0.000,58.55,0.35,-14.47,31.5924462,120.7774953,2.937,13630587.836,24924871.434,2.937,0.000,0.000,0.000,0.000,0.000,0.000,0.000,16,15,4*6D
$GPGGA,041903.20,3135.5468451,N,12046.6498563,E,4,16,1.4,2.9365,M,8.314,M,01,0004*6F
$GPHPD,0,0.000,58.46,0.49,-14.41,31.5924474,120.7774976,2.937,13630587.050,24924872.660,2.937,0.000,0.000,0.000,0.000,0.000,0.000,0.000,16,15,4*6A
$GPGGA,041903.40,3135.5469077,N,12046.6499821,E,4,16,1.4,2.9291,M,8.314,M,01,0004*68
$GPHPD,0,0.000,58.82,0.67,-14.31,31.5924485,120.7774997,2.929,13630586.413,24924873.812,2.929,0.000,0.000,0.000,0.000,0.000,0.000,0.000,16,15,4*60
$GPGGA,041903.60,3135.5469666,N,12046.6501009,E,4,16,1.4,2.9344,M,8.314,M,01,0004*67
$GPHPD,0,0.000,58.53,0.79,-14.22,31.5924494,120.7775017,2.934,13630585.815,24924874.902,2.934,0.000,0.000,0.000,0.000,0.000,0.000,0.000,16,14,4*6E
$GPGGA,041903.80,3135.5470171,N,12046.6502013,E,4,16,1.4,2.9394,M,8.314,M,00,0004*64
$GPHPD,0,0.000,58.54,0.51,-14.13,31.5924503,120.7775034,2.939,13630585.299,24924875.819,2.939,0.000,0.000,0.000,0.000,0.000,0.000,0.000,16,15,4*6A
$GPGGA,041904.00,3135.5470653,N,12046.6502912,E,4,16,1.4,2.9339,M,8.314,M,01,0004*62
$GPHPD,0,0.000,58.46,0.48,-14.04,31.5924511,120.7775049,2.934,13630584.795,24924876.622,2.934,0.000,0.000,0.000,0.000,0.000,0.000,0.000,16,15,4*63
$GPGGA,041904.20,3135.5471073,N,12046.6503735,E,4,16,1.4,2.9352,M,8.314,M,01,0004*62
$GPHPD,0,0.000,58.44,0.64,-13.99,31.5924518,120.7775062,2.935,13630584.364,24924877.370,2.935,0.000,0.000,0.000,0.000,0.000,0.000,0.000,16,15,4*65
$GPGGA,041904.40,3135.5471479,N,12046.6504456,E,4,16,1.4,2.9409,M,8.314,M,01,0004*62
$GPHPD,0,0.000,58.50,0.46,-13.95,31.5924525,120.7775074,2.941,13630583.932,24924878.003,2.941,0.000,0.000,0.000,0.000,0.000,0.000,0.000,16,15,4*63
$GPGGA,041904.60,3135.5471825,N,12046.6505081,E,4,16,1.4,2.9472,M,8.314,M,00,0004*67
$GPHPD,0,0.000,58.65,0.37,-13.91,31.5924530,120.7775085,2.947,13630583.566,24924878.555,2.947,0.000,0.000,0.000,0.000,0.000,0.000,0.000,16,15,4*66
$GPGGA,041904.80,3135.5472092,N,12046.6505658,E,4,16,1.4,2.9466,M,8.314,M,00,0004*69
$GPHPD,0,0.000,58.55,0.29,-13.87,31.5924535,120.7775094,2.947,13630583.302,24924879.095,2.947,0.000,0.000,0.000,0.000,0.000,0.000,0.000,16,14,4*65
$GPGGA,041905.00,3135.5472326,N,12046.6506115,E,4,16,1.4,2.9524,M,8.314,M,01,0004*67
$GPHPD,0,0.000,58.51,0.40,-13.82,31.5924539,120.7775102,2.952,13630583.062,24924879.510,2.952,0.000,0.000,0.000,0.000,0.000,0.000,0.000,16,15,4*65
$GPGGA,041905.20,3135.5472571,N,12046.6506537,E,4,16,1.4,2.9517,M,8.314,M,01,0004*65
$GPHPD,0,0.000,58.55,0.50,-13.81,31.5924543,120.7775109,2.952,13630582.798,24924879.876,2.952,0.000,0.000,0.000,0.000,0.000,0.000,0.000,16,15,4*6B
$GPGGA,041905.40,3135.5472741,N,12046.6506884,E,4,16,1.4,2.9588,M,8.314,M,01,0004*61
$GPHPD,0,0.000,58.71,0.19,-13.82,31.5924546,120.7775115,2.959,13630582.626,24924880.196,2.959,0.000,0.000,0.000,0.000,0.000,0.000,0.000,16,15,4*6E
$GPGGA,041905.60,3135.5472937,N,12046.6507238,E,4,16,1.4,2.9480,M,8.314,M,00,0004*68
$GPHPD,0,0.000,58.59,0.13,-13.84,31.5924549,120.7775121,2.948,13630582.419,24924880.509,2.948,0.000,0.000,0.000,0.000,0.000,0.000,0.000,16,15,4*6C
$GPGGA,041905.80,3135.5473092,N,12046.6507547,E,4,16,1.4,2.9569,M,8.314,M,00,0004*68
$GPHPD,0,0.000,58.51,0.45,-13.86,31.5924552,120.7775126,2.957,13630582.261,24924880.791,2.957,0.000,0.000,0.000,0.000,0.000,0.000,0.000,16,15,4*62
$GPGGA,041906.00,3135.5473273,N,12046.6507880,E,4,16,1.4,2.9553,M,8.314,M,01,0004*60
$GPHPD,0,0.000,58.64,0.49,-13.91,31.5924555,120.7775131,2.955,13630582.071,24924881.087,2.955,0.000,0.000,0.000,0.000,0.000,0.000,0.000,16,15,4*6D
$GPGGA,041906.20,3135.5473411,N,12046.6508144,E,4,16,1.5,2.9481,M,8.314,M,01,0004*61
$GPHPD,0,0.000,58.63,0.38,-13.96,31.5924557,120.7775136,2.948,13630581.928,24924881.325,2.948,0.000,0.000,0.000,0.000,0.000,0.000,0.000,16,15,4*63
$GPGGA,041906.40,3135.5473562,N,12046.6508500,E,4,16,1.4,2.9570,M,8.314,M,01,0004*68
$GPHPD,0,0.000,58.65,0.50,-14.03,31.5924559,120.7775142,2.957,13630581.785,24924881.667,2.957,0.000,0.000,0.000,0.000,0.000,0.000,0.000,16,15,4*67
$GPGGA,041906.60,3135.5473704,N,12046.6508860,E,4,16,1.4,2.9631,M,8.314,M,00,0004*64
$GPHPD,0,0.000,58.53,0.37,-14.07,31.5924562,120.7775148,2.963,13630581.655,24924882.018,2.963,0.000,0.000,0.000,0.000,0.000,0.000,0.000,16,15,4*64
$GPGGA,041906.80,3135.5473882,N,12046.6509184,E,4,16,1.4,2.9610,M,8.314,M,00,0004*6A
$GPHPD,0,0.000,58.39,0.03,-14.08,31.5924565,120.7775153,2.961,13630581.467,24924882.305,2.961,0.000,0.000,0.000,0.000,0.000,0.000,0.000,16,15,4*61
$GPGGA,041907.00,3135.5474022,N,12046.6509446,E,4,16,1.4,2.9580,M,8.314,M,01,0004*66
$GPHPD,0,0.000,58.45,0.19,-14.05,31.5924567,120.7775157,2.958,13630581.321,24924882.539,2.958,0.000,0.000,0.000,0.000,0.000,0.000,0.000,16,15,4*66
$GPGGA,041907.20,3135.5474113,N,12046.6509636,E,4,16,1.4,2.9631,M,8.314,M,01,0004*6B
$GPHPD,0,0.000,58.55,0.50,-14.02,31.5924569,120.7775161,2.963,13630581.230,24924882.716,2.963,0.000,0.000,0.000,0.000,0.000,0.000,0.000,16,15,4*68
$GPGGA,041907.40,3135.5474198,N,12046.6509789,E,4,16,1.4,2.9615,M,8.314,M,01,0004*6D
$GPHPD,0,0.000,58.67,0.19,-13.99,31.5924570,120.7775163,2.962,13630581.140,24924882.851,2.962,0.000,0.000,0.000,0.000,0.000,0.000,0.000,16,15,4*63
$GPGGA,041907.60,3135.5474254,N,12046.6509880,E,4,16,1.4,2.9596,M,8.314,M,01,0004*62
$GPHPD,0,0.000,58.59,0.23,-13.95,31.5924571,120.7775165,2.960,13630581.079,24924882.928,2.960,0.000,0.000,0.000,0.000,0.000,0.000,0.000,16,15,4*68
$GPGGA,041907.80,3135.5474240,N,12046.6509878,E,4,16,1.4,2.9579,M,8.314,M,00,0004*6E
$GPHPD,0,0.000,58.76,0.36,-13.94,31.5924571,120.7775165,2.958,13630581.098,24924882.933,2.958,0.000,0.000,0.000,0.000,0.000,0.000,0.000,16,15,4*65
$GPGGA,041908.00,3135.5474244,N,12046.6509880,E,4,16,1.4,2.9546,M,8.314,M,01,0004*67
$GPHPD,0,0.000,58.51,0.35,-14.00,31.5924571,120.7775165,2.955,13630581.093,24924882.933,2.955,0.000,0.000,0.000,0.000,0.000,0.000,0.000,16,15,4*62
$GPGGA,041908.20,3135.5474237,N,12046.6509870,E,4,16,1.4,2.9617,M,8.314,M,01,0004*69
$GPHPD,0,0.000,58.76,0.40,-14.03,31.5924571,120.7775165,2.962,13630581.101,24924882.925,2.962,0.000,0.000,0.000,0.000,0.000,0.000,0.000,16,15,4*6B
$GPGGA,041908.40,3135.5474237,N,12046.6509871,E,4,16,1.4,2.9611,M,8.314,M,01,0004*68
$GPHPD,0,0.000,58.67,0.23,-14.08,31.5924571,120.7775165,2.961,13630581.101,24924882.927,2.961,0.000,0.000,0.000,0.000,0.000,0.000,0.000,16,15,4*67
$GPGGA,041908.60,3135.5474221,N,12046.6509872,E,4,16,1.4,2.9567,M,8.314,M,00,0004*6D
$GPHPD,0,0.000,58.60,0.11,-14.12,31.5924570,120.7775165,2.957,13630581.124,24924882.937,2.957,0.000,0.000,0.000,0.000,0.000,0.000,0.000,16,15,4*6D
$GPGGA,041908.80,3135.5474238,N,12046.6509867,E,4,16,1.4,2.9558,M,8.314,M,00,0004*63
$GPHPD,0,0.000,58.49,0.44,-14.15,31.5924571,120.7775164,2.956,13630581.099,24924882.921,2.956,0.000,0.000,0.000,0.000,0.000,0.000,0.000,16,15,4*61
$GPGGA,041909.00,3135.5474243,N,12046.6509887,E,4,16,1.4,2.9594,M,8.314,M,01,0004*69
$GPHPD,0,0.000,58.61,0.57,-14.19,31.5924571,120.7775165,2.959,13630581.096,24924882.943,2.959,0.000,0.000,0.000,0.000,0.000,0.000,0.000,16,15,4*6F
$GPGGA,041909.20,3135.5474245,N,12046.6509877,E,4,16,1.4,2.9582,M,8.314,M,01,0004*65
$GPHPD,0,0.000,58.53,0.31,-14.21,31.5924571,120.7775165,2.958,13630581.091,24924882.929,2.958,0.000,0.000,0.000,0.000,0.000,0.000,0.000,16,15,4*6E
$GPGGA,041909.40,3135.5474233,N,12046.6509879,E,4,16,1.4,2.9610,M,8.314,M,01,0004*64
$GPHPD,0,0.000,58.62,0.42,-14.23,31.5924571,120.7775165,2.961,13630581.108,24924882.939,2.961,0.000,0.000,0.000,0.000,0.000,0.000,0.000,16,15,4*6A
$GPGGA,041909.60,3135.5474265,N,12046.6509887,E,4,16,1.4,2.9575,M,8.314,M,00,0004*65
$GPHPD,0,0.000,58.55,-0.03,-14.26,31.5924571,120.7775165,2.958,13630581.065,24924882.930,2.958,0.000,0.000,0.000,0.000,0.000,0.000,0.000,16,15,4*40
$GPGGA,041909.80,3135.5474234,N,12046.6509868,E,4,16,1.4,2.9557,M,8.314,M,00,0004*6E
$GPHPD,0,0.000,58.73,0.34,-14.29,31.5924571,120.7775164,2.956,13630581.105,24924882.925,2.956,0.000,0.000,0.000,0.000,0.000,0.000,0.000,16,15,4*60
$GPGGA,041910.00,3135.5474222,N,12046.6509867,E,4,16,1.4,2.9561,M,8.314,M,01,0004*62
$GPHPD,0,0.000,58.56,0.27,-14.30,31.5924570,120.7775164,2.956,13630581.122,24924882.931,2.956,0.000,0.000,0.000,0.000,0.000,0.000,0.000,16,15,4*6C
$GPGGA,041910.20,3135.5474236,N,12046.6509878,E,4,16,1.4,2.9519,M,8.314,M,01,0004*64
$GPHPD,0,0.000,58.44,0.34,-14.33,31.5924571,120.7775165,2.952,13630581.104,24924882.936,2.952,0.000,0.000,0.000,0.000,0.000,0.000,0.000,16,15,4*6D
