$GPGGA,041954.00,3135.5573276,N,12046.6778898,E,4,17,1.3,3.1548,M,8.315,M,01,0004*64
$GPHPD,0,0.000,58.54,-0.25,-13.18,31.5926221,120.7779648,3.155,13630494.462,24925149.666,3.155,0.000,0.000,0.000,0.000,0.000,0.000,0.000,17,17,4*4D
$GPGGA,041954.20,3135.5573751,N,12046.6779806,E,4,17,1.3,3.1493,M,8.315,M,01,0004*67
$GPHPD,0,0.000,58.36,-0.18,-13.24,31.5926229,120.7779663,3.149,13630493.970,24925150.485,3.149,0.000,0.000,0.000,0.000,0.000,0.000,0.000,17,17,4*47
$GPGGA,041954.40,3135.5574205,N,12046.6780717,E,4,17,1.3,3.1470,M,8.315,M,01,0004*66
$GPHPD,0,0.000,58.48,-0.05,-13.30,31.5926237,120.7779679,3.147,13630493.508,24925151.319,3.147,0.000,0.000,0.000,0.000,0.000,0.000,0.000,17,17,4*43
$GPGGA,041954.60,3135.5574641,N,12046.6781563,E,4,17,1.3,3.1574,M,8.315,M,00,0004*64
$GPHPD,0,0.000,58.39,-0.20,-13.38,31.5926244,120.7779693,3.157,13630493.058,24925152.085,3.157,0.000,0.000,0.000,0.000,0.000,0.000,0.000,17,17,4*4F
$GPGGA,041954.80,3135.5575070,N,12046.6782389,E,4,17,1.3,3.1524,M,8.315,M,00,0004*6B
$GPHPD,0,0.000,58.42,-0.36,-13.49,31.5926251,120.7779706,3.152,13630492.615,24925152.832,3.152,0.000,0.000,0.000,0.000,0.000,0.000,0.000,17,17,4*41
$GPGGA,041955.00,3135.5575452,N,12046.6783191,E,4,17,1.3,3.1495,M,8.315,M,01,0004*66
$GPHPD,0,0.000,58.43,-0.10,-13.64,31.5926258,120.7779720,3.150,13630492.233,24925153.576,3.150,0.000,0.000,0.000,0.000,0.000,0.000,0.000,17,17,4*4A
$GPGGA,041955.20,3135.5575894,N,12046.6784017,E,4,17,1.3,3.1502,M,8.315,M,01,0004*65
$GPHPD,0,0.000,58.37,0.03,-13.77,31.5926265,120.7779734,3.150,13630491.771,24925154.315,3.150,0.000,0.000,0.000,0.000,0.000,0.000,0.000,17,17,4*6B
$GPGGA,041955.40,3135.5576325,N,12046.6784837,E,4,17,1.3,3.1437,M,8.315,M,01,0004*6C
$GPHPD,0,0.000,58.50,0.06,-13.87,31.5926272,120.7779747,3.144,13630491.323,24925155.053,3.144,0.000,0.000,0.000,0.000,0.000,0.000,0.000,17,17,4*61
$GPGGA,041955.60,3135.5576735,N,12046.6785668,E,4,17,1.3,3.1464,M,8.315,M,00,0004*69
$GPHPD,0,0.000,58.53,0.39,-13.99,31.5926279,120.7779761,3.146,13630490.908,24925155.816,3.146,0.000,0.000,0.000,0.000,0.000,0.000,0.000,17,17,4*65
$GPGGA,041955.80,3135.5577171,N,12046.6786531,E,4,17,1.3,3.1401,M,8.315,M,00,0004*6F
$GPHPD,0,0.000,58.44,0.43,-14.14,31.5926286,120.7779776,3.140,13630490.462,24925156.603,3.140,0.000,0.000,0.000,0.000,0.000,0.000,0.000,17,17,4*62
$GPGGA,041956.00,3135.5577660,N,12046.6787457,E,4,17,1.3,3.1434,M,8.315,M,01,0004*64
$GPHPD,0,0.000,58.37,0.66,-14.34,31.5926294,120.7779791,3.143,13630489.953,24925157.435,3.143,0.000,0.000,0.000,0.000,0.000,0.000,0.000,17,17,4*68
$GPGGA,041956.20,3135.5578189,N,12046.6788488,E,4,17,1.3,3.1376,M,8.315,M,01,0004*65
$GPHPD,0,0.000,58.38,0.37,-14.49,31.5926303,120.7779808,3.138,13630489.408,24925158.370,3.138,0.000,0.000,0.000,0.000,0.000,0.000,0.000,17,17,4*63
$GPGGA,041956.40,3135.5578734,N,12046.6789572,E,4,17,1.3,3.1439,M,8.315,M,01,0004*6A
$GPHPD,0,0.000,58.35,0.58,-14.61,31.5926312,120.7779826,3.144,13630488.852,24925159.360,3.144,0.000,0.000,0.000,0.000,0.000,0.000,0.000,17,17,4*63
$GPGGA,041956.60,3135.5579327,N,12046.6790772,E,4,17,1.3,3.1369,M,8.315,M,00,0004*66
$GPHPD,0,0.000,58.43,0.54,-14.71,31.5926322,120.7779846,3.137,13630488.251,24925160.461,3.137,0.000,0.000,0.000,0.000,0.000,0.000,0.000,17,17,4*6F
$GPGGA,041956.80,3135.5579932,N,12046.6791946,E,4,17,1.3,3.1396,M,8.315,M,00,0004*6E
$GPHPD,0,0.000,58.70,0.87,-14.77,31.5926332,120.7779866,3.140,13630487.627,24925161.525,3.140,0.000,0.000,0.000,0.000,0.000,0.000,0.000,17,17,4*6E
$GPGGA,041957.00,3135.5580544,N,12046.6793150,E,4,17,1.3,3.1454,M,8.315,M,01,0004*69
$GPHPD,0,0.000,58.78,0.71,-14.79,31.5926342,120.7779886,3.145,13630486.999,24925162.620,3.145,0.000,0.000,0.000,0.000,0.000,0.000,0.000,17,17,4*66
$GPGGA,041957.20,3135.5581152,N,12046.6794401,E,4,17,1.3,3.1441,M,8.315,M,01,0004*6B
$GPHPD,0,0.000,58.73,0.31,-14.78,31.5926353,120.7779907,3.144,13630486.387,24925163.775,3.144,0.000,0.000,0.000,0.000,0.000,0.000,0.000,17,17,4*65
$GPGGA,041957.40,3135.5581801,N,12046.6795636,E,4,17,1.3,3.1408,M,8.315,M,01,0004*68
$GPHPD,0,0.000,58.73,0.33,-14.79,31.5926363,120.7779927,3.141,13630485.713,24925164.886,3.141,0.000,0.000,0.000,0.000,0.000,0.000,0.000,17,17,4*69
$GPGGA,041957.60,3135.5582413,N,12046.6796887,E,4,17,1.3,3.1482,M,8.315,M,01,0004*63
$GPHPD,0,0.000,58.84,0.49,-14.76,31.5926374,120.7779948,3.148,13630485.095,24925166.038,3.148,0.000,0.000,0.000,0.000,0.000,0.000,0.000,17,17,4*6A
$GPGGA,041957.80,3135.5583024,N,12046.6798124,E,4,17,1.3,3.1603,M,8.315,M,01,0004*69
$GPHPD,0,0.000,58.78,0.32,-14.63,31.5926384,120.7779969,3.160,13630484.475,24925167.174,3.160,0.000,0.000,0.000,0.000,0.000,0.000,0.000,17,17,4*6E
$GPGGA,041958.00,3135.5583688,N,12046.6799339,E,4,17,1.3,3.1614,M,8.315,M,02,0004*64
$GPHPD,0,0.000,58.86,0.16,-14.58,31.5926395,120.7779989,3.161,13630483.776,24925168.253,3.161,0.000,0.000,0.000,0.000,0.000,0.000,0.000,17,17,4*61
$GPGGA,041958.20,3135.5584267,N,12046.6800587,E,4,17,1.3,3.1507,M,8.315,M,02,0004*69
$GPHPD,0,0.000,58.85,0.16,-14.63,31.5926404,120.7780010,3.151,13630483.204,24925169.421,3.151,0.000,0.000,0.000,0.000,0.000,0.000,0.000,17,17,4*68
$GPGGA,041958.40,3135.5584917,N,12046.6801807,E,4,17,1.3,3.1555,M,8.315,M,02,0004*60
$GPHPD,0,0.000,58.83,0.51,-14.65,31.5926415,120.7780030,3.156,13630482.525,24925170.513,3.156,0.000,0.000,0.000,0.000,0.000,0.000,0.000,17,17,4*64
$GPGGA,041958.60,3135.5585552,N,12046.6803059,E,4,17,1.3,3.1561,M,8.315,M,02,0004*68
$GPHPD,0,0.000,58.82,0.50,-14.67,31.5926426,120.7780051,3.156,13630481.875,24925171.653,3.156,0.000,0.000,0.000,0.000,0.000,0.000,0.000,17,17,4*6C
$GPGGA,041958.80,3135.5586206,N,12046.6804365,E,4,17,1.3,3.1513,M,8.315,M,02,0004*6D
$GPHPD,0,0.000,59.15,0.81,-14.71,31.5926437,120.7780073,3.151,13630481.208,24925172.847,3.151,0.000,0.000,0.000,0.000,0.000,0.000,0.000,17,17,4*60
$GPGGA,041959.00,3135.5586867,N,12046.6805708,E,4,17,1.3,3.1613,M,8.315,M,03,0004*65
$GPHPD,0,0.000,59.24,0.60,-14.77,31.5926448,120.7780095,3.161,13630480.539,24925174.082,3.161,0.000,0.000,0.000,0.000,0.000,0.000,0.000,17,17,4*68
$GPGGA,041959.20,3135.5587544,N,12046.6807067,E,4,17,1.3,3.1608,M,8.315,M,03,0004*6C
$GPHPD,0,0.000,59.21,0.59,-14.80,31.5926459,120.7780118,3.161,13630479.850,24925175.326,3.161,0.000,0.000,0.000,0.000,0.000,0.000,0.000,17,17,4*63
$GPGGA,041959.40,3135.5588242,N,12046.6808475,E,4,17,1.3,3.1680,M,8.315,M,03,0004*6C
$GPHPD,0,0.000,59.11,0.60,-14.85,31.5926471,120.7780141,3.168,13630479.141,24925176.618,3.168,0.000,0.000,0.000,0.000,0.000,0.000,0.000,17,17,4*6B
$GPGGA,041959.60,3135.5588983,N,12046.6809926,E,4,17,1.3,3.1664,M,8.315,M,00,0004*6B
$GPHPD,0,0.000,59.39,0.34,-14.94,31.5926483,120.7780165,3.166,13630478.380,24925177.936,3.166,0.000,0.000,0.000,0.000,0.000,0.000,0.000,17,17,4*67
$GPGGA,041959.80,3135.5589700,N,12046.6811420,E,4,17,1.3,3.1758,M,8.315,M,00,0004*6D
$GPHPD,0,0.000,59.41,0.22,-14.92,31.5926495,120.7780190,3.176,13630477.661,24925179.320,3.176,0.000,0.000,0.000,0.000,0.000,0.000,0.000,17,17,4*62
$GPGGA,042000.00,3135.5590443,N,12046.6812918,E,4,17,1.3,3.1679,M,8.315,M,01,0004*69
$GPHPD,0,0.000,59.54,-0.07,-14.88,31.5926507,120.7780215,3.168,13630476.907,24925180.694,3.168,0.000,0.000,0.000,0.000,0.000,0.000,0.000,17,17,4*41
$GPGGA,042000.20,3135.5591199,N,12046.6814413,E,4,17,1.3,3.1646,M,8.315,M,01,0004*64
$GPHPD,0,0.000,59.23,0.30,-14.88,31.5926520,120.7780240,3.165,13630476.133,24925182.056,3.165,0.000,0.000,0.000,0.000,0.000,0.000,0.000,17,17,4*68
$GPGGA,042000.40,3135.5591941,N,12046.6815880,E,4,17,1.3,3.1664,M,8.315,M,01,0004*68
$GPHPD,0,0.000,59.48,0.24,-14.87,31.5926532,120.7780265,3.166,13630475.373,24925183.393,3.166,0.000,0.000,0.000,0.000,0.000,0.000,0.000,17,17,4*65
$GPGGA,042000.60,3135.5592646,N,12046.6817358,E,4,17,1.3,3.1712,M,8.316,M,00,0004*6F
$GPHPD,0,0.000,59.73,0.43,-14.87,31.5926544,120.7780289,3.171,13630474.669,24925184.765,3.171,0.000,0.000,0.000,0.000,0.000,0.000,0.000,17,17,4*6A
$GPGGA,042000.80,3135.5593344,N,12046.6818802,E,4,17,1.3,3.1770,M,8.316,M,00,0004*68
$GPHPD,0,0.000,59.76,0.51,-14.84,31.5926556,120.7780313,3.177,13630473.967,24925186.100,3.177,0.000,0.000,0.000,0.000,0.000,0.000,0.000,17,17,4*6F
$GPGGA,042001.00,3135.5594072,N,12046.6820320,E,4,17,1.3,3.1725,M,8.316,M,01,0004*61
$GPHPD,0,0.000,59.50,0.29,-14.81,31.5926568,120.7780339,3.173,13630473.238,24925187.506,3.173,0.000,0.000,0.000,0.000,0.000,0.000,0.000,17,17,4*66
$GPGGA,042001.20,3135.5594794,N,12046.6821752,E,4,17,1.3,3.1756,M,8.316,M,01,0004*68
$GPHPD,0,0.000,59.59,0.05,-14.78,31.5926580,120.7780363,3.176,13630472.500,24925188.813,3.176,0.000,0.000,0.000,0.000,0.000,0.000,0.000,17,17,4*65
$GPGGA,042001.40,3135.5595527,N,12046.6823214,E,4,17,1.3,3.1778,M,8.316,M,01,0004*6C
$GPHPD,0,0.000,59.75,0.08,-14.77,31.5926592,120.7780387,3.178,13630471.752,24925190.149,3.178,0.000,0.000,0.000,0.000,0.000,0.000,0.000,17,17,4*69
$GPGGA,042001.60,3135.5596200,N,12046.6824669,E,4,17,1.3,3.1811,M,8.316,M,00,0004*67
$GPHPD,0,0.000,59.75,0.57,-14.80,31.5926603,120.7780411,3.181,13630471.088,24925191.512,3.181,0.000,0.000,0.000,0.000,0.000,0.000,0.000,17,17,4*63
$GPGGA,042001.80,3135.5596952,N,12046.6826217,E,4,17,1.3,3.1763,M,8.316,M,00,0004*60
$GPHPD,0,0.000,59.57,0.25,-14.81,31.5926616,120.7780437,3.176,13630470.331,24925192.940,3.176,0.000,0.000,0.000,0.000,0.000,0.000,0.000,17,17,4*6F
$GPGGA,042002.00,3135.5597694,N,12046.6827702,E,4,17,1.3,3.1738,M,8.316,M,01,0004*60
$GPHPD,0,0.000,59.51,0.30,-14.84,31.5926628,120.7780462,3.174,13630469.575,24925194.299,3.174,0.000,0.000,0.000,0.000,0.000,0.000,0.000,17,17,4*62
$GPGGA,042002.20,3135.5598400,N,12046.6829223,E,4,17,1.3,3.1751,M,8.316,M,01,0004*65
$GPHPD,0,0.000,59.66,0.40,-14.84,31.5926640,120.7780487,3.175,13630468.877,24925195.722,3.175,0.000,0.000,0.000,0.000,0.000,0.000,0.000,17,17,4*6E
$GPGGA,042002.40,3135.5599136,N,12046.6830730,E,4,17,1.3,3.1731,M,8.316,M,01,0004*6B
$GPHPD,0,0.000,59.74,0.66,-14.83,31.5926652,120.7780512,3.173,13630468.134,24925197.111,3.173,0.000,0.000,0.000,0.000,0.000,0.000,0.000,17,17,4*6A
$GPGGA,042002.60,3135.5599885,N,12046.6832267,E,4,17,1.3,3.1795,M,8.316,M,00,0004*62
$GPHPD,0,0.000,59.70,0.43,-14.82,31.5926665,120.7780538,3.180,13630467.379,24925198.528,3.180,0.000,0.000,0.000,0.000,0.000,0.000,0.000,17,17,4*61
$GPGGA,042002.80,3135.5600668,N,12046.6833805,E,4,17,1.3,3.1827,M,8.316,M,00,0004*6B
$GPHPD,0,0.000,59.61,0.11,-14.81,31.5926678,120.7780563,3.183,13630466.576,24925199.927,3.183,0.000,0.000,0.000,0.000,0.000,0.000,0.000,17,17,4*6D
$GPGGA,042003.00,3135.5601425,N,12046.6835391,E,4,17,1.3,3.1777,M,8.316,M,01,0004*63
$GPHPD,0,0.000,59.73,-0.09,-14.81,31.5926690,120.7780590,3.178,13630465.819,24925201.398,3.178,0.000,0.000,0.000,0.000,0.000,0.000,0.000,17,17,4*4B
$GPGGA,042003.20,3135.5602206,N,12046.6836946,E,4,17,1.3,3.1778,M,8.316,M,01,0004*69
$GPHPD,0,0.000,59.60,0.17,-14.81,31.5926703,120.7780616,3.178,13630465.021,24925202.819,3.178,0.000,0.000,0.000,0.000,0.000,0.000,0.000,17,17,4*6F
$GPGGA,042003.40,3135.5603006,N,12046.6838590,E,4,17,1.3,3.1735,M,8.316,M,01,0004*6C
$GPHPD,0,0.000,59.48,0.10,-14.80,31.5926717,120.7780643,3.174,13630464.215,24925204.335,3.174,0.000,0.000,0.000,0.000,0.000,0.000,0.000,17,17,4*61
$GPGGA,042003.60,3135.5603794,N,12046.6840217,E,4,17,1.3,3.1771,M,8.316,M,00,0004*64
$GPHPD,0,0.000,59.61,0.07,-14.78,31.5926730,120.7780670,3.177,13630463.423,24925205.838,3.177,0.000,0.000,0.000,0.000,0.000,0.000,0.000,17,17,4*6D
$GPGGA,042003.80,3135.5604587,N,12046.6841838,E,4,17,1.3,3.1780,M,8.316,M,00,0004*65
$GPHPD,0,0.000,59.28,0.14,-14.76,31.5926743,120.7780697,3.178,13630462.622,24925207.331,3.178,0.000,0.000,0.000,0.000,0.000,0.000,0.000,17,17,4*63
$GPGGA,042004.00,3135.5605413,N,12046.6843476,E,4,17,1.3,3.1795,M,8.316,M,01,0004*66
$GPHPD,0,0.000,59.49,0.17,-14.74,31.5926757,120.7780725,3.180,13630461.777,24925208.826,3.180,0.000,0.000,0.000,0.000,0.000,0.000,0.000,17,17,4*68
$GPGGA,042004.20,3135.5606228,N,12046.6845166,E,4,17,1.3,3.1802,M,8.316,M,01,0004*6A
$GPHPD,0,0.000,59.78,0.13,-14.73,31.5926770,120.7780753,3.180,13630460.959,24925210.389,3.180,0.000,0.000,0.000,0.000,0.000,0.000,0.000,17,17,4*69
$GPGGA,042004.40,3135.5607062,N,12046.6846824,E,4,17,1.3,3.1753,M,8.316,M,01,0004*66
$GPHPD,0,0.000,59.44,0.38,-14.71,31.5926784,120.7780780,3.175,13630460.107,24925211.903,3.175,0.000,0.000,0.000,0.000,0.000,0.000,0.000,17,17,4*62
$GPGGA,042004.60,3135.5607877,N,12046.6848543,E,4,17,1.3,3.1755,M,8.316,M,00,0004*6D
$GPHPD,0,0.000,59.55,0.39,-14.71,31.5926798,120.7780809,3.176,13630459.294,24925213.501,3.176,0.000,0.000,0.000,0.000,0.000,0.000,0.000,17,17,4*6F
$GPGGA,042004.80,3135.5608667,N,12046.6850198,E,4,17,1.3,3.1816,M,8.316,M,00,0004*60
$GPHPD,0,0.000,59.50,0.46,-14.72,31.5926811,120.7780837,3.182,13630458.504,24925215.037,3.182,0.000,0.000,0.000,0.000,0.000,0.000,0.000,17,17,4*6B
$GPGGA,042005.00,3135.5609521,N,12046.6851840,E,4,17,1.3,3.1778,M,8.316,M,01,0004*62
$GPHPD,0,0.000,59.33,0.30,-14.75,31.5926825,120.7780864,3.178,13630457.621,24925216.519,3.178,0.000,0.000,0.000,0.000,0.000,0.000,0.000,17,17,4*68
$GPGGA,042005.20,3135.5610340,N,12046.6853543,E,4,16,1.4,3.1858,M,8.316,M,01,0004*6E
$GPHPD,0,0.000,59.37,0.65,-14.79,31.5926839,120.7780892,3.186,13630456.799,24925218.096,3.186,0.000,0.000,0.000,0.000,0.000,0.000,0.000,16,17,4*6A
$GPGGA,042005.40,3135.5611165,N,12046.6855203,E,4,17,1.4,3.1769,M,8.316,M,01,0004*65
$GPHPD,0,0.000,59.07,-0.01,-14.82,31.5926853,120.7780920,3.177,13630455.961,24925219.617,3.177,0.000,0.000,0.000,0.000,0.000,0.000,0.000,17,17,4*43
$GPGGA,042005.60,3135.5611990,N,12046.6856815,E,4,17,1.4,3.1805,M,8.316,M,00,0004*6F
$GPHPD,0,0.000,58.92,0.09,-14.91,31.5926867,120.7780947,3.181,13630455.113,24925221.081,3.181,0.000,0.000,0.000,0.000,0.000,0.000,0.000,17,17,4*60
$GPGGA,042005.80,3135.5612817,N,12046.6858513,E,4,17,1.4,3.1769,M,8.316,M,00,0004*6C
$GPHPD,0,0.000,58.86,0.21,-14.94,31.5926880,120.7780975,3.177,13630454.279,24925222.647,3.177,0.000,0.000,0.000,0.000,0.000,0.000,0.000,17,17,4*63
$GPGGA,042006.00,3135.5613683,N,12046.6860148,E,4,17,1.4,3.1793,M,8.316,M,01,0004*60
$GPHPD,0,0.000,58.64,0.24,-14.92,31.5926895,120.7781002,3.179,13630453.377,24925224.114,3.179,0.000,0.000,0.000,0.000,0.000,0.000,0.000,17,17,4*6F
$GPGGA,042006.20,3135.5614533,N,12046.6861845,E,4,17,1.4,3.1810,M,8.316,M,01,0004*6C
$GPHPD,0,0.000,58.66,-0.07,-14.85,31.5926909,120.7781031,3.181,13630452.510,24925225.666,3.181,0.000,0.000,0.000,0.000,0.000,0.000,0.000,17,17,4*46
$GPGGA,042006.40,3135.5615363,N,12046.6863544,E,4,17,1.4,3.1767,M,8.316,M,01,0004*69
$GPHPD,0,0.000,58.77,-0.26,-14.85,31.5926923,120.7781059,3.177,13630451.672,24925227.231,3.177,0.000,0.000,0.000,0.000,0.000,0.000,0.000,17,17,4*43
$GPGGA,042006.60,3135.5616245,N,12046.6865256,E,4,17,1.4,3.1811,M,8.316,M,00,0004*60
$GPHPD,0,0.000,58.87,-0.32,-14.77,31.5926937,120.7781088,3.181,13630450.763,24925228.782,3.181,0.000,0.000,0.000,0.000,0.000,0.000,0.000,17,17,4*4F
$GPGGA,042006.80,3135.5617113,N,12046.6866921,E,4,17,1.4,3.1729,M,8.316,M,00,0004*63
$GPHPD,0,0.000,58.84,-0.39,-14.70,31.5926952,120.7781115,3.173,13630449.864,24925230.284,3.173,0.000,0.000,0.000,0.000,0.000,0.000,0.000,17,17,4*4C
$GPGGA,042007.00,3135.5617977,N,12046.6868666,E,4,17,1.4,3.1784,M,8.316,M,01,0004*64
$GPHPD,0,0.000,58.97,0.46,-14.61,31.5926966,120.7781144,3.178,13630448.987,24925231.885,3.178,0.000,0.000,0.000,0.000,0.000,0.000,0.000,17,17,4*6F
$GPGGA,042007.20,3135.5618809,N,12046.6870340,E,4,17,1.3,3.1792,M,8.316,M,01,0004*69
$GPHPD,0,0.000,58.71,-0.49,-14.54,31.5926980,120.7781172,3.179,13630448.141,24925233.419,3.179,0.000,0.000,0.000,0.000,0.000,0.000,0.000,17,17,4*47
$GPGGA,042007.40,3135.5619664,N,12046.6872066,E,4,17,1.3,3.1825,M,8.316,M,01,0004*6D
$GPHPD,0,0.000,58.66,0.31,-14.43,31.5926994,120.7781201,3.183,13630447.274,24925235.003,3.183,0.000,0.000,0.000,0.000,0.000,0.000,0.000,17,17,4*64
$GPGGA,042007.60,3135.5620540,N,12046.6873793,E,4,17,1.3,3.1831,M,8.316,M,00,0004*68
$GPHPD,0,0.000,58.95,0.02,-14.37,31.5927009,120.7781230,3.183,13630446.376,24925236.575,3.183,0.000,0.000,0.000,0.000,0.000,0.000,0.000,17,17,4*60
$GPGGA,042007.80,3135.5621373,N,12046.6875422,E,4,17,1.3,3.1924,M,8.316,M,00,0004*6B
$GPHPD,0,0.000,58.78,-0.01,-14.35,31.5927023,120.7781257,3.192,13630445.520,24925238.055,3.192,0.000,0.000,0.000,0.000,0.000,0.000,0.000,17,17,4*49
$GPGGA,042008.00,3135.5622234,N,12046.6877104,E,4,17,1.3,3.1777,M,8.316,M,01,0004*67
$GPHPD,0,0.000,58.68,0.07,-14.43,31.5927037,120.7781285,3.178,13630444.634,24925239.582,3.178,0.000,0.000,0.000,0.000,0.000,0.000,0.000,17,17,4*61
$GPGGA,042008.20,3135.5623082,N,12046.6878840,E,4,17,1.3,3.1857,M,8.316,M,01,0004*60
$GPHPD,0,0.000,59.05,-0.38,-14.45,31.5927051,120.7781314,3.186,13630443.778,24925241.181,3.186,0.000,0.000,0.000,0.000,0.000,0.000,0.000,17,17,4*43
$GPGGA,042008.40,3135.5623940,N,12046.6880559,E,4,17,1.3,3.1745,M,8.316,M,01,0004*6F
$GPHPD,0,0.000,59.13,-1.19,-14.45,31.5927066,120.7781343,3.175,13630442.905,24925242.754,3.175,0.000,0.000,0.000,0.000,0.000,0.000,0.000,17,17,4*48
$GPGGA,042008.60,3135.5624841,N,12046.6882324,E,4,17,1.3,3.1780,M,8.316,M,00,0004*6C
$GPHPD,0,0.000,59.27,-0.09,-14.43,31.5927081,120.7781372,3.178,13630441.979,24925244.358,3.178,0.000,0.000,0.000,0.000,0.000,0.000,0.000,17,17,4*44
$GPGGA,042008.80,3135.5625720,N,12046.6884068,E,4,17,1.3,3.1902,M,8.316,M,00,0004*62
$GPHPD,0,0.000,59.41,0.22,-14.40,31.5927095,120.7781401,3.190,13630441.081,24925245.949,3.190,0.000,0.000,0.000,0.000,0.000,0.000,0.000,17,17,4*60
$GPGGA,042009.00,3135.5626567,N,12046.6885749,E,4,17,1.3,3.1692,M,8.316,M,01,0004*6B
$GPHPD,0,0.000,58.79,-0.81,-14.40,31.5927109,120.7781429,3.169,13630440.215,24925247.483,3.169,0.000,0.000,0.000,0.000,0.000,0.000,0.000,17,17,4*47
$GPGGA,042009.20,3135.5627380,N,12046.6887452,E,4,17,1.3,3.1472,M,8.316,M,01,0004*60
$GPHPD,0,0.000,58.69,-0.27,-14.40,31.5927123,120.7781458,3.147,13630439.402,24925249.063,3.147,0.000,0.000,0.000,0.000,0.000,0.000,0.000,17,17,4*4E
$GPGGA,042009.40,3135.5628300,N,12046.6889205,E,4,17,1.3,3.1647,M,8.316,M,01,0004*6F
$GPHPD,0,0.000,58.57,0.34,-14.38,31.5927138,120.7781487,3.165,13630438.447,24925250.642,3.165,0.000,0.000,0.000,0.000,0.000,0.000,0.000,17,17,4*66
$GPGGA,042009.60,3135.5629185,N,12046.6890923,E,4,17,1.3,3.1630,M,8.316,M,00,0004*65
$GPHPD,0,0.000,58.72,0.14,-14.39,31.5927153,120.7781515,3.163,13630437.535,24925252.198,3.163,0.000,0.000,0.000,0.000,0.000,0.000,0.000,17,17,4*6C
$GPGGA,042009.80,3135.5630072,N,12046.6892607,E,4,17,1.3,3.1614,M,8.316,M,00,0004*67
$GPHPD,0,0.000,59.17,0.01,-14.39,31.5927168,120.7781543,3.161,13630436.613,24925253.712,3.161,0.000,0.000,0.000,0.000,0.000,0.000,0.000,17,17,4*62
$GPGGA,042010.00,3135.5630885,N,12046.6894358,E,4,17,1.3,3.1620,M,8.316,M,01,0004*68
$GPHPD,0,0.000,59.12,-0.03,-14.41,31.5927181,120.7781573,3.162,13630435.810,24925255.350,3.162,0.000,0.000,0.000,0.000,0.000,0.000,0.000,17,17,4*49
$GPGGA,042010.20,3135.5631692,N,12046.6896100,E,4,17,1.3,3.1477,M,8.316,M,01,0004*6E
$GPHPD,0,0.000,58.92,-0.46,-14.44,31.5927195,120.7781602,3.148,13630435.013,24925256.981,3.148,0.000,0.000,0.000,0.000,0.000,0.000,0.000,17,17,4*4A
$GPGGA,042010.40,3135.5632559,N,12046.6897851,E,4,17,1.3,3.1669,M,8.316,M,01,0004*6E
$GPHPD,0,0.000,58.98,-0.40,-14.47,31.5927209,120.7781631,3.167,13630434.133,24925258.587,3.167,0.000,0.000,0.000,0.000,0.000,0.000,0.000,17,17,4*45
$GPGGA,042010.60,3135.5633418,N,12046.6899493,E,4,17,1.3,3.1495,M,8.316,M,00,0004*65
$GPHPD,0,0.000,59.01,-0.99,-14.47,31.5927224,120.7781658,3.150,13630433.242,24925260.067,3.150,0.000,0.000,0.000,0.000,0.000,0.000,0.000,17,17,4*42
$GPGGA,042010.80,3135.5634364,N,12046.6901258,E,4,17,1.3,3.1582,M,8.316,M,00,0004*66
$GPHPD,0,0.000,58.78,-0.53,-14.49,31.5927239,120.7781688,3.158,13630432.253,24925261.645,3.158,0.000,0.000,0.000,0.000,0.000,0.000,0.000,17,17,4*42
$GPGGA,042011.00,3135.5635171,N,12046.6902975,E,4,17,1.3,3.1564,M,8.316,M,01,0004*66
$GPHPD,0,0.000,59.21,-0.69,-14.50,31.5927253,120.7781716,3.156,13630431.451,24925263.245,3.156,0.000,0.000,0.000,0.000,0.000,0.000,0.000,17,17,4*45
$GPGGA,042011.20,3135.5636014,N,12046.6904710,E,4,17,1.3,3.1338,M,8.316,M,01,0004*61
$GPHPD,0,0.000,59.18,-0.57,-14.49,31.5927267,120.7781745,3.134,13630430.602,24925264.847,3.134,0.000,0.000,0.000,0.000,0.000,0.000,0.000,17,17,4*41
$GPGGA,042011.40,3135.5636825,N,12046.6906389,E,4,17,1.3,3.1382,M,8.316,M,01,0004*6A
$GPHPD,0,0.000,58.94,-0.08,-14.43,31.5927280,120.7781773,3.138,13630429.787,24925266.399,3.138,0.000,0.000,0.000,0.000,0.000,0.000,0.000,17,17,4*46
$GPGGA,042011.60,3135.5637719,N,12046.6908108,E,4,17,1.3,3.1337,M,8.316,M,00,0004*63
$GPHPD,0,0.000,58.79,-0.48,-14.41,31.5927295,120.7781802,3.134,13630428.862,24925267.951,3.134,0.000,0.000,0.000,0.000,0.000,0.000,0.000,17,17,4*44
$GPGGA,042011.80,3135.5638597,N,12046.6909862,E,4,17,1.3,3.1332,M,8.316,M,00,0004*67
$GPHPD,0,0.000,59.04,-0.05,-14.38,31.5927310,120.7781831,3.133,13630427.967,24925269.555,3.133,0.000,0.000,0.000,0.000,0.000,0.000,0.000,17,17,4*49
$GPGGA,042012.00,3135.5639472,N,12046.6911587,E,4,17,1.3,3.1354,M,8.316,M,01,0004*69
$GPHPD,0,0.000,59.26,-0.54,-14.35,31.5927325,120.7781860,3.135,13630427.071,24925271.126,3.135,0.000,0.000,0.000,0.000,0.000,0.000,0.000,17,17,4*45
$GPGGA,042012.20,3135.5640312,N,12046.6913282,E,4,17,1.3,3.1305,M,8.316,M,01,0004*60
$GPHPD,0,0.000,59.41,-0.35,-14.32,31.5927339,120.7781888,3.131,13630426.218,24925272.680,3.131,0.000,0.000,0.000,0.000,0.000,0.000,0.000,17,17,4*4B
$GPGGA,042012.40,3135.5641158,N,12046.6915022,E,4,17,1.3,3.1284,M,8.316,M,01,0004*6D
$GPHPD,0,0.000,59.24,-0.67,-14.27,31.5927353,120.7781917,3.128,13630425.365,24925274.286,3.128,0.000,0.000,0.000,0.000,0.000,0.000,0.000,17,17,4*4C
$GPGGA,042012.60,3135.5641996,N,12046.6916764,E,4,17,1.3,3.1219,M,8.316,M,00,0004*66
$GPHPD,0,0.000,58.93,-0.33,-14.24,31.5927367,120.7781946,3.122,13630424.525,24925275.899,3.122,0.000,0.000,0.000,0.000,0.000,0.000,0.000,17,17,4*46
$GPGGA,042012.80,3135.5642868,N,12046.6918455,E,4,17,1.3,3.1191,M,8.316,M,00,0004*67
$GPHPD,0,0.000,59.05,-0.25,-14.21,31.5927381,120.7781974,3.119,13630423.626,24925277.430,3.119,0.000,0.000,0.000,0.000,0.000,0.000,0.000,17,17,4*49
$GPGGA,042013.00,3135.5643746,N,12046.6920183,E,4,17,1.3,3.1295,M,8.316,M,01,0004*6F
$GPHPD,0,0.000,58.97,0.17,-14.18,31.5927396,120.7782003,3.130,13630422.725,24925279.003,3.130,0.000,0.000,0.000,0.000,0.000,0.000,0.000,17,17,4*60
$GPGGA,042013.20,3135.5644614,N,12046.6921912,E,4,17,1.3,3.1180,M,8.316,M,01,0004*6A
$GPHPD,0,0.000,59.07,-0.09,-14.18,31.5927410,120.7782032,3.118,13630421.839,24925280.582,3.118,0.000,0.000,0.000,0.000,0.000,0.000,0.000,17,17,4*4A
$GPGGA,042013.40,3135.5645490,N,12046.6923673,E,4,17,1.3,3.1237,M,8.316,M,01,0004*66
$GPHPD,0,0.000,59.02,-0.15,-14.18,31.5927425,120.7782061,3.124,13630420.949,24925282.195,3.124,0.000,0.000,0.000,0.000,0.000,0.000,0.000,17,17,4*45
$GPGGA,042013.60,3135.5646348,N,12046.6925443,E,4,17,1.3,3.1205,M,8.316,M,00,0004*62
$GPHPD,0,0.000,59.16,-0.43,-14.17,31.5927439,120.7782091,3.121,13630420.085,24925283.830,3.121,0.000,0.000,0.000,0.000,0.000,0.000,0.000,17,17,4*40
$GPGGA,042013.80,3135.5647198,N,12046.6927167,E,4,17,1.3,3.1130,M,8.316,M,00,0004*66
$GPHPD,0,0.000,59.11,-0.57,-14.18,31.5927453,120.7782119,3.113,13630419.224,24925285.414,3.113,0.000,0.000,0.000,0.000,0.000,0.000,0.000,17,17,4*4F
$GPGGA,042014.00,3135.5648127,N,12046.6928947,E,4,17,1.3,3.1075,M,8.316,M,01,0004*66
$GPHPD,0,0.000,59.07,-0.65,-14.18,31.5927469,120.7782149,3.108,13630418.262,24925287.020,3.108,0.000,0.000,0.000,0.000,0.000,0.000,0.000,17,17,4*47
$GPGGA,042014.20,3135.5648958,N,12046.6930706,E,4,17,1.3,3.1086,M,8.316,M,01,0004*6A
$GPHPD,0,0.000,59.22,-0.47,-14.22,31.5927483,120.7782178,3.109,13630417.434,24925288.657,3.109,0.000,0.000,0.000,0.000,0.000,0.000,0.000,17,17,4*4C
$GPGGA,042014.40,3135.5649839,N,12046.6932477,E,4,17,1.3,3.1058,M,8.316,M,01,0004*6F
$GPHPD,0,0.000,59.15,-0.57,-14.24,31.5927497,120.7782208,3.106,13630416.538,24925290.279,3.106,0.000,0.000,0.000,0.000,0.000,0.000,0.000,17,17,4*43
$GPGGA,042014.60,3135.5650744,N,12046.6934294,E,4,17,1.3,3.0989,M,8.316,M,01,0004*69
$GPHPD,0,0.000,59.20,-0.84,-14.25,31.5927512,120.7782238,3.099,13630415.618,24925291.944,3.099,0.000,0.000,0.000,0.000,0.000,0.000,0.000,17,17,4*43
$GPGGA,042014.80,3135.5651650,N,12046.6936074,E,4,17,1.3,3.0920,M,8.316,M,01,0004*6F
$GPHPD,0,0.000,59.14,-0.62,-14.28,31.5927528,120.7782268,3.092,13630414.688,24925293.562,3.092,0.000,0.000,0.000,0.000,0.000,0.000,0.000,17,17,4*4F
$GPGGA,042015.00,3135.5652505,N,12046.6937838,E,4,17,1.3,3.0818,M,8.316,M,02,0004*6E
$GPHPD,0,0.000,59.24,-0.36,-14.31,31.5927542,120.7782297,3.082,13630413.828,24925295.192,3.082,0.000,0.000,0.000,0.000,0.000,0.000,0.000,17,17,4*47
$GPGGA,042015.20,3135.5653419,N,12046.6939639,E,4,17,1.3,3.0861,M,8.316,M,02,0004*6E
$GPHPD,0,0.000,59.06,-0.07,-14.33,31.5927557,120.7782327,3.086,13630412.891,24925296.831,3.086,0.000,0.000,0.000,0.000,0.000,0.000,0.000,17,17,4*49
$GPGGA,042015.40,3135.5654298,N,12046.6941434,E,4,17,1.4,3.0799,M,8.316,M,02,0004*6F
$GPHPD,0,0.000,59.00,-0.41,-14.35,31.5927572,120.7782357,3.080,13630412.003,24925298.484,3.080,0.000,0.000,0.000,0.000,0.000,0.000,0.000,17,17,4*44
$GPGGA,042015.60,3135.5655194,N,12046.6943236,E,4,17,1.4,3.0756,M,8.316,M,02,0004*66
$GPHPD,0,0.000,58.94,-0.26,-14.37,31.5927587,120.7782387,3.076,13630411.092,24925300.135,3.076,0.000,0.000,0.000,0.000,0.000,0.000,0.000,17,17,4*48
$GPGGA,042015.80,3135.5656108,N,12046.6945040,E,4,17,1.3,3.0850,M,8.316,M,00,0004*67
$GPHPD,0,0.000,59.37,-0.67,-14.38,31.5927602,120.7782417,3.085,13630410.156,24925301.778,3.085,0.000,0.000,0.000,0.000,0.000,0.000,0.000,17,17,4*4C
$GPGGA,042016.00,3135.5657025,N,12046.6946846,E,4,17,1.3,3.0784,M,8.316,M,01,0004*69
$GPHPD,0,0.000,58.99,-0.16,-14.37,31.5927617,120.7782447,3.078,13630409.215,24925303.422,3.078,0.000,0.000,0.000,0.000,0.000,0.000,0.000,17,17,4*43
$GPGGA,042016.20,3135.5657909,N,12046.6948650,E,4,17,1.3,3.0748,M,8.316,M,01,0004*6B
$GPHPD,0,0.000,58.83,0.06,-14.37,31.5927632,120.7782478,3.075,13630408.322,24925305.083,3.075,0.000,0.000,0.000,0.000,0.000,0.000,0.000,17,17,4*62
$GPGGA,042016.40,3135.5658827,N,12046.6950456,E,4,17,1.3,3.0696,M,8.316,M,01,0004*60
$GPHPD,0,0.000,58.53,-0.10,-14.39,31.5927647,120.7782508,3.070,13630407.380,24925306.726,3.070,0.000,0.000,0.000,0.000,0.000,0.000,0.000,17,17,4*43
$GPGGA,042016.60,3135.5659724,N,12046.6952226,E,4,17,1.3,3.0724,M,8.316,M,00,0004*65
$GPHPD,0,0.000,58.73,-0.10,-14.42,31.5927662,120.7782537,3.072,13630406.462,24925308.338,3.072,0.000,0.000,0.000,0.000,0.000,0.000,0.000,17,17,4*49
$GPGGA,042016.80,3135.5660652,N,12046.6954032,E,4,17,1.3,3.0664,M,8.316,M,00,0004*65
$GPHPD,0,0.000,58.78,-0.29,-14.44,31.5927678,120.7782567,3.066,13630405.506,24925309.975,3.066,0.000,0.000,0.000,0.000,0.000,0.000,0.000,17,17,4*42
$GPGGA,042017.00,3135.5661579,N,12046.6955820,E,4,17,1.3,3.0661,M,8.316,M,01,0004*69
$GPHPD,0,0.000,58.79,-0.36,-14.42,31.5927693,120.7782597,3.066,13630404.548,24925311.592,3.066,0.000,0.000,0.000,0.000,0.000,0.000,0.000,17,17,4*46
$GPGGA,042017.20,3135.5662467,N,12046.6957645,E,4,17,1.3,3.0626,M,8.316,M,01,0004*6A
$GPHPD,0,0.000,58.78,-0.73,-14.41,31.5927708,120.7782627,3.063,13630403.653,24925313.275,3.063,0.000,0.000,0.000,0.000,0.000,0.000,0.000,17,17,4*4C
$GPGGA,042017.40,3135.5663388,N,12046.6959446,E,4,17,1.3,3.0559,M,8.316,M,01,0004*6F
$GPHPD,0,0.000,58.52,-0.60,-14.40,31.5927723,120.7782657,3.056,13630402.706,24925314.911,3.056,0.000,0.000,0.000,0.000,0.000,0.000,0.000,17,17,4*47
$GPGGA,042017.60,3135.5664328,N,12046.6961267,E,4,17,1.3,3.0547,M,8.316,M,00,0004*60
$GPHPD,0,0.000,58.44,-0.40,-14.39,31.5927739,120.7782688,3.055,13630401.737,24925316.559,3.055,0.000,0.000,0.000,0.000,0.000,0.000,0.000,17,17,4*46
$GPGGA,042017.80,3135.5665227,N,12046.6963054,E,4,17,1.3,3.0578,M,8.316,M,00,0004*6D
$GPHPD,0,0.000,58.35,-0.43,-14.37,31.5927754,120.7782718,3.058,13630400.818,24925318.191,3.058,0.000,0.000,0.000,0.000,0.000,0.000,0.000,17,17,4*43
$GPGGA,042018.00,3135.5666168,N,12046.6964873,E,4,17,1.3,3.0510,M,8.316,M,01,0004*64
$GPHPD,0,0.000,58.26,-0.28,-14.33,31.5927769,120.7782748,3.051,13630399.847,24925319.836,3.051,0.000,0.000,0.000,0.000,0.000,0.000,0.000,17,17,4*4B
$GPGGA,042018.20,3135.5667099,N,12046.6966678,E,4,17,1.3,3.0500,M,8.316,M,01,0004*6E
$GPHPD,0,0.000,58.23,-0.14,-14.31,31.5927785,120.7782778,3.050,13630398.887,24925321.471,3.050,0.000,0.000,0.000,0.000,0.000,0.000,0.000,17,17,4*4B
$GPGGA,042018.40,3135.5668005,N,12046.6968494,E,4,17,1.3,3.0510,M,8.316,M,01,0004*6D
$GPHPD,0,0.000,58.19,-0.43,-14.30,31.5927800,120.7782808,3.051,13630397.964,24925323.133,3.051,0.000,0.000,0.000,0.000,0.000,0.000,0.000,17,17,4*49
$GPGGA,042018.60,3135.5668978,N,12046.6970300,E,4,17,1.3,3.0400,M,8.316,M,00,0004*6E
$GPHPD,0,0.000,58.21,-0.36,-14.28,31.5927816,120.7782838,3.040,13630396.945,24925324.744,3.040,0.000,0.000,0.000,0.000,0.000,0.000,0.000,17,17,4*4E
$GPGGA,042018.80,3135.5669905,N,12046.6972106,E,4,17,1.3,3.0490,M,8.316,M,00,0004*64
$GPHPD,0,0.000,58.49,-0.38,-14.31,31.5927832,120.7782868,3.049,13630395.990,24925326.382,3.049,0.000,0.000,0.000,0.000,0.000,0.000,0.000,17,17,4*42
$GPGGA,042019.00,3135.5670840,N,12046.6973907,E,4,17,1.3,3.0359,M,8.316,M,01,0004*6E
$GPHPD,0,0.000,58.28,-0.81,-14.32,31.5927847,120.7782898,3.036,13630395.024,24925328.009,3.036,0.000,0.000,0.000,0.000,0.000,0.000,0.000,17,17,4*41
$GPGGA,042019.20,3135.5671782,N,12046.6975748,E,4,17,1.3,3.0363,M,8.316,M,01,0004*66
$GPHPD,0,0.000,58.12,-0.40,-14.33,31.5927863,120.7782929,3.036,13630394.055,24925329.681,3.036,0.000,0.000,0.000,0.000,0.000,0.000,0.000,17,17,4*49
$GPGGA,042019.40,3135.5672713,N,12046.6977538,E,4,17,1.3,3.0394,M,8.316,M,01,0004*64
$GPHPD,0,0.000,58.09,-0.47,-14.35,31.5927879,120.7782959,3.039,13630393.092,24925331.297,3.039,0.000,0.000,0.000,0.000,0.000,0.000,0.000,17,17,4*48
$GPGGA,042019.60,3135.5673628,N,12046.6979339,E,4,17,1.4,3.0308,M,8.316,M,00,0004*64
$GPHPD,0,0.000,57.98,-0.42,-14.38,31.5927894,120.7782989,3.031,13630392.154,24925332.936,3.031,0.000,0.000,0.000,0.000,0.000,0.000,0.000,17,17,4*40
$GPGGA,042019.80,3135.5674560,N,12046.6981118,E,4,17,1.3,3.0225,M,8.316,M,00,0004*6D
$GPHPD,0,0.000,57.71,-0.20,-14.40,31.5927909,120.7783019,3.023,13630391.187,24925334.539,3.023,0.000,0.000,0.000,0.000,0.000,0.000,0.000,17,17,4*40
$GPGGA,042020.00,3135.5675534,N,12046.6982907,E,4,17,1.3,3.0235,M,8.316,M,01,0004*6A
$GPHPD,0,0.000,57.96,-0.10,-14.43,31.5927926,120.7783048,3.024,13630390.163,24925336.129,3.024,0.000,0.000,0.000,0.000,0.000,0.000,0.000,17,17,4*4C
$GPGGA,042020.20,3135.5676477,N,12046.6984714,E,4,17,1.3,3.0334,M,8.316,M,01,0004*67
$GPHPD,0,0.000,58.00,0.05,-14.43,31.5927941,120.7783079,3.033,13630389.186,24925337.759,3.033,0.000,0.000,0.000,0.000,0.000,0.000,0.000,17,17,4*65
$GPGGA,042020.40,3135.5677410,N,12046.6986522,E,4,17,1.3,3.0265,M,8.317,M,01,0004*60
$GPHPD,0,0.000,57.73,-0.68,-14.45,31.5927957,120.7783109,3.027,13630388.224,24925339.396,3.027,0.000,0.000,0.000,0.000,0.000,0.000,0.000,17,17,4*4C
$GPGGA,042020.60,3135.5678383,N,12046.6988306,E,4,17,1.3,3.0233,M,8.317,M,00,0004*6C
$GPHPD,0,0.000,57.52,-0.21,-14.46,31.5927973,120.7783138,3.023,13630387.199,24925340.980,3.023,0.000,0.000,0.000,0.000,0.000,0.000,0.000,17,17,4*4C
$GPGGA,042020.80,3135.5679353,N,12046.6990093,E,4,17,1.3,3.0160,M,8.317,M,00,0004*6D
$GPHPD,0,0.000,57.24,-0.13,-14.47,31.5927989,120.7783168,3.016,13630386.180,24925342.570,3.016,0.000,0.000,0.000,0.000,0.000,0.000,0.000,17,17,4*45
$GPGGA,042021.00,3135.5680319,N,12046.6991878,E,4,17,1.3,3.0212,M,8.317,M,01,0004*67
$GPHPD,0,0.000,57.05,-0.19,-14.47,31.5928005,120.7783198,3.021,13630385.166,24925344.160,3.021,0.000,0.000,0.000,0.000,0.000,0.000,0.000,17,17,4*49
$GPGGA,042021.20,3135.5681329,N,12046.6993662,E,4,17,1.3,3.0159,M,8.317,M,01,0004*6C
$GPHPD,0,0.000,56.81,-0.51,-14.48,31.5928022,120.7783228,3.016,13630384.090,24925345.723,3.016,0.000,0.000,0.000,0.000,0.000,0.000,0.000,17,17,4*43
$GPGGA,042021.40,3135.5682277,N,12046.6995421,E,4,17,1.3,3.0143,M,8.317,M,01,0004*6B
$GPHPD,0,0.000,56.79,-0.09,-14.47,31.5928038,120.7783257,3.014,13630383.096,24925347.293,3.014,0.000,0.000,0.000,0.000,0.000,0.000,0.000,17,17,4*48
$GPGGA,042021.60,3135.5683255,N,12046.6997164,E,4,17,1.3,3.0251,M,8.317,M,00,0004*6F
$GPHPD,0,0.000,56.59,-0.12,-14.47,31.5928054,120.7783286,3.025,13630382.057,24925348.825,3.025,0.000,0.000,0.000,0.000,0.000,0.000,0.000,17,17,4*42
$GPGGA,042021.80,3135.5684204,N,12046.6998925,E,4,17,1.4,3.0096,M,8.317,M,00,0004*6E
$GPHPD,0,0.000,56.50,-0.51,-14.45,31.5928070,120.7783315,3.010,13630381.062,24925350.396,3.010,0.000,0.000,0.000,0.000,0.000,0.000,0.000,17,17,4*4C
$GPGGA,042022.00,3135.5685214,N,12046.7000645,E,4,16,1.4,2.9994,M,8.317,M,01,0004*66
$GPHPD,0,0.000,55.97,-0.42,-14.46,31.5928087,120.7783344,2.999,13630379.973,24925351.882,2.999,0.000,0.000,0.000,0.000,0.000,0.000,0.000,16,17,4*49
$GPGGA,042022.20,3135.5686186,N,12046.7002398,E,4,17,1.4,3.0004,M,8.317,M,01,0004*61
$GPHPD,0,0.000,55.85,0.09,-14.44,31.5928103,120.7783373,3.000,13630378.944,24925353.430,3.000,0.000,0.000,0.000,0.000,0.000,0.000,0.000,17,17,4*60
$GPGGA,042022.40,3135.5687191,N,12046.7004111,E,4,16,1.4,2.9992,M,8.317,M,01,0004*6A
$GPHPD,0,0.000,55.52,0.04,-14.44,31.5928120,120.7783402,2.999,13630377.860,24925354.910,2.999,0.000,0.000,0.000,0.000,0.000,0.000,0.000,16,16,4*67
$GPGGA,042022.60,3135.5688167,N,12046.7005824,E,4,16,1.4,3.0041,M,8.317,M,00,0004*6E
$GPHPD,0,0.000,55.41,0.21,-14.44,31.5928136,120.7783430,3.004,13630376.817,24925356.407,3.004,0.000,0.000,0.000,0.000,0.000,0.000,0.000,16,16,4*6C
$GPGGA,042022.80,3135.5689149,N,12046.7007534,E,4,16,1.4,2.9935,M,8.317,M,00,0004*61
$GPHPD,0,0.000,54.78,-0.01,-14.45,31.5928152,120.7783459,2.994,13630375.766,24925357.898,2.994,0.000,0.000,0.000,0.000,0.000,0.000,0.000,16,16,4*45
$GPGGA,042023.00,3135.5690189,N,12046.7009223,E,4,16,1.4,3.0056,M,8.317,M,01,0004*66
$GPHPD,0,0.000,54.54,0.53,-14.43,31.5928170,120.7783487,3.006,13630374.627,24925359.329,3.006,0.000,0.000,0.000,0.000,0.000,0.000,0.000,16,16,4*6E
$GPGGA,042023.20,3135.5691207,N,12046.7010963,E,4,16,1.4,3.0011,M,8.317,M,01,0004*64
$GPHPD,0,0.000,54.40,-0.25,-14.43,31.5928187,120.7783516,3.001,13630373.530,24925360.834,3.001,0.000,0.000,0.000,0.000,0.000,0.000,0.000,16,16,4*49
$GPGGA,042023.40,3135.5692222,N,12046.7012570,E,4,17,1.4,3.0000,M,8.317,M,01,0004*6B
$GPHPD,0,0.000,54.29,-0.09,-14.42,31.5928204,120.7783543,3.000,13630372.411,24925362.181,3.000,0.000,0.000,0.000,0.000,0.000,0.000,0.000,17,17,4*47
$GPGGA,042023.60,3135.5693275,N,12046.7014248,E,4,17,1.3,3.0066,M,8.317,M,00,0004*66
$GPHPD,0,0.000,54.01,-0.24,-14.42,31.5928221,120.7783571,3.007,13630371.252,24925363.591,3.007,0.000,0.000,0.000,0.000,0.000,0.000,0.000,17,17,4*42
$GPGGA,042023.80,3135.5694291,N,12046.7015942,E,4,17,1.3,3.0043,M,8.317,M,00,0004*62
$GPHPD,0,0.000,53.97,-0.76,-14.39,31.5928238,120.7783599,3.004,13630370.149,24925365.042,3.004,0.000,0.000,0.000,0.000,0.000,0.000,0.000,17,17,4*4A
$GPGGA,042024.00,3135.5695305,N,12046.7017614,E,4,17,1.3,3.0060,M,8.317,M,01,0004*6E
$GPHPD,0,0.000,53.68,-0.54,-14.36,31.5928255,120.7783627,3.006,13630369.044,24925366.468,3.006,0.000,0.000,0.000,0.000,0.000,0.000,0.000,17,17,4*43
$GPGGA,042024.20,3135.5696387,N,12046.7019254,E,4,17,1.3,2.9936,M,8.317,M,01,0004*69
$GPHPD,0,0.000,53.21,-0.54,-14.37,31.5928273,120.7783654,2.994,13630367.836,24925367.816,2.994,0.000,0.000,0.000,0.000,0.000,0.000,0.000,17,17,4*48
$GPGGA,042024.40,3135.5697401,N,12046.7020906,E,4,17,1.3,2.9910,M,8.317,M,01,0004*65
$GPHPD,0,0.000,53.17,-0.45,-14.36,31.5928290,120.7783682,2.991,13630366.727,24925369.217,2.991,0.000,0.000,0.000,0.000,0.000,0.000,0.000,17,17,4*41
$GPGGA,042024.60,3135.5698450,N,12046.7022536,E,4,17,1.3,2.9948,M,8.317,M,00,0004*6D
$GPHPD,0,0.000,52.70,-0.10,-14.36,31.5928308,120.7783709,2.995,13630365.564,24925370.572,2.995,0.000,0.000,0.000,0.000,0.000,0.000,0.000,17,17,4*49
$GPGGA,042024.80,3135.5699528,N,12046.7024167,E,4,17,1.3,2.9888,M,8.317,M,00,0004*67
$GPHPD,0,0.000,52.35,-0.18,-14.38,31.5928325,120.7783736,2.989,13630364.360,24925371.911,2.989,0.000,0.000,0.000,0.000,0.000,0.000,0.000,17,17,4*46
$GPGGA,042025.00,3135.5700562,N,12046.7025772,E,4,17,1.3,2.9938,M,8.317,M,01,0004*69
$GPHPD,0,0.000,52.28,-0.24,-14.37,31.5928343,120.7783763,2.994,13630363.213,24925373.244,2.994,0.000,0.000,0.000,0.000,0.000,0.000,0.000,17,17,4*41
$GPGGA,042025.20,3135.5701653,N,12046.7027385,E,4,17,1.4,2.9869,M,8.317,M,01,0004*67
$GPHPD,0,0.000,51.81,-0.20,-14.38,31.5928361,120.7783790,2.987,13630361.987,24925374.554,2.987,0.000,0.000,0.000,0.000,0.000,0.000,0.000,17,17,4*43
$GPGGA,042025.40,3135.5702693,N,12046.7028937,E,4,17,1.4,2.9852,M,8.317,M,01,0004*6A
$GPHPD,0,0.000,51.59,-0.08,-14.39,31.5928378,120.7783816,2.985,13630360.821,24925375.820,2.985,0.000,0.000,0.000,0.000,0.000,0.000,0.000,17,17,4*47
$GPGGA,042025.60,3135.5703800,N,12046.7030540,E,4,17,1.4,2.9859,M,8.317,M,00,0004*62
$GPHPD,0,0.000,51.39,-0.34,-14.39,31.5928397,120.7783842,2.986,13630359.570,24925377.108,2.986,0.000,0.000,0.000,0.000,0.000,0.000,0.000,17,17,4*4C
$GPGGA,042025.80,3135.5704858,N,12046.7032110,E,4,17,1.4,2.9781,M,8.317,M,00,0004*6F
$GPHPD,0,0.000,51.03,-0.05,-14.40,31.5928414,120.7783869,2.978,13630358.382,24925378.385,2.978,0.000,0.000,0.000,0.000,0.000,0.000,0.000,17,17,4*4E
$GPGGA,042026.00,3135.5705974,N,12046.7033655,E,4,17,1.4,2.9794,M,8.317,M,01,0004*68
$GPHPD,0,0.000,50.57,0.26,-14.37,31.5928433,120.7783894,2.979,13630357.106,24925379.599,2.979,0.000,0.000,0.000,0.000,0.000,0.000,0.000,17,17,4*6E
$GPGGA,042026.20,3135.5707047,N,12046.7035229,E,4,17,1.4,2.9876,M,8.317,M,01,0004*6B
$GPHPD,0,0.000,50.35,0.27,-14.36,31.5928451,120.7783920,2.988,13630355.898,24925380.872,2.988,0.000,0.000,0.000,0.000,0.000,0.000,0.000,17,17,4*62
$GPGGA,042026.40,3135.5708171,N,12046.7036778,E,4,17,1.4,2.9869,M,8.317,M,01,0004*6A
$GPHPD,0,0.000,49.97,0.10,-14.32,31.5928470,120.7783946,2.987,13630354.612,24925382.085,2.987,0.000,0.000,0.000,0.000,0.000,0.000,0.000,17,17,4*6E
$GPGGA,042026.60,3135.5709251,N,12046.7038358,E,4,17,1.4,2.9808,M,8.317,M,00,0004*66
$GPHPD,0,0.000,49.74,0.00,-14.28,31.5928488,120.7783973,2.981,13630353.395,24925383.362,2.981,0.000,0.000,0.000,0.000,0.000,0.000,0.000,17,17,4*6E
$GPGGA,042026.80,3135.5710364,N,12046.7039907,E,4,17,1.4,2.9759,M,8.317,M,00,0004*6D
$GPHPD,0,0.000,49.53,-0.02,-14.24,31.5928506,120.7783998,2.976,13630352.124,24925384.581,2.976,0.000,0.000,0.000,0.000,0.000,0.000,0.000,17,17,4*4F
$GPGGA,042027.00,3135.5711465,N,12046.7041437,E,4,17,1.4,2.9754,M,8.317,M,01,0004*6E
$GPHPD,0,0.000,49.58,-0.33,-14.23,31.5928524,120.7784024,2.975,13630350.867,24925385.785,2.975,0.000,0.000,0.000,0.000,0.000,0.000,0.000,17,17,4*43
$GPGGA,042027.20,3135.5712570,N,12046.7042952,E,4,17,1.3,2.9825,M,8.317,M,01,0004*69
$GPHPD,0,0.000,49.58,-0.36,-14.22,31.5928543,120.7784049,2.983,13630349.602,24925386.969,2.983,0.000,0.000,0.000,0.000,0.000,0.000,0.000,17,17,4*47
$GPGGA,042027.40,3135.5713691,N,12046.7044494,E,4,17,1.3,2.9748,M,8.317,M,01,0004*67
$GPHPD,0,0.000,49.31,-0.44,-14.22,31.5928562,120.7784075,2.975,13630348.318,24925388.175,2.975,0.000,0.000,0.000,0.000,0.000,0.000,0.000,17,17,4*45
$GPGGA,042027.60,3135.5714785,N,12046.7046027,E,4,17,1.3,2.9754,M,8.317,M,00,0004*64
$GPHPD,0,0.000,49.56,-0.68,-14.21,31.5928580,120.7784100,2.975,13630347.072,24925389.387,2.975,0.000,0.000,0.000,0.000,0.000,0.000,0.000,17,17,4*48
$GPGGA,042027.80,3135.5715895,N,12046.7047554,E,4,17,1.3,2.9732,M,8.317,M,00,0004*65
$GPHPD,0,0.000,49.42,-0.79,-14.24,31.5928598,120.7784126,2.973,13630345.801,24925390.582,2.973,0.000,0.000,0.000,0.000,0.000,0.000,0.000,17,17,4*40
$GPGGA,042028.00,3135.5716963,N,12046.7049078,E,4,17,1.3,2.9619,M,8.317,M,01,0004*65
$GPHPD,0,0.000,49.20,-0.28,-14.27,31.5928616,120.7784151,2.962,13630344.590,24925391.798,2.962,0.000,0.000,0.000,0.000,0.000,0.000,0.000,17,17,4*4A
$GPGGA,042028.20,3135.5718097,N,12046.7050591,E,4,17,1.3,2.9575,M,8.317,M,01,0004*68
$GPHPD,0,0.000,49.21,-0.08,-14.29,31.5928635,120.7784177,2.958,13630343.283,24925392.962,2.958,0.000,0.000,0.000,0.000,0.000,0.000,0.000,17,17,4*48
$GPGGA,042028.40,3135.5719183,N,12046.7052099,E,4,17,1.3,2.9549,M,8.317,M,01,0004*6B
$GPHPD,0,0.000,49.22,-0.38,-14.32,31.5928653,120.7784202,2.955,13630342.042,24925394.148,2.955,0.000,0.000,0.000,0.000,0.000,0.000,0.000,17,16,4*4A
$GPGGA,042028.60,3135.5720251,N,12046.7053633,E,4,17,1.3,2.9592,M,8.317,M,00,0004*6F
$GPHPD,0,0.000,49.12,-0.05,-14.35,31.5928671,120.7784227,2.959,13630340.833,24925395.376,2.959,0.000,0.000,0.000,0.000,0.000,0.000,0.000,17,17,4*44
$GPGGA,042028.80,3135.5721367,N,12046.7055081,E,4,17,1.3,2.9561,M,8.317,M,00,0004*61
$GPHPD,0,0.000,49.22,0.08,-14.36,31.5928689,120.7784251,2.956,13630339.538,24925396.472,2.956,0.000,0.000,0.000,0.000,0.000,0.000,0.000,17,17,4*6A
$GPGGA,042029.00,3135.5722476,N,12046.7056605,E,4,17,1.3,2.9607,M,8.317,M,01,0004*67
$GPHPD,0,0.000,49.40,0.27,-14.34,31.5928708,120.7784277,2.961,13630338.268,24925397.664,2.961,0.000,0.000,0.000,0.000,0.000,0.000,0.000,17,17,4*6A
$GPGGA,042029.20,3135.5723544,N,12046.7058085,E,4,17,1.3,2.9592,M,8.317,M,01,0004*6B
$GPHPD,0,0.000,49.50,-0.23,-14.34,31.5928726,120.7784301,2.959,13630337.048,24925398.827,2.959,0.000,0.000,0.000,0.000,0.000,0.000,0.000,17,17,4*47
$GPGGA,042029.40,3135.5724621,N,12046.7059603,E,4,17,1.3,2.9576,M,8.317,M,01,0004*69
$GPHPD,0,0.000,49.63,-0.36,-14.34,31.5928744,120.7784327,2.958,13630335.823,24925400.030,2.958,0.000,0.000,0.000,0.000,0.000,0.000,0.000,17,17,4*4C
$GPGGA,042029.60,3135.5725671,N,12046.7061113,E,4,17,1.3,2.9570,M,8.317,M,00,0004*65
$GPHPD,0,0.000,49.69,-0.27,-14.31,31.5928761,120.7784352,2.957,13630334.634,24925401.239,2.957,0.000,0.000,0.000,0.000,0.000,0.000,0.000,17,17,4*45
$GPGGA,042029.80,3135.5726747,N,12046.7062645,E,4,17,1.3,2.9483,M,8.317,M,00,0004*66
$GPHPD,0,0.000,49.79,-0.24,-14.28,31.5928779,120.7784377,2.948,13630333.413,24925402.460,2.948,0.000,0.000,0.000,0.000,0.000,0.000,0.000,17,17,4*48
$GPGGA,042030.00,3135.5727801,N,12046.7064133,E,4,17,1.3,2.9380,M,8.317,M,01,0004*6F
$GPHPD,0,0.000,50.03,-0.06,-14.26,31.5928797,120.7784402,2.938,13630332.214,24925403.641,2.938,0.000,0.000,0.000,0.000,0.000,0.000,0.000,17,17,4*46
$GPGGA,042030.20,3135.5728852,N,12046.7065626,E,4,17,1.3,2.9500,M,8.317,M,01,0004*68
$GPHPD,0,0.000,50.03,0.29,-14.23,31.5928814,120.7784427,2.950,13630331.021,24925404.829,2.950,0.000,0.000,0.000,0.000,0.000,0.000,0.000,17,17,4*60
$GPGGA,042030.40,3135.5729894,N,12046.7067127,E,4,17,1.3,2.9423,M,8.317,M,01,0004*61
$GPHPD,0,0.000,50.17,0.16,-14.19,31.5928832,120.7784452,2.942,13630329.841,24925406.032,2.942,0.000,0.000,0.000,0.000,0.000,0.000,0.000,17,17,4*61
$GPGGA,042030.60,3135.5730982,N,12046.7068633,E,4,17,1.3,2.9486,M,8.317,M,00,0004*6E
$GPHPD,0,0.000,50.34,0.13,-14.15,31.5928850,120.7784477,2.949,13630328.598,24925407.215,2.949,0.000,0.000,0.000,0.000,0.000,0.000,0.000,17,17,4*64
$GPGGA,042030.80,3135.5731979,N,12046.7070137,E,4,17,1.3,2.9469,M,8.317,M,00,0004*6E
$GPHPD,0,0.000,50.54,-0.26,-14.12,31.5928866,120.7784502,2.947,13630327.484,24925408.448,2.947,0.000,0.000,0.000,0.000,0.000,0.000,0.000,17,17,4*4A
$GPGGA,042031.00,3135.5733015,N,12046.7071652,E,4,17,1.3,2.9548,M,8.317,M,01,0004*60
$GPHPD,0,0.000,50.75,0.25,-14.09,31.5928884,120.7784528,2.955,13630326.316,24925409.671,2.955,0.000,0.000,0.000,0.000,0.000,0.000,0.000,17,17,4*6D
$GPGGA,042031.20,3135.5734077,N,12046.7073200,E,4,17,1.3,2.9550,M,8.317,M,01,0004*69
$GPHPD,0,0.000,51.12,-0.36,-14.07,31.5928901,120.7784553,2.955,13630325.118,24925410.920,2.955,0.000,0.000,0.000,0.000,0.000,0.000,0.000,17,17,4*40
$GPGGA,042031.40,3135.5735078,N,12046.7074729,E,4,17,1.3,2.9493,M,8.317,M,01,0004*66
$GPHPD,0,0.000,51.52,-0.53,-14.06,31.5928918,120.7784579,2.949,13630324.003,24925412.181,2.949,0.000,0.000,0.000,0.000,0.000,0.000,0.000,17,17,4*4D
$GPGGA,042031.60,3135.5736079,N,12046.7076266,E,4,17,1.3,2.9374,M,8.317,M,00,0004*65
$GPHPD,0,0.000,51.90,-0.23,-14.05,31.5928935,120.7784604,2.937,13630322.889,24925413.451,2.937,0.000,0.000,0.000,0.000,0.000,0.000,0.000,17,17,4*44
$GPGGA,042031.80,3135.5737057,N,12046.7077784,E,4,17,1.3,2.9386,M,8.317,M,00,0004*63
$GPHPD,0,0.000,52.26,-0.10,-14.06,31.5928951,120.7784630,2.939,13630321.804,24925414.712,2.939,0.000,0.000,0.000,0.000,0.000,0.000,0.000,17,17,4*49
$GPGGA,042032.00,3135.5738031,N,12046.7079326,E,4,17,1.3,2.9355,M,8.317,M,01,0004*6A
$GPHPD,0,0.000,52.62,-0.56,-14.07,31.5928967,120.7784655,2.936,13630320.730,24925416.004,2.936,0.000,0.000,0.000,0.000,0.000,0.000,0.000,17,17,4*47
$GPGGA,042032.20,3135.5739021,N,12046.7080929,E,4,17,1.3,2.9340,M,8.317,M,01,0004*6F
$GPHPD,0,0.000,53.07,-0.63,-14.08,31.5928984,120.7784682,2.934,13630319.645,24925417.361,2.934,0.000,0.000,0.000,0.000,0.000,0.000,0.000,17,17,4*43
$GPGGA,042032.40,3135.5739999,N,12046.7082499,E,4,17,1.3,2.9349,M,8.317,M,01,0004*6E
$GPHPD,0,0.000,53.52,-0.30,-14.10,31.5929000,120.7784708,2.935,13630318.571,24925418.685,2.935,0.000,0.000,0.000,0.000,0.000,0.000,0.000,17,17,4*4E
$GPGGA,042032.60,3135.5740962,N,12046.7084080,E,4,17,1.3,2.9317,M,8.317,M,00,0004*66
$GPHPD,0,0.000,54.03,-0.30,-14.11,31.5929016,120.7784735,2.932,13630317.521,24925420.030,2.932,0.000,0.000,0.000,0.000,0.000,0.000,0.000,17,17,4*4C
$GPGGA,042032.80,3135.5741921,N,12046.7085678,E,4,17,1.3,2.9163,M,8.317,M,00,0004*6F
$GPHPD,0,0.000,54.50,-0.19,-14.12,31.5929032,120.7784761,2.916,13630316.479,24925421.399,2.916,0.000,0.000,0.000,0.000,0.000,0.000,0.000,17,17,4*49
$GPGGA,042033.00,3135.5742850,N,12046.7087272,E,4,17,1.3,2.9150,M,8.317,M,01,0004*6F
$GPHPD,0,0.000,54.82,0.42,-14.15,31.5929048,120.7784788,2.915,13630315.479,24925422.780,2.915,0.000,0.000,0.000,0.000,0.000,0.000,0.000,17,17,4*64
$GPGGA,042033.20,3135.5743785,N,12046.7088881,E,4,17,1.3,2.9165,M,8.317,M,01,0004*64
$GPHPD,0,0.000,55.54,0.50,-14.17,31.5929063,120.7784815,2.917,13630314.474,24925424.176,2.917,0.000,0.000,0.000,0.000,0.000,0.000,0.000,17,17,4*68
$GPGGA,042033.40,3135.5744654,N,12046.7090509,E,4,17,1.3,2.9305,M,8.317,M,01,0004*68
$GPHPD,0,0.000,55.96,0.11,-14.17,31.5929078,120.7784842,2.931,13630313.566,24925425.633,2.931,0.000,0.000,0.000,0.000,0.000,0.000,0.000,17,17,4*69
$GPGGA,042033.60,3135.5745560,N,12046.7092135,E,4,17,1.3,2.9243,M,8.317,M,00,0004*64
$GPHPD,0,0.000,56.00,-0.35,-14.18,31.5929093,120.7784869,2.924,13630312.606,24925427.066,2.924,0.000,0.000,0.000,0.000,0.000,0.000,0.000,17,17,4*4D
$GPGGA,042033.80,3135.5746487,N,12046.7093749,E,4,17,1.3,2.9248,M,8.317,M,00,0004*66
$GPHPD,0,0.000,55.82,-0.11,-14.18,31.5929108,120.7784896,2.925,13630311.613,24925428.472,2.925,0.000,0.000,0.000,0.000,0.000,0.000,0.000,17,17,4*48
$GPGGA,042034.00,3135.5747371,N,12046.7095378,E,4,17,1.3,2.9298,M,8.317,M,01,0004*6A
$GPHPD,0,0.000,55.62,0.19,-14.19,31.5929123,120.7784923,2.930,13630310.684,24925429.922,2.930,0.000,0.000,0.000,0.000,0.000,0.000,0.000,17,17,4*62
$GPGGA,042034.20,3135.5748274,N,12046.7096986,E,4,17,1.3,2.9228,M,8.317,M,01,0004*60
$GPHPD,0,0.000,55.28,-0.65,-14.21,31.5929138,120.7784950,2.923,13630309.724,24925431.335,2.923,0.000,0.000,0.000,0.000,0.000,0.000,0.000,17,17,4*49
$GPGGA,042034.40,3135.5749238,N,12046.7098578,E,4,17,1.3,2.9125,M,8.317,M,01,0004*62
$GPHPD,0,0.000,55.35,-0.32,-14.21,31.5929154,120.7784976,2.913,13630308.674,24925432.694,2.913,0.000,0.000,0.000,0.000,0.000,0.000,0.000,17,17,4*41
$GPGGA,042034.60,3135.5750163,N,12046.7100133,E,4,17,1.3,2.9204,M,8.317,M,00,0004*6F
$GPHPD,0,0.000,55.50,-0.17,-14.21,31.5929169,120.7785002,2.920,13630307.672,24925434.030,2.920,0.000,0.000,0.000,0.000,0.000,0.000,0.000,17,17,4*47
$GPGGA,042034.80,3135.5751096,N,12046.7101742,E,4,17,1.3,2.9238,M,8.317,M,00,0004*65
$GPHPD,0,0.000,55.65,-0.67,-14.22,31.5929185,120.7785029,2.924,13630306.670,24925435.427,2.924,0.000,0.000,0.000,0.000,0.000,0.000,0.000,17,17,4*4E
$GPGGA,042035.00,3135.5752040,N,12046.7103337,E,4,17,1.3,2.9061,M,8.317,M,01,0004*6F
$GPHPD,0,0.000,56.05,-0.69,-14.22,31.5929201,120.7785056,2.906,13630305.649,24925436.801,2.906,0.000,0.000,0.000,0.000,0.000,0.000,0.000,17,17,4*40
$GPGGA,042035.20,3135.5752945,N,12046.7104973,E,4,17,1.3,2.9035,M,8.317,M,01,0004*6D
$GPHPD,0,0.000,56.12,-0.02,-14.24,31.5929216,120.7785083,2.904,13630304.692,24925438.246,2.904,0.000,0.000,0.000,0.000,0.000,0.000,0.000,17,17,4*43
$GPGGA,042035.40,3135.5753813,N,12046.7106538,E,4,17,1.3,2.8991,M,8.317,M,01,0004*6F
$GPHPD,0,0.000,56.13,0.07,-14.24,31.5929230,120.7785109,2.899,13630303.773,24925439.628,2.899,0.000,0.000,0.000,0.000,0.000,0.000,0.000,17,17,4*69
$GPGGA,042035.60,3135.5754716,N,12046.7108121,E,4,17,1.3,2.8970,M,8.317,M,00,0004*6C
$GPHPD,0,0.000,56.21,0.35,-14.24,31.5929245,120.7785135,2.897,13630302.808,24925441.011,2.897,0.000,0.000,0.000,0.000,0.000,0.000,0.000,17,17,4*65
$GPGGA,042035.80,3135.5755554,N,12046.7109714,E,4,17,1.3,2.8930,M,8.317,M,00,0004*62
$GPHPD,0,0.000,56.46,0.55,-14.23,31.5929259,120.7785162,2.893,13630301.937,24925442.444,2.893,0.000,0.000,0.000,0.000,0.000,0.000,0.000,17,17,4*63
$GPGGA,042036.00,3135.5756389,N,12046.7111238,E,4,17,1.3,2.8990,M,8.317,M,01,0004*65
$GPHPD,0,0.000,56.59,0.31,-14.19,31.5929273,120.7785187,2.899,13630301.057,24925443.796,2.899,0.000,0.000,0.000,0.000,0.000,0.000,0.000,17,17,4*67
$GPGGA,042036.20,3135.5757176,N,12046.7112727,E,4,17,1.3,2.9030,M,8.317,M,01,0004*6E
$GPHPD,0,0.000,56.78,0.39,-14.16,31.5929286,120.7785212,2.903,13630300.238,24925445.133,2.903,0.000,0.000,0.000,0.000,0.000,0.000,0.000,17,17,4*63
$GPGGA,042036.40,3135.5757994,N,12046.7114211,E,4,17,1.3,2.9003,M,8.317,M,01,0004*6A
$GPHPD,0,0.000,57.25,0.55,-14.11,31.5929300,120.7785237,2.900,13630299.374,24925446.446,2.900,0.000,0.000,0.000,0.000,0.000,0.000,0.000,17,17,4*63
$GPGGA,042036.60,3135.5758726,N,12046.7115594,E,4,17,1.3,2.9034,M,8.317,M,00,0004*6E
$GPHPD,0,0.000,57.20,0.59,-14.05,31.5929312,120.7785260,2.903,13630298.612,24925447.688,2.903,0.000,0.000,0.000,0.000,0.000,0.000,0.000,17,17,4*6B
$GPGGA,042036.80,3135.5759445,N,12046.7116965,E,4,17,1.3,2.9156,M,8.317,M,00,0004*63
$GPHPD,0,0.000,57.34,0.17,-13.99,31.5929324,120.7785283,2.916,13630297.865,24925448.922,2.916,0.000,0.000,0.000,0.000,0.000,0.000,0.000,17,17,4*6F
$GPGGA,042037.00,3135.5760157,N,12046.7118242,E,4,17,1.3,2.9109,M,8.317,M,01,0004*6D
$GPHPD,0,0.000,57.17,-0.33,-13.90,31.5929336,120.7785304,2.911,13630297.110,24925450.047,2.911,0.000,0.000,0.000,0.000,0.000,0.000,0.000,17,17,4*49
$GPGGA,042037.20,3135.5760778,N,12046.7119460,E,4,17,1.3,2.9114,M,8.317,M,01,0004*6F
$GPHPD,0,0.000,57.49,-0.61,-13.83,31.5929346,120.7785324,2.911,13630296.473,24925451.154,2.911,0.000,0.000,0.000,0.000,0.000,0.000,0.000,17,17,4*41
$GPGGA,042037.40,3135.5761373,N,12046.7120632,E,4,17,1.3,2.9183,M,8.317,M,01,0004*66
$GPHPD,0,0.000,57.40,-0.62,-13.78,31.5929356,120.7785344,2.918,13630295.863,24925452.221,2.918,0.000,0.000,0.000,0.000,0.000,0.000,0.000,17,17,4*44
$GPGGA,042037.60,3135.5761963,N,12046.7121752,E,4,17,1.3,2.9168,M,8.317,M,00,0004*6D
$GPHPD,0,0.000,57.27,-0.93,-13.73,31.5929366,120.7785363,2.917,13630295.249,24925453.228,2.917,0.000,0.000,0.000,0.000,0.000,0.000,0.000,17,17,4*4C
$GPGGA,042037.80,3135.5762553,N,12046.7122821,E,4,17,1.3,2.9096,M,8.317,M,00,0004*67
$GPHPD,0,0.000,57.07,-0.96,-13.70,31.5929376,120.7785380,2.910,13630294.626,24925454.174,2.910,0.000,0.000,0.000,0.000,0.000,0.000,0.000,17,17,4*45
$GPGGA,042038.00,3135.5763106,N,12046.7123830,E,4,17,1.3,2.8997,M,8.317,M,01,0004*6C
$GPHPD,0,0.000,57.12,-0.40,-13.64,31.5929385,120.7785397,2.900,13630294.043,24925455.068,2.900,0.000,0.000,0.000,0.000,0.000,0.000,0.000,17,17,4*4D
$GPGGA,042038.20,3135.5763606,N,12046.7124775,E,4,17,1.3,2.9008,M,8.317,M,01,0004*6E
$GPHPD,0,0.000,57.21,-0.13,-13.57,31.5929393,120.7785413,2.901,13630293.522,24925455.917,2.901,0.000,0.000,0.000,0.000,0.000,0.000,0.000,17,17,4*43
$GPGGA,042038.40,3135.5764094,N,12046.7125640,E,4,17,1.3,2.8978,M,8.317,M,01,0004*6B
$GPHPD,0,0.000,57.34,-0.29,-13.50,31.5929402,120.7785427,2.898,13630293.003,24925456.676,2.898,0.000,0.000,0.000,0.000,0.000,0.000,0.000,17,17,4*4C
$GPGGA,042038.60,3135.5764492,N,12046.7126406,E,4,17,1.3,2.8966,M,8.317,M,00,0004*66
$GPHPD,0,0.000,57.43,0.13,-13.40,31.5929408,120.7785440,2.897,13630292.591,24925457.368,2.897,0.000,0.000,0.000,0.000,0.000,0.000,0.000,17,17,4*66
$GPGGA,042038.80,3135.5764811,N,12046.7127033,E,4,17,1.3,2.8881,M,8.317,M,00,0004*64
$GPHPD,0,0.000,57.51,-0.25,-13.30,31.5929414,120.7785451,2.888,13630292.264,24925457.938,2.888,0.000,0.000,0.000,0.000,0.000,0.000,0.000,17,17,4*45
$GPGGA,042039.00,3135.5765133,N,12046.7127595,E,4,17,1.3,2.8932,M,8.317,M,01,0004*64
$GPHPD,0,0.000,57.32,0.00,-13.22,31.5929419,120.7785460,2.893,13630291.919,24925458.428,2.893,0.000,0.000,0.000,0.000,0.000,0.000,0.000,17,17,4*67
$GPGGA,042039.20,3135.5765382,N,12046.7128036,E,4,17,1.3,2.8811,M,8.317,M,01,0004*6D
$GPHPD,0,0.000,57.59,-0.26,-13.19,31.5929423,120.7785467,2.881,13630291.654,24925458.815,2.881,0.000,0.000,0.000,0.000,0.000,0.000,0.000,17,17,4*41
$GPGGA,042039.40,3135.5765606,N,12046.7128435,E,4,17,1.3,2.8775,M,8.317,M,01,0004*68
$GPHPD,0,0.000,57.69,0.15,-13.17,31.5929427,120.7785474,2.878,13630291.416,24925459.166,2.878,0.000,0.000,0.000,0.000,0.000,0.000,0.000,17,17,4*6F
$GPGGA,042039.60,3135.5765768,N,12046.7128779,E,4,17,1.3,2.8801,M,8.317,M,00,0004*65
$GPHPD,0,0.000,57.69,0.20,-13.13,31.5929429,120.7785480,2.880,13630291.255,24925459.486,2.880,0.000,0.000,0.000,0.000,0.000,0.000,0.000,17,17,4*62
$GPGGA,042039.80,3135.5765910,N,12046.7129062,E,4,17,1.3,2.8826,M,8.317,M,00,0004*63
$GPHPD,0,0.000,57.58,-0.01,-13.09,31.5929432,120.7785484,2.883,13630291.110,24925459.745,2.883,0.000,0.000,0.000,0.000,0.000,0.000,0.000,17,17,4*45
$GPGGA,042040.00,3135.5766035,N,12046.7129287,E,4,17,1.3,2.8825,M,8.317,M,01,0004*63
$GPHPD,0,0.000,57.53,-0.10,-13.06,31.5929434,120.7785488,2.883,13630290.978,24925459.943,2.883,0.000,0.000,0.000,0.000,0.000,0.000,0.000,17,17,4*44
$GPGGA,042040.20,3135.5766126,N,12046.7129441,E,4,17,1.3,2.8825,M,8.317,M,01,0004*6E
$GPHPD,0,0.000,57.77,0.08,-13.05,31.5929435,120.7785491,2.883,13630290.879,24925460.076,2.883,0.000,0.000,0.000,0.000,0.000,0.000,0.000,17,17,4*69
$GPGGA,042040.40,3135.5766173,N,12046.7129530,E,4,17,1.3,2.8843,M,8.317,M,01,0004*6F
$GPHPD,0,0.000,57.68,-0.03,-13.04,31.5929436,120.7785492,2.884,13630290.830,24925460.156,2.884,0.000,0.000,0.000,0.000,0.000,0.000,0.000,17,17,4*4E
$GPGGA,042040.60,3135.5766235,N,12046.7129611,E,4,17,1.3,2.8831,M,8.317,M,00,0004*68
$GPHPD,0,0.000,57.79,-0.43,-13.03,31.5929437,120.7785494,2.883,13630290.759,24925460.217,2.883,0.000,0.000,0.000,0.000,0.000,0.000,0.000,17,17,4*4C
$GPGGA,042040.80,3135.5766241,N,12046.7129590,E,4,17,1.3,2.8791,M,8.317,M,00,0004*6A
$GPHPD,0,0.000,57.81,-0.05,-13.03,31.5929437,120.7785493,2.879,13630290.746,24925460.189,2.879,0.000,0.000,0.000,0.000,0.000,0.000,0.000,17,17,4*44
$GPGGA,042041.00,3135.5766250,N,12046.7129623,E,4,17,1.3,2.8773,M,8.317,M,01,0004*65
$GPHPD,0,0.000,57.89,0.07,-13.10,31.5929438,120.7785494,2.877,13630290.740,24925460.223,2.877,0.000,0.000,0.000,0.000,0.000,0.000,0.000,17,17,4*6C
$GPGGA,042041.20,3135.5766231,N,12046.7129590,E,4,17,1.3,2.8806,M,8.317,M,01,0004*66
$GPHPD,0,0.000,57.82,0.27,-13.14,31.5929437,120.7785493,2.881,13630290.760,24925460.194,2.881,0.000,0.000,0.000,0.000,0.000,0.000,0.000,17,17,4*64
$GPGGA,042041.40,3135.5766238,N,12046.7129617,E,4,17,1.3,2.8796,M,8.317,M,01,0004*63
$GPHPD,0,0.000,57.76,-0.04,-13.18,31.5929437,120.7785494,2.880,13630290.755,24925460.223,2.880,0.000,0.000,0.000,0.000,0.000,0.000,0.000,17,17,4*41
$GPGGA,042041.60,3135.5766247,N,12046.7129594,E,4,17,1.3,2.8850,M,8.317,M,00,0004*65
$GPHPD,0,0.000,57.84,-0.13,-13.23,31.5929437,120.7785493,2.885,13630290.738,24925460.190,2.885,0.000,0.000,0.000,0.000,0.000,0.000,0.000,17,17,4*45
$GPGGA,042041.80,3135.5766215,N,12046.7129607,E,4,17,1.3,2.8836,M,8.317,M,00,0004*65
$GPHPD,0,0.000,57.89,-0.09,-13.26,31.5929437,120.7785493,2.884,13630290.786,24925460.224,2.884,0.000,0.000,0.000,0.000,0.000,0.000,0.000,17,17,4*4F
$GPGGA,042042.00,3135.5766232,N,12046.7129592,E,4,17,1.3,2.8834,M,8.317,M,01,0004*67
$GPHPD,0,0.000,57.70,-0.02,-13.30,31.5929437,120.7785493,2.883,13630290.759,24925460.196,2.883,0.000,0.000,0.000,0.000,0.000,0.000,0.000,17,17,4*4D
$GPGGA,042042.20,3135.5766207,N,12046.7129595,E,4,17,1.3,2.8887,M,8.317,M,01,0004*6C
$GPHPD,0,0.000,57.87,0.11,-13.33,31.5929437,120.7785493,2.889,13630290.795,24925460.214,2.889,0.000,0.000,0.000,0.000,0.000,0.000,0.000,17,17,4*60
$GPGGA,042042.40,3135.5766224,N,12046.7129601,E,4,17,1.3,2.8902,M,8.317,M,01,0004*69
$GPHPD,0,0.000,57.60,-0.22,-13.36,31.5929437,120.7785493,2.890,13630290.772,24925460.212,2.890,0.000,0.000,0.000,0.000,0.000,0.000,0.000,17,17,4*4E
$GPGGA,042042.60,3135.5766232,N,12046.7129601,E,4,17,1.3,2.8849,M,8.317,M,00,0004*63
$GPHPD,0,0.000,57.78,-0.23,-13.40,31.5929437,120.7785493,2.885,13630290.761,24925460.207,2.885,0.000,0.000,0.000,0.000,0.000,0.000,0.000,17,17,4*41
$GPGGA,042042.80,3135.5766231,N,12046.7129600,E,4,17,1.3,2.8874,M,8.317,M,00,0004*61
$GPHPD,0,0.000,57.77,-0.03,-13.42,31.5929437,120.7785493,2.887,13630290.762,24925460.207,2.887,0.000,0.000,0.000,0.000,0.000,0.000,0.000,17,17,4*4D
$GPGGA,042043.00,3135.5766239,N,12046.7129600,E,4,17,1.3,2.8866,M,8.317,M,01,0004*62
$GPHPD,0,0.000,57.87,-0.08,-13.44,31.5929437,120.7785493,2.887,13630290.751,24925460.202,2.887,0.000,0.000,0.000,0.000,0.000,0.000,0.000,17,17,4*4A
$GPGGA,042043.20,3135.5766239,N,12046.7129603,E,4,17,1.3,2.8871,M,8.317,M,01,0004*65
$GPHPD,0,0.000,57.87,0.04,-13.47,31.5929437,120.7785493,2.887,13630290.751,24925460.205,2.887,0.000,0.000,0.000,0.000,0.000,0.000,0.000,17,17,4*6F
$GPGGA,042043.40,3135.5766247,N,12046.7129596,E,4,17,1.3,2.8885,M,8.317,M,01,0004*6E
$GPHPD,0,0.000,57.84,-0.01,-13.49,31.5929437,120.7785493,2.889,13630290.738,24925460.192,2.889,0.000,0.000,0.000,0.000,0.000,0.000,0.000,17,17,4*48
$GPGGA,042043.60,3135.5766254,N,12046.7129615,E,4,17,1.3,2.8817,M,8.317,M,00,0004*6C
$GPHPD,0,0.000,57.99,-0.18,-13.51,31.5929438,120.7785494,2.882,13630290.732,24925460.211,2.882,0.000,0.000,0.000,0.000,0.000,0.000,0.000,17,17,4*4F
$GPGGA,042043.80,3135.5766234,N,12046.7129621,E,4,17,1.3,2.8768,M,8.317,M,00,0004*64
$GPHPD,0,0.000,57.88,0.35,-13.53,31.5929437,120.7785494,2.877,13630290.762,24925460.230,2.877,0.000,0.000,0.000,0.000,0.000,0.000,0.000,17,17,4*66
$GPGGA,042044.00,3135.5766227,N,12046.7129619,E,4,17,1.3,2.8784,M,8.317,M,01,0004*61
$GPHPD,0,0.000,57.58,0.50,-13.56,31.5929437,120.7785494,2.878,13630290.771,24925460.232,2.878,0.000,0.000,0.000,0.000,0.000,0.000,0.000,17,17,4*6D
$GPGGA,042044.20,3135.5766243,N,12046.7129624,E,4,17,1.3,2.8810,M,8.317,M,01,0004*6D
$GPHPD,0,0.000,57.81,0.24,-13.58,31.5929437,120.7785494,2.881,13630290.750,24925460.228,2.881,0.000,0.000,0.000,0.000,0.000,0.000,0.000,17,17,4*6C
$GPGGA,042044.40,3135.5766246,N,12046.7129619,E,4,17,1.3,2.8808,M,8.317,M,01,0004*69
$GPHPD,0,0.000,57.82,0.05,-13.60,31.5929437,120.7785494,2.881,13630290.744,24925460.221,2.881,0.000,0.000,0.000,0.000,0.000,0.000,0.000,17,17,4*6B
$GPGGA,042044.60,3135.5766228,N,12046.7129619,E,4,17,1.3,2.8884,M,8.317,M,00,0004*66
$GPHPD,0,0.000,57.72,0.15,-13.62,31.5929437,120.7785494,2.888,13630290.770,24925460.231,2.888,0.000,0.000,0.000,0.000,0.000,0.000,0.000,17,17,4*61
$GPGGA,042044.80,3135.5766222,N,12046.7129600,E,4,17,1.3,2.8867,M,8.317,M,00,0004*67
$GPHPD,0,0.000,57.70,-0.09,-13.65,31.5929437,120.7785493,2.887,13630290.775,24925460.212,2.887,0.000,0.000,0.000,0.000,0.000,0.000,0.000,17,17,4*47
$GPGGA,042045.00,3135.5766265,N,12046.7129602,E,4,17,1.3,2.8802,M,8.317,M,01,0004*6D
