$GPGGA,042106.00,3135.5964629,N,12046.7527645,E,4,16,1.4,2.6486,M,8.320,M,01,0004*6E
$GPHPD,0,0.000,57.99,0.73,-12.69,31.5932744,120.7792127,2.649,13630088.842,24925824.659,2.649,0.000,0.000,0.000,0.000,0.000,0.000,0.000,16,16,4*6B
$GPGGA,042106.20,3135.5964949,N,12046.7528210,E,4,16,1.4,2.6608,M,8.320,M,01,0004*6A
$GPHPD,0,0.000,57.95,0.72,-12.68,31.5932749,120.7792137,2.661,13630088.500,24925825.154,2.661,0.000,0.000,0.000,0.000,0.000,0.000,0.000,16,16,4*6B
$GPGGA,042106.40,3135.5965227,N,12046.7528732,E,4,16,1.4,2.6605,M,8.320,M,01,0004*66
$GPHPD,0,0.000,58.15,0.28,-12.68,31.5932754,120.7792146,2.661,13630088.210,24925825.621,2.661,0.000,0.000,0.000,0.000,0.000,0.000,0.000,16,16,4*6A
$GPGGA,042106.60,3135.5965437,N,12046.7529147,E,4,16,1.4,2.6625,M,8.320,M,00,0004*65
$GPHPD,0,0.000,57.91,0.21,-12.68,31.5932757,120.7792152,2.663,13630087.995,24925826.000,2.663,0.000,0.000,0.000,0.000,0.000,0.000,0.000,16,16,4*69
$GPGGA,042106.80,3135.5965617,N,12046.7529574,E,4,16,1.4,2.6323,M,8.320,M,00,0004*6C
$GPHPD,0,0.000,57.83,0.48,-12.72,31.5932760,120.7792160,2.632,13630087.825,24925826.410,2.632,0.000,0.000,0.000,0.000,0.000,0.000,0.000,16,16,4*64
$GPGGA,042107.00,3135.5965819,N,12046.7529941,E,4,15,1.4,2.6362,M,8.320,M,01,0004*68
$GPHPD,0,0.000,58.01,0.95,-12.79,31.5932764,120.7792166,2.636,13630087.612,24925826.735,2.636,0.000,0.000,0.000,0.000,0.000,0.000,0.000,15,15,4*66
$GPGGA,042107.20,3135.5965979,N,12046.7530276,E,4,15,1.4,2.6468,M,8.320,M,01,0004*67
$GPHPD,0,0.000,58.00,0.85,-12.86,31.5932766,120.7792171,2.647,13630087.452,24925827.045,2.647,0.000,0.000,0.000,0.000,0.000,0.000,0.000,15,15,4*65
$GPGGA,042107.40,3135.5966171,N,12046.7530655,E,4,15,1.4,2.6391,M,8.320,M,01,0004*66
$GPHPD,0,0.000,58.17,0.89,-12.96,31.5932770,120.7792178,2.639,13630087.255,24925827.391,2.639,0.000,0.000,0.000,0.000,0.000,0.000,0.000,15,15,4*6B
$GPGGA,042107.60,3135.5966369,N,12046.7531061,E,4,15,1.4,2.6454,M,8.320,M,00,0004*60
$GPHPD,0,0.000,58.07,1.48,-13.07,31.5932773,120.7792184,2.645,13630087.056,24925827.765,2.645,0.000,0.000,0.000,0.000,0.000,0.000,0.000,15,15,4*61
$GPGGA,042107.80,3135.5966566,N,12046.7531462,E,4,15,1.4,2.6403,M,8.320,M,00,0004*62
$GPHPD,0,0.000,58.00,0.82,-13.19,31.5932776,120.7792191,2.640,13630086.856,24925828.134,2.640,0.000,0.000,0.000,0.000,0.000,0.000,0.000,15,15,4*6B
$GPGGA,042108.00,3135.5966796,N,12046.7531916,E,4,15,1.4,2.6374,M,8.320,M,01,0004*60
$GPHPD,0,0.000,57.80,0.45,-13.32,31.5932780,120.7792199,2.637,13630086.621,24925828.547,2.637,0.000,0.000,0.000,0.000,0.000,0.000,0.000,15,15,4*61
$GPGGA,042108.20,3135.5967063,N,12046.7532411,E,4,15,1.4,2.6389,M,8.320,M,01,0004*65
$GPHPD,0,0.000,57.62,0.31,-13.41,31.5932784,120.7792207,2.639,13630086.341,24925828.989,2.639,0.000,0.000,0.000,0.000,0.000,0.000,0.000,15,15,4*67
$GPGGA,042108.40,3135.5967329,N,12046.7532980,E,4,16,1.4,2.6488,M,8.320,M,01,0004*6E
$GPHPD,0,0.000,57.62,-0.13,-13.51,31.5932789,120.7792216,2.649,13630086.077,24925829.520,2.649,0.000,0.000,0.000,0.000,0.000,0.000,0.000,16,16,4*4E
$GPGGA,042108.60,3135.5967667,N,12046.7533555,E,4,16,1.4,2.6460,M,8.320,M,00,0004*61
$GPHPD,0,0.000,57.87,-0.21,-13.60,31.5932794,120.7792226,2.646,13630085.712,24925830.016,2.646,0.000,0.000,0.000,0.000,0.000,0.000,0.000,16,16,4*46
$GPGGA,042108.80,3135.5967971,N,12046.7534184,E,4,16,1.4,2.6452,M,8.320,M,00,0004*69
$GPHPD,0,0.000,58.51,0.73,-13.69,31.5932800,120.7792236,2.645,13630085.407,24925830.598,2.645,0.000,0.000,0.000,0.000,0.000,0.000,0.000,16,16,4*66
$GPGGA,042109.00,3135.5968295,N,12046.7534764,E,4,16,1.4,2.6463,M,8.320,M,01,0004*65
$GPHPD,0,0.000,58.54,0.39,-13.77,31.5932805,120.7792246,2.646,13630085.063,24925831.109,2.646,0.000,0.000,0.000,0.000,0.000,0.000,0.000,16,16,4*6B
$GPGGA,042109.20,3135.5968626,N,12046.7535483,E,4,16,1.4,2.6491,M,8.320,M,01,0004*6D
$GPHPD,0,0.000,58.64,0.58,-13.81,31.5932810,120.7792258,2.649,13630084.737,24925831.783,2.649,0.000,0.000,0.000,0.000,0.000,0.000,0.000,16,15,4*6D
$GPGGA,042109.40,3135.5968961,N,12046.7536113,E,4,16,1.4,2.6498,M,8.320,M,01,0004*61
$GPHPD,0,0.000,58.60,0.73,-13.87,31.5932816,120.7792269,2.650,13630084.388,24925832.347,2.650,0.000,0.000,0.000,0.000,0.000,0.000,0.000,16,15,4*6D
$GPGGA,042109.60,3135.5969319,N,12046.7536799,E,4,16,1.4,2.6521,M,8.320,M,00,0004*61
$GPHPD,0,0.000,58.85,0.75,-13.91,31.5932822,120.7792280,2.652,13630084.017,24925832.966,2.652,0.000,0.000,0.000,0.000,0.000,0.000,0.000,16,15,4*6B
$GPGGA,042109.80,3135.5969668,N,12046.7537493,E,4,16,1.4,2.6564,M,8.320,M,00,0004*65
$GPHPD,0,0.000,58.89,0.65,-13.97,31.5932828,120.7792292,2.656,13630083.660,24925833.600,2.656,0.000,0.000,0.000,0.000,0.000,0.000,0.000,16,15,4*66
$GPGGA,042110.00,3135.5969979,N,12046.7538174,E,4,15,1.5,2.6633,M,8.320,M,01,0004*6B
$GPHPD,0,0.000,59.20,0.31,-14.02,31.5932833,120.7792303,2.663,13630083.355,24925834.240,2.663,0.000,0.000,0.000,0.000,0.000,0.000,0.000,15,15,4*6A
$GPGGA,042110.20,3135.5970315,N,12046.7538919,E,4,16,1.5,2.6631,M,8.320,M,01,0004*63
$GPHPD,0,0.000,59.29,-0.07,-14.06,31.5932839,120.7792315,2.663,13630083.028,24925834.943,2.663,0.000,0.000,0.000,0.000,0.000,0.000,0.000,16,15,4*40
$GPGGA,042110.40,3135.5970674,N,12046.7539590,E,4,16,1.5,2.6641,M,8.320,M,01,0004*6C
$GPHPD,0,0.000,59.24,0.43,-14.09,31.5932845,120.7792327,2.664,13630082.652,24925835.543,2.664,0.000,0.000,0.000,0.000,0.000,0.000,0.000,16,15,4*62
$GPGGA,042110.60,3135.5971095,N,12046.7540303,E,4,16,1.5,2.6406,M,8.320,M,00,0004*64
$GPHPD,0,0.000,59.44,0.12,-14.12,31.5932852,120.7792338,2.641,13630082.197,24925836.157,2.641,0.000,0.000,0.000,0.000,0.000,0.000,0.000,16,15,4*6E
$GPGGA,042110.80,3135.5971449,N,12046.7541023,E,4,16,1.5,2.6394,M,8.320,M,00,0004*63
$GPHPD,0,0.000,59.78,1.05,-14.15,31.5932857,120.7792350,2.639,13630081.839,24925836.819,2.639,0.000,0.000,0.000,0.000,0.000,0.000,0.000,16,15,4*67
$GPGGA,042111.00,3135.5971767,N,12046.7541761,E,4,16,1.6,2.6431,M,8.320,M,01,0004*6E
$GPHPD,0,0.000,59.92,1.00,-14.21,31.5932863,120.7792363,2.643,13630081.535,24925837.524,2.643,0.000,0.000,0.000,0.000,0.000,0.000,0.000,16,15,4*65
$GPGGA,042111.20,3135.5972097,N,12046.7542518,E,4,16,1.5,2.6683,M,8.320,M,01,0004*60
$GPHPD,0,0.000,59.36,0.31,-14.27,31.5932868,120.7792375,2.668,13630081.219,24925838.245,2.668,0.000,0.000,0.000,0.000,0.000,0.000,0.000,16,15,4*64
$GPGGA,042111.40,3135.5972495,N,12046.7543307,E,4,16,1.5,2.6723,M,8.320,M,01,0004*62
$GPHPD,0,0.000,59.32,-0.23,-14.33,31.5932875,120.7792388,2.672,13630080.812,24925838.964,2.672,0.000,0.000,0.000,0.000,0.000,0.000,0.000,16,15,4*4D
$GPGGA,042111.60,3135.5972904,N,12046.7544153,E,4,17,1.5,2.6578,M,8.320,M,01,0004*6C
$GPHPD,0,0.000,59.50,0.13,-14.40,31.5932882,120.7792403,2.658,13630080.401,24925839.746,2.658,0.000,0.000,0.000,0.000,0.000,0.000,0.000,17,16,4*6C
$GPGGA,042111.80,3135.5973330,N,12046.7545008,E,4,17,1.5,2.6647,M,8.320,M,01,0004*6F
$GPHPD,0,0.000,59.59,0.44,-14.46,31.5932889,120.7792417,2.665,13630079.967,24925840.529,2.665,0.000,0.000,0.000,0.000,0.000,0.000,0.000,17,16,4*61
$GPGGA,042112.00,3135.5973770,N,12046.7545894,E,4,17,1.5,2.6590,M,8.320,M,02,0004*63
$GPHPD,0,0.000,59.87,0.66,-14.53,31.5932896,120.7792432,2.659,13630079.520,24925841.341,2.659,0.000,0.000,0.000,0.000,0.000,0.000,0.000,17,16,4*69
$GPGGA,042112.20,3135.5974228,N,12046.7546816,E,4,17,1.5,2.6586,M,8.320,M,02,0004*60
$GPHPD,0,0.000,59.70,0.64,-14.61,31.5932904,120.7792447,2.659,13630079.054,24925842.186,2.659,0.000,0.000,0.000,0.000,0.000,0.000,0.000,17,16,4*66
$GPGGA,042112.40,3135.5974734,N,12046.7547806,E,4,17,1.5,2.6556,M,8.320,M,02,0004*63
$GPHPD,0,0.000,59.65,-0.02,-14.69,31.5932912,120.7792463,2.656,13630078.534,24925843.086,2.656,0.000,0.000,0.000,0.000,0.000,0.000,0.000,17,16,4*44
$GPGGA,042112.60,3135.5975221,N,12046.7548853,E,4,17,1.5,2.6624,M,8.320,M,02,0004*68
$GPHPD,0,0.000,59.65,0.27,-14.77,31.5932920,120.7792481,2.662,13630078.053,24925844.065,2.662,0.000,0.000,0.000,0.000,0.000,0.000,0.000,17,16,4*62
$GPGGA,042112.80,3135.5975765,N,12046.7549975,E,4,17,1.5,2.6506,M,8.320,M,00,0004*66
$GPHPD,0,0.000,59.91,0.13,-14.85,31.5932929,120.7792500,2.651,13630077.505,24925845.101,2.651,0.000,0.000,0.000,0.000,0.000,0.000,0.000,17,16,4*69
$GPGGA,042113.00,3135.5976350,N,12046.7551124,E,4,16,1.4,2.6601,M,8.320,M,01,0004*6E
$GPHPD,0,0.000,59.79,0.34,-14.94,31.5932939,120.7792519,2.660,13630076.905,24925846.146,2.660,0.000,0.000,0.000,0.000,0.000,0.000,0.000,16,16,4*6F
$GPGGA,042113.20,3135.5977019,N,12046.7552389,E,4,17,1.4,2.6547,M,8.320,M,01,0004*65
$GPHPD,0,0.000,59.89,0.67,-15.00,31.5932950,120.7792540,2.655,13630076.208,24925847.281,2.655,0.000,0.000,0.000,0.000,0.000,0.000,0.000,17,16,4*67
$GPGGA,042113.40,3135.5977640,N,12046.7553717,E,4,17,1.4,2.6533,M,8.320,M,01,0004*68
$GPHPD,0,0.000,59.69,0.76,-15.05,31.5932961,120.7792562,2.653,13630075.593,24925848.521,2.653,0.000,0.000,0.000,0.000,0.000,0.000,0.000,17,16,4*6A
$GPGGA,042113.60,3135.5978292,N,12046.7555087,E,4,17,1.4,2.6656,M,8.320,M,00,0004*67
$GPHPD,0,0.000,59.71,0.48,-15.09,31.5932972,120.7792585,2.666,13630074.942,24925849.793,2.666,0.000,0.000,0.000,0.000,0.000,0.000,0.000,17,16,4*62
$GPGGA,042113.80,3135.5978987,N,12046.7556512,E,4,17,1.4,2.6558,M,8.320,M,00,0004*61
$GPHPD,0,0.000,59.77,0.21,-15.10,31.5932983,120.7792609,2.656,13630074.240,24925851.107,2.656,0.000,0.000,0.000,0.000,0.000,0.000,0.000,17,16,4*61
$GPGGA,042114.00,3135.5979697,N,12046.7557923,E,4,17,1.4,2.6678,M,8.320,M,01,0004*6E
$GPHPD,0,0.000,59.84,0.40,-15.09,31.5932995,120.7792632,2.668,13630073.515,24925852.395,2.668,0.000,0.000,0.000,0.000,0.000,0.000,0.000,17,16,4*67
$GPGGA,042114.20,3135.5980403,N,12046.7559421,E,4,17,1.4,2.6658,M,8.320,M,01,0004*66
$GPHPD,0,0.000,59.94,-0.40,-15.08,31.5933007,120.7792657,2.666,13630072.813,24925853.790,2.666,0.000,0.000,0.000,0.000,0.000,0.000,0.000,17,16,4*40
$GPGGA,042114.40,3135.5981140,N,12046.7560921,E,4,17,1.5,2.6633,M,8.320,M,01,0004*68
$GPHPD,0,0.000,59.81,-0.53,-15.05,31.5933019,120.7792682,2.663,13630072.067,24925855.170,2.663,0.000,0.000,0.000,0.000,0.000,0.000,0.000,17,16,4*49
$GPGGA,042114.60,3135.5981871,N,12046.7562417,E,4,17,1.5,2.6707,M,8.320,M,00,0004*6C
$GPHPD,0,0.000,59.66,-0.18,-15.00,31.5933031,120.7792707,2.671,13630071.329,24925856.548,2.671,0.000,0.000,0.000,0.000,0.000,0.000,0.000,17,16,4*4A
$GPGGA,042114.80,3135.5982618,N,12046.7563887,E,4,17,1.5,2.6640,M,8.320,M,00,0004*66
$GPHPD,0,0.000,59.52,0.32,-14.94,31.5933044,120.7792731,2.664,13630070.563,24925857.886,2.664,0.000,0.000,0.000,0.000,0.000,0.000,0.000,17,15,4*67
$GPGGA,042115.00,3135.5983358,N,12046.7565407,E,4,17,1.5,2.6593,M,8.320,M,01,0004*61
$GPHPD,0,0.000,59.65,0.34,-14.90,31.5933056,120.7792757,2.659,13630069.817,24925859.288,2.659,0.000,0.000,0.000,0.000,0.000,0.000,0.000,17,16,4*6D
$GPGGA,042115.20,3135.5984102,N,12046.7566834,E,4,17,1.5,2.6639,M,8.320,M,01,0004*65
$GPHPD,0,0.000,59.35,0.70,-14.86,31.5933068,120.7792781,2.664,13630069.047,24925860.575,2.664,0.000,0.000,0.000,0.000,0.000,0.000,0.000,17,16,4*6B
$GPGGA,042115.40,3135.5984855,N,12046.7568302,E,4,17,1.5,2.6647,M,8.320,M,01,0004*61
$GPHPD,0,0.000,59.38,1.11,-14.82,31.5933081,120.7792805,2.665,13630068.272,24925861.907,2.665,0.000,0.000,0.000,0.000,0.000,0.000,0.000,17,16,4*6D
$GPGGA,042115.60,3135.5985576,N,12046.7569753,E,4,17,1.5,2.6672,M,8.320,M,00,0004*68
$GPHPD,0,0.000,59.55,1.33,-14.79,31.5933093,120.7792829,2.667,13630067.539,24925863.237,2.667,0.000,0.000,0.000,0.000,0.000,0.000,0.000,17,16,4*62
$GPGGA,042115.80,3135.5986298,N,12046.7571215,E,4,17,1.5,2.6690,M,8.320,M,00,0004*60
$GPHPD,0,0.000,59.32,0.92,-14.77,31.5933105,120.7792854,2.669,13630066.807,24925864.579,2.669,0.000,0.000,0.000,0.000,0.000,0.000,0.000,17,16,4*68
$GPGGA,042116.00,3135.5987015,N,12046.7572674,E,4,17,1.5,2.6786,M,8.320,M,01,0004*6A
$GPHPD,0,0.000,59.03,0.41,-14.77,31.5933117,120.7792878,2.679,13630066.081,24925865.921,2.679,0.000,0.000,0.000,0.000,0.000,0.000,0.000,17,16,4*6F
$GPGGA,042116.20,3135.5987769,N,12046.7574062,E,4,17,1.4,2.6817,M,8.320,M,01,0004*65
$GPHPD,0,0.000,58.58,0.60,-14.77,31.5933129,120.7792901,2.682,13630065.288,24925867.156,2.682,0.000,0.000,0.000,0.000,0.000,0.000,0.000,17,16,4*63
$GPGGA,042116.40,3135.5988516,N,12046.7575558,E,4,17,1.4,2.6910,M,8.320,M,01,0004*6D
$GPHPD,0,0.000,58.39,0.37,-14.79,31.5933142,120.7792926,2.691,13630064.528,24925868.525,2.691,0.000,0.000,0.000,0.000,0.000,0.000,0.000,17,15,4*60
$GPGGA,042116.60,3135.5989295,N,12046.7577009,E,4,17,1.4,2.6911,M,8.320,M,01,0004*60
$GPHPD,0,0.000,57.97,-0.17,-14.79,31.5933155,120.7792950,2.691,13630063.712,24925869.821,2.691,0.000,0.000,0.000,0.000,0.000,0.000,0.000,17,15,4*47
$GPGGA,042116.80,3135.5990070,N,12046.7578451,E,4,17,1.4,2.6854,M,8.320,M,00,0004*68
$GPHPD,0,0.000,57.28,-0.39,-14.81,31.5933168,120.7792974,2.685,13630062.901,24925871.108,2.685,0.000,0.000,0.000,0.000,0.000,0.000,0.000,17,16,4*45
$GPGGA,042117.00,3135.5990868,N,12046.7579913,E,4,17,1.4,2.6776,M,8.320,M,01,0004*64
$GPHPD,0,0.000,57.20,0.21,-14.80,31.5933181,120.7792999,2.678,13630062.061,24925872.406,2.678,0.000,0.000,0.000,0.000,0.000,0.000,0.000,17,16,4*6B
$GPGGA,042117.20,3135.5991645,N,12046.7581344,E,4,17,1.4,2.6878,M,8.320,M,01,0004*68
$GPHPD,0,0.000,56.78,-0.11,-14.80,31.5933194,120.7793022,2.688,13630061.244,24925873.679,2.688,0.000,0.000,0.000,0.000,0.000,0.000,0.000,17,16,4*48
$GPGGA,042117.40,3135.5992468,N,12046.7582808,E,4,17,1.4,2.6824,M,8.320,M,01,0004*69
$GPHPD,0,0.000,56.38,0.08,-14.79,31.5933208,120.7793047,2.682,13630060.369,24925874.966,2.682,0.000,0.000,0.000,0.000,0.000,0.000,0.000,17,16,4*63
$GPGGA,042117.60,3135.5993304,N,12046.7584267,E,4,17,1.4,2.6753,M,8.320,M,00,0004*6C
$GPHPD,0,0.000,56.22,0.54,-14.79,31.5933222,120.7793071,2.675,13630059.474,24925876.238,2.675,0.000,0.000,0.000,0.000,0.000,0.000,0.000,17,16,4*6F
$GPGGA,042117.80,3135.5994143,N,12046.7585728,E,4,17,1.4,2.6806,M,8.320,M,00,0004*64
$GPHPD,0,0.000,55.87,0.91,-14.81,31.5933236,120.7793095,2.681,13630058.575,24925877.511,2.681,0.000,0.000,0.000,0.000,0.000,0.000,0.000,17,16,4*6E
$GPGGA,042118.00,3135.5994980,N,12046.7587203,E,4,17,1.3,2.6843,M,8.320,M,01,0004*6D
$GPHPD,0,0.000,55.73,0.73,-14.79,31.5933250,120.7793120,2.684,13630057.682,24925878.802,2.684,0.000,0.000,0.000,0.000,0.000,0.000,0.000,17,16,4*65
$GPGGA,042118.20,3135.5995840,N,12046.7588656,E,4,17,1.3,2.6815,M,8.320,M,01,0004*6B
$GPHPD,0,0.000,55.31,0.76,-14.78,31.5933264,120.7793144,2.682,13630056.752,24925880.054,2.682,0.000,0.000,0.000,0.000,0.000,0.000,0.000,17,16,4*63
$GPGGA,042118.40,3135.5996711,N,12046.7590121,E,4,17,1.3,2.6862,M,8.320,M,01,0004*6B
$GPHPD,0,0.000,55.22,0.70,-14.77,31.5933279,120.7793169,2.686,13630055.809,24925881.313,2.686,0.000,0.000,0.000,0.000,0.000,0.000,0.000,17,16,4*68
$GPGGA,042118.60,3135.5997589,N,12046.7591619,E,4,17,1.3,2.6840,M,8.320,M,01,0004*66
$GPHPD,0,0.000,54.99,0.16,-14.74,31.5933293,120.7793194,2.684,13630054.862,24925882.608,2.684,0.000,0.000,0.000,0.000,0.000,0.000,0.000,17,16,4*6C
$GPGGA,042118.80,3135.5998472,N,12046.7593107,E,4,17,1.3,2.6812,M,8.320,M,01,0004*6F
$GPHPD,0,0.000,54.85,-0.07,-14.72,31.5933308,120.7793218,2.681,13630053.906,24925883.888,2.681,0.000,0.000,0.000,0.000,0.000,0.000,0.000,17,16,4*4D
$GPGGA,042119.00,3135.5999371,N,12046.7594583,E,4,17,1.3,2.6784,M,8.320,M,02,0004*6F
$GPHPD,0,0.000,54.99,-0.07,-14.71,31.5933323,120.7793243,2.678,13630052.926,24925885.145,2.678,0.000,0.000,0.000,0.000,0.000,0.000,0.000,17,16,4*49
$GPGGA,042119.20,3135.6000248,N,12046.7596055,E,4,17,1.3,2.6778,M,8.320,M,02,0004*63
$GPHPD,0,0.000,54.83,0.09,-14.70,31.5933337,120.7793268,2.678,13630051.975,24925886.409,2.678,0.000,0.000,0.000,0.000,0.000,0.000,0.000,17,16,4*67
$GPGGA,042119.40,3135.6001164,N,12046.7597551,E,4,17,1.3,2.6731,M,8.320,M,02,0004*64
$GPHPD,0,0.000,54.99,0.10,-14.68,31.5933353,120.7793293,2.673,13630050.974,24925887.679,2.673,0.000,0.000,0.000,0.000,0.000,0.000,0.000,17,16,4*6F
$GPGGA,042119.60,3135.6002059,N,12046.7599072,E,4,17,1.3,2.6741,M,8.320,M,02,0004*67
$GPHPD,0,0.000,54.52,0.36,-14.66,31.5933368,120.7793318,2.674,13630050.008,24925888.992,2.674,0.000,0.000,0.000,0.000,0.000,0.000,0.000,17,16,4*6F
$GPGGA,042119.80,3135.6002940,N,12046.7600552,E,4,17,1.3,2.6807,M,8.320,M,00,0004*63
$GPHPD,0,0.000,54.38,0.10,-14.66,31.5933382,120.7793343,2.681,13630049.053,24925890.264,2.681,0.000,0.000,0.000,0.000,0.000,0.000,0.000,17,16,4*60
$GPGGA,042120.00,3135.6003861,N,12046.7602011,E,4,17,1.3,2.6826,M,8.320,M,01,0004*60
$GPHPD,0,0.000,53.92,-0.21,-14.67,31.5933398,120.7793367,2.683,13630048.038,24925891.487,2.683,0.000,0.000,0.000,0.000,0.000,0.000,0.000,17,16,4*42
$GPGGA,042120.20,3135.6004733,N,12046.7603534,E,4,17,1.3,2.6962,M,8.320,M,01,0004*6F
$GPHPD,0,0.000,54.30,0.84,-14.64,31.5933412,120.7793392,2.696,13630047.105,24925892.816,2.696,0.000,0.000,0.000,0.000,0.000,0.000,0.000,17,16,4*64
$GPGGA,042120.40,3135.6005665,N,12046.7605008,E,4,17,1.3,2.6878,M,8.320,M,01,0004*6C
$GPHPD,0,0.000,53.79,0.44,-14.63,31.5933428,120.7793417,2.688,13630046.077,24925894.050,2.688,0.000,0.000,0.000,0.000,0.000,0.000,0.000,17,16,4*6F
$GPGGA,042120.60,3135.6006618,N,12046.7606513,E,4,17,1.3,2.6821,M,8.320,M,01,0004*67
$GPHPD,0,0.000,53.94,0.33,-14.62,31.5933444,120.7793442,2.682,13630045.025,24925895.310,2.682,0.000,0.000,0.000,0.000,0.000,0.000,0.000,17,16,4*65
$GPGGA,042120.80,3135.6007582,N,12046.7608007,E,4,17,1.3,2.6778,M,8.320,M,01,0004*65
$GPHPD,0,0.000,53.96,0.92,-14.58,31.5933460,120.7793467,2.678,13630043.955,24925896.550,2.678,0.000,0.000,0.000,0.000,0.000,0.000,0.000,17,16,4*6D
$GPGGA,042121.00,3135.6008469,N,12046.7609546,E,4,17,1.3,2.6928,M,8.320,M,02,0004*6E
$GPHPD,0,0.000,53.87,0.74,-14.56,31.5933474,120.7793492,2.693,13630043.004,24925897.890,2.693,0.000,0.000,0.000,0.000,0.000,0.000,0.000,17,16,4*69
$GPGGA,042121.20,3135.6009368,N,12046.7611079,E,4,17,1.3,2.6921,M,8.320,M,02,0004*62
$GPHPD,0,0.000,53.65,0.08,-14.56,31.5933489,120.7793518,2.692,13630042.034,24925899.215,2.692,0.000,0.000,0.000,0.000,0.000,0.000,0.000,17,16,4*64
$GPGGA,042121.40,3135.6010281,N,12046.7612549,E,4,17,1.3,2.6824,M,8.320,M,02,0004*6B
$GPHPD,0,0.000,53.33,-0.21,-14.56,31.5933505,120.7793542,2.682,13630041.032,24925900.455,2.682,0.000,0.000,0.000,0.000,0.000,0.000,0.000,17,16,4*4D
$GPGGA,042121.60,3135.6011212,N,12046.7614083,E,4,17,1.3,2.6956,M,8.320,M,02,0004*63
$GPHPD,0,0.000,53.42,0.23,-14.52,31.5933520,120.7793568,2.696,13630040.018,24925901.763,2.696,0.000,0.000,0.000,0.000,0.000,0.000,0.000,17,16,4*61
$GPGGA,042121.80,3135.6012134,N,12046.7615582,E,4,17,1.3,2.6819,M,8.320,M,02,0004*66
$GPHPD,0,0.000,53.44,-0.44,-14.50,31.5933536,120.7793593,2.682,13630039.009,24925903.034,2.682,0.000,0.000,0.000,0.000,0.000,0.000,0.000,17,16,4*43
$GPGGA,042122.00,3135.6013087,N,12046.7617130,E,4,17,1.3,2.6843,M,8.320,M,03,0004*64
$GPHPD,0,0.000,53.68,-0.01,-14.48,31.5933551,120.7793619,2.684,13630037.966,24925904.345,2.684,0.000,0.000,0.000,0.000,0.000,0.000,0.000,17,16,4*49
$GPGGA,042122.20,3135.6014045,N,12046.7618626,E,4,17,1.3,2.6768,M,8.320,M,03,0004*66
$GPHPD,0,0.000,53.70,-0.30,-14.49,31.5933567,120.7793644,2.677,13630036.905,24925905.591,2.677,0.000,0.000,0.000,0.000,0.000,0.000,0.000,17,16,4*44
$GPGGA,042122.40,3135.6014926,N,12046.7620128,E,4,17,1.3,2.6809,M,8.320,M,03,0004*66
$GPHPD,0,0.000,53.74,-0.21,-14.47,31.5933582,120.7793669,2.681,13630035.955,24925906.890,2.681,0.000,0.000,0.000,0.000,0.000,0.000,0.000,17,16,4*43
$GPGGA,042122.60,3135.6015838,N,12046.7621604,E,4,17,1.3,2.6750,M,8.320,M,03,0004*60
$GPHPD,0,0.000,54.00,-0.06,-14.48,31.5933597,120.7793693,2.675,13630034.955,24925908.138,2.675,0.000,0.000,0.000,0.000,0.000,0.000,0.000,17,16,4*48
$GPGGA,042122.80,3135.6016706,N,12046.7623073,E,4,17,1.3,2.6826,M,8.320,M,00,0004*66
$GPHPD,0,0.000,54.26,0.43,-14.50,31.5933612,120.7793718,2.683,13630034.017,24925909.404,2.683,0.000,0.000,0.000,0.000,0.000,0.000,0.000,17,16,4*61
$GPGGA,042123.00,3135.6017642,N,12046.7624556,E,4,17,1.3,2.6759,M,8.320,M,01,0004*6C
$GPHPD,0,0.000,54.23,0.01,-14.52,31.5933627,120.7793743,2.676,13630032.985,24925910.647,2.676,0.000,0.000,0.000,0.000,0.000,0.000,0.000,17,16,4*61
$GPGGA,042123.20,3135.6018540,N,12046.7626036,E,4,17,1.3,2.6798,M,8.320,M,01,0004*6C
$GPHPD,0,0.000,54.69,0.32,-14.53,31.5933642,120.7793767,2.680,13630032.006,24925911.909,2.680,0.000,0.000,0.000,0.000,0.000,0.000,0.000,17,16,4*6D
$GPGGA,042123.40,3135.6019430,N,12046.7627539,E,4,17,1.3,2.6804,M,8.320,M,01,0004*6C
$GPHPD,0,0.000,54.63,0.34,-14.54,31.5933657,120.7793792,2.680,13630031.044,24925913.203,2.680,0.000,0.000,0.000,0.000,0.000,0.000,0.000,17,16,4*6E
$GPGGA,042123.60,3135.6020281,N,12046.7629042,E,4,17,1.3,2.6813,M,8.320,M,00,0004*68
$GPHPD,0,0.000,54.56,-0.32,-14.55,31.5933671,120.7793817,2.681,13630030.136,24925914.520,2.681,0.000,0.000,0.000,0.000,0.000,0.000,0.000,17,16,4*40
$GPGGA,042123.80,3135.6021160,N,12046.7630564,E,4,17,1.3,2.6849,M,8.320,M,00,0004*6D
$GPHPD,0,0.000,54.68,0.48,-14.57,31.5933686,120.7793843,2.685,13630029.193,24925915.843,2.685,0.000,0.000,0.000,0.000,0.000,0.000,0.000,17,16,4*68
$GPGGA,042124.00,3135.6022054,N,12046.7632061,E,4,17,1.3,2.6834,M,8.320,M,01,0004*6E
$GPHPD,0,0.000,54.61,0.30,-14.58,31.5933701,120.7793868,2.683,13630028.224,24925917.128,2.683,0.000,0.000,0.000,0.000,0.000,0.000,0.000,17,16,4*6E
$GPGGA,042124.20,3135.6022915,N,12046.7633581,E,4,17,1.3,2.6957,M,8.320,M,01,0004*6E
$GPHPD,0,0.000,54.53,0.65,-14.58,31.5933715,120.7793893,2.696,13630027.305,24925918.460,2.696,0.000,0.000,0.000,0.000,0.000,0.000,0.000,17,16,4*65
$GPGGA,042124.40,3135.6023844,N,12046.7635030,E,4,17,1.3,2.6792,M,8.320,M,01,0004*62
$GPHPD,0,0.000,54.21,0.15,-14.58,31.5933731,120.7793917,2.679,13630026.276,24925919.666,2.679,0.000,0.000,0.000,0.000,0.000,0.000,0.000,17,16,4*6D
$GPGGA,042124.60,3135.6024691,N,12046.7636540,E,4,17,1.3,2.6866,M,8.320,M,00,0004*65
$GPHPD,0,0.000,54.72,0.43,-14.59,31.5933745,120.7793942,2.687,13630025.376,24925920.993,2.687,0.000,0.000,0.000,0.000,0.000,0.000,0.000,17,16,4*67
$GPGGA,042124.80,3135.6025549,N,12046.7638008,E,4,17,1.3,2.6971,M,8.320,M,00,0004*6C
$GPHPD,0,0.000,54.87,0.67,-14.59,31.5933759,120.7793967,2.697,13630024.452,24925922.264,2.697,0.000,0.000,0.000,0.000,0.000,0.000,0.000,17,16,4*60
$GPGGA,042125.00,3135.6026441,N,12046.7639490,E,4,17,1.3,2.6961,M,8.320,M,01,0004*6B
$GPHPD,0,0.000,54.74,-0.06,-14.57,31.5933774,120.7793992,2.696,13630023.482,24925923.532,2.696,0.000,0.000,0.000,0.000,0.000,0.000,0.000,17,16,4*42
$GPGGA,042125.20,3135.6027339,N,12046.7640948,E,4,17,1.3,2.6819,M,8.320,M,01,0004*68
$GPHPD,0,0.000,54.70,-0.54,-14.55,31.5933789,120.7794016,2.682,13630022.499,24925924.767,2.682,0.000,0.000,0.000,0.000,0.000,0.000,0.000,17,16,4*4D
$GPGGA,042125.40,3135.6028216,N,12046.7642424,E,4,17,1.3,2.6836,M,8.320,M,01,0004*65
$GPHPD,0,0.000,54.87,-0.15,-14.57,31.5933804,120.7794040,2.684,13630021.550,24925926.036,2.684,0.000,0.000,0.000,0.000,0.000,0.000,0.000,17,16,4*4D
$GPGGA,042125.60,3135.6029076,N,12046.7643900,E,4,17,1.3,2.6766,M,8.320,M,01,0004*62
$GPHPD,0,0.000,54.88,-0.04,-14.57,31.5933818,120.7794065,2.677,13630020.624,24925927.315,2.677,0.000,0.000,0.000,0.000,0.000,0.000,0.000,17,16,4*4A
$GPGGA,042125.80,3135.6029905,N,12046.7645379,E,4,17,1.3,2.6877,M,8.320,M,00,0004*6D
$GPHPD,0,0.000,54.99,0.60,-14.58,31.5933832,120.7794090,2.688,13630019.743,24925928.615,2.688,0.000,0.000,0.000,0.000,0.000,0.000,0.000,17,16,4*68
$GPGGA,042126.00,3135.6030783,N,12046.7646894,E,4,17,1.3,2.6844,M,8.320,M,01,0004*64
$GPHPD,0,0.000,55.01,0.17,-14.56,31.5933846,120.7794115,2.684,13630018.800,24925929.931,2.684,0.000,0.000,0.000,0.000,0.000,0.000,0.000,17,16,4*68
$GPGGA,042126.20,3135.6031655,N,12046.7648391,E,4,17,1.3,2.6925,M,8.320,M,01,0004*6B
$GPHPD,0,0.000,55.24,0.30,-14.56,31.5933861,120.7794140,2.693,13630017.862,24925931.228,2.693,0.000,0.000,0.000,0.000,0.000,0.000,0.000,17,16,4*6E
$GPGGA,042126.40,3135.6032483,N,12046.7649868,E,4,17,1.3,2.6815,M,8.320,M,01,0004*69
$GPHPD,0,0.000,55.52,0.06,-14.59,31.5933875,120.7794164,2.682,13630016.982,24925932.527,2.682,0.000,0.000,0.000,0.000,0.000,0.000,0.000,17,16,4*63
$GPGGA,042126.60,3135.6033343,N,12046.7651343,E,4,17,1.3,2.6843,M,8.320,M,00,0004*68
$GPHPD,0,0.000,55.60,0.50,-14.59,31.5933889,120.7794189,2.684,13630016.056,24925933.805,2.684,0.000,0.000,0.000,0.000,0.000,0.000,0.000,17,16,4*6D
$GPGGA,042126.80,3135.6034214,N,12046.7652815,E,4,17,1.3,2.6807,M,8.320,M,00,0004*69
$GPHPD,0,0.000,55.89,0.60,-14.59,31.5933904,120.7794214,2.681,13630015.114,24925935.073,2.681,0.000,0.000,0.000,0.000,0.000,0.000,0.000,17,16,4*61
$GPGGA,042127.00,3135.6035024,N,12046.7654319,E,4,17,1.3,2.6903,M,8.320,M,01,0004*65
$GPHPD,0,0.000,56.18,0.68,-14.60,31.5933917,120.7794239,2.690,13630014.266,24925936.415,2.690,0.000,0.000,0.000,0.000,0.000,0.000,0.000,17,16,4*65
$GPGGA,042127.20,3135.6035902,N,12046.7655806,E,4,17,1.3,2.6824,M,8.320,M,01,0004*6A
$GPHPD,0,0.000,56.37,0.32,-14.60,31.5933932,120.7794263,2.682,13630013.317,24925937.697,2.682,0.000,0.000,0.000,0.000,0.000,0.000,0.000,17,15,4*65
$GPGGA,042127.40,3135.6036703,N,12046.7657332,E,4,17,1.3,2.6806,M,8.320,M,01,0004*6E
$GPHPD,0,0.000,56.79,0.56,-14.60,31.5933945,120.7794289,2.681,13630012.485,24925939.070,2.681,0.000,0.000,0.000,0.000,0.000,0.000,0.000,17,16,4*66
$GPGGA,042127.60,3135.6037545,N,12046.7658874,E,4,17,1.3,2.6873,M,8.320,M,00,0004*68
$GPHPD,0,0.000,57.24,1.30,-14.59,31.5933959,120.7794315,2.687,13630011.599,24925940.439,2.687,0.000,0.000,0.000,0.000,0.000,0.000,0.000,17,16,4*65
$GPGGA,042127.80,3135.6038369,N,12046.7660395,E,4,17,1.3,2.6917,M,8.320,M,00,0004*6D
$GPHPD,0,0.000,57.57,1.27,-14.59,31.5933973,120.7794340,2.692,13630010.733,24925941.794,2.692,0.000,0.000,0.000,0.000,0.000,0.000,0.000,17,16,4*69
$GPGGA,042128.00,3135.6039151,N,12046.7661918,E,4,17,1.3,2.7033,M,8.320,M,01,0004*63
$GPHPD,0,0.000,57.94,1.71,-14.58,31.5933986,120.7794365,2.703,13630009.928,24925943.175,2.703,0.000,0.000,0.000,0.000,0.000,0.000,0.000,17,16,4*6E
$GPGGA,042128.20,3135.6039950,N,12046.7663515,E,4,17,1.3,2.7060,M,8.320,M,01,0004*6D
$GPHPD,0,0.000,57.99,0.45,-14.58,31.5933999,120.7794392,2.706,13630009.114,24925944.635,2.706,0.000,0.000,0.000,0.000,0.000,0.000,0.000,17,16,4*60
$GPGGA,042128.40,3135.6040771,N,12046.7665082,E,4,17,1.3,2.7187,M,8.320,M,01,0004*6D
$GPHPD,0,0.000,58.09,-0.15,-14.58,31.5934013,120.7794418,2.719,13630008.262,24925946.047,2.719,0.000,0.000,0.000,0.000,0.000,0.000,0.000,17,16,4*45
$GPGGA,042128.60,3135.6041553,N,12046.7666657,E,4,17,1.3,2.7311,M,8.321,M,01,0004*6D
$GPHPD,0,0.000,57.82,-0.16,-14.56,31.5934026,120.7794444,2.731,13630007.467,24925947.490,2.731,0.000,0.000,0.000,0.000,0.000,0.000,0.000,17,16,4*48
$GPGGA,042128.80,3135.6042338,N,12046.7668185,E,4,17,1.3,2.7271,M,8.321,M,01,0004*6A
$GPHPD,0,0.000,57.41,-1.00,-14.55,31.5934039,120.7794470,2.727,13630006.659,24925948.876,2.727,0.000,0.000,0.000,0.000,0.000,0.000,0.000,17,16,4*4E
$GPGGA,042129.00,3135.6043192,N,12046.7669743,E,4,17,1.3,2.7129,M,8.321,M,02,0004*60
$GPHPD,0,0.000,57.62,-0.42,-14.54,31.5934053,120.7794496,2.713,13630005.758,24925950.257,2.713,0.000,0.000,0.000,0.000,0.000,0.000,0.000,17,16,4*4E
$GPGGA,042129.20,3135.6044005,N,12046.7671296,E,4,17,1.3,2.7114,M,8.321,M,02,0004*60
$GPHPD,0,0.000,57.67,-0.72,-14.54,31.5934067,120.7794522,2.711,13630004.915,24925951.656,2.711,0.000,0.000,0.000,0.000,0.000,0.000,0.000,17,16,4*43
$GPGGA,042129.40,3135.6044847,N,12046.7672872,E,4,17,1.3,2.7149,M,8.321,M,02,0004*63
$GPHPD,0,0.000,57.86,-0.43,-14.54,31.5934081,120.7794548,2.715,13630004.035,24925953.066,2.715,0.000,0.000,0.000,0.000,0.000,0.000,0.000,17,16,4*46
$GPGGA,042129.60,3135.6045675,N,12046.7674436,E,4,17,1.3,2.7056,M,8.321,M,02,0004*6A
$GPHPD,0,0.000,57.93,-0.70,-14.54,31.5934095,120.7794574,2.706,13630003.173,24925954.470,2.706,0.000,0.000,0.000,0.000,0.000,0.000,0.000,17,16,4*48
$GPGGA,042129.80,3135.6046502,N,12046.7676011,E,4,17,1.3,2.7053,M,8.321,M,00,0004*60
$GPHPD,0,0.000,58.15,-0.31,-14.55,31.5934108,120.7794600,2.705,13630002.315,24925955.888,2.705,0.000,0.000,0.000,0.000,0.000,0.000,0.000,17,16,4*41
$GPGGA,042130.00,3135.6047333,N,12046.7677552,E,4,17,1.3,2.6862,M,8.321,M,01,0004*6C
$GPHPD,0,0.000,58.37,-0.74,-14.55,31.5934122,120.7794626,2.686,13630001.443,24925957.262,2.686,0.000,0.000,0.000,0.000,0.000,0.000,0.000,17,16,4*47
$GPGGA,042130.20,3135.6048133,N,12046.7679096,E,4,17,1.3,2.6860,M,8.321,M,01,0004*62
$GPHPD,0,0.000,58.60,0.33,-14.57,31.5934136,120.7794652,2.686,13630000.617,24925958.658,2.686,0.000,0.000,0.000,0.000,0.000,0.000,0.000,17,16,4*6F
$GPGGA,042130.40,3135.6048950,N,12046.7680708,E,4,17,1.3,2.6919,M,8.321,M,01,0004*60
$GPHPD,0,0.000,58.62,0.43,-14.58,31.5934149,120.7794678,2.692,13629999.780,24925960.126,2.692,0.000,0.000,0.000,0.000,0.000,0.000,0.000,17,16,4*6E
$GPGGA,042130.60,3135.6049733,N,12046.7682286,E,4,17,1.3,2.6883,M,8.321,M,01,0004*6B
$GPHPD,0,0.000,58.70,-0.10,-14.59,31.5934162,120.7794705,2.688,13629998.984,24925961.573,2.688,0.000,0.000,0.000,0.000,0.000,0.000,0.000,17,16,4*4B
$GPGGA,042130.80,3135.6050531,N,12046.7683878,E,4,17,1.3,2.6800,M,8.321,M,01,0004*6C
$GPHPD,0,0.000,58.58,0.41,-14.59,31.5934176,120.7794731,2.680,13629998.170,24925963.028,2.680,0.000,0.000,0.000,0.000,0.000,0.000,0.000,17,16,4*60
$GPGGA,042131.00,3135.6051353,N,12046.7685452,E,4,17,1.3,2.6902,M,8.321,M,02,0004*64
$GPHPD,0,0.000,58.45,0.64,-14.62,31.5934189,120.7794758,2.690,13629997.319,24925964.447,2.690,0.000,0.000,0.000,0.000,0.000,0.000,0.000,17,16,4*64
$GPGGA,042131.20,3135.6052146,N,12046.7687009,E,4,17,1.3,2.6874,M,8.321,M,02,0004*6B
$GPHPD,0,0.000,58.77,0.11,-14.60,31.5934202,120.7794783,2.687,13629996.505,24925965.863,2.687,0.000,0.000,0.000,0.000,0.000,0.000,0.000,17,16,4*62
$GPGGA,042131.40,3135.6052957,N,12046.7688587,E,4,17,1.3,2.6928,M,8.321,M,02,0004*61
$GPHPD,0,0.000,58.86,0.49,-14.60,31.5934216,120.7794810,2.693,13629995.669,24925967.294,2.693,0.000,0.000,0.000,0.000,0.000,0.000,0.000,17,16,4*6B
$GPGGA,042131.60,3135.6053760,N,12046.7690173,E,4,17,1.3,2.6938,M,8.321,M,02,0004*6F
$GPHPD,0,0.000,58.99,0.01,-14.60,31.5934229,120.7794836,2.694,13629994.847,24925968.738,2.694,0.000,0.000,0.000,0.000,0.000,0.000,0.000,17,16,4*6E
$GPGGA,042131.80,3135.6054555,N,12046.7691717,E,4,17,1.3,2.6969,M,8.321,M,02,0004*63
$GPHPD,0,0.000,59.07,1.14,-14.61,31.5934243,120.7794862,2.697,13629994.028,24925970.137,2.697,0.000,0.000,0.000,0.000,0.000,0.000,0.000,17,16,4*60
$GPGGA,042132.00,3135.6055319,N,12046.7693288,E,4,17,1.3,2.7026,M,8.321,M,03,0004*64
$GPHPD,0,0.000,59.39,0.88,-14.62,31.5934255,120.7794888,2.703,13629993.258,24925971.587,2.703,0.000,0.000,0.000,0.000,0.000,0.000,0.000,17,15,4*66
$GPGGA,042132.20,3135.6056098,N,12046.7694879,E,4,17,1.3,2.7052,M,8.321,M,03,0004*6F
$GPHPD,0,0.000,59.51,1.71,-14.62,31.5934268,120.7794915,2.705,13629992.470,24925973.052,2.705,0.000,0.000,0.000,0.000,0.000,0.000,0.000,17,15,4*66
$GPGGA,042132.40,3135.6056888,N,12046.7696467,E,4,17,1.3,2.7082,M,8.321,M,03,0004*6C
$GPHPD,0,0.000,59.36,0.84,-14.63,31.5934281,120.7794941,2.708,13629991.667,24925974.506,2.708,0.000,0.000,0.000,0.000,0.000,0.000,0.000,17,15,4*6F
$GPGGA,042132.60,3135.6057690,N,12046.7698064,E,4,17,1.4,2.7047,M,8.321,M,03,0004*6F
$GPHPD,0,0.000,59.10,0.33,-14.64,31.5934295,120.7794968,2.705,13629990.848,24925975.965,2.705,0.000,0.000,0.000,0.000,0.000,0.000,0.000,17,15,4*64
$GPGGA,042132.80,3135.6058469,N,12046.7699610,E,4,17,1.3,2.7117,M,8.321,M,03,0004*6D
$GPHPD,0,0.000,58.77,0.07,-14.65,31.5934308,120.7794994,2.712,13629990.052,24925977.376,2.712,0.000,0.000,0.000,0.000,0.000,0.000,0.000,17,15,4*6D
$GPGGA,042133.00,3135.6059188,N,12046.7701189,E,4,17,1.3,2.7305,M,8.321,M,04,0004*6E
$GPHPD,0,0.000,58.83,0.01,-14.69,31.5934320,120.7795020,2.731,13629989.348,24925978.861,2.731,0.000,0.000,0.000,0.000,0.000,0.000,0.000,17,15,4*63
$GPGGA,042133.20,3135.6060019,N,12046.7702756,E,4,17,1.3,2.7235,M,8.321,M,04,0004*6A
$GPHPD,0,0.000,58.62,-0.39,-14.68,31.5934334,120.7795046,2.724,13629988.482,24925980.267,2.724,0.000,0.000,0.000,0.000,0.000,0.000,0.000,17,15,4*45
$GPGGA,042133.40,3135.6060857,N,12046.7704303,E,4,17,1.3,2.7109,M,8.321,M,04,0004*60
$GPHPD,0,0.000,58.73,-0.19,-14.69,31.5934348,120.7795072,2.711,13629987.602,24925981.644,2.711,0.000,0.000,0.000,0.000,0.000,0.000,0.000,17,15,4*4B
$GPGGA,042133.60,3135.6061596,N,12046.7705911,E,4,17,1.3,2.7208,M,8.321,M,04,0004*69
$GPHPD,0,0.000,59.04,0.09,-14.72,31.5934360,120.7795099,2.721,13629986.875,24925983.153,2.721,0.000,0.000,0.000,0.000,0.000,0.000,0.000,17,15,4*6F
$GPGGA,042133.80,3135.6062414,N,12046.7707410,E,4,17,1.3,2.7119,M,8.321,M,04,0004*62
$GPHPD,0,0.000,58.81,-0.05,-14.73,31.5934374,120.7795124,2.712,13629986.014,24925984.484,2.712,0.000,0.000,0.000,0.000,0.000,0.000,0.000,17,15,4*46
$GPGGA,042134.00,3135.6063164,N,12046.7708993,E,4,17,1.4,2.7012,M,8.321,M,05,0004*6B
$GPHPD,0,0.000,59.06,0.08,-14.74,31.5934386,120.7795150,2.701,13629985.266,24925985.956,2.701,0.000,0.000,0.000,0.000,0.000,0.000,0.000,17,15,5*67
$GPGGA,042134.20,3135.6063978,N,12046.7710533,E,4,17,1.3,2.7091,M,8.321,M,05,0004*6F
$GPHPD,0,0.000,58.77,0.25,-14.74,31.5934400,120.7795176,2.709,13629984.419,24925987.339,2.709,0.000,0.000,0.000,0.000,0.000,0.000,0.000,17,15,5*6C
$GPGGA,042134.40,3135.6064777,N,12046.7712121,E,4,17,1.3,2.7019,M,8.321,M,05,0004*6A
$GPHPD,0,0.000,59.06,0.03,-14.74,31.5934413,120.7795202,2.702,13629983.603,24925988.789,2.702,0.000,0.000,0.000,0.000,0.000,0.000,0.000,17,15,5*63
$GPGGA,042134.60,3135.6065547,N,12046.7713691,E,4,17,1.3,2.7042,M,8.321,M,05,0004*6B
$GPHPD,0,0.000,59.14,0.45,-14.74,31.5934426,120.7795228,2.704,13629982.824,24925990.233,2.704,0.000,0.000,0.000,0.000,0.000,0.000,0.000,17,15,5*6B
$GPGGA,042134.80,3135.6066307,N,12046.7715217,E,4,17,1.3,2.7147,M,8.321,M,00,0004*69
$GPHPD,0,0.000,59.20,0.19,-14.75,31.5934438,120.7795254,2.715,13629982.051,24925991.631,2.715,0.000,0.000,0.000,0.000,0.000,0.000,0.000,17,15,4*6C
$GPGGA,042135.00,3135.6067130,N,12046.7716772,E,4,17,1.3,2.7185,M,8.321,M,01,0004*6D
$GPHPD,0,0.000,59.03,0.13,-14.71,31.5934452,120.7795280,2.719,13629981.194,24925993.027,2.719,0.000,0.000,0.000,0.000,0.000,0.000,0.000,17,15,4*6E
$GPGGA,042135.20,3135.6067935,N,12046.7718356,E,4,17,1.3,2.7183,M,8.321,M,01,0004*68
$GPHPD,0,0.000,59.14,-0.11,-14.73,31.5934466,120.7795306,2.718,13629980.368,24925994.468,2.718,0.000,0.000,0.000,0.000,0.000,0.000,0.000,17,15,4*45
$GPGGA,042135.40,3135.6068738,N,12046.7719937,E,4,17,1.3,2.7133,M,8.321,M,01,0004*65
$GPHPD,0,0.000,58.99,0.13,-14.70,31.5934479,120.7795332,2.713,13629979.545,24925995.907,2.713,0.000,0.000,0.000,0.000,0.000,0.000,0.000,17,15,4*6E
$GPGGA,042135.60,3135.6069547,N,12046.7721567,E,4,17,1.3,2.7116,M,8.321,M,00,0004*68
$GPHPD,0,0.000,58.85,0.33,-14.66,31.5934492,120.7795359,2.712,13629978.723,24925997.401,2.712,0.000,0.000,0.000,0.000,0.000,0.000,0.000,17,15,4*64
$GPGGA,042135.80,3135.6070356,N,12046.7723145,E,4,17,1.3,2.7091,M,8.321,M,00,0004*60
$GPHPD,0,0.000,58.90,1.11,-14.65,31.5934506,120.7795386,2.709,13629977.890,24925998.833,2.709,0.000,0.000,0.000,0.000,0.000,0.000,0.000,17,15,4*66
$GPGGA,042136.00,3135.6071154,N,12046.7724720,E,4,17,1.3,2.7108,M,8.321,M,01,0004*68
$GPHPD,0,0.000,58.87,1.13,-14.65,31.5934519,120.7795412,2.711,13629977.073,24926000.267,2.711,0.000,0.000,0.000,0.000,0.000,0.000,0.000,17,15,4*63
$GPGGA,042136.20,3135.6071971,N,12046.7726333,E,4,17,1.3,2.7092,M,8.321,M,01,0004*63
$GPHPD,0,0.000,58.59,0.41,-14.62,31.5934533,120.7795439,2.709,13629976.236,24926001.737,2.709,0.000,0.000,0.000,0.000,0.000,0.000,0.000,17,15,4*63
$GPGGA,042136.40,3135.6072765,N,12046.7727953,E,4,17,1.3,2.7217,M,8.321,M,01,0004*6F
$GPHPD,0,0.000,58.72,0.56,-14.60,31.5934546,120.7795466,2.722,13629975.433,24926003.228,2.722,0.000,0.000,0.000,0.000,0.000,0.000,0.000,17,15,4*6F
$GPGGA,042136.60,3135.6073579,N,12046.7729578,E,4,17,1.3,2.7281,M,8.321,M,01,0004*67
$GPHPD,0,0.000,58.69,-0.10,-14.60,31.5934560,120.7795493,2.728,13629974.603,24926004.713,2.728,0.000,0.000,0.000,0.000,0.000,0.000,0.000,17,14,4*4F
$GPGGA,042136.80,3135.6074363,N,12046.7731175,E,4,17,1.3,2.7341,M,8.321,M,01,0004*6E
$GPHPD,0,0.000,58.74,-0.09,-14.59,31.5934573,120.7795520,2.734,13629973.810,24926006.182,2.734,0.000,0.000,0.000,0.000,0.000,0.000,0.000,17,14,4*4D
$GPGGA,042137.00,3135.6075227,N,12046.7732777,E,4,16,1.4,2.7210,M,8.321,M,02,0004*60
$GPHPD,0,0.000,58.61,0.01,-14.58,31.5934587,120.7795546,2.721,13629972.904,24926007.611,2.721,0.000,0.000,0.000,0.000,0.000,0.000,0.000,16,14,4*6E
$GPGGA,042137.20,3135.6076071,N,12046.7734368,E,4,17,1.4,2.7162,M,8.321,M,02,0004*6B
$GPHPD,0,0.000,58.73,0.17,-14.54,31.5934601,120.7795573,2.716,13629972.025,24926009.038,2.716,0.000,0.000,0.000,0.000,0.000,0.000,0.000,17,14,4*65
$GPGGA,042137.40,3135.6076856,N,12046.7735970,E,4,17,1.4,2.7127,M,8.321,M,02,0004*63
$GPHPD,0,0.000,59.03,0.28,-14.57,31.5934614,120.7795600,2.713,13629971.231,24926010.513,2.713,0.000,0.000,0.000,0.000,0.000,0.000,0.000,17,15,4*6E
$GPGGA,042137.60,3135.6077702,N,12046.7737549,E,4,17,1.4,2.7042,M,8.321,M,02,0004*68
$GPHPD,0,0.000,58.79,-0.05,-14.57,31.5934628,120.7795626,2.704,13629970.346,24926011.924,2.704,0.000,0.000,0.000,0.000,0.000,0.000,0.000,17,15,4*42
$GPGGA,042137.80,3135.6078497,N,12046.7739119,E,4,17,1.4,2.6849,M,8.321,M,00,0004*69
$GPHPD,0,0.000,58.88,0.25,-14.55,31.5934642,120.7795652,2.685,13629969.532,24926013.354,2.685,0.000,0.000,0.000,0.000,0.000,0.000,0.000,17,15,4*6C
$GPGGA,042138.00,3135.6079261,N,12046.7740830,E,4,17,1.5,2.7186,M,8.321,M,01,0004*67
$GPHPD,0,0.000,58.84,0.35,-14.55,31.5934654,120.7795681,2.719,13629968.790,24926014.973,2.719,0.000,0.000,0.000,0.000,0.000,0.000,0.000,17,15,4*6B
$GPGGA,042138.20,3135.6080122,N,12046.7742371,E,4,17,1.4,2.6891,M,8.321,M,01,0004*64
$GPHPD,0,0.000,58.96,0.44,-14.59,31.5934669,120.7795706,2.689,13629967.876,24926016.329,2.689,0.000,0.000,0.000,0.000,0.000,0.000,0.000,17,15,4*6D
$GPGGA,042138.40,3135.6080869,N,12046.7743971,E,4,17,1.3,2.7014,M,8.321,M,01,0004*6C
$GPHPD,0,0.000,59.26,0.35,-14.61,31.5934681,120.7795733,2.701,13629967.137,24926017.824,2.701,0.000,0.000,0.000,0.000,0.000,0.000,0.000,17,15,4*61
$GPGGA,042138.60,3135.6081686,N,12046.7745586,E,4,17,1.3,2.6947,M,8.321,M,00,0004*6D
$GPHPD,0,0.000,59.41,0.46,-14.62,31.5934695,120.7795760,2.695,13629966.300,24926019.295,2.695,0.000,0.000,0.000,0.000,0.000,0.000,0.000,17,15,4*6D
$GPGGA,042138.80,3135.6082448,N,12046.7747195,E,4,17,1.3,2.7003,M,8.321,M,00,0004*6C
$GPHPD,0,0.000,59.57,0.30,-14.65,31.5934707,120.7795787,2.700,13629965.541,24926020.792,2.700,0.000,0.000,0.000,0.000,0.000,0.000,0.000,17,15,4*67
$GPGGA,042139.00,3135.6083265,N,12046.7748809,E,4,17,1.3,2.7078,M,8.321,M,01,0004*63
$GPHPD,0,0.000,59.72,0.05,-14.67,31.5934721,120.7795813,2.708,13629964.704,24926022.262,2.708,0.000,0.000,0.000,0.000,0.000,0.000,0.000,17,15,4*68
$GPGGA,042139.20,3135.6084062,N,12046.7750438,E,4,17,1.3,2.7053,M,8.321,M,01,0004*6D
$GPHPD,0,0.000,59.61,-0.50,-14.69,31.5934734,120.7795841,2.705,13629963.899,24926023.763,2.705,0.000,0.000,0.000,0.000,0.000,0.000,0.000,17,15,4*43
$GPGGA,042139.40,3135.6084851,N,12046.7752025,E,4,17,1.3,2.7058,M,8.321,M,01,0004*62
$GPHPD,0,0.000,60.04,-0.06,-14.68,31.5934748,120.7795867,2.706,13629963.097,24926025.217,2.706,0.000,0.000,0.000,0.000,0.000,0.000,0.000,17,15,4*41
$GPGGA,042139.60,3135.6085649,N,12046.7753652,E,4,17,1.3,2.7039,M,8.321,M,00,0004*67
$GPHPD,0,0.000,59.88,0.23,-14.66,31.5934761,120.7795894,2.704,13629962.290,24926026.714,2.704,0.000,0.000,0.000,0.000,0.000,0.000,0.000,17,15,4*6D
$GPGGA,042139.80,3135.6086419,N,12046.7755264,E,4,17,1.3,2.7036,M,8.321,M,00,0004*65
$GPHPD,0,0.000,59.96,0.35,-14.66,31.5934774,120.7795921,2.704,13629961.520,24926028.209,2.704,0.000,0.000,0.000,0.000,0.000,0.000,0.000,17,15,4*66
$GPGGA,042140.00,3135.6087192,N,12046.7756887,E,4,17,1.3,2.7075,M,8.321,M,01,0004*66
$GPHPD,0,0.000,59.95,0.65,-14.69,31.5934787,120.7795948,2.708,13629960.747,24926029.716,2.708,0.000,0.000,0.000,0.000,0.000,0.000,0.000,17,15,4*64
$GPGGA,042140.20,3135.6087957,N,12046.7758577,E,4,17,1.4,2.7297,M,8.321,M,01,0004*60
$GPHPD,0,0.000,59.92,0.76,-14.68,31.5934799,120.7795976,2.730,13629960.000,24926031.309,2.730,0.000,0.000,0.000,0.000,0.000,0.000,0.000,17,15,4*65
$GPGGA,042140.40,3135.6088757,N,12046.7760171,E,4,17,1.4,2.7337,M,8.321,M,01,0004*65
$GPHPD,0,0.000,59.83,0.85,-14.67,31.5934813,120.7796003,2.734,13629959.183,24926032.765,2.734,0.000,0.000,0.000,0.000,0.000,0.000,0.000,17,15,4*6E
$GPGGA,042140.60,3135.6089537,N,12046.7761768,E,4,17,1.4,2.7263,M,8.321,M,01,0004*6D
$GPHPD,0,0.000,59.45,0.58,-14.70,31.5934826,120.7796029,2.726,13629958.396,24926034.236,2.726,0.000,0.000,0.000,0.000,0.000,0.000,0.000,17,15,4*6E
$GPGGA,042140.80,3135.6090296,N,12046.7763391,E,4,17,1.4,2.7457,M,8.321,M,01,0004*66
$GPHPD,0,0.000,59.46,0.74,-14.69,31.5934838,120.7796057,2.746,13629957.644,24926035.752,2.746,0.000,0.000,0.000,0.000,0.000,0.000,0.000,17,15,4*6E
$GPGGA,042141.00,3135.6091066,N,12046.7764947,E,4,16,1.4,2.7419,M,8.321,M,02,0004*6D
$GPHPD,0,0.000,59.02,-0.22,-14.71,31.5934851,120.7796082,2.742,13629956.862,24926037.179,2.742,0.000,0.000,0.000,0.000,0.000,0.000,0.000,16,15,4*49
$GPGGA,042141.20,3135.6091852,N,12046.7766607,E,4,17,1.4,2.7615,M,8.321,M,02,0004*66
$GPHPD,0,0.000,58.96,-0.18,-14.71,31.5934864,120.7796110,2.762,13629956.079,24926038.723,2.762,0.000,0.000,0.000,0.000,0.000,0.000,0.000,17,15,4*45
$GPGGA,042141.40,3135.6092670,N,12046.7768132,E,4,17,1.4,2.7331,M,8.321,M,02,0004*61
$GPHPD,0,0.000,58.86,-0.66,-14.73,31.5934878,120.7796136,2.733,13629955.223,24926040.086,2.733,0.000,0.000,0.000,0.000,0.000,0.000,0.000,17,15,4*4F
$GPGGA,042141.60,3135.6093460,N,12046.7769756,E,4,17,1.4,2.7444,M,8.321,M,02,0004*61
$GPHPD,0,0.000,59.27,0.44,-14.74,31.5934891,120.7796163,2.744,13629954.427,24926041.584,2.744,0.000,0.000,0.000,0.000,0.000,0.000,0.000,17,15,4*6D
$GPGGA,042141.80,3135.6094276,N,12046.7771343,E,4,17,1.4,2.7417,M,8.321,M,02,0004*66
$GPHPD,0,0.000,59.02,0.20,-14.73,31.5934905,120.7796189,2.742,13629953.586,24926043.023,2.742,0.000,0.000,0.000,0.000,0.000,0.000,0.000,17,15,4*60
$GPGGA,042142.00,3135.6095096,N,12046.7772923,E,4,17,1.5,2.7282,M,8.321,M,03,0004*65
$GPHPD,0,0.000,59.14,0.12,-14.74,31.5934918,120.7796215,2.728,13629952.738,24926044.450,2.728,0.000,0.000,0.000,0.000,0.000,0.000,0.000,17,15,4*6A
$GPGGA,042142.20,3135.6095884,N,12046.7774504,E,4,17,1.5,2.7299,M,8.321,M,03,0004*69
$GPHPD,0,0.000,59.24,0.86,-14.73,31.5934931,120.7796242,2.730,13629951.936,24926045.898,2.730,0.000,0.000,0.000,0.000,0.000,0.000,0.000,17,15,4*60
$GPGGA,042142.40,3135.6096700,N,12046.7776098,E,4,17,1.5,2.7361,M,8.321,M,03,0004*6B
$GPHPD,0,0.000,59.00,1.01,-14.72,31.5934945,120.7796268,2.736,13629951.097,24926047.345,2.736,0.000,0.000,0.000,0.000,0.000,0.000,0.000,17,15,4*69
$GPGGA,042142.60,3135.6097494,N,12046.7777695,E,4,17,1.5,2.7459,M,8.321,M,03,0004*60
$GPHPD,0,0.000,58.78,0.75,-14.71,31.5934958,120.7796295,2.746,13629950.290,24926048.808,2.746,0.000,0.000,0.000,0.000,0.000,0.000,0.000,17,15,4*61
$GPGGA,042142.80,3135.6098300,N,12046.7779317,E,4,17,1.5,2.7494,M,8.321,M,00,0004*68
$GPHPD,0,0.000,58.88,0.39,-14.72,31.5934972,120.7796322,2.749,13629949.470,24926050.295,2.749,0.000,0.000,0.000,0.000,0.000,0.000,0.000,17,15,4*67
$GPGGA,042143.00,3135.6099110,N,12046.7780917,E,4,17,1.5,2.7437,M,8.321,M,01,0004*67
$GPHPD,0,0.000,58.64,0.42,-14.72,31.5934985,120.7796349,2.744,13629948.641,24926051.752,2.744,0.000,0.000,0.000,0.000,0.000,0.000,0.000,17,15,4*62
$GPGGA,042143.20,3135.6099937,N,12046.7782548,E,4,17,1.4,2.7596,M,8.321,M,01,0004*67
$GPHPD,0,0.000,58.92,1.23,-14.71,31.5934999,120.7796376,2.760,13629947.794,24926053.237,2.760,0.000,0.000,0.000,0.000,0.000,0.000,0.000,17,15,4*6D
$GPGGA,042143.40,3135.6100745,N,12046.7784138,E,4,17,1.4,2.7623,M,8.321,M,01,0004*63
$GPHPD,0,0.000,59.11,0.91,-14.71,31.5935012,120.7796402,2.762,13629946.965,24926054.684,2.762,0.000,0.000,0.000,0.000,0.000,0.000,0.000,17,16,4*69
$GPGGA,042143.60,3135.6101561,N,12046.7785776,E,4,17,1.4,2.7659,M,8.321,M,01,0004*64
$GPHPD,0,0.000,59.20,0.72,-14.71,31.5935026,120.7796430,2.766,13629946.135,24926056.184,2.766,0.000,0.000,0.000,0.000,0.000,0.000,0.000,17,16,4*68
$GPGGA,042143.80,3135.6102370,N,12046.7787422,E,4,17,1.4,2.7603,M,8.321,M,01,0004*60
$GPHPD,0,0.000,58.91,0.30,-14.71,31.5935040,120.7796457,2.760,13629945.316,24926057.698,2.760,0.000,0.000,0.000,0.000,0.000,0.000,0.000,17,16,4*6F
$GPGGA,042144.00,3135.6103193,N,12046.7789027,E,4,17,1.4,2.7652,M,8.321,M,02,0004*69
$GPHPD,0,0.000,58.90,0.31,-14.72,31.5935053,120.7796484,2.765,13629944.469,24926059.154,2.765,0.000,0.000,0.000,0.000,0.000,0.000,0.000,17,15,4*64
$GPGGA,042144.20,3135.6104004,N,12046.7790657,E,4,17,1.4,2.7674,M,8.321,M,02,0004*6E
$GPHPD,0,0.000,58.83,0.19,-14.69,31.5935067,120.7796511,2.767,13629943.644,24926060.647,2.767,0.000,0.000,0.000,0.000,0.000,0.000,0.000,17,16,4*6A
$GPGGA,042144.40,3135.6104813,N,12046.7792282,E,4,17,1.4,2.7667,M,8.321,M,02,0004*6A
$GPHPD,0,0.000,58.65,-0.16,-14.71,31.5935080,120.7796538,2.767,13629942.821,24926062.136,2.767,0.000,0.000,0.000,0.000,0.000,0.000,0.000,17,16,4*44
$GPGGA,042144.60,3135.6105676,N,12046.7793924,E,4,17,1.4,2.7663,M,8.321,M,02,0004*66
$GPHPD,0,0.000,58.71,0.68,-14.71,31.5935095,120.7796565,2.766,13629941.925,24926063.613,2.766,0.000,0.000,0.000,0.000,0.000,0.000,0.000,17,16,4*6E
$GPGGA,042144.80,3135.6106500,N,12046.7795528,E,4,17,1.4,2.7529,M,8.321,M,02,0004*62
$GPHPD,0,0.000,58.86,0.50,-14.71,31.5935108,120.7796592,2.753,13629941.076,24926065.067,2.753,0.000,0.000,0.000,0.000,0.000,0.000,0.000,17,16,4*6C
$GPGGA,042145.00,3135.6107311,N,12046.7797148,E,4,17,1.4,2.7572,M,8.321,M,03,0004*63
$GPHPD,0,0.000,58.72,0.82,-14.73,31.5935122,120.7796619,2.757,13629940.249,24926066.549,2.757,0.000,0.000,0.000,0.000,0.000,0.000,0.000,17,16,4*67
$GPGGA,042145.20,3135.6108128,N,12046.7798760,E,4,17,1.4,2.7601,M,8.321,M,03,0004*62
$GPHPD,0,0.000,58.27,0.17,-14.77,31.5935135,120.7796646,2.760,13629939.412,24926068.017,2.760,0.000,0.000,0.000,0.000,0.000,0.000,0.000,17,16,4*65
$GPGGA,042145.40,3135.6109005,N,12046.7800386,E,4,17,1.5,2.7619,M,8.321,M,03,0004*61
$GPHPD,0,0.000,58.30,0.12,-14.75,31.5935150,120.7796673,2.762,13629938.493,24926069.467,2.762,0.000,0.000,0.000,0.000,0.000,0.000,0.000,17,16,4*6B
$GPGGA,042145.60,3135.6109792,N,12046.7802007,E,4,17,1.5,2.7624,M,8.321,M,03,0004*6C
$GPHPD,0,0.000,58.23,-0.46,-14.76,31.5935163,120.7796700,2.762,13629937.700,24926070.963,2.762,0.000,0.000,0.000,0.000,0.000,0.000,0.000,17,16,4*44
$GPGGA,042145.80,3135.6110595,N,12046.7803640,E,4,17,1.4,2.7728,M,8.321,M,03,0004*67
$GPHPD,0,0.000,58.16,-0.18,-14.75,31.5935177,120.7796727,2.773,13629936.887,24926072.465,2.773,0.000,0.000,0.000,0.000,0.000,0.000,0.000,17,16,4*42
$GPGGA,042146.00,3135.6111469,N,12046.7805215,E,4,17,1.4,2.7665,M,8.321,M,04,0004*62
$GPHPD,0,0.000,58.35,-0.13,-14.74,31.5935191,120.7796754,2.767,13629935.962,24926073.855,2.767,0.000,0.000,0.000,0.000,0.000,0.000,0.000,17,16,4*42
$GPGGA,042146.20,3135.6112320,N,12046.7806867,E,4,17,1.4,2.7682,M,8.321,M,04,0004*6C
$GPHPD,0,0.000,58.45,0.02,-14.74,31.5935205,120.7796781,2.768,13629935.084,24926075.351,2.768,0.000,0.000,0.000,0.000,0.000,0.000,0.000,17,16,4*66
$GPGGA,042146.40,3135.6113132,N,12046.7808467,E,4,17,1.4,2.7556,M,8.321,M,04,0004*62
$GPHPD,0,0.000,58.63,0.64,-14.72,31.5935219,120.7796808,2.756,13629934.252,24926076.808,2.756,0.000,0.000,0.000,0.000,0.000,0.000,0.000,17,16,4*6B
$GPGGA,042146.60,3135.6113944,N,12046.7810096,E,4,17,1.4,2.7604,M,8.321,M,04,0004*6E
$GPHPD,0,0.000,58.61,0.90,-14.72,31.5935232,120.7796835,2.760,13629933.426,24926078.299,2.760,0.000,0.000,0.000,0.000,0.000,0.000,0.000,17,16,4*6B
$GPGGA,042146.80,3135.6114797,N,12046.7811729,E,4,17,1.4,2.7640,M,8.321,M,00,0004*61
$GPHPD,0,0.000,58.76,0.33,-14.71,31.5935247,120.7796862,2.764,13629932.542,24926079.772,2.764,0.000,0.000,0.000,0.000,0.000,0.000,0.000,17,16,4*64
$GPGGA,042147.00,3135.6115576,N,12046.7813357,E,4,17,1.4,2.7723,M,8.321,M,01,0004*6E
$GPHPD,0,0.000,58.88,0.58,-14.70,31.5935260,120.7796889,2.772,13629931.762,24926081.281,2.772,0.000,0.000,0.000,0.000,0.000,0.000,0.000,17,16,4*64
$GPGGA,042147.20,3135.6116396,N,12046.7814968,E,4,17,1.4,2.7805,M,8.321,M,01,0004*6D
$GPHPD,0,0.000,58.91,-0.06,-14.70,31.5935273,120.7796916,2.781,13629930.920,24926082.746,2.781,0.000,0.000,0.000,0.000,0.000,0.000,0.000,17,16,4*4B
$GPGGA,042147.40,3135.6117225,N,12046.7816609,E,4,17,1.4,2.7851,M,8.321,M,01,0004*68
$GPHPD,0,0.000,59.13,0.16,-14.69,31.5935287,120.7796943,2.785,13629930.072,24926084.242,2.785,0.000,0.000,0.000,0.000,0.000,0.000,0.000,17,16,4*66
$GPGGA,042147.60,3135.6118029,N,12046.7818219,E,4,17,1.4,2.7748,M,8.321,M,01,0004*67
$GPHPD,0,0.000,59.20,0.54,-14.70,31.5935300,120.7796970,2.775,13629929.253,24926085.715,2.775,0.000,0.000,0.000,0.000,0.000,0.000,0.000,17,16,4*69
$GPGGA,042147.80,3135.6118844,N,12046.7819853,E,4,17,1.3,2.7855,M,8.321,M,01,0004*6B
$GPHPD,0,0.000,59.38,1.35,-14.70,31.5935314,120.7796998,2.786,13629928.423,24926087.211,2.786,0.000,0.000,0.000,0.000,0.000,0.000,0.000,17,15,4*65
$GPGGA,042148.00,3135.6119648,N,12046.7821482,E,4,17,1.3,2.7819,M,8.321,M,02,0004*6F
$GPHPD,0,0.000,59.58,0.85,-14.68,31.5935327,120.7797025,2.782,13629927.608,24926088.707,2.782,0.000,0.000,0.000,0.000,0.000,0.000,0.000,17,16,4*64
$GPGGA,042148.20,3135.6120468,N,12046.7823155,E,4,17,1.3,2.7826,M,8.321,M,02,0004*66
$GPHPD,0,0.000,59.16,0.28,-14.70,31.5935341,120.7797053,2.783,13629926.779,24926090.247,2.783,0.000,0.000,0.000,0.000,0.000,0.000,0.000,17,15,4*6C
$GPGGA,042148.40,3135.6121266,N,12046.7824780,E,4,17,1.3,2.7883,M,8.321,M,02,0004*6F
$GPHPD,0,0.000,59.22,0.60,-14.69,31.5935354,120.7797080,2.788,13629925.972,24926091.742,2.788,0.000,0.000,0.000,0.000,0.000,0.000,0.000,17,15,4*62
$GPGGA,042148.60,3135.6122081,N,12046.7826425,E,4,17,1.3,2.7963,M,8.321,M,02,0004*64
$GPHPD,0,0.000,59.13,0.13,-14.70,31.5935368,120.7797107,2.796,13629925.144,24926093.251,2.796,0.000,0.000,0.000,0.000,0.000,0.000,0.000,17,15,4*65
$GPGGA,042148.80,3135.6122866,N,12046.7828111,E,4,17,1.3,2.8032,M,8.321,M,00,0004*67
$GPHPD,0,0.000,58.84,-0.51,-14.65,31.5935381,120.7797135,2.803,13629924.368,24926094.827,2.803,0.000,0.000,0.000,0.000,0.000,0.000,0.000,17,15,4*42
$GPGGA,042149.00,3135.6123751,N,12046.7829732,E,4,17,1.3,2.7930,M,8.321,M,01,0004*67
$GPHPD,0,0.000,58.87,0.11,-14.62,31.5935396,120.7797162,2.793,13629923.436,24926096.266,2.793,0.000,0.000,0.000,0.000,0.000,0.000,0.000,17,15,4*6D
$GPGGA,042149.20,3135.6124564,N,12046.7831376,E,4,17,1.3,2.7986,M,8.321,M,01,0004*66
$GPHPD,0,0.000,58.97,0.19,-14.59,31.5935409,120.7797190,2.799,13629922.611,24926097.775,2.799,0.000,0.000,0.000,0.000,0.000,0.000,0.000,17,15,4*60
$GPGGA,042149.40,3135.6125409,N,12046.7833064,E,4,17,1.3,2.7966,M,8.321,M,01,0004*67
$GPHPD,0,0.000,59.08,-0.03,-14.55,31.5935423,120.7797218,2.797,13629921.749,24926099.318,2.797,0.000,0.000,0.000,0.000,0.000,0.000,0.000,17,16,4*4B
$GPGGA,042149.60,3135.6126269,N,12046.7834699,E,4,17,1.3,2.7967,M,8.321,M,01,0004*64
$GPHPD,0,0.000,59.48,-0.18,-14.50,31.5935438,120.7797245,2.797,13629920.856,24926100.789,2.797,0.000,0.000,0.000,0.000,0.000,0.000,0.000,17,16,4*4F
$GPGGA,042149.80,3135.6127097,N,12046.7836416,E,4,17,1.3,2.8073,M,8.322,M,01,0004*6F
$GPHPD,0,0.000,59.31,0.34,-14.47,31.5935452,120.7797274,2.807,13629920.024,24926102.377,2.807,0.000,0.000,0.000,0.000,0.000,0.000,0.000,17,16,4*60
$GPGGA,042150.00,3135.6127961,N,12046.7838084,E,4,17,1.3,2.7993,M,8.322,M,02,0004*65
$GPHPD,0,0.000,59.61,-0.64,-14.45,31.5935466,120.7797301,2.799,13629919.132,24926103.886,2.799,0.000,0.000,0.000,0.000,0.000,0.000,0.000,17,16,4*43
$GPGGA,042150.20,3135.6128756,N,12046.7839731,E,4,17,1.3,2.7981,M,8.322,M,02,0004*69
$GPHPD,0,0.000,59.73,-0.51,-14.46,31.5935479,120.7797329,2.798,13629918.333,24926105.409,2.798,0.000,0.000,0.000,0.000,0.000,0.000,0.000,17,16,4*4E
$GPGGA,042150.40,3135.6129566,N,12046.7841411,E,4,17,1.3,2.7856,M,8.322,M,02,0004*6A
$GPHPD,0,0.000,59.66,-0.31,-14.50,31.5935493,120.7797357,2.786,13629917.520,24926106.963,2.786,0.000,0.000,0.000,0.000,0.000,0.000,0.000,17,16,4*4F
$GPGGA,042150.60,3135.6130362,N,12046.7843091,E,4,17,1.3,2.7921,M,8.322,M,02,0004*6D
$GPHPD,0,0.000,59.71,0.78,-14.53,31.5935506,120.7797385,2.792,13629916.726,24926108.525,2.792,0.000,0.000,0.000,0.000,0.000,0.000,0.000,17,16,4*6D
$GPGGA,042150.80,3135.6131145,N,12046.7844721,E,4,17,1.3,2.7978,M,8.322,M,02,0004*62
$GPHPD,0,0.000,59.72,0.17,-14.57,31.5935519,120.7797412,2.798,13629915.941,24926110.035,2.798,0.000,0.000,0.000,0.000,0.000,0.000,0.000,17,16,4*65
$GPGGA,042151.00,3135.6131973,N,12046.7846350,E,4,17,1.3,2.7870,M,8.322,M,03,0004*6E
$GPHPD,0,0.000,59.49,0.08,-14.63,31.5935533,120.7797439,2.787,13629915.092,24926111.517,2.787,0.000,0.000,0.000,0.000,0.000,0.000,0.000,17,16,4*66
$GPGGA,042151.20,3135.6132762,N,12046.7847944,E,4,17,1.3,2.7883,M,8.322,M,03,0004*63
$GPHPD,0,0.000,59.51,0.31,-14.67,31.5935546,120.7797466,2.788,13629914.291,24926112.979,2.788,0.000,0.000,0.000,0.000,0.000,0.000,0.000,17,16,4*6E
$GPGGA,042151.40,3135.6133531,N,12046.7849563,E,4,17,1.3,2.7987,M,8.322,M,03,0004*62
$GPHPD,0,0.000,59.55,0.61,-14.72,31.5935559,120.7797493,2.799,13629913.524,24926114.484,2.799,0.000,0.000,0.000,0.000,0.000,0.000,0.000,17,16,4*68
$GPGGA,042151.60,3135.6134282,N,12046.7851091,E,4,17,1.3,2.7876,M,8.322,M,03,0004*66
$GPHPD,0,0.000,59.22,0.18,-14.79,31.5935571,120.7797518,2.788,13629912.764,24926115.889,2.788,0.000,0.000,0.000,0.000,0.000,0.000,0.000,17,16,4*62
$GPGGA,042151.80,3135.6135062,N,12046.7852598,E,4,17,1.3,2.7936,M,8.322,M,03,0004*6F
$GPHPD,0,0.000,59.26,0.89,-14.80,31.5935584,120.7797543,2.794,13629911.958,24926117.252,2.794,0.000,0.000,0.000,0.000,0.000,0.000,0.000,17,15,4*63
$GPGGA,042152.00,3135.6135745,N,12046.7853990,E,4,17,1.4,2.7846,M,8.322,M,04,0004*65
$GPHPD,0,0.000,59.60,0.93,-14.71,31.5935596,120.7797567,2.785,13629911.267,24926118.533,2.785,0.000,0.000,0.000,0.000,0.000,0.000,0.000,17,15,4*69
$GPGGA,042152.20,3135.6136389,N,12046.7855320,E,4,17,1.4,2.7932,M,8.322,M,04,0004*65
$GPHPD,0,0.000,59.34,0.54,-14.67,31.5935606,120.7797589,2.793,13629910.620,24926119.761,2.793,0.000,0.000,0.000,0.000,0.000,0.000,0.000,17,15,4*6C
$GPGGA,042152.40,3135.6136965,N,12046.7856534,E,4,17,1.4,2.7946,M,8.322,M,04,0004*68
$GPHPD,0,0.000,59.54,0.35,-14.55,31.5935616,120.7797609,2.795,13629910.045,24926120.890,2.795,0.000,0.000,0.000,0.000,0.000,0.000,0.000,17,15,4*68
$GPGGA,042152.60,3135.6137501,N,12046.7857556,E,4,17,1.4,2.7926,M,8.322,M,00,0004*62
$GPHPD,0,0.000,59.36,0.50,-14.44,31.5935625,120.7797626,2.793,13629909.489,24926121.810,2.793,0.000,0.000,0.000,0.000,0.000,0.000,0.000,17,15,4*67
$GPGGA,042152.80,3135.6137947,N,12046.7858409,E,4,17,1.4,2.7855,M,8.322,M,00,0004*63
$GPHPD,0,0.000,59.61,0.65,-14.35,31.5935632,120.7797640,2.786,13629909.026,24926122.579,2.786,0.000,0.000,0.000,0.000,0.000,0.000,0.000,17,15,4*63
$GPGGA,042153.00,3135.6138337,N,12046.7859215,E,4,17,1.4,2.7917,M,8.322,M,01,0004*64
$GPHPD,0,0.000,59.57,0.59,-14.29,31.5935639,120.7797654,2.792,13629908.634,24926123.324,2.792,0.000,0.000,0.000,0.000,0.000,0.000,0.000,17,15,4*61
$GPGGA,042153.20,3135.6138674,N,12046.7859884,E,4,17,1.4,2.7885,M,8.322,M,01,0004*6C
$GPHPD,0,0.000,59.58,0.64,-14.26,31.5935645,120.7797665,2.789,13629908.290,24926123.934,2.789,0.000,0.000,0.000,0.000,0.000,0.000,0.000,17,15,4*67
$GPGGA,042153.40,3135.6138991,N,12046.7860530,E,4,17,1.4,2.7943,M,8.322,M,01,0004*6D
$GPHPD,0,0.000,59.40,0.94,-14.23,31.5935650,120.7797676,2.794,13629907.969,24926124.529,2.794,0.000,0.000,0.000,0.000,0.000,0.000,0.000,17,15,4*67
$GPGGA,042153.60,3135.6139265,N,12046.7861104,E,4,17,1.6,2.7979,M,8.322,M,01,0004*67
$GPHPD,0,0.000,59.44,0.82,-14.20,31.5935654,120.7797685,2.798,13629907.695,24926125.061,2.798,0.000,0.000,0.000,0.000,0.000,0.000,0.000,17,15,4*6B
$GPGGA,042153.80,3135.6139477,N,12046.7861555,E,4,17,1.6,2.7895,M,8.322,M,00,0004*6E
$GPHPD,0,0.000,59.46,0.62,-14.16,31.5935658,120.7797693,2.790,13629907.484,24926125.482,2.790,0.000,0.000,0.000,0.000,0.000,0.000,0.000,17,15,4*62
$GPGGA,042154.00,3135.6139697,N,12046.7861893,E,4,17,1.4,2.7647,M,8.322,M,01,0004*68
$GPHPD,0,0.000,59.43,0.96,-14.11,31.5935662,120.7797698,2.765,13629907.240,24926125.761,2.765,0.000,0.000,0.000,0.000,0.000,0.000,0.000,17,15,4*69
$GPGGA,042154.20,3135.6139831,N,12046.7862179,E,4,17,1.4,2.7645,M,8.322,M,01,0004*64
$GPHPD,0,0.000,59.42,0.71,-14.07,31.5935664,120.7797703,2.765,13629907.107,24926126.028,2.765,0.000,0.000,0.000,0.000,0.000,0.000,0.000,17,15,4*6A
$GPGGA,042154.40,3135.6139942,N,12046.7862425,E,4,17,1.4,2.7635,M,8.322,M,01,0004*6C
$GPHPD,0,0.000,59.38,0.65,-14.03,31.5935666,120.7797707,2.764,13629906.998,24926126.260,2.764,0.000,0.000,0.000,0.000,0.000,0.000,0.000,17,15,4*61
$GPGGA,042154.60,3135.6140012,N,12046.7862569,E,4,17,1.4,2.7645,M,8.322,M,00,0004*63
$GPHPD,0,0.000,59.45,0.98,-13.99,31.5935667,120.7797709,2.765,13629906.928,24926126.393,2.765,0.000,0.000,0.000,0.000,0.000,0.000,0.000,17,15,4*64
$GPGGA,042154.80,3135.6140036,N,12046.7862614,E,4,17,1.4,2.7670,M,8.322,M,00,0004*64
$GPHPD,0,0.000,59.41,1.12,-13.95,31.5935667,120.7797710,2.767,13629906.903,24926126.433,2.767,0.000,0.000,0.000,0.000,0.000,0.000,0.000,17,15,4*63
$GPGGA,042155.00,3135.6140028,N,12046.7862601,E,4,17,1.4,2.7685,M,8.322,M,01,0004*6D
$GPHPD,0,0.000,59.34,0.72,-13.99,31.5935667,120.7797710,2.769,13629906.912,24926126.422,2.769,0.000,0.000,0.000,0.000,0.000,0.000,0.000,17,15,4*6A
$GPGGA,042155.20,3135.6140037,N,12046.7862610,E,4,17,1.4,2.7698,M,8.322,M,01,0004*6D
$GPHPD,0,0.000,59.36,0.64,-14.03,31.5935667,120.7797710,2.770,13629906.901,24926126.428,2.770,0.000,0.000,0.000,0.000,0.000,0.000,0.000,17,15,4*63
$GPGGA,042155.40,3135.6140035,N,12046.7862592,E,4,17,1.4,2.7637,M,8.322,M,01,0004*65
$GPHPD,0,0.000,59.44,0.45,-14.09,31.5935667,120.7797710,2.764,13629906.900,24926126.407,2.764,0.000,0.000,0.000,0.000,0.000,0.000,0.000,17,16,4*60
$GPGGA,042155.60,3135.6140041,N,12046.7862616,E,4,17,1.4,2.7694,M,8.322,M,00,0004*63
$GPHPD,0,0.000,59.42,0.99,-14.13,31.5935667,120.7797710,2.769,13629906.896,24926126.433,2.769,0.000,0.000,0.000,0.000,0.000,0.000,0.000,17,16,4*65
$GPGGA,042155.80,3135.6140046,N,12046.7862581,E,4,17,1.4,2.7706,M,8.322,M,00,0004*6D
$GPHPD,0,0.000,59.32,0.69,-14.17,31.5935667,120.7797710,2.771,13629906.882,24926126.387,2.771,0.000,0.000,0.000,0.000,0.000,0.000,0.000,17,16,4*64
$GPGGA,042156.00,3135.6140034,N,12046.7862579,E,4,17,1.4,2.7693,M,8.322,M,01,0004*68
$GPHPD,0,0.000,59.66,0.62,-14.21,31.5935667,120.7797710,2.769,13629906.899,24926126.392,2.769,0.000,0.000,0.000,0.000,0.000,0.000,0.000,17,16,4*65
$GPGGA,042156.20,3135.6140020,N,12046.7862612,E,4,17,1.4,2.7725,M,8.322,M,01,0004*6D
$GPHPD,0,0.000,59.38,0.93,-14.25,31.5935667,120.7797710,2.773,13629906.925,24926126.440,2.773,0.000,0.000,0.000,0.000,0.000,0.000,0.000,17,16,4*6A
$GPGGA,042156.40,3135.6140036,N,12046.7862602,E,4,17,1.4,2.7699,M,8.322,M,01,0004*6B
$GPHPD,0,0.000,59.18,0.62,-14.28,31.5935667,120.7797710,2.770,13629906.900,24926126.419,2.770,0.000,0.000,0.000,0.000,0.000,0.000,0.000,17,16,4*60
$GPGGA,042156.60,3135.6140031,N,12046.7862606,E,4,17,1.4,2.7685,M,8.322,M,00,0004*66
$GPHPD,0,0.000,59.47,0.77,-14.31,31.5935667,120.7797710,2.769,13629906.908,24926126.426,2.769,0.000,0.000,0.000,0.000,0.000,0.000,0.000,17,16,4*62
$GPGGA,042156.80,3135.6140046,N,12046.7862601,E,4,17,1.4,2.7703,M,8.322,M,00,0004*60
$GPHPD,0,0.000,59.36,0.80,-14.34,31.5935667,120.7797710,2.770,13629906.886,24926126.412,2.770,0.000,0.000,0.000,0.000,0.000,0.000,0.000,17,16,4*69
$GPGGA,042157.00,3135.6140046,N,12046.7862595,E,4,17,1.3,2.7720,M,8.322,M,01,0004*60
$GPHPD,0,0.000,59.42,0.62,-14.37,31.5935667,120.7797710,2.772,13629906.885,24926126.404,2.772,0.000,0.000,0.000,0.000,0.000,0.000,0.000,17,16,4*61
