$GPGGA,063851.00,3135.4852369,N,12046.5515551,E,4,17,1.4,2.8562,M,8.308,M,01,0004*69
$GPHPD,0,0.000,146.44,-0.76,-11.67,31.5914206,120.7758593,2.856,13631264.889,24924045.965,2.856,0.000,0.000,0.000,0.000,0.000,0.000,0.000,17,18,4*72
$GPGGA,063851.20,3135.4852358,N,12046.5515565,E,4,17,1.4,2.8551,M,8.308,M,01,0004*6E
$GPHPD,0,0.000,146.74,-0.49,-11.70,31.5914206,120.7758593,2.855,13631264.907,24924045.989,2.855,0.000,0.000,0.000,0.000,0.000,0.000,0.000,17,18,4*7E
$GPGGA,063851.40,3135.4852347,N,12046.5515569,E,4,17,1.4,2.8530,M,8.308,M,01,0004*6D
$GPHPD,0,0.000,146.41,-0.58,-11.75,31.5914206,120.7758593,2.853,13631264.923,24924046.000,2.853,0.000,0.000,0.000,0.000,0.000,0.000,0.000,17,18,4*70
$GPGGA,063851.60,3135.4852326,N,12046.5515600,E,4,17,1.4,2.8531,M,8.308,M,00,0004*64
$GPHPD,0,0.000,146.57,-0.31,-11.79,31.5914205,120.7758593,2.853,13631264.960,24924046.050,2.853,0.000,0.000,0.000,0.000,0.000,0.000,0.000,17,18,4*75
$GPGGA,063851.80,3135.4852279,N,12046.5515614,E,4,17,1.4,2.8580,M,8.308,M,00,0004*6E
$GPHPD,0,0.000,146.56,-0.43,-11.86,31.5914205,120.7758594,2.858,13631265.029,24924046.094,2.858,0.000,0.000,0.000,0.000,0.000,0.000,0.000,17,18,4*7B
$GPGGA,063852.00,3135.4852195,N,12046.5515683,E,4,17,1.4,2.8571,M,8.308,M,01,0004*65
$GPHPD,0,0.000,146.61,-0.35,-11.97,31.5914203,120.7758595,2.857,13631265.162,24924046.226,2.857,0.000,0.000,0.000,0.000,0.000,0.000,0.000,17,18,4*7C
$GPGGA,063852.20,3135.4852035,N,12046.5515785,E,4,17,1.4,2.8523,M,8.308,M,01,0004*6C
$GPHPD,0,0.000,146.51,-0.40,-12.05,31.5914201,120.7758596,2.852,13631265.410,24924046.442,2.852,0.000,0.000,0.000,0.000,0.000,0.000,0.000,17,18,4*70
$GPGGA,063852.40,3135.4851859,N,12046.5515930,E,4,17,1.4,2.8491,M,8.308,M,01,0004*63
$GPHPD,0,0.000,146.58,-0.16,-12.16,31.5914198,120.7758599,2.849,13631265.690,24924046.719,2.849,0.000,0.000,0.000,0.000,0.000,0.000,0.000,17,18,4*73
$GPGGA,063852.60,3135.4851585,N,12046.5516140,E,4,17,1.4,2.8525,M,8.308,M,00,0004*6E
$GPHPD,0,0.000,146.56,-0.35,-12.25,31.5914193,120.7758602,2.853,13631266.121,24924047.132,2.853,0.000,0.000,0.000,0.000,0.000,0.000,0.000,17,18,4*76
$GPGGA,063852.80,3135.4851247,N,12046.5516370,E,4,17,1.4,2.8510,M,8.308,M,00,0004*6E
$GPHPD,0,0.000,146.59,-0.39,-12.37,31.5914187,120.7758606,2.851,13631266.648,24924047.606,2.851,0.000,0.000,0.000,0.000,0.000,0.000,0.000,17,18,4*7F
$GPGGA,063853.00,3135.4850832,N,12046.5516694,E,4,17,1.4,2.8502,M,8.308,M,01,0004*63
$GPHPD,0,0.000,146.42,-0.26,-12.50,31.5914181,120.7758612,2.850,13631267.303,24924048.238,2.850,0.000,0.000,0.000,0.000,0.000,0.000,0.000,17,18,4*74
$GPGGA,063853.20,3135.4850323,N,12046.5517079,E,4,17,1.4,2.8483,M,8.308,M,01,0004*66
$GPHPD,0,0.000,146.47,-0.04,-12.62,31.5914172,120.7758618,2.848,13631268.104,24924048.999,2.848,0.000,0.000,0.000,0.000,0.000,0.000,0.000,17,18,4*7C
$GPGGA,063853.40,3135.4849725,N,12046.5517536,E,4,17,1.4,2.8495,M,8.308,M,01,0004*63
$GPHPD,0,0.000,146.29,-0.08,-12.76,31.5914162,120.7758626,2.850,13631269.046,24924049.898,2.850,0.000,0.000,0.000,0.000,0.000,0.000,0.000,17,18,4*76
$GPGGA,063853.60,3135.4849025,N,12046.5518018,E,4,17,1.4,2.8450,M,8.308,M,00,0004*68
$GPHPD,0,0.000,146.28,-0.10,-12.92,31.5914150,120.7758634,2.845,13631270.138,24924050.887,2.845,0.000,0.000,0.000,0.000,0.000,0.000,0.000,17,18,4*70
$GPGGA,063853.80,3135.4848263,N,12046.5518589,E,4,17,1.4,2.8474,M,8.308,M,00,0004*6C
$GPHPD,0,0.000,146.18,-0.06,-13.07,31.5914138,120.7758643,2.847,13631271.336,24924052.019,2.847,0.000,0.000,0.000,0.000,0.000,0.000,0.000,17,18,4*77
$GPGGA,063854.00,3135.4847437,N,12046.5519224,E,4,17,1.4,2.8500,M,8.308,M,01,0004*69
$GPHPD,0,0.000,145.84,0.08,-13.21,31.5914124,120.7758654,2.850,13631272.638,24924053.265,2.850,0.000,0.000,0.000,0.000,0.000,0.000,0.000,17,18,4*5D
$GPGGA,063854.20,3135.4846527,N,12046.5519894,E,4,17,1.4,2.8429,M,8.308,M,01,0004*61
$GPHPD,0,0.000,145.68,-0.26,-13.33,31.5914109,120.7758665,2.843,13631274.066,24924054.603,2.843,0.000,0.000,0.000,0.000,0.000,0.000,0.000,17,18,4*78
$GPGGA,063854.40,3135.4845568,N,12046.5520653,E,4,17,1.4,2.8366,M,8.308,M,01,0004*6C
$GPHPD,0,0.000,145.32,-0.08,-13.45,31.5914093,120.7758678,2.837,13631275.582,24924056.076,2.837,0.000,0.000,0.000,0.000,0.000,0.000,0.000,17,18,4*7C
$GPGGA,063854.60,3135.4844580,N,12046.5521413,E,4,17,1.4,2.8328,M,8.308,M,00,0004*65
$GPHPD,0,0.000,145.06,0.53,-13.54,31.5914076,120.7758690,2.833,13631277.139,24924057.568,2.833,0.000,0.000,0.000,0.000,0.000,0.000,0.000,17,18,4*58
$GPGGA,063854.80,3135.4843557,N,12046.5522240,E,4,17,1.4,2.8442,M,8.308,M,00,0004*6E
$GPHPD,0,0.000,144.90,0.66,-13.57,31.5914059,120.7758704,2.844,13631278.759,24924059.160,2.844,0.000,0.000,0.000,0.000,0.000,0.000,0.000,17,18,4*5F
$GPGGA,063855.00,3135.4842498,N,12046.5523108,E,4,17,1.4,2.8439,M,8.308,M,01,0004*67
$GPHPD,0,0.000,144.88,0.00,-13.58,31.5914042,120.7758718,2.844,13631280.439,24924060.823,2.844,0.000,0.000,0.000,0.000,0.000,0.000,0.000,17,18,4*58
$GPGGA,063855.20,3135.4841435,N,12046.5523972,E,4,17,1.4,2.8402,M,8.308,M,01,0004*6C
$GPHPD,0,0.000,145.08,-0.06,-13.59,31.5914024,120.7758733,2.840,13631282.124,24924062.484,2.840,0.000,0.000,0.000,0.000,0.000,0.000,0.000,17,18,4*7A
$GPGGA,063855.40,3135.4840348,N,12046.5524857,E,4,17,1.4,2.8294,M,8.308,M,01,0004*6E
$GPHPD,0,0.000,145.06,0.29,-13.67,31.5914006,120.7758748,2.829,13631283.847,24924064.184,2.829,0.000,0.000,0.000,0.000,0.000,0.000,0.000,17,18,4*5B
$GPGGA,063855.60,3135.4839278,N,12046.5525725,E,4,17,1.4,2.8432,M,8.308,M,00,0004*60
$GPHPD,0,0.000,145.07,0.36,-13.67,31.5913988,120.7758762,2.843,13631285.543,24924065.853,2.843,0.000,0.000,0.000,0.000,0.000,0.000,0.000,17,17,4*56
$GPGGA,063855.80,3135.4838168,N,12046.5526583,E,4,17,1.4,2.8462,M,8.308,M,00,0004*65
$GPHPD,0,0.000,145.13,-0.14,-13.62,31.5913969,120.7758776,2.846,13631287.293,24924067.534,2.846,0.000,0.000,0.000,0.000,0.000,0.000,0.000,17,17,4*77
$GPGGA,063856.00,3135.4837097,N,12046.5527448,E,4,17,1.4,2.8507,M,8.308,M,01,0004*64
$GPHPD,0,0.000,145.18,0.05,-13.58,31.5913952,120.7758791,2.851,13631288.989,24924069.201,2.851,0.000,0.000,0.000,0.000,0.000,0.000,0.000,17,17,4*59
$GPGGA,063856.20,3135.4835989,N,12046.5528285,E,4,17,1.4,2.8542,M,8.308,M,01,0004*6B
$GPHPD,0,0.000,145.34,-0.11,-13.49,31.5913933,120.7758805,2.854,13631290.733,24924070.855,2.854,0.000,0.000,0.000,0.000,0.000,0.000,0.000,17,17,4*7F
$GPGGA,063856.40,3135.4834915,N,12046.5529129,E,4,17,1.4,2.8529,M,8.308,M,01,0004*60
$GPHPD,0,0.000,145.20,-0.34,-13.43,31.5913915,120.7758819,2.853,13631292.429,24924072.498,2.853,0.000,0.000,0.000,0.000,0.000,0.000,0.000,17,17,4*7B
$GPGGA,063856.60,3135.4833834,N,12046.5529967,E,4,17,1.4,2.8418,M,8.308,M,00,0004*67
$GPHPD,0,0.000,145.08,-0.17,-13.41,31.5913897,120.7758833,2.842,13631294.134,24924074.137,2.842,0.000,0.000,0.000,0.000,0.000,0.000,0.000,17,17,4*78
$GPGGA,063856.80,3135.4832730,N,12046.5530809,E,4,17,1.4,2.8468,M,8.308,M,00,0004*65
$GPHPD,0,0.000,145.07,-0.02,-13.37,31.5913879,120.7758847,2.847,13631295.873,24924075.795,2.847,0.000,0.000,0.000,0.000,0.000,0.000,0.000,17,17,4*75
$GPGGA,063857.00,3135.4831644,N,12046.5531656,E,4,17,1.4,2.8423,M,8.308,M,01,0004*66
$GPHPD,0,0.000,144.93,0.08,-13.32,31.5913861,120.7758861,2.842,13631297.587,24924077.449,2.842,0.000,0.000,0.000,0.000,0.000,0.000,0.000,17,17,4*52
$GPGGA,063857.20,3135.4830557,N,12046.5532528,E,4,17,1.4,2.8444,M,8.308,M,01,0004*6C
$GPHPD,0,0.000,145.08,0.21,-13.28,31.5913843,120.7758875,2.844,13631299.307,24924079.133,2.844,0.000,0.000,0.000,0.000,0.000,0.000,0.000,17,17,4*52
$GPGGA,063857.40,3135.4829430,N,12046.5533403,E,4,17,1.4,2.8410,M,8.308,M,01,0004*6A
$GPHPD,0,0.000,144.97,0.01,-13.27,31.5913824,120.7758890,2.841,13631301.085,24924080.844,2.841,0.000,0.000,0.000,0.000,0.000,0.000,0.000,17,18,4*5B
$GPGGA,063857.60,3135.4828289,N,12046.5534290,E,4,17,1.4,2.8422,M,8.308,M,00,0004*66
$GPHPD,0,0.000,144.85,0.37,-13.24,31.5913805,120.7758905,2.842,13631302.885,24924082.578,2.842,0.000,0.000,0.000,0.000,0.000,0.000,0.000,17,18,4*5B
$GPGGA,063857.80,3135.4827176,N,12046.5535192,E,4,17,1.4,2.8470,M,8.308,M,00,0004*63
$GPHPD,0,0.000,145.01,0.15,-13.20,31.5913786,120.7758920,2.847,13631304.649,24924084.313,2.847,0.000,0.000,0.000,0.000,0.000,0.000,0.000,17,18,4*54
$GPGGA,063858.00,3135.4826020,N,12046.5536129,E,4,17,1.4,2.8487,M,8.308,M,01,0004*6D
$GPHPD,0,0.000,144.91,0.39,-13.15,31.5913767,120.7758935,2.849,13631306.480,24924086.116,2.849,0.000,0.000,0.000,0.000,0.000,0.000,0.000,17,18,4*5F
$GPGGA,063858.20,3135.4824863,N,12046.5537040,E,4,17,1.4,2.8488,M,8.308,M,01,0004*62
$GPHPD,0,0.000,144.96,0.27,-13.11,31.5913748,120.7758951,2.849,13631308.308,24924087.888,2.849,0.000,0.000,0.000,0.000,0.000,0.000,0.000,17,18,4*5A
$GPGGA,063858.40,3135.4823689,N,12046.5537963,E,4,17,1.4,2.8505,M,8.308,M,01,0004*65
$GPHPD,0,0.000,144.92,-0.21,-13.03,31.5913728,120.7758966,2.851,13631310.163,24924089.684,2.851,0.000,0.000,0.000,0.000,0.000,0.000,0.000,17,18,4*7E
$GPGGA,063858.60,3135.4822488,N,12046.5538933,E,4,17,1.4,2.8473,M,8.308,M,00,0004*6E
$GPHPD,0,0.000,145.00,-0.36,-12.98,31.5913708,120.7758982,2.847,13631312.065,24924091.553,2.847,0.000,0.000,0.000,0.000,0.000,0.000,0.000,17,18,4*7C
$GPGGA,063858.80,3135.4821304,N,12046.5539858,E,4,17,1.4,2.8537,M,8.308,M,00,0004*6C
$GPHPD,0,0.000,144.93,0.02,-12.92,31.5913688,120.7758998,2.854,13631313.934,24924093.357,2.854,0.000,0.000,0.000,0.000,0.000,0.000,0.000,17,18,4*59
$GPGGA,063859.00,3135.4820076,N,12046.5540820,E,4,17,1.4,2.8581,M,8.308,M,01,0004*6F
$GPHPD,0,0.000,145.06,-0.47,-12.85,31.5913668,120.7759014,2.858,13631315.873,24924095.232,2.858,0.000,0.000,0.000,0.000,0.000,0.000,0.000,17,18,4*7C
$GPGGA,063859.20,3135.4818882,N,12046.5541769,E,4,17,1.4,2.8482,M,8.308,M,01,0004*64
$GPHPD,0,0.000,145.07,-0.70,-12.81,31.5913648,120.7759029,2.848,13631317.761,24924097.072,2.848,0.000,0.000,0.000,0.000,0.000,0.000,0.000,17,18,4*7B
$GPGGA,063859.40,3135.4817681,N,12046.5542730,E,4,17,1.6,2.8463,M,8.308,M,01,0004*62
$GPHPD,0,0.000,144.99,-0.12,-12.78,31.5913628,120.7759046,2.846,13631319.661,24924098.929,2.846,0.000,0.000,0.000,0.000,0.000,0.000,0.000,17,18,4*77
$GPGGA,063859.60,3135.4816484,N,12046.5543683,E,4,17,1.4,2.8496,M,8.308,M,00,0004*67
$GPHPD,0,0.000,144.98,-0.20,-12.76,31.5913608,120.7759061,2.850,13631321.554,24924100.775,2.850,0.000,0.000,0.000,0.000,0.000,0.000,0.000,17,18,4*77
$GPGGA,063859.80,3135.4815257,N,12046.5544665,E,4,17,1.4,2.8465,M,8.308,M,00,0004*61
$GPHPD,0,0.000,144.72,-0.22,-12.71,31.5913588,120.7759078,2.847,13631323.496,24924102.674,2.847,0.000,0.000,0.000,0.000,0.000,0.000,0.000,17,18,4*7A
$GPGGA,063900.00,3135.4814037,N,12046.5545624,E,4,17,1.4,2.8552,M,8.308,M,01,0004*61
$GPHPD,0,0.000,144.98,-0.38,-12.68,31.5913567,120.7759094,2.855,13631325.423,24924104.540,2.855,0.000,0.000,0.000,0.000,0.000,0.000,0.000,17,18,4*74
$GPGGA,063900.20,3135.4812810,N,12046.5546580,E,4,17,1.4,2.8493,M,8.308,M,01,0004*6A
$GPHPD,0,0.000,144.78,-0.27,-12.65,31.5913547,120.7759110,2.849,13631327.359,24924106.407,2.849,0.000,0.000,0.000,0.000,0.000,0.000,0.000,17,18,4*7E
$GPGGA,063900.40,3135.4811618,N,12046.5547561,E,4,17,1.4,2.8370,M,8.308,M,01,0004*6D
$GPHPD,0,0.000,144.82,-0.30,-12.67,31.5913527,120.7759126,2.837,13631329.251,24924108.284,2.837,0.000,0.000,0.000,0.000,0.000,0.000,0.000,17,18,4*78
$GPGGA,063900.60,3135.4810379,N,12046.5548537,E,4,17,1.4,2.8346,M,8.308,M,00,0004*64
$GPHPD,0,0.000,144.68,-0.54,-12.67,31.5913506,120.7759142,2.835,13631331.208,24924110.182,2.835,0.000,0.000,0.000,0.000,0.000,0.000,0.000,17,18,4*76
$GPGGA,063900.80,3135.4809162,N,12046.5549500,E,4,17,1.4,2.8335,M,8.308,M,00,0004*6B
$GPHPD,0,0.000,144.81,-0.21,-12.65,31.5913486,120.7759158,2.834,13631333.132,24924112.052,2.834,0.000,0.000,0.000,0.000,0.000,0.000,0.000,17,18,4*75
$GPGGA,063901.00,3135.4807935,N,12046.5550474,E,4,17,1.4,2.8353,M,8.308,M,01,0004*6D
$GPHPD,0,0.000,144.78,-0.54,-12.65,31.5913466,120.7759175,2.835,13631335.072,24924113.940,2.835,0.000,0.000,0.000,0.000,0.000,0.000,0.000,17,18,4*78
$GPGGA,063901.20,3135.4806703,N,12046.5551472,E,4,17,1.4,2.8253,M,8.308,M,01,0004*63
$GPHPD,0,0.000,144.80,-0.42,-12.64,31.5913445,120.7759191,2.825,13631337.024,24924115.861,2.825,0.000,0.000,0.000,0.000,0.000,0.000,0.000,17,18,4*77
$GPGGA,063901.40,3135.4805459,N,12046.5552443,E,4,17,1.6,2.8281,M,8.308,M,01,0004*66
$GPHPD,0,0.000,144.93,-0.22,-12.63,31.5913424,120.7759207,2.828,13631338.988,24924117.756,2.828,0.000,0.000,0.000,0.000,0.000,0.000,0.000,17,18,4*76
$GPGGA,063901.60,3135.4804254,N,12046.5553420,E,4,17,1.6,2.8214,M,8.308,M,00,0004*67
$GPHPD,0,0.000,145.01,-0.33,-12.61,31.5913404,120.7759224,2.821,13631340.897,24924119.635,2.821,0.000,0.000,0.000,0.000,0.000,0.000,0.000,17,18,4*77
$GPGGA,063901.80,3135.4803026,N,12046.5554375,E,4,17,1.6,2.8182,M,8.308,M,00,0004*65
$GPHPD,0,0.000,145.06,-0.02,-12.62,31.5913384,120.7759240,2.818,13631342.834,24924121.501,2.818,0.000,0.000,0.000,0.000,0.000,0.000,0.000,17,18,4*78
$GPGGA,063902.00,3135.4801794,N,12046.5555326,E,4,17,1.6,2.8134,M,8.308,M,01,0004*69
$GPHPD,0,0.000,144.93,-0.18,-12.60,31.5913363,120.7759255,2.813,13631344.777,24924123.365,2.813,0.000,0.000,0.000,0.000,0.000,0.000,0.000,17,18,4*79
$GPGGA,063902.20,3135.4800595,N,12046.5556303,E,4,17,1.6,2.8198,M,8.308,M,01,0004*6B
$GPHPD,0,0.000,144.95,-0.06,-12.59,31.5913343,120.7759272,2.820,13631346.678,24924125.241,2.820,0.000,0.000,0.000,0.000,0.000,0.000,0.000,17,17,4*7F
$GPGGA,063902.40,3135.4799373,N,12046.5557274,E,4,17,1.6,2.8182,M,8.308,M,01,0004*67
$GPHPD,0,0.000,144.98,-0.49,-12.58,31.5913323,120.7759288,2.818,13631348.610,24924127.123,2.818,0.000,0.000,0.000,0.000,0.000,0.000,0.000,17,17,4*7E
$GPGGA,063902.60,3135.4798152,N,12046.5558205,E,4,17,1.6,2.8129,M,8.308,M,01,0004*6D
$GPHPD,0,0.000,144.90,-0.02,-12.56,31.5913303,120.7759303,2.813,13631350.533,24924128.957,2.813,0.000,0.000,0.000,0.000,0.000,0.000,0.000,17,17,4*78
$GPGGA,063902.80,3135.4796933,N,12046.5559183,E,4,17,1.6,2.8240,M,8.308,M,00,0004*63
$GPHPD,0,0.000,144.85,0.16,-12.56,31.5913282,120.7759320,2.824,13631352.462,24924130.846,2.824,0.000,0.000,0.000,0.000,0.000,0.000,0.000,17,17,4*52
$GPGGA,063903.00,3135.4795714,N,12046.5560127,E,4,17,1.6,2.8140,M,8.308,M,01,0004*64
$GPHPD,0,0.000,145.03,-0.17,-12.57,31.5913262,120.7759335,2.814,13631354.385,24924132.693,2.814,0.000,0.000,0.000,0.000,0.000,0.000,0.000,17,17,4*76
$GPGGA,063903.20,3135.4794491,N,12046.5561105,E,4,17,1.6,2.8267,M,8.308,M,01,0004*6E
$GPHPD,0,0.000,145.05,0.01,-12.56,31.5913242,120.7759352,2.827,13631356.320,24924134.585,2.827,0.000,0.000,0.000,0.000,0.000,0.000,0.000,17,17,4*57
$GPGGA,063903.40,3135.4793326,N,12046.5562039,E,4,17,1.6,2.8162,M,8.308,M,01,0004*6F
$GPHPD,0,0.000,145.23,-0.63,-12.56,31.5913222,120.7759367,2.816,13631358.164,24924136.389,2.816,0.000,0.000,0.000,0.000,0.000,0.000,0.000,17,17,4*7E
$GPGGA,063903.60,3135.4792137,N,12046.5562957,E,4,17,1.6,2.8181,M,8.308,M,00,0004*63
$GPHPD,0,0.000,145.33,-0.29,-12.56,31.5913202,120.7759383,2.818,13631360.038,24924138.188,2.818,0.000,0.000,0.000,0.000,0.000,0.000,0.000,17,17,4*77
$GPGGA,063903.80,3135.4790939,N,12046.5563887,E,4,17,1.6,2.8302,M,8.308,M,00,0004*6D
$GPHPD,0,0.000,145.52,-0.78,-12.57,31.5913182,120.7759398,2.830,13631361.928,24924140.007,2.830,0.000,0.000,0.000,0.000,0.000,0.000,0.000,17,17,4*74
$GPGGA,063904.00,3135.4789778,N,12046.5564783,E,4,17,1.4,2.8221,M,8.308,M,01,0004*6E
$GPHPD,0,0.000,145.53,-1.00,-12.60,31.5913163,120.7759413,2.822,13631363.759,24924141.763,2.822,0.000,0.000,0.000,0.000,0.000,0.000,0.000,17,17,4*7A
$GPGGA,063904.20,3135.4788582,N,12046.5565688,E,4,17,1.6,2.8101,M,8.308,M,01,0004*62
$GPHPD,0,0.000,145.71,-0.67,-12.63,31.5913143,120.7759428,2.810,13631365.641,24924143.550,2.810,0.000,0.000,0.000,0.000,0.000,0.000,0.000,17,17,4*7D
$GPGGA,063904.40,3135.4787411,N,12046.5566636,E,4,16,1.6,2.8139,M,8.308,M,01,0004*6C
$GPHPD,0,0.000,145.51,-0.66,-12.62,31.5913124,120.7759444,2.814,13631367.496,24924145.375,2.814,0.000,0.000,0.000,0.000,0.000,0.000,0.000,16,16,4*79
$GPGGA,063904.60,3135.4786274,N,12046.5567517,E,4,16,1.6,2.8110,M,8.308,M,00,0004*61
$GPHPD,0,0.000,145.53,-0.65,-12.62,31.5913105,120.7759459,2.811,13631369.289,24924147.099,2.811,0.000,0.000,0.000,0.000,0.000,0.000,0.000,16,16,4*72
$GPGGA,063904.80,3135.4785102,N,12046.5568409,E,4,16,1.6,2.8027,M,8.308,M,00,0004*6A
$GPHPD,0,0.000,145.69,-0.24,-12.63,31.5913085,120.7759473,2.803,13631371.135,24924148.857,2.803,0.000,0.000,0.000,0.000,0.000,0.000,0.000,16,16,4*76
$GPGGA,063905.00,3135.4783930,N,12046.5569309,E,4,16,1.6,2.8006,M,8.308,M,01,0004*68
$GPHPD,0,0.000,145.64,-0.14,-12.63,31.5913066,120.7759488,2.801,13631372.982,24924150.624,2.801,0.000,0.000,0.000,0.000,0.000,0.000,0.000,16,16,4*75
$GPGGA,063905.20,3135.4782776,N,12046.5570193,E,4,16,1.6,2.7984,M,8.308,M,01,0004*62
$GPHPD,0,0.000,145.50,-0.24,-12.64,31.5913046,120.7759503,2.798,13631374.800,24924152.362,2.798,0.000,0.000,0.000,0.000,0.000,0.000,0.000,16,16,4*7E
$GPGGA,063905.40,3135.4781633,N,12046.5571102,E,4,16,1.6,2.7901,M,8.308,M,01,0004*63
$GPHPD,0,0.000,145.37,0.39,-12.63,31.5913027,120.7759518,2.790,13631376.607,24924154.124,2.790,0.000,0.000,0.000,0.000,0.000,0.000,0.000,16,16,4*59
$GPGGA,063905.60,3135.4780459,N,12046.5571990,E,4,16,1.6,2.7954,M,8.308,M,01,0004*6D
$GPHPD,0,0.000,145.70,0.08,-12.61,31.5913008,120.7759533,2.795,13631378.455,24924155.878,2.795,0.000,0.000,0.000,0.000,0.000,0.000,0.000,16,16,4*54
$GPGGA,063905.80,3135.4779312,N,12046.5572877,E,4,16,1.6,2.7901,M,8.308,M,01,0004*66
$GPHPD,0,0.000,145.42,-0.02,-12.59,31.5912989,120.7759548,2.790,13631380.263,24924157.615,2.790,0.000,0.000,0.000,0.000,0.000,0.000,0.000,16,16,4*77
$GPGGA,063906.00,3135.4778181,N,12046.5573783,E,4,16,1.6,2.8001,M,8.308,M,02,0004*64
$GPHPD,0,0.000,145.59,-0.13,-12.59,31.5912970,120.7759563,2.800,13631382.053,24924159.366,2.800,0.000,0.000,0.000,0.000,0.000,0.000,0.000,16,16,4*7E
$GPGGA,063906.20,3135.4777054,N,12046.5574676,E,4,16,1.6,2.7927,M,8.308,M,02,0004*6E
$GPHPD,0,0.000,145.54,0.09,-12.56,31.5912951,120.7759578,2.793,13631383.835,24924161.098,2.793,0.000,0.000,0.000,0.000,0.000,0.000,0.000,16,16,4*53
$GPGGA,063906.40,3135.4775909,N,12046.5575567,E,4,16,1.6,2.8028,M,8.308,M,02,0004*60
$GPHPD,0,0.000,145.39,0.30,-12.56,31.5912932,120.7759593,2.803,13631385.642,24924162.839,2.803,0.000,0.000,0.000,0.000,0.000,0.000,0.000,16,16,4*5A
$GPGGA,063906.60,3135.4774780,N,12046.5576444,E,4,16,1.8,2.7829,M,8.308,M,02,0004*67
$GPHPD,0,0.000,145.29,0.04,-12.57,31.5912913,120.7759607,2.783,13631387.423,24924164.554,2.783,0.000,0.000,0.000,0.000,0.000,0.000,0.000,16,16,4*57
$GPGGA,063906.80,3135.4773651,N,12046.5577363,E,4,16,1.8,2.7968,M,8.308,M,00,0004*66
$GPHPD,0,0.000,145.15,0.08,-12.57,31.5912894,120.7759623,2.797,13631389.212,24924166.319,2.797,0.000,0.000,0.000,0.000,0.000,0.000,0.000,16,16,4*5B
$GPGGA,063907.00,3135.4772496,N,12046.5578248,E,4,16,1.8,2.7971,M,8.308,M,01,0004*69
$GPHPD,0,0.000,145.15,0.40,-12.56,31.5912875,120.7759637,2.797,13631391.032,24924168.059,2.797,0.000,0.000,0.000,0.000,0.000,0.000,0.000,16,16,4*5C
$GPGGA,063907.20,3135.4771366,N,12046.5579162,E,4,16,1.8,2.8085,M,8.308,M,01,0004*67
$GPHPD,0,0.000,144.92,0.24,-12.55,31.5912856,120.7759653,2.809,13631392.822,24924169.819,2.809,0.000,0.000,0.000,0.000,0.000,0.000,0.000,16,16,4*57
$GPGGA,063907.40,3135.4770225,N,12046.5580104,E,4,16,1.8,2.8037,M,8.308,M,01,0004*69
$GPHPD,0,0.000,145.04,-0.40,-12.55,31.5912837,120.7759668,2.804,13631394.634,24924171.619,2.804,0.000,0.000,0.000,0.000,0.000,0.000,0.000,16,16,4*71
$GPGGA,063907.60,3135.4769063,N,12046.5580993,E,4,16,1.8,2.8035,M,8.308,M,00,0004*66
$GPHPD,0,0.000,145.15,-0.54,-12.55,31.5912818,120.7759683,2.804,13631396.464,24924173.367,2.804,0.000,0.000,0.000,0.000,0.000,0.000,0.000,16,16,4*77
$GPGGA,063907.80,3135.4767919,N,12046.5581914,E,4,16,1.8,2.8006,M,8.308,M,00,0004*6C
$GPHPD,0,0.000,144.84,0.06,-12.54,31.5912799,120.7759699,2.801,13631398.275,24924175.143,2.801,0.000,0.000,0.000,0.000,0.000,0.000,0.000,16,16,4*52
$GPGGA,063908.00,3135.4766763,N,12046.5582835,E,4,16,1.8,2.8106,M,8.308,M,01,0004*68
$GPHPD,0,0.000,144.86,-0.43,-12.55,31.5912779,120.7759714,2.811,13631400.104,24924176.927,2.811,0.000,0.000,0.000,0.000,0.000,0.000,0.000,16,15,4*7E
$GPGGA,063908.20,3135.4765613,N,12046.5583747,E,4,16,1.6,2.8107,M,8.308,M,01,0004*6B
$GPHPD,0,0.000,144.81,-0.88,-12.54,31.5912760,120.7759729,2.811,13631401.922,24924178.696,2.811,0.000,0.000,0.000,0.000,0.000,0.000,0.000,16,15,4*7F
$GPGGA,063908.40,3135.4764450,N,12046.5584650,E,4,16,1.6,2.8035,M,8.308,M,01,0004*69
$GPHPD,0,0.000,144.94,-1.34,-12.55,31.5912741,120.7759744,2.804,13631403.757,24924180.462,2.804,0.000,0.000,0.000,0.000,0.000,0.000,0.000,16,15,4*74
$GPGGA,063908.60,3135.4763261,N,12046.5585571,E,4,16,1.6,2.8028,M,8.308,M,00,0004*64
$GPHPD,0,0.000,144.92,-1.33,-12.54,31.5912721,120.7759760,2.803,13631405.632,24924182.264,2.803,0.000,0.000,0.000,0.000,0.000,0.000,0.000,16,15,4*72
$GPGGA,063908.80,3135.4762129,N,12046.5586491,E,4,16,1.6,2.7950,M,8.308,M,00,0004*61
$GPHPD,0,0.000,144.96,-1.33,-12.53,31.5912702,120.7759775,2.795,13631407.426,24924184.033,2.795,0.000,0.000,0.000,0.000,0.000,0.000,0.000,16,15,4*77
$GPGGA,063909.00,3135.4760972,N,12046.5587420,E,4,15,1.6,2.7985,M,8.308,M,01,0004*6D
$GPHPD,0,0.000,144.83,-0.75,-12.53,31.5912683,120.7759790,2.799,13631409.258,24924185.826,2.799,0.000,0.000,0.000,0.000,0.000,0.000,0.000,15,15,4*7C
$GPGGA,063909.20,3135.4759817,N,12046.5588349,E,4,15,1.6,2.7957,M,8.308,M,01,0004*6F
$GPHPD,0,0.000,144.79,-1.01,-12.54,31.5912664,120.7759806,2.796,13631411.086,24924187.619,2.796,0.000,0.000,0.000,0.000,0.000,0.000,0.000,15,15,4*7D
$GPGGA,063909.40,3135.4758634,N,12046.5589291,E,4,15,1.6,2.7804,M,8.308,M,01,0004*65
$GPHPD,0,0.000,144.68,-0.45,-12.53,31.5912644,120.7759822,2.780,13631412.957,24924189.443,2.780,0.000,0.000,0.000,0.000,0.000,0.000,0.000,15,15,4*7A
$GPGGA,063909.60,3135.4757476,N,12046.5590203,E,4,15,1.6,2.7788,M,8.308,M,00,0004*65
$GPHPD,0,0.000,144.84,-0.02,-12.55,31.5912625,120.7759837,2.779,13631414.787,24924191.217,2.779,0.000,0.000,0.000,0.000,0.000,0.000,0.000,15,15,4*75
$GPGGA,063909.80,3135.4756290,N,12046.5591158,E,4,15,1.6,2.7809,M,8.308,M,00,0004*6E
$GPHPD,0,0.000,144.68,-0.08,-12.56,31.5912605,120.7759853,2.781,13631416.665,24924193.059,2.781,0.000,0.000,0.000,0.000,0.000,0.000,0.000,15,15,4*7B
$GPGGA,063910.00,3135.4755110,N,12046.5592062,E,4,15,1.6,2.7712,M,8.308,M,01,0004*69
$GPHPD,0,0.000,144.66,-0.14,-12.56,31.5912585,120.7759868,2.771,13631418.524,24924194.836,2.771,0.000,0.000,0.000,0.000,0.000,0.000,0.000,15,15,4*75
$GPGGA,063910.20,3135.4753938,N,12046.5593009,E,4,15,1.6,2.7650,M,8.308,M,01,0004*64
$GPHPD,0,0.000,144.56,0.05,-12.56,31.5912566,120.7759883,2.765,13631420.380,24924196.660,2.765,0.000,0.000,0.000,0.000,0.000,0.000,0.000,15,15,4*5F
$GPGGA,063910.40,3135.4752771,N,12046.5593966,E,4,15,1.6,2.7635,M,8.308,M,01,0004*63
$GPHPD,0,0.000,144.72,0.17,-12.54,31.5912546,120.7759899,2.764,13631422.231,24924198.493,2.764,0.000,0.000,0.000,0.000,0.000,0.000,0.000,15,15,4*58
$GPGGA,063910.60,3135.4751585,N,12046.5594879,E,4,15,1.6,2.7804,M,8.308,M,00,0004*6E
$GPHPD,0,0.000,144.60,0.61,-12.54,31.5912526,120.7759915,2.780,13631424.101,24924200.284,2.780,0.000,0.000,0.000,0.000,0.000,0.000,0.000,15,15,4*5D
$GPGGA,063910.80,3135.4750426,N,12046.5595812,E,4,15,1.6,2.7726,M,8.308,M,00,0004*6A
$GPHPD,0,0.000,144.54,-0.10,-12.54,31.5912507,120.7759930,2.773,13631425.936,24924202.084,2.773,0.000,0.000,0.000,0.000,0.000,0.000,0.000,15,15,4*78
$GPGGA,063911.00,3135.4749253,N,12046.5596773,E,4,15,1.6,2.7766,M,8.308,M,01,0004*61
$GPHPD,0,0.000,144.66,0.10,-12.53,31.5912488,120.7759946,2.777,13631427.797,24924203.926,2.777,0.000,0.000,0.000,0.000,0.000,0.000,0.000,15,15,4*53
$GPGGA,063911.20,3135.4748051,N,12046.5597693,E,4,15,1.6,2.7756,M,8.308,M,01,0004*6F
$GPHPD,0,0.000,144.81,-0.31,-12.52,31.5912468,120.7759962,2.776,13631429.690,24924205.735,2.776,0.000,0.000,0.000,0.000,0.000,0.000,0.000,15,15,4*7F
$GPGGA,063911.40,3135.4746899,N,12046.5598635,E,4,15,1.6,2.7788,M,8.308,M,01,0004*6B
$GPHPD,0,0.000,144.83,-0.14,-12.52,31.5912448,120.7759977,2.779,13631431.517,24924207.541,2.779,0.000,0.000,0.000,0.000,0.000,0.000,0.000,15,15,4*7A
$GPGGA,063911.60,3135.4745697,N,12046.5599562,E,4,15,1.6,2.7777,M,8.309,M,00,0004*6A
$GPHPD,0,0.000,144.77,-0.45,-12.54,31.5912428,120.7759993,2.778,13631433.412,24924209.359,2.778,0.000,0.000,0.000,0.000,0.000,0.000,0.000,15,15,4*78
$GPGGA,063911.80,3135.4744536,N,12046.5600514,E,4,15,1.6,2.7682,M,8.309,M,00,0004*64
$GPHPD,0,0.000,144.93,-0.44,-12.54,31.5912409,120.7760009,2.768,13631435.254,24924211.182,2.768,0.000,0.000,0.000,0.000,0.000,0.000,0.000,15,15,4*7F
$GPGGA,063912.00,3135.4743369,N,12046.5601449,E,4,15,1.6,2.7714,M,8.309,M,01,0004*63
$GPHPD,0,0.000,144.97,-0.12,-12.53,31.5912389,120.7760024,2.771,13631437.101,24924212.989,2.771,0.000,0.000,0.000,0.000,0.000,0.000,0.000,15,15,4*7E
$GPGGA,063912.20,3135.4742187,N,12046.5602371,E,4,15,1.6,2.7665,M,8.309,M,01,0004*6A
$GPHPD,0,0.000,145.00,-0.25,-12.53,31.5912370,120.7760040,2.767,13631438.966,24924214.789,2.767,0.000,0.000,0.000,0.000,0.000,0.000,0.000,15,15,4*7F
$GPGGA,063912.40,3135.4741009,N,12046.5603303,E,4,15,1.6,2.7701,M,8.309,M,01,0004*6F
$GPHPD,0,0.000,144.81,-0.05,-12.53,31.5912350,120.7760055,2.770,13631440.828,24924216.598,2.770,0.000,0.000,0.000,0.000,0.000,0.000,0.000,15,15,4*77
$GPGGA,063912.60,3135.4739843,N,12046.5604235,E,4,15,1.6,2.7686,M,8.309,M,00,0004*68
$GPHPD,0,0.000,144.91,-0.66,-12.55,31.5912331,120.7760071,2.769,13631442.673,24924218.401,2.769,0.000,0.000,0.000,0.000,0.000,0.000,0.000,15,15,4*79
$GPGGA,063912.80,3135.4738652,N,12046.5605158,E,4,15,1.6,2.7765,M,8.309,M,00,0004*6C
$GPHPD,0,0.000,144.98,-0.61,-12.53,31.5912311,120.7760086,2.777,13631444.552,24924220.207,2.777,0.000,0.000,0.000,0.000,0.000,0.000,0.000,15,15,4*76
$GPGGA,063913.00,3135.4737483,N,12046.5606096,E,4,15,1.6,2.7813,M,8.309,M,01,0004*6B
$GPHPD,0,0.000,145.05,-0.65,-12.53,31.5912291,120.7760102,2.781,13631446.402,24924222.019,2.781,0.000,0.000,0.000,0.000,0.000,0.000,0.000,15,15,4*7A
$GPGGA,063913.20,3135.4736308,N,12046.5607036,E,4,15,1.6,2.7796,M,8.309,M,01,0004*65
$GPHPD,0,0.000,144.84,-0.42,-12.54,31.5912272,120.7760117,2.780,13631448.261,24924223.836,2.780,0.000,0.000,0.000,0.000,0.000,0.000,0.000,15,15,4*70
$GPGGA,063913.40,3135.4735139,N,12046.5607971,E,4,16,1.6,2.7686,M,8.309,M,01,0004*69
$GPHPD,0,0.000,145.09,-0.56,-12.57,31.5912252,120.7760133,2.769,13631450.111,24924225.644,2.769,0.000,0.000,0.000,0.000,0.000,0.000,0.000,16,16,4*76
$GPGGA,063913.60,3135.4733960,N,12046.5608906,E,4,16,1.6,2.7580,M,8.309,M,00,0004*62
$GPHPD,0,0.000,145.09,-0.55,-12.56,31.5912233,120.7760148,2.758,13631451.975,24924227.458,2.758,0.000,0.000,0.000,0.000,0.000,0.000,0.000,16,16,4*79
$GPGGA,063913.80,3135.4732813,N,12046.5609861,E,4,16,1.6,2.7651,M,8.309,M,00,0004*66
$GPHPD,0,0.000,144.98,0.40,-12.57,31.5912214,120.7760164,2.765,13631453.797,24924229.277,2.765,0.000,0.000,0.000,0.000,0.000,0.000,0.000,16,16,4*56
$GPGGA,063914.00,3135.4731625,N,12046.5610757,E,4,16,1.6,2.7590,M,8.309,M,01,0004*6C
$GPHPD,0,0.000,144.79,0.70,-12.57,31.5912194,120.7760179,2.759,13631455.666,24924231.049,2.759,0.000,0.000,0.000,0.000,0.000,0.000,0.000,16,16,4*52
$GPGGA,063914.20,3135.4730464,N,12046.5611707,E,4,16,1.6,2.7658,M,8.309,M,01,0004*6B
$GPHPD,0,0.000,144.77,-0.18,-12.56,31.5912174,120.7760195,2.766,13631457.508,24924232.870,2.766,0.000,0.000,0.000,0.000,0.000,0.000,0.000,16,16,4*7A
$GPGGA,063914.40,3135.4729303,N,12046.5612591,E,4,16,1.6,2.7572,M,8.309,M,01,0004*66
$GPHPD,0,0.000,145.04,-0.26,-12.55,31.5912155,120.7760210,2.757,13631459.336,24924234.612,2.757,0.000,0.000,0.000,0.000,0.000,0.000,0.000,16,16,4*75
$GPGGA,063914.60,3135.4728132,N,12046.5613545,E,4,16,1.6,2.7531,M,8.309,M,00,0004*6B
$GPHPD,0,0.000,144.76,-0.45,-12.57,31.5912136,120.7760226,2.753,13631461.192,24924236.444,2.753,0.000,0.000,0.000,0.000,0.000,0.000,0.000,16,16,4*72
$GPGGA,063914.80,3135.4726970,N,12046.5614487,E,4,16,1.6,2.7637,M,8.309,M,00,0004*68
$GPHPD,0,0.000,145.26,-1.29,-12.56,31.5912116,120.7760241,2.764,13631463.033,24924238.256,2.764,0.000,0.000,0.000,0.000,0.000,0.000,0.000,16,16,4*7C
$GPGGA,063915.00,3135.4725832,N,12046.5615436,E,4,16,1.6,2.7684,M,8.309,M,01,0004*67
$GPHPD,0,0.000,145.37,-2.81,-12.56,31.5912097,120.7760257,2.768,13631464.842,24924240.063,2.768,0.000,0.000,0.000,0.000,0.000,0.000,0.000,16,16,4*70
$GPGGA,063915.20,3135.4724673,N,12046.5616357,E,4,16,1.6,2.7588,M,8.309,M,01,0004*63
$GPHPD,0,0.000,145.28,-2.56,-12.55,31.5912078,120.7760273,2.759,13631466.674,24924241.848,2.759,0.000,0.000,0.000,0.000,0.000,0.000,0.000,16,16,4*79
$GPGGA,063915.40,3135.4723513,N,12046.5617261,E,4,16,1.6,2.7576,M,8.309,M,01,0004*63
$GPHPD,0,0.000,145.21,-2.32,-12.56,31.5912059,120.7760288,2.758,13631468.505,24924243.613,2.758,0.000,0.000,0.000,0.000,0.000,0.000,0.000,16,16,4*7F
$GPGGA,063915.60,3135.4722352,N,12046.5618238,E,4,16,1.6,2.7558,M,8.309,M,00,0004*6D
$GPHPD,0,0.000,145.29,-2.61,-12.55,31.5912039,120.7760304,2.756,13631470.352,24924245.467,2.756,0.000,0.000,0.000,0.000,0.000,0.000,0.000,16,16,4*7B
$GPGGA,063915.80,3135.4721219,N,12046.5619178,E,4,16,2.0,2.7635,M,8.309,M,00,0004*65
$GPHPD,0,0.000,145.11,-2.39,-12.54,31.5912020,120.7760320,2.764,13631472.152,24924247.260,2.764,0.000,0.000,0.000,0.000,0.000,0.000,0.000,16,16,4*71
$GPGGA,063916.00,3135.4720095,N,12046.5620170,E,4,16,1.8,2.7568,M,8.309,M,01,0004*6A
$GPHPD,0,0.000,144.88,-2.36,-12.55,31.5912002,120.7760336,2.757,13631473.949,24924249.110,2.757,0.000,0.000,0.000,0.000,0.000,0.000,0.000,16,16,4*70
$GPGGA,063916.20,3135.4718925,N,12046.5621112,E,4,16,1.8,2.7593,M,8.309,M,01,0004*60
$GPHPD,0,0.000,144.07,0.35,-12.55,31.5911982,120.7760352,2.759,13631475.801,24924250.927,2.759,0.000,0.000,0.000,0.000,0.000,0.000,0.000,16,16,4*54
$GPGGA,063916.40,3135.4717758,N,12046.5622048,E,4,15,1.8,2.7641,M,8.309,M,01,0004*6F
$GPHPD,0,0.000,144.17,0.19,-12.55,31.5911963,120.7760367,2.764,13631477.648,24924252.735,2.764,0.000,0.000,0.000,0.000,0.000,0.000,0.000,15,15,4*5C
$GPGGA,063916.60,3135.4716608,N,12046.5622962,E,4,15,1.8,2.7530,M,8.309,M,00,0004*6D
$GPHPD,0,0.000,144.24,0.36,-12.55,31.5911943,120.7760383,2.753,13631479.467,24924254.507,2.753,0.000,0.000,0.000,0.000,0.000,0.000,0.000,15,15,4*5D
$GPGGA,063916.80,3135.4715482,N,12046.5623889,E,4,15,1.8,2.7598,M,8.309,M,00,0004*67
$GPHPD,0,0.000,144.03,0.86,-12.56,31.5911925,120.7760398,2.760,13631481.254,24924256.280,2.760,0.000,0.000,0.000,0.000,0.000,0.000,0.000,15,15,4*51
$GPGGA,063917.00,3135.4714310,N,12046.5624866,E,4,15,1.8,2.7585,M,8.309,M,01,0004*68
$GPHPD,0,0.000,143.87,0.60,-12.56,31.5911905,120.7760414,2.759,13631483.116,24924258.140,2.759,0.000,0.000,0.000,0.000,0.000,0.000,0.000,15,15,4*55
$GPGGA,063917.20,3135.4713169,N,12046.5625818,E,4,15,1.8,2.7687,M,8.309,M,01,0004*68
$GPHPD,0,0.000,144.07,0.17,-12.55,31.5911886,120.7760430,2.769,13631484.930,24924259.952,2.769,0.000,0.000,0.000,0.000,0.000,0.000,0.000,15,15,4*54
$GPGGA,063917.40,3135.4712023,N,12046.5626754,E,4,15,1.8,2.7608,M,8.309,M,01,0004*63
$GPHPD,0,0.000,144.40,-0.46,-12.57,31.5911867,120.7760446,2.761,13631486.747,24924261.748,2.761,0.000,0.000,0.000,0.000,0.000,0.000,0.000,15,15,4*70
$GPGGA,063917.60,3135.4710874,N,12046.5627707,E,4,15,1.8,2.7779,M,8.309,M,00,0004*68
$GPHPD,0,0.000,144.13,0.08,-12.58,31.5911848,120.7760462,2.778,13631488.572,24924263.566,2.778,0.000,0.000,0.000,0.000,0.000,0.000,0.000,15,15,4*53
$GPGGA,063917.80,3135.4709741,N,12046.5628616,E,4,15,1.8,2.7890,M,8.309,M,00,0004*61
$GPHPD,0,0.000,144.02,-1.14,-12.57,31.5911829,120.7760477,2.789,13631490.365,24924265.322,2.789,0.000,0.000,0.000,0.000,0.000,0.000,0.000,15,15,4*77
$GPGGA,063918.00,3135.4708585,N,12046.5629551,E,4,15,1.8,2.7698,M,8.309,M,01,0004*6B
$GPHPD,0,0.000,143.85,-1.29,-12.57,31.5911810,120.7760493,2.770,13631492.196,24924267.122,2.770,0.000,0.000,0.000,0.000,0.000,0.000,0.000,15,15,4*7D
$GPGGA,063918.20,3135.4707450,N,12046.5630537,E,4,15,1.8,2.7739,M,8.309,M,01,0004*6D
$GPHPD,0,0.000,143.67,-0.75,-12.56,31.5911791,120.7760509,2.774,13631494.008,24924268.971,2.774,0.000,0.000,0.000,0.000,0.000,0.000,0.000,15,15,4*7D
$GPGGA,063918.40,3135.4706288,N,12046.5631483,E,4,15,1.8,2.7786,M,8.309,M,01,0004*62
$GPHPD,0,0.000,143.94,-0.89,-12.55,31.5911771,120.7760525,2.779,13631495.850,24924270.789,2.779,0.000,0.000,0.000,0.000,0.000,0.000,0.000,15,15,4*75
$GPGGA,063918.60,3135.4705111,N,12046.5632453,E,4,15,1.8,2.7649,M,8.309,M,00,0004*6D
$GPHPD,0,0.000,143.87,-0.77,-12.54,31.5911752,120.7760541,2.765,13631497.718,24924272.643,2.765,0.000,0.000,0.000,0.000,0.000,0.000,0.000,15,15,4*70
$GPGGA,063918.80,3135.4703962,N,12046.5633409,E,4,15,1.8,2.7562,M,8.309,M,00,0004*6D
$GPHPD,0,0.000,144.01,-1.26,-12.55,31.5911733,120.7760557,2.756,13631499.544,24924274.465,2.756,0.000,0.000,0.000,0.000,0.000,0.000,0.000,15,15,4*78
$GPGGA,063919.00,3135.4702791,N,12046.5634338,E,4,15,1.8,2.7482,M,8.309,M,01,0004*6B
$GPHPD,0,0.000,143.98,-0.88,-12.56,31.5911713,120.7760572,2.748,13631501.395,24924276.267,2.748,0.000,0.000,0.000,0.000,0.000,0.000,0.000,15,15,4*70
$GPGGA,063919.20,3135.4701623,N,12046.5635307,E,4,15,1.8,2.7520,M,8.309,M,01,0004*66
$GPHPD,0,0.000,143.93,-0.44,-12.56,31.5911694,120.7760588,2.752,13631503.250,24924278.115,2.752,0.000,0.000,0.000,0.000,0.000,0.000,0.000,15,15,4*72
$GPGGA,063919.40,3135.4700472,N,12046.5636267,E,4,16,1.8,2.7549,M,8.309,M,01,0004*6F
$GPHPD,0,0.000,143.85,-0.38,-12.56,31.5911675,120.7760604,2.755,13631505.079,24924279.943,2.755,0.000,0.000,0.000,0.000,0.000,0.000,0.000,16,16,4*73
$GPGGA,063919.60,3135.4699346,N,12046.5637263,E,4,16,1.8,2.7649,M,8.309,M,00,0004*6B
$GPHPD,0,0.000,143.93,-0.95,-12.55,31.5911656,120.7760621,2.765,13631506.880,24924281.799,2.765,0.000,0.000,0.000,0.000,0.000,0.000,0.000,16,16,4*75
$GPGGA,063919.80,3135.4698177,N,12046.5638187,E,4,16,1.8,2.7468,M,8.309,M,00,0004*63
$GPHPD,0,0.000,143.92,-0.83,-12.53,31.5911636,120.7760636,2.747,13631508.728,24924283.594,2.747,0.000,0.000,0.000,0.000,0.000,0.000,0.000,16,16,4*7B
$GPGGA,063920.00,3135.4697013,N,12046.5639141,E,4,16,1.6,2.7395,M,8.309,M,01,0004*6C
$GPHPD,0,0.000,143.92,-0.49,-12.54,31.5911617,120.7760652,2.740,13631510.574,24924285.421,2.740,0.000,0.000,0.000,0.000,0.000,0.000,0.000,16,16,4*70
$GPGGA,063920.20,3135.4695832,N,12046.5640088,E,4,16,1.6,2.7443,M,8.309,M,01,0004*61
$GPHPD,0,0.000,143.88,-0.50,-12.55,31.5911597,120.7760668,2.744,13631512.443,24924287.251,2.744,0.000,0.000,0.000,0.000,0.000,0.000,0.000,16,16,4*74
$GPGGA,063920.40,3135.4694692,N,12046.5641029,E,4,16,1.6,2.7403,M,8.309,M,01,0004*6C
$GPHPD,0,0.000,143.71,-0.99,-12.56,31.5911578,120.7760684,2.740,13631514.253,24924289.049,2.740,0.000,0.000,0.000,0.000,0.000,0.000,0.000,16,16,4*73
$GPGGA,063920.60,3135.4693549,N,12046.5642009,E,4,16,1.6,2.7293,M,8.309,M,00,0004*63
$GPHPD,0,0.000,143.63,-0.59,-12.57,31.5911559,120.7760700,2.729,13631516.075,24924290.896,2.729,0.000,0.000,0.000,0.000,0.000,0.000,0.000,16,16,4*75
$GPGGA,063920.80,3135.4692397,N,12046.5642979,E,4,16,1.6,2.7351,M,8.309,M,00,0004*68
$GPHPD,0,0.000,143.65,0.25,-12.56,31.5911540,120.7760716,2.735,13631517.908,24924292.736,2.735,0.000,0.000,0.000,0.000,0.000,0.000,0.000,16,16,4*5E
$GPGGA,063921.00,3135.4691237,N,12046.5643930,E,4,16,1.6,2.7286,M,8.309,M,01,0004*6F
$GPHPD,0,0.000,143.47,0.00,-12.55,31.5911521,120.7760732,2.729,13631519.748,24924294.558,2.729,0.000,0.000,0.000,0.000,0.000,0.000,0.000,16,16,4*53
$GPGGA,063921.20,3135.4690105,N,12046.5644932,E,4,16,1.6,2.7332,M,8.309,M,01,0004*65
$GPHPD,0,0.000,143.26,-0.16,-12.57,31.5911502,120.7760749,2.733,13631521.558,24924296.425,2.733,0.000,0.000,0.000,0.000,0.000,0.000,0.000,16,16,4*70
$GPGGA,063921.40,3135.4688963,N,12046.5645929,E,4,16,1.6,2.7310,M,8.309,M,01,0004*69
$GPHPD,0,0.000,143.33,0.14,-12.55,31.5911483,120.7760765,2.731,13631523.382,24924298.292,2.731,0.000,0.000,0.000,0.000,0.000,0.000,0.000,16,16,4*58
$GPGGA,063921.60,3135.4687804,N,12046.5646855,E,4,16,1.6,2.7264,M,8.309,M,00,0004*6E
$GPHPD,0,0.000,143.42,-0.26,-12.55,31.5911463,120.7760781,2.726,13631525.216,24924300.084,2.726,0.000,0.000,0.000,0.000,0.000,0.000,0.000,16,16,4*79
$GPGGA,063921.80,3135.4686669,N,12046.5647874,E,4,16,1.6,2.7373,M,8.309,M,00,0004*61
$GPHPD,0,0.000,143.00,0.09,-12.55,31.5911444,120.7760798,2.737,13631527.034,24924301.973,2.737,0.000,0.000,0.000,0.000,0.000,0.000,0.000,16,16,4*52
$GPGGA,063922.00,3135.4685528,N,12046.5648849,E,4,16,1.8,2.7381,M,8.309,M,01,0004*6C
$GPHPD,0,0.000,142.95,-0.09,-12.57,31.5911425,120.7760814,2.738,13631528.852,24924303.813,2.738,0.000,0.000,0.000,0.000,0.000,0.000,0.000,16,16,4*7E
$GPGGA,063922.20,3135.4684388,N,12046.5649812,E,4,16,1.8,2.7270,M,8.309,M,01,0004*63
$GPHPD,0,0.000,142.68,-0.04,-12.55,31.5911406,120.7760830,2.727,13631530.666,24924305.638,2.727,0.000,0.000,0.000,0.000,0.000,0.000,0.000,16,16,4*75
$GPGGA,063922.40,3135.4683222,N,12046.5650823,E,4,16,1.6,2.7279,M,8.309,M,01,0004*6E
$GPHPD,0,0.000,142.65,0.23,-12.55,31.5911387,120.7760847,2.728,13631532.527,24924307.535,2.728,0.000,0.000,0.000,0.000,0.000,0.000,0.000,16,16,4*56
$GPGGA,063922.60,3135.4682127,N,12046.5651792,E,4,16,1.6,2.7335,M,8.309,M,00,0004*67
$GPHPD,0,0.000,142.68,-0.12,-12.55,31.5911369,120.7760863,2.734,13631534.279,24924309.341,2.734,0.000,0.000,0.000,0.000,0.000,0.000,0.000,16,16,4*73
$GPGGA,063922.80,3135.4680960,N,12046.5652791,E,4,16,1.6,2.7268,M,8.309,M,00,0004*69
$GPHPD,0,0.000,142.71,-0.63,-12.55,31.5911349,120.7760880,2.727,13631536.138,24924311.225,2.727,0.000,0.000,0.000,0.000,0.000,0.000,0.000,16,15,4*7F
$GPGGA,063923.00,3135.4679858,N,12046.5653767,E,4,16,1.6,2.7323,M,8.309,M,01,0004*6B
$GPHPD,0,0.000,142.86,-0.22,-12.55,31.5911331,120.7760896,2.732,13631537.901,24924313.043,2.732,0.000,0.000,0.000,0.000,0.000,0.000,0.000,16,16,4*7A
$GPGGA,063923.20,3135.4678680,N,12046.5654773,E,4,16,1.6,2.7314,M,8.309,M,01,0004*65
$GPHPD,0,0.000,142.88,-0.32,-12.55,31.5911311,120.7760913,2.731,13631539.778,24924314.942,2.731,0.000,0.000,0.000,0.000,0.000,0.000,0.000,16,16,4*7A
$GPGGA,063923.40,3135.4677551,N,12046.5655749,E,4,16,1.6,2.7308,M,8.309,M,01,0004*66
$GPHPD,0,0.000,142.76,-0.80,-12.54,31.5911293,120.7760929,2.731,13631541.579,24924316.776,2.731,0.000,0.000,0.000,0.000,0.000,0.000,0.000,16,16,4*76
$GPGGA,063923.60,3135.4676407,N,12046.5656725,E,4,16,1.6,2.7281,M,8.309,M,00,0004*6F
$GPHPD,0,0.000,142.90,-0.58,-12.54,31.5911273,120.7760945,2.728,13631543.401,24924318.619,2.728,0.000,0.000,0.000,0.000,0.000,0.000,0.000,16,16,4*75
$GPGGA,063923.80,3135.4675275,N,12046.5657708,E,4,16,1.6,2.7272,M,8.309,M,00,0004*63
$GPHPD,0,0.000,142.72,-0.13,-12.53,31.5911255,120.7760962,2.727,13631545.208,24924320.463,2.727,0.000,0.000,0.000,0.000,0.000,0.000,0.000,16,16,4*7D
$GPGGA,063924.00,3135.4674137,N,12046.5658757,E,4,16,1.6,2.7371,M,8.309,M,01,0004*6E
$GPHPD,0,0.000,142.52,0.46,-12.51,31.5911236,120.7760979,2.737,13631547.037,24924322.390,2.737,0.000,0.000,0.000,0.000,0.000,0.000,0.000,16,16,4*5A
$GPGGA,063924.20,3135.4673005,N,12046.5659673,E,4,15,1.6,2.7218,M,8.309,M,01,0004*60
$GPHPD,0,0.000,142.47,0.18,-12.51,31.5911217,120.7760995,2.722,13631548.830,24924324.154,2.722,0.000,0.000,0.000,0.000,0.000,0.000,0.000,15,15,4*58
$GPGGA,063924.40,3135.4671862,N,12046.5660675,E,4,15,1.6,2.7099,M,8.309,M,01,0004*6A
$GPHPD,0,0.000,142.24,0.29,-12.51,31.5911198,120.7761011,2.710,13631550.656,24924326.027,2.710,0.000,0.000,0.000,0.000,0.000,0.000,0.000,15,15,4*5F
$GPGGA,063924.60,3135.4670730,N,12046.5661690,E,4,15,1.6,2.7124,M,8.309,M,00,0004*6D
$GPHPD,0,0.000,142.22,0.34,-12.48,31.5911179,120.7761028,2.712,13631552.470,24924327.910,2.712,0.000,0.000,0.000,0.000,0.000,0.000,0.000,15,15,4*50
$GPGGA,063924.80,3135.4669612,N,12046.5662690,E,4,15,1.6,2.7151,M,8.309,M,00,0004*6B
$GPHPD,0,0.000,142.19,0.17,-12.48,31.5911160,120.7761045,2.715,13631554.260,24924329.767,2.715,0.000,0.000,0.000,0.000,0.000,0.000,0.000,15,15,4*5B
$GPGGA,063925.00,3135.4668475,N,12046.5663739,E,4,15,1.6,2.7296,M,8.309,M,01,0004*6A
$GPHPD,0,0.000,141.85,-0.26,-12.47,31.5911141,120.7761062,2.730,13631556.087,24924331.694,2.730,0.000,0.000,0.000,0.000,0.000,0.000,0.000,15,15,4*76
$GPGGA,063925.20,3135.4667376,N,12046.5664751,E,4,15,1.6,2.7231,M,8.309,M,01,0004*67
$GPHPD,0,0.000,141.72,-0.31,-12.46,31.5911123,120.7761079,2.723,13631557.853,24924333.554,2.723,0.000,0.000,0.000,0.000,0.000,0.000,0.000,15,15,4*7A
$GPGGA,063925.40,3135.4666266,N,12046.5665831,E,4,16,1.6,2.7365,M,8.309,M,01,0004*6B
$GPHPD,0,0.000,141.46,-0.38,-12.47,31.5911104,120.7761097,2.737,13631559.648,24924335.502,2.737,0.000,0.000,0.000,0.000,0.000,0.000,0.000,16,16,4*7F
$GPGGA,063925.60,3135.4665148,N,12046.5666852,E,4,16,1.6,2.7404,M,8.309,M,00,0004*62
$GPHPD,0,0.000,141.43,-0.54,-12.47,31.5911086,120.7761114,2.740,13631561.443,24924337.384,2.740,0.000,0.000,0.000,0.000,0.000,0.000,0.000,16,16,4*79
$GPGGA,063925.80,3135.4664056,N,12046.5667882,E,4,16,1.6,2.7311,M,8.309,M,00,0004*6C
$GPHPD,0,0.000,140.80,-0.47,-12.46,31.5911068,120.7761131,2.731,13631563.202,24924339.261,2.731,0.000,0.000,0.000,0.000,0.000,0.000,0.000,16,16,4*76
$GPGGA,063926.00,3135.4662952,N,12046.5668906,E,4,16,1.6,2.7182,M,8.309,M,01,0004*67
$GPHPD,0,0.000,140.35,-0.27,-12.47,31.5911049,120.7761148,2.718,13631564.977,24924341.139,2.718,0.000,0.000,0.000,0.000,0.000,0.000,0.000,16,16,4*7D
$GPGGA,063926.20,3135.4661855,N,12046.5669965,E,4,16,1.6,2.7206,M,8.309,M,01,0004*6B
$GPHPD,0,0.000,139.96,-0.11,-12.48,31.5911031,120.7761166,2.721,13631566.750,24924343.054,2.721,0.000,0.000,0.000,0.000,0.000,0.000,0.000,16,16,4*72
$GPGGA,063926.40,3135.4660783,N,12046.5671028,E,4,16,1.6,2.7197,M,8.309,M,01,0004*6A
$GPHPD,0,0.000,139.51,0.24,-12.47,31.5911013,120.7761184,2.720,13631568.487,24924344.960,2.720,0.000,0.000,0.000,0.000,0.000,0.000,0.000,16,16,4*5F
$GPGGA,063926.60,3135.4659683,N,12046.5672116,E,4,16,1.6,2.7165,M,8.309,M,00,0004*60
$GPHPD,0,0.000,139.33,-0.59,-12.45,31.5910995,120.7761202,2.717,13631570.270,24924346.912,2.717,0.000,0.000,0.000,0.000,0.000,0.000,0.000,16,16,4*75
$GPGGA,063926.80,3135.4658643,N,12046.5673217,E,4,16,1.6,2.7251,M,8.309,M,00,0004*64
$GPHPD,0,0.000,138.72,-0.67,-12.44,31.5910977,120.7761220,2.725,13631571.969,24924348.845,2.725,0.000,0.000,0.000,0.000,0.000,0.000,0.000,16,16,4*7E
$GPGGA,063927.00,3135.4657574,N,12046.5674311,E,4,16,1.6,2.7161,M,8.309,M,01,0004*64
$GPHPD,0,0.000,138.41,-0.91,-12.43,31.5910960,120.7761239,2.716,13631573.709,24924350.787,2.716,0.000,0.000,0.000,0.000,0.000,0.000,0.000,16,16,4*7C
$GPGGA,063927.20,3135.4656509,N,12046.5675436,E,4,16,1.6,2.7186,M,8.309,M,01,0004*67
$GPHPD,0,0.000,137.89,-0.24,-12.43,31.5910942,120.7761257,2.719,13631575.449,24924352.763,2.719,0.000,0.000,0.000,0.000,0.000,0.000,0.000,16,16,4*78
$GPGGA,063927.40,3135.4655498,N,12046.5676526,E,4,16,1.6,2.7231,M,8.309,M,01,0004*67
$GPHPD,0,0.000,137.63,-0.18,-12.43,31.5910925,120.7761275,2.723,13631577.106,24924354.666,2.723,0.000,0.000,0.000,0.000,0.000,0.000,0.000,16,16,4*7C
$GPGGA,063927.60,3135.4654417,N,12046.5677639,E,4,16,1.6,2.7153,M,8.309,M,00,0004*69
$GPHPD,0,0.000,137.26,-0.49,-12.41,31.5910907,120.7761294,2.715,13631578.866,24924356.637,2.715,0.000,0.000,0.000,0.000,0.000,0.000,0.000,16,16,4*72
$GPGGA,063927.80,3135.4653384,N,12046.5678762,E,4,16,1.6,2.7127,M,8.309,M,00,0004*6E
$GPHPD,0,0.000,136.97,-0.37,-12.40,31.5910890,120.7761313,2.713,13631580.560,24924358.593,2.713,0.000,0.000,0.000,0.000,0.000,0.000,0.000,16,16,4*7F
$GPGGA,063928.00,3135.4652338,N,12046.5679903,E,4,16,1.6,2.7089,M,8.309,M,01,0004*63
$GPHPD,0,0.000,136.87,0.02,-12.38,31.5910872,120.7761332,2.709,13631582.277,24924360.577,2.709,0.000,0.000,0.000,0.000,0.000,0.000,0.000,16,16,4*57
$GPGGA,063928.20,3135.4651281,N,12046.5680992,E,4,16,1.6,2.7046,M,8.309,M,01,0004*6C
$GPHPD,0,0.000,136.81,-0.01,-12.36,31.5910855,120.7761350,2.705,13631583.998,24924362.506,2.705,0.000,0.000,0.000,0.000,0.000,0.000,0.000,16,16,4*7F
$GPGGA,063928.40,3135.4650225,N,12046.5682108,E,4,16,1.6,2.7094,M,8.309,M,01,0004*63
$GPHPD,0,0.000,136.80,0.10,-12.34,31.5910837,120.7761368,2.709,13631585.724,24924364.466,2.709,0.000,0.000,0.000,0.000,0.000,0.000,0.000,16,16,4*50
$GPGGA,063928.60,3135.4649190,N,12046.5683237,E,4,16,1.6,2.7018,M,8.309,M,00,0004*6F
$GPHPD,0,0.000,136.65,0.31,-12.32,31.5910820,120.7761387,2.702,13631587.422,24924366.430,2.702,0.000,0.000,0.000,0.000,0.000,0.000,0.000,16,16,4*5F
$GPGGA,063928.80,3135.4648139,N,12046.5684387,E,4,16,1.6,2.7014,M,8.309,M,00,0004*62
$GPHPD,0,0.000,136.81,0.39,-12.34,31.5910802,120.7761406,2.701,13631589.147,24924368.429,2.701,0.000,0.000,0.000,0.000,0.000,0.000,0.000,16,16,4*5B
$GPGGA,063929.00,3135.4647095,N,12046.5685499,E,4,16,1.6,2.7077,M,8.309,M,01,0004*6E
$GPHPD,0,0.000,137.09,-0.08,-12.32,31.5910785,120.7761425,2.708,13631590.855,24924370.377,2.708,0.000,0.000,0.000,0.000,0.000,0.000,0.000,16,16,4*75
$GPGGA,063929.20,3135.4646032,N,12046.5686625,E,4,16,1.6,2.6984,M,8.309,M,01,0004*62
$GPHPD,0,0.000,137.23,-0.58,-12.33,31.5910767,120.7761444,2.698,13631592.593,24924372.354,2.698,0.000,0.000,0.000,0.000,0.000,0.000,0.000,16,16,4*74
$GPGGA,063929.40,3135.4644981,N,12046.5687745,E,4,16,1.6,2.7061,M,8.309,M,01,0004*62
$GPHPD,0,0.000,137.36,-0.39,-12.32,31.5910750,120.7761462,2.706,13631594.312,24924374.316,2.706,0.000,0.000,0.000,0.000,0.000,0.000,0.000,16,16,4*7F
$GPGGA,063929.60,3135.4643913,N,12046.5688864,E,4,16,1.6,2.7189,M,8.309,M,00,0004*69
$GPHPD,0,0.000,137.67,-0.55,-12.30,31.5910732,120.7761481,2.719,13631596.055,24924376.287,2.719,0.000,0.000,0.000,0.000,0.000,0.000,0.000,16,16,4*73
$GPGGA,063929.80,3135.4642854,N,12046.5689951,E,4,16,1.6,2.7059,M,8.309,M,00,0004*6E
$GPHPD,0,0.000,137.83,-1.04,-12.28,31.5910714,120.7761499,2.706,13631597.779,24924378.214,2.706,0.000,0.000,0.000,0.000,0.000,0.000,0.000,16,16,4*74
$GPGGA,063930.00,3135.4641775,N,12046.5691057,E,4,16,1.6,2.7047,M,8.309,M,01,0004*69
$GPHPD,0,0.000,138.03,-0.49,-12.29,31.5910696,120.7761518,2.705,13631599.535,24924380.176,2.705,0.000,0.000,0.000,0.000,0.000,0.000,0.000,16,16,4*7D
$GPGGA,063930.20,3135.4640710,N,12046.5692150,E,4,16,1.6,2.6993,M,8.309,M,01,0004*6D
$GPHPD,0,0.000,138.05,-0.38,-12.30,31.5910679,120.7761536,2.699,13631601.269,24924382.114,2.699,0.000,0.000,0.000,0.000,0.000,0.000,0.000,16,16,4*72
$GPGGA,063930.40,3135.4639635,N,12046.5693251,E,4,16,1.6,2.6886,M,8.309,M,01,0004*65
$GPHPD,0,0.000,138.29,-0.05,-12.31,31.5910661,120.7761554,2.689,13631603.019,24924384.067,2.689,0.000,0.000,0.000,0.000,0.000,0.000,0.000,16,16,4*7A
$GPGGA,063930.60,3135.4638530,N,12046.5694314,E,4,16,1.6,2.6995,M,8.309,M,00,0004*65
$GPHPD,0,0.000,138.68,0.60,-12.33,31.5910642,120.7761572,2.700,13631604.803,24924385.992,2.700,0.000,0.000,0.000,0.000,0.000,0.000,0.000,16,16,4*50
$GPGGA,063930.80,3135.4637455,N,12046.5695386,E,4,16,1.6,2.6981,M,8.309,M,00,0004*69
$GPHPD,0,0.000,138.68,0.12,-12.34,31.5910624,120.7761590,2.698,13631606.547,24924387.910,2.698,0.000,0.000,0.000,0.000,0.000,0.000,0.000,16,16,4*59
$GPGGA,063931.00,3135.4636350,N,12046.5696424,E,4,16,1.6,2.6943,M,8.309,M,01,0004*60
$GPHPD,0,0.000,138.97,0.07,-12.34,31.5910606,120.7761607,2.694,13631608.326,24924389.805,2.694,0.000,0.000,0.000,0.000,0.000,0.000,0.000,16,16,4*54
$GPGGA,063931.20,3135.4635264,N,12046.5697508,E,4,16,1.6,2.6943,M,8.309,M,01,0004*69
$GPHPD,0,0.000,139.05,0.40,-12.35,31.5910588,120.7761625,2.694,13631610.088,24924391.744,2.694,0.000,0.000,0.000,0.000,0.000,0.000,0.000,16,16,4*54
$GPGGA,063931.40,3135.4634174,N,12046.5698530,E,4,16,1.6,2.7055,M,8.309,M,01,0004*67
$GPHPD,0,0.000,139.38,0.23,-12.35,31.5910570,120.7761642,2.706,13631611.843,24924393.611,2.706,0.000,0.000,0.000,0.000,0.000,0.000,0.000,16,16,4*54
$GPGGA,063931.60,3135.4633098,N,12046.5699598,E,4,16,1.6,2.7070,M,8.309,M,00,0004*64
$GPHPD,0,0.000,139.58,-0.50,-12.37,31.5910552,120.7761660,2.707,13631613.587,24924395.525,2.707,0.000,0.000,0.000,0.000,0.000,0.000,0.000,16,16,4*7C
$GPGGA,063931.80,3135.4631989,N,12046.5700655,E,4,16,1.6,2.7012,M,8.309,M,00,0004*66
$GPHPD,0,0.000,139.89,-0.35,-12.37,31.5910533,120.7761678,2.701,13631615.376,24924397.445,2.701,0.000,0.000,0.000,0.000,0.000,0.000,0.000,16,16,4*76
$GPGGA,063932.00,3135.4630906,N,12046.5701712,E,4,16,1.6,2.7041,M,8.309,M,01,0004*6F
$GPHPD,0,0.000,140.19,-0.31,-12.37,31.5910515,120.7761695,2.704,13631617.128,24924399.350,2.704,0.000,0.000,0.000,0.000,0.000,0.000,0.000,16,16,4*74
$GPGGA,063932.20,3135.4629805,N,12046.5702764,E,4,16,1.6,2.6993,M,8.309,M,01,0004*62
$GPHPD,0,0.000,140.37,-0.36,-12.38,31.5910497,120.7761713,2.699,13631618.905,24924401.260,2.699,0.000,0.000,0.000,0.000,0.000,0.000,0.000,16,16,4*78
$GPGGA,063932.40,3135.4628682,N,12046.5703765,E,4,16,1.6,2.6982,M,8.309,M,01,0004*64
$GPHPD,0,0.000,140.74,-0.20,-12.39,31.5910478,120.7761729,2.698,13631620.703,24924403.121,2.698,0.000,0.000,0.000,0.000,0.000,0.000,0.000,16,16,4*76
$GPGGA,063932.60,3135.4627559,N,12046.5704804,E,4,16,1.6,2.6915,M,8.309,M,00,0004*6C
$GPHPD,0,0.000,140.98,-0.63,-12.39,31.5910459,120.7761747,2.692,13631622.508,24924405.027,2.692,0.000,0.000,0.000,0.000,0.000,0.000,0.000,16,16,4*72
$GPGGA,063932.80,3135.4626421,N,12046.5705797,E,4,16,1.6,2.6950,M,8.309,M,00,0004*68
$GPHPD,0,0.000,141.26,-0.21,-12.39,31.5910440,120.7761763,2.695,13631624.325,24924406.887,2.695,0.000,0.000,0.000,0.000,0.000,0.000,0.000,16,16,4*70
$GPGGA,063933.00,3135.4625330,N,12046.5706776,E,4,16,1.6,2.6903,M,8.309,M,01,0004*6E
$GPHPD,0,0.000,141.31,-0.39,-12.41,31.5910422,120.7761780,2.690,13631626.073,24924408.702,2.690,0.000,0.000,0.000,0.000,0.000,0.000,0.000,16,16,4*77
$GPGGA,063933.20,3135.4624207,N,12046.5707830,E,4,16,1.6,2.6856,M,8.309,M,01,0004*65
$GPHPD,0,0.000,141.56,-0.11,-12.42,31.5910403,120.7761797,2.686,13631627.881,24924410.627,2.686,0.000,0.000,0.000,0.000,0.000,0.000,0.000,16,16,4*71
$GPGGA,063933.40,3135.4623081,N,12046.5708818,E,4,16,1.6,2.6868,M,8.309,M,01,0004*60
$GPHPD,0,0.000,142.04,-0.26,-12.43,31.5910385,120.7761814,2.687,13631629.681,24924412.474,2.687,0.000,0.000,0.000,0.000,0.000,0.000,0.000,16,16,4*7B
$GPGGA,063933.60,3135.4621947,N,12046.5709813,E,4,16,1.6,2.6847,M,8.309,M,00,0004*65
$GPHPD,0,0.000,142.12,-0.22,-12.42,31.5910366,120.7761830,2.685,13631631.493,24924414.334,2.685,0.000,0.000,0.000,0.000,0.000,0.000,0.000,16,16,4*7F
$GPGGA,063933.80,3135.4620831,N,12046.5710796,E,4,16,1.8,2.6819,M,8.309,M,00,0004*65
$GPHPD,0,0.000,142.36,-0.57,-12.41,31.5910347,120.7761847,2.682,13631633.277,24924416.169,2.682,0.000,0.000,0.000,0.000,0.000,0.000,0.000,16,16,4*7D
$GPGGA,063934.00,3135.4619714,N,12046.5711785,E,4,16,1.6,2.6730,M,8.309,M,01,0004*60
$GPHPD,0,0.000,142.47,-0.39,-12.40,31.5910329,120.7761863,2.673,13631635.064,24924418.011,2.673,0.000,0.000,0.000,0.000,0.000,0.000,0.000,16,16,4*7A
$GPGGA,063934.20,3135.4618568,N,12046.5712772,E,4,16,1.6,2.6758,M,8.309,M,01,0004*6F
$GPHPD,0,0.000,142.50,-0.25,-12.40,31.5910309,120.7761880,2.676,13631636.891,24924419.868,2.676,0.000,0.000,0.000,0.000,0.000,0.000,0.000,16,16,4*78
$GPGGA,063934.40,3135.4617449,N,12046.5713740,E,4,16,1.6,2.6765,M,8.309,M,01,0004*6A
$GPHPD,0,0.000,142.56,-0.25,-12.38,31.5910291,120.7761896,2.677,13631638.676,24924421.687,2.677,0.000,0.000,0.000,0.000,0.000,0.000,0.000,16,16,4*7B
$GPGGA,063934.60,3135.4616322,N,12046.5714732,E,4,16,1.6,2.6775,M,8.309,M,00,0004*61
$GPHPD,0,0.000,142.92,-0.20,-12.39,31.5910272,120.7761912,2.678,13631640.478,24924423.539,2.678,0.000,0.000,0.000,0.000,0.000,0.000,0.000,16,16,4*70
$GPGGA,063934.80,3135.4615174,N,12046.5715665,E,4,16,1.6,2.6728,M,8.309,M,00,0004*67
$GPHPD,0,0.000,143.22,-0.22,-12.41,31.5910253,120.7761928,2.673,13631642.297,24924425.332,2.673,0.000,0.000,0.000,0.000,0.000,0.000,0.000,16,16,4*73
$GPGGA,063935.00,3135.4614060,N,12046.5716624,E,4,16,1.6,2.6785,M,8.309,M,01,0004*6B
$GPHPD,0,0.000,143.23,0.26,-12.43,31.5910234,120.7761944,2.679,13631644.074,24924427.137,2.679,0.000,0.000,0.000,0.000,0.000,0.000,0.000,16,16,4*5E
$GPGGA,063935.20,3135.4612918,N,12046.5717559,E,4,16,1.6,2.6702,M,8.309,M,01,0004*6E
$GPHPD,0,0.000,143.59,0.15,-12.44,31.5910215,120.7761959,2.670,13631645.885,24924428.929,2.670,0.000,0.000,0.000,0.000,0.000,0.000,0.000,16,16,4*54
$GPGGA,063935.40,3135.4611820,N,12046.5718485,E,4,16,1.6,2.6661,M,8.309,M,01,0004*6A
$GPHPD,0,0.000,143.81,-0.08,-12.44,31.5910197,120.7761975,2.666,13631647.632,24924430.685,2.666,0.000,0.000,0.000,0.000,0.000,0.000,0.000,16,16,4*77
$GPGGA,063935.60,3135.4610716,N,12046.5719408,E,4,16,1.6,2.6755,M,8.309,M,00,0004*60
$GPHPD,0,0.000,144.16,0.10,-12.42,31.5910179,120.7761990,2.676,13631649.387,24924432.441,2.676,0.000,0.000,0.000,0.000,0.000,0.000,0.000,16,16,4*5A
$GPGGA,063935.80,3135.4609576,N,12046.5720259,E,4,16,1.6,2.6731,M,8.309,M,00,0004*68
$GPHPD,0,0.000,144.37,-0.33,-12.42,31.5910160,120.7762004,2.673,13631651.179,24924434.131,2.673,0.000,0.000,0.000,0.000,0.000,0.000,0.000,16,16,4*74
$GPGGA,063936.00,3135.4608499,N,12046.5721147,E,4,16,1.6,2.6697,M,8.309,M,01,0004*63
$GPHPD,0,0.000,144.28,0.61,-12.41,31.5910142,120.7762019,2.670,13631652.888,24924435.828,2.670,0.000,0.000,0.000,0.000,0.000,0.000,0.000,16,16,4*5B
$GPGGA,063936.20,3135.4607392,N,12046.5722023,E,4,16,1.6,2.6680,M,8.309,M,01,0004*64
$GPHPD,0,0.000,144.33,0.32,-12.40,31.5910123,120.7762034,2.668,13631654.638,24924437.529,2.668,0.000,0.000,0.000,0.000,0.000,0.000,0.000,16,16,4*53
$GPGGA,063936.40,3135.4606324,N,12046.5722883,E,4,16,1.6,2.6742,M,8.309,M,01,0004*63
$GPHPD,0,0.000,144.11,0.27,-12.34,31.5910105,120.7762048,2.674,13631656.329,24924439.187,2.674,0.000,0.000,0.000,0.000,0.000,0.000,0.000,16,16,4*52
$GPGGA,063936.60,3135.4605323,N,12046.5723681,E,4,16,1.6,2.6670,M,8.309,M,00,0004*69
$GPHPD,0,0.000,144.28,-0.24,-12.27,31.5910089,120.7762061,2.667,13631657.913,24924440.732,2.667,0.000,0.000,0.000,0.000,0.000,0.000,0.000,16,16,4*7E
$GPGGA,063936.80,3135.4604398,N,12046.5724466,E,4,16,1.6,2.6669,M,8.309,M,00,0004*62
$GPHPD,0,0.000,144.41,-0.10,-12.17,31.5910073,120.7762074,2.667,13631659.385,24924442.217,2.667,0.000,0.000,0.000,0.000,0.000,0.000,0.000,16,16,4*7F
$GPGGA,063937.00,3135.4603534,N,12046.5725160,E,4,16,1.6,2.6718,M,8.309,M,01,0004*68
$GPHPD,0,0.000,144.62,-0.16,-12.00,31.5910059,120.7762086,2.672,13631660.753,24924443.557,2.672,0.000,0.000,0.000,0.000,0.000,0.000,0.000,16,16,4*7C
$GPGGA,063937.20,3135.4602795,N,12046.5725708,E,4,16,1.6,2.6820,M,8.309,M,01,0004*6E
$GPHPD,0,0.000,144.51,0.61,-11.84,31.5910047,120.7762095,2.682,13631661.914,24924444.648,2.682,0.000,0.000,0.000,0.000,0.000,0.000,0.000,16,16,4*55
$GPGGA,063937.40,3135.4602211,N,12046.5726181,E,4,16,1.6,2.6813,M,8.309,M,01,0004*65
$GPHPD,0,0.000,144.32,-0.20,-11.67,31.5910037,120.7762103,2.681,13631662.839,24924445.558,2.681,0.000,0.000,0.000,0.000,0.000,0.000,0.000,16,16,4*72
$GPGGA,063937.60,3135.4601765,N,12046.5726543,E,4,16,1.6,2.6876,M,8.309,M,00,0004*6A
$GPHPD,0,0.000,144.46,-0.28,-11.52,31.5910029,120.7762109,2.688,13631663.546,24924446.254,2.688,0.000,0.000,0.000,0.000,0.000,0.000,0.000,16,16,4*76
$GPGGA,063937.80,3135.4601461,N,12046.5726819,E,4,16,1.6,2.6873,M,8.309,M,00,0004*64
$GPHPD,0,0.000,144.52,-0.51,-11.37,31.5910024,120.7762114,2.687,13631664.033,24924446.764,2.687,0.000,0.000,0.000,0.000,0.000,0.000,0.000,16,16,4*79
$GPGGA,063938.00,3135.4601250,N,12046.5726989,E,4,16,1.6,2.6841,M,8.309,M,01,0004*6F
$GPHPD,0,0.000,144.61,-1.02,-11.25,31.5910021,120.7762116,2.684,13631664.368,24924447.092,2.684,0.000,0.000,0.000,0.000,0.000,0.000,0.000,16,16,4*78
$GPGGA,063938.20,3135.4601144,N,12046.5727075,E,4,16,1.6,2.6845,M,8.309,M,01,0004*64
$GPHPD,0,0.000,144.68,-0.57,-11.21,31.5910019,120.7762118,2.685,13631664.536,24924447.257,2.685,0.000,0.000,0.000,0.000,0.000,0.000,0.000,16,16,4*77
$GPGGA,063938.40,3135.4601109,N,12046.5727109,E,4,16,1.6,2.6785,M,8.309,M,01,0004*62
$GPHPD,0,0.000,144.67,-0.79,-11.21,31.5910018,120.7762118,2.679,13631664.592,24924447.319,2.679,0.000,0.000,0.000,0.000,0.000,0.000,0.000,16,16,4*70
$GPGGA,063938.60,3135.4601064,N,12046.5727119,E,4,16,1.6,2.6800,M,8.309,M,00,0004*68
$GPHPD,0,0.000,144.75,-0.71,-11.21,31.5910018,120.7762119,2.680,13631664.658,24924447.357,2.680,0.000,0.000,0.000,0.000,0.000,0.000,0.000,16,16,4*75
$GPGGA,063938.80,3135.4601088,N,12046.5727144,E,4,16,1.6,2.6889,M,8.309,M,00,0004*6D
$GPHPD,0,0.000,144.62,-0.74,-11.24,31.5910018,120.7762119,2.689,13631664.629,24924447.373,2.689,0.000,0.000,0.000,0.000,0.000,0.000,0.000,16,16,4*73
$GPGGA,063939.00,3135.4601072,N,12046.5727146,E,4,16,1.6,2.6864,M,8.309,M,01,0004*61
$GPHPD,0,0.000,144.67,-0.70,-11.29,31.5910018,120.7762119,2.686,13631664.652,24924447.385,2.686,0.000,0.000,0.000,0.000,0.000,0.000,0.000,16,15,4*79
$GPGGA,063939.20,3135.4601080,N,12046.5727140,E,4,16,1.6,2.6781,M,8.309,M,01,0004*6C
$GPHPD,0,0.000,144.67,-0.84,-11.33,31.5910018,120.7762119,2.678,13631664.640,24924447.373,2.678,0.000,0.000,0.000,0.000,0.000,0.000,0.000,16,16,4*70
$GPGGA,063939.40,3135.4601078,N,12046.5727143,E,4,16,1.6,2.6844,M,8.309,M,01,0004*68
$GPHPD,0,0.000,144.72,-0.84,-11.37,31.5910018,120.7762119,2.684,13631664.643,24924447.378,2.684,0.000,0.000,0.000,0.000,0.000,0.000,0.000,16,16,4*78
$GPGGA,063939.60,3135.4601068,N,12046.5727133,E,4,16,1.6,2.6817,M,8.309,M,00,0004*6B
$GPHPD,0,0.000,144.63,-0.98,-11.41,31.5910018,120.7762119,2.682,13631664.655,24924447.372,2.682,0.000,0.000,0.000,0.000,0.000,0.000,0.000,16,16,4*79
$GPGGA,063939.80,3135.4601069,N,12046.5727140,E,4,16,1.6,2.6831,M,8.309,M,00,0004*64
$GPHPD,0,0.000,144.49,-1.25,-11.45,31.5910018,120.7762119,2.683,13631664.655,24924447.379,2.683,0.000,0.000,0.000,0.000,0.000,0.000,0.000,16,16,4*79
$GPGGA,063940.00,3135.4601061,N,12046.5727127,E,4,16,1.6,2.6823,M,8.309,M,01,0004*69
$GPHPD,0,0.000,144.56,-0.96,-11.49,31.5910018,120.7762119,2.682,13631664.664,24924447.368,2.682,0.000,0.000,0.000,0.000,0.000,0.000,0.000,16,16,4*70
$GPGGA,063940.20,3135.4601065,N,12046.5727139,E,4,16,1.6,2.6826,M,8.309,M,01,0004*65
$GPHPD,0,0.000,144.56,-0.96,-11.52,31.5910018,120.7762119,2.683,13631664.661,24924447.381,2.683,0.000,0.000,0.000,0.000,0.000,0.000,0.000,16,16,4*78
$GPGGA,063940.40,3135.4601070,N,12046.5727140,E,4,16,1.6,2.6818,M,8.309,M,01,0004*64
$GPHPD,0,0.000,144.71,-1.05,-11.56,31.5910018,120.7762119,2.682,13631664.654,24924447.379,2.682,0.000,0.000,0.000,0.000,0.000,0.000,0.000,16,16,4*73
$GPGGA,063940.60,3135.4601067,N,12046.5727145,E,4,16,1.6,2.6832,M,8.309,M,00,0004*6C
$GPHPD,0,0.000,144.68,-1.34,-11.59,31.5910018,120.7762119,2.683,13631664.659,24924447.387,2.683,0.000,0.000,0.000,0.000,0.000,0.000,0.000,16,16,4*7A
$GPGGA,063940.80,3135.4601072,N,12046.5727140,E,4,16,1.6,2.6799,M,8.309,M,00,0004*6D
$GPHPD,0,0.000,144.70,-0.96,-11.61,31.5910018,120.7762119,2.680,13631664.651,24924447.378,2.680,0.000,0.000,0.000,0.000,0.000,0.000,0.000,16,16,4*79
$GPGGA,063941.00,3135.4601072,N,12046.5727141,E,4,16,1.6,2.6785,M,8.309,M,01,0004*69
$GPHPD,0,0.000,144.77,-0.70,-11.65,31.5910018,120.7762119,2.679,13631664.651,24924447.379,2.679,0.000,0.000,0.000,0.000,0.000,0.000,0.000,16,16,4*73
$GPGGA,063941.20,3135.4601062,N,12046.5727129,E,4,16,1.6,2.6835,M,8.309,M,01,0004*60
$GPHPD,0,0.000,144.70,-0.64,-11.67,31.5910018,120.7762119,2.684,13631664.663,24924447.370,2.684,0.000,0.000,0.000,0.000,0.000,0.000,0.000,16,16,4*7B
$GPGGA,063941.40,3135.4601061,N,12046.5727139,E,4,16,1.6,2.6740,M,8.309,M,01,0004*69
$GPHPD,0,0.000,144.50,-0.48,-11.69,31.5910018,120.7762119,2.674,13631664.666,24924447.383,2.674,0.000,0.000,0.000,0.000,0.000,0.000,0.000,16,16,4*70
$GPGGA,063941.60,3135.4601087,N,12046.5727134,E,4,16,1.6,2.6746,M,8.309,M,00,0004*69
$GPHPD,0,0.000,144.64,-0.38,-11.71,31.5910018,120.7762119,2.675,13631664.628,24924447.362,2.675,0.000,0.000,0.000,0.000,0.000,0.000,0.000,16,16,4*7C
$GPGGA,063941.80,3135.4601067,N,12046.5727151,E,4,16,1.6,2.6678,M,8.309,M,00,0004*66
