$GPGGA,064035.00,3135.4343038,N,12046.5931506,E,4,17,1.5,2.6635,M,8.311,M,01,0004*66
$GPHPD,0,0.000,143.32,-0.13,-9.29,31.5905717,120.7765525,2.664,13632072.546,24924844.002,2.664,0.000,0.000,0.000,0.000,0.000,0.000,0.000,17,16,4*47
$GPGGA,064035.20,3135.4341900,N,12046.5932446,E,4,17,1.5,2.6710,M,8.311,M,01,0004*64
$GPHPD,0,0.000,143.49,-0.84,-9.11,31.5905698,120.7765541,2.671,13632074.353,24924845.798,2.671,0.000,0.000,0.000,0.000,0.000,0.000,0.000,17,16,4*4B
$GPGGA,064035.40,3135.4340974,N,12046.5933242,E,4,17,1.5,2.6725,M,8.311,M,01,0004*65
$GPHPD,0,0.000,143.20,-0.36,-9.05,31.5905683,120.7765554,2.673,13632075.830,24924847.297,2.673,0.000,0.000,0.000,0.000,0.000,0.000,0.000,17,16,4*41
$GPGGA,064035.60,3135.4340221,N,12046.5933889,E,4,17,1.5,2.6772,M,8.311,M,00,0004*62
$GPHPD,0,0.000,143.41,-0.24,-9.01,31.5905670,120.7765565,2.677,13632077.030,24924848.516,2.677,0.000,0.000,0.000,0.000,0.000,0.000,0.000,17,16,4*44
$GPGGA,064035.80,3135.4339640,N,12046.5934423,E,4,17,1.4,2.6632,M,8.311,M,00,0004*6E
$GPHPD,0,0.000,143.51,-0.81,-8.95,31.5905661,120.7765574,2.663,13632077.963,24924849.498,2.663,0.000,0.000,0.000,0.000,0.000,0.000,0.000,17,16,4*4F
$GPGGA,064036.00,3135.4339189,N,12046.5934760,E,4,17,1.4,2.6725,M,8.311,M,01,0004*65
$GPHPD,0,0.000,143.57,-0.89,-8.91,31.5905653,120.7765579,2.673,13632078.672,24924850.167,2.673,0.000,0.000,0.000,0.000,0.000,0.000,0.000,17,16,4*44
$GPGGA,064036.20,3135.4338891,N,12046.5935033,E,4,17,1.4,2.6611,M,8.311,M,01,0004*60
$GPHPD,0,0.000,143.63,-0.85,-8.92,31.5905648,120.7765584,2.661,13632079.151,24924850.669,2.661,0.000,0.000,0.000,0.000,0.000,0.000,0.000,17,16,4*4A
$GPGGA,064036.40,3135.4338691,N,12046.5935213,E,4,17,1.4,2.6573,M,8.311,M,01,0004*6F
$GPHPD,0,0.000,143.54,-0.57,-8.99,31.5905645,120.7765587,2.657,13632079.471,24924851.003,2.657,0.000,0.000,0.000,0.000,0.000,0.000,0.000,17,16,4*48
$GPGGA,064036.60,3135.4338523,N,12046.5935368,E,4,17,1.4,2.6691,M,8.311,M,00,0004*64
$GPHPD,0,0.000,143.63,-0.53,-9.13,31.5905642,120.7765589,2.669,13632079.741,24924851.287,2.669,0.000,0.000,0.000,0.000,0.000,0.000,0.000,17,16,4*4C
$GPGGA,064036.80,3135.4338366,N,12046.5935475,E,4,17,1.4,2.6762,M,8.311,M,00,0004*6B
$GPHPD,0,0.000,143.76,-1.18,-9.25,31.5905639,120.7765591,2.676,13632079.986,24924851.508,2.676,0.000,0.000,0.000,0.000,0.000,0.000,0.000,17,16,4*43
$GPGGA,064037.00,3135.4338225,N,12046.5935597,E,4,17,1.4,2.6685,M,8.311,M,01,0004*60
$GPHPD,0,0.000,143.73,-1.19,-9.38,31.5905637,120.7765593,2.669,13632080.211,24924851.737,2.669,0.000,0.000,0.000,0.000,0.000,0.000,0.000,17,16,4*4A
$GPGGA,064037.20,3135.4338107,N,12046.5935683,E,4,17,1.4,2.6676,M,8.311,M,01,0004*6B
$GPHPD,0,0.000,143.72,-0.77,-9.49,31.5905635,120.7765595,2.668,13632080.396,24924851.909,2.668,0.000,0.000,0.000,0.000,0.000,0.000,0.000,17,16,4*4D
$GPGGA,064037.40,3135.4337999,N,12046.5935819,E,4,17,1.6,2.6646,M,8.311,M,01,0004*61
$GPHPD,0,0.000,143.56,-0.45,-9.65,31.5905633,120.7765597,2.665,13632080.577,24924852.136,2.665,0.000,0.000,0.000,0.000,0.000,0.000,0.000,17,16,4*4E
$GPGGA,064037.60,3135.4337792,N,12046.5935937,E,4,17,1.6,2.6590,M,8.311,M,00,0004*62
$GPHPD,0,0.000,143.70,-0.68,-9.85,31.5905630,120.7765599,2.659,13632080.895,24924852.399,2.659,0.000,0.000,0.000,0.000,0.000,0.000,0.000,17,16,4*40
$GPGGA,064037.80,3135.4337600,N,12046.5936120,E,4,17,1.6,2.6590,M,8.311,M,00,0004*6B
$GPHPD,0,0.000,143.49,-0.57,-10.06,31.5905627,120.7765602,2.659,13632081.205,24924852.731,2.659,0.000,0.000,0.000,0.000,0.000,0.000,0.000,17,16,4*76
$GPGGA,064038.00,3135.4337309,N,12046.5936364,E,4,17,1.4,2.6630,M,8.311,M,01,0004*68
$GPHPD,0,0.000,143.15,0.06,-10.28,31.5905622,120.7765606,2.663,13632081.667,24924853.195,2.663,0.000,0.000,0.000,0.000,0.000,0.000,0.000,17,16,4*52
$GPGGA,064038.20,3135.4336976,N,12046.5936663,E,4,17,1.4,2.6575,M,8.311,M,01,0004*69
$GPHPD,0,0.000,143.02,-0.33,-10.45,31.5905616,120.7765611,2.658,13632082.201,24924853.749,2.658,0.000,0.000,0.000,0.000,0.000,0.000,0.000,17,16,4*75
$GPGGA,064038.40,3135.4336571,N,12046.5937033,E,4,17,1.4,2.6442,M,8.311,M,01,0004*63
$GPHPD,0,0.000,142.85,-0.34,-10.64,31.5905610,120.7765617,2.644,13632082.851,24924854.431,2.644,0.000,0.000,0.000,0.000,0.000,0.000,0.000,17,16,4*7B
$GPGGA,064038.60,3135.4336121,N,12046.5937462,E,4,17,1.4,2.6473,M,8.311,M,00,0004*63
$GPHPD,0,0.000,142.58,0.36,-10.79,31.5905602,120.7765624,2.647,13632083.577,24924855.211,2.647,0.000,0.000,0.000,0.000,0.000,0.000,0.000,17,16,4*56
$GPGGA,064038.80,3135.4335635,N,12046.5937887,E,4,17,1.4,2.6520,M,8.311,M,00,0004*6C
$GPHPD,0,0.000,142.29,-0.21,-10.90,31.5905594,120.7765631,2.652,13632084.353,24924856.006,2.652,0.000,0.000,0.000,0.000,0.000,0.000,0.000,17,16,4*74
$GPGGA,064039.00,3135.4335134,N,12046.5938335,E,4,17,1.4,2.6621,M,8.311,M,01,0004*6D
$GPHPD,0,0.000,141.83,-0.13,-10.96,31.5905586,120.7765639,2.662,13632085.156,24924856.838,2.662,0.000,0.000,0.000,0.000,0.000,0.000,0.000,17,16,4*78
$GPGGA,064039.20,3135.4334661,N,12046.5938773,E,4,17,1.4,2.6595,M,8.311,M,01,0004*63
$GPHPD,0,0.000,141.56,-0.72,-10.95,31.5905578,120.7765646,2.660,13632085.916,24924857.641,2.660,0.000,0.000,0.000,0.000,0.000,0.000,0.000,17,16,4*70
$GPGGA,064039.40,3135.4334229,N,12046.5939156,E,4,17,1.4,2.6710,M,8.311,M,01,0004*62
$GPHPD,0,0.000,141.35,-0.46,-10.95,31.5905570,120.7765653,2.671,13632086.607,24924858.355,2.671,0.000,0.000,0.000,0.000,0.000,0.000,0.000,17,16,4*7D
$GPGGA,064039.60,3135.4333857,N,12046.5939515,E,4,17,1.4,2.6570,M,8.311,M,00,0004*62
$GPHPD,0,0.000,141.11,-0.74,-10.95,31.5905564,120.7765659,2.657,13632087.208,24924859.004,2.657,0.000,0.000,0.000,0.000,0.000,0.000,0.000,17,16,4*79
$GPGGA,064039.80,3135.4333515,N,12046.5939844,E,4,17,1.4,2.6541,M,8.311,M,00,0004*6C
$GPHPD,0,0.000,141.11,-0.74,-10.98,31.5905559,120.7765664,2.654,13632087.761,24924859.600,2.654,0.000,0.000,0.000,0.000,0.000,0.000,0.000,17,16,4*7C
$GPGGA,064040.00,3135.4333170,N,12046.5940162,E,4,17,1.4,2.6493,M,8.311,M,01,0004*61
$GPHPD,0,0.000,141.10,-0.60,-11.01,31.5905553,120.7765669,2.649,13632088.315,24924860.184,2.649,0.000,0.000,0.000,0.000,0.000,0.000,0.000,17,16,4*77
$GPGGA,064040.20,3135.4332860,N,12046.5940461,E,4,17,1.4,2.6477,M,8.311,M,01,0004*66
$GPHPD,0,0.000,140.94,-0.41,-11.03,31.5905548,120.7765674,2.648,13632088.816,24924860.725,2.648,0.000,0.000,0.000,0.000,0.000,0.000,0.000,17,16,4*78
$GPGGA,064040.40,3135.4332585,N,12046.5940715,E,4,17,1.4,2.6524,M,8.311,M,01,0004*61
$GPHPD,0,0.000,141.09,-0.07,-11.07,31.5905543,120.7765679,2.652,13632089.258,24924861.191,2.652,0.000,0.000,0.000,0.000,0.000,0.000,0.000,17,16,4*74
$GPGGA,064040.60,3135.4332309,N,12046.5940983,E,4,17,1.4,2.6503,M,8.311,M,00,0004*64
$GPHPD,0,0.000,140.98,-0.12,-11.13,31.5905538,120.7765683,2.650,13632089.704,24924861.675,2.650,0.000,0.000,0.000,0.000,0.000,0.000,0.000,17,16,4*74
$GPGGA,064040.80,3135.4332022,N,12046.5941208,E,4,17,1.4,2.6557,M,8.311,M,00,0004*68
$GPHPD,0,0.000,141.05,-0.15,-11.19,31.5905534,120.7765687,2.656,13632090.157,24924862.114,2.656,0.000,0.000,0.000,0.000,0.000,0.000,0.000,17,16,4*7F
$GPGGA,064041.00,3135.4331766,N,12046.5941452,E,4,17,1.5,2.6574,M,8.311,M,01,0004*6D
$GPHPD,0,0.000,141.27,-0.39,-11.30,31.5905529,120.7765691,2.657,13632090.570,24924862.557,2.657,0.000,0.000,0.000,0.000,0.000,0.000,0.000,17,16,4*73
$GPGGA,064041.20,3135.4331465,N,12046.5941723,E,4,17,1.5,2.6538,M,8.311,M,01,0004*62
$GPHPD,0,0.000,141.27,-0.06,-11.40,31.5905524,120.7765695,2.654,13632091.053,24924863.059,2.654,0.000,0.000,0.000,0.000,0.000,0.000,0.000,17,16,4*7E
$GPGGA,064041.40,3135.4331115,N,12046.5942043,E,4,17,1.5,2.6532,M,8.311,M,01,0004*6E
$GPHPD,0,0.000,141.31,0.03,-11.51,31.5905519,120.7765701,2.653,13632091.615,24924863.648,2.653,0.000,0.000,0.000,0.000,0.000,0.000,0.000,17,16,4*51
$GPGGA,064041.60,3135.4330748,N,12046.5942382,E,4,17,1.5,2.6597,M,8.311,M,01,0004*62
$GPHPD,0,0.000,141.40,0.16,-11.61,31.5905512,120.7765706,2.660,13632092.204,24924864.271,2.660,0.000,0.000,0.000,0.000,0.000,0.000,0.000,17,16,4*52
$GPGGA,064041.80,3135.4330349,N,12046.5942722,E,4,17,1.5,2.6511,M,8.311,M,00,0004*68
$GPHPD,0,0.000,141.60,-0.22,-11.70,31.5905506,120.7765712,2.651,13632092.840,24924864.913,2.651,0.000,0.000,0.000,0.000,0.000,0.000,0.000,17,16,4*7F
$GPGGA,064042.00,3135.4329879,N,12046.5943148,E,4,17,1.5,2.6533,M,8.311,M,01,0004*69
$GPHPD,0,0.000,141.66,0.40,-11.82,31.5905498,120.7765719,2.653,13632093.594,24924865.700,2.653,0.000,0.000,0.000,0.000,0.000,0.000,0.000,17,16,4*58
$GPGGA,064042.20,3135.4329419,N,12046.5943545,E,4,17,1.5,2.6481,M,8.311,M,01,0004*60
$GPHPD,0,0.000,141.69,0.23,-11.87,31.5905490,120.7765726,2.648,13632094.328,24924866.447,2.648,0.000,0.000,0.000,0.000,0.000,0.000,0.000,17,16,4*56
$GPGGA,064042.40,3135.4328962,N,12046.5943963,E,4,17,1.5,2.6518,M,8.311,M,01,0004*6F
$GPHPD,0,0.000,141.81,0.49,-11.89,31.5905483,120.7765733,2.652,13632095.061,24924867.217,2.652,0.000,0.000,0.000,0.000,0.000,0.000,0.000,17,16,4*59
$GPGGA,064042.60,3135.4328510,N,12046.5944380,E,4,17,1.5,2.6505,M,8.311,M,00,0004*69
$GPHPD,0,0.000,142.01,0.26,-11.87,31.5905475,120.7765740,2.651,13632095.788,24924867.983,2.651,0.000,0.000,0.000,0.000,0.000,0.000,0.000,17,16,4*5E
$GPGGA,064042.80,3135.4328075,N,12046.5944748,E,4,17,1.5,2.6408,M,8.311,M,00,0004*6D
$GPHPD,0,0.000,142.12,0.31,-11.87,31.5905468,120.7765746,2.641,13632096.480,24924868.680,2.641,0.000,0.000,0.000,0.000,0.000,0.000,0.000,17,16,4*5B
$GPGGA,064043.00,3135.4327653,N,12046.5945126,E,4,17,1.5,2.6554,M,8.311,M,01,0004*6F
$GPHPD,0,0.000,142.06,0.50,-11.88,31.5905461,120.7765752,2.655,13632097.156,24924869.381,2.655,0.000,0.000,0.000,0.000,0.000,0.000,0.000,17,16,4*50
$GPGGA,064043.20,3135.4327242,N,12046.5945471,E,4,17,1.5,2.6550,M,8.311,M,01,0004*6A
$GPHPD,0,0.000,142.16,-0.05,-11.87,31.5905454,120.7765758,2.655,13632097.810,24924870.036,2.655,0.000,0.000,0.000,0.000,0.000,0.000,0.000,17,16,4*73
$GPGGA,064043.40,3135.4326892,N,12046.5945776,E,4,17,1.5,2.6566,M,8.311,M,01,0004*6B
$GPHPD,0,0.000,142.03,0.27,-11.89,31.5905448,120.7765763,2.657,13632098.369,24924870.608,2.657,0.000,0.000,0.000,0.000,0.000,0.000,0.000,17,16,4*50
$GPGGA,064043.60,3135.4326509,N,12046.5946112,E,4,17,1.5,2.6561,M,8.311,M,00,0004*67
$GPHPD,0,0.000,142.05,0.23,-11.92,31.5905442,120.7765769,2.656,13632098.981,24924871.236,2.656,0.000,0.000,0.000,0.000,0.000,0.000,0.000,17,16,4*5C
$GPGGA,064043.80,3135.4326151,N,12046.5946453,E,4,17,1.5,2.6526,M,8.311,M,00,0004*63
$GPHPD,0,0.000,141.96,0.43,-11.97,31.5905436,120.7765774,2.653,13632099.558,24924871.856,2.653,0.000,0.000,0.000,0.000,0.000,0.000,0.000,17,16,4*5C
$GPGGA,064044.00,3135.4325755,N,12046.5946800,E,4,17,1.5,2.6505,M,8.311,M,01,0004*67
$GPHPD,0,0.000,142.03,0.57,-12.07,31.5905429,120.7765780,2.651,13632100.191,24924872.504,2.651,0.000,0.000,0.000,0.000,0.000,0.000,0.000,17,16,4*50
$GPGGA,064044.20,3135.4325300,N,12046.5947204,E,4,17,1.5,2.6594,M,8.311,M,01,0004*66
$GPHPD,0,0.000,142.03,0.28,-12.17,31.5905422,120.7765787,2.659,13632100.919,24924873.256,2.659,0.000,0.000,0.000,0.000,0.000,0.000,0.000,17,16,4*5C
$GPGGA,064044.40,3135.4324798,N,12046.5947658,E,4,17,1.5,2.6612,M,8.311,M,01,0004*64
$GPHPD,0,0.000,142.04,0.15,-12.28,31.5905413,120.7765794,2.661,13632101.724,24924874.096,2.661,0.000,0.000,0.000,0.000,0.000,0.000,0.000,17,16,4*51
$GPGGA,064044.60,3135.4324241,N,12046.5948141,E,4,17,1.5,2.6527,M,8.311,M,00,0004*63
$GPHPD,0,0.000,142.05,0.27,-12.37,31.5905404,120.7765802,2.653,13632102.613,24924875.003,2.653,0.000,0.000,0.000,0.000,0.000,0.000,0.000,17,16,4*52
$GPGGA,064044.80,3135.4323633,N,12046.5948670,E,4,17,1.5,2.6568,M,8.311,M,00,0004*65
$GPHPD,0,0.000,142.12,0.19,-12.46,31.5905394,120.7765811,2.657,13632103.583,24924875.995,2.657,0.000,0.000,0.000,0.000,0.000,0.000,0.000,17,16,4*5E
$GPGGA,064045.00,3135.4322978,N,12046.5949272,E,4,17,1.5,2.6612,M,8.311,M,01,0004*65
$GPHPD,0,0.000,142.04,0.27,-12.56,31.5905383,120.7765821,2.661,13632104.636,24924877.102,2.661,0.000,0.000,0.000,0.000,0.000,0.000,0.000,17,16,4*5E
$GPGGA,064045.20,3135.4322241,N,12046.5949896,E,4,17,1.5,2.6580,M,8.311,M,01,0004*6E
$GPHPD,0,0.000,142.08,0.19,-12.65,31.5905371,120.7765832,2.658,13632105.809,24924878.283,2.658,0.000,0.000,0.000,0.000,0.000,0.000,0.000,17,16,4*56
$GPGGA,064045.40,3135.4321431,N,12046.5950609,E,4,17,1.5,2.6510,M,8.311,M,01,0004*63
$GPHPD,0,0.000,141.92,-0.01,-12.74,31.5905357,120.7765843,2.651,13632107.104,24924879.614,2.651,0.000,0.000,0.000,0.000,0.000,0.000,0.000,17,16,4*7D
$GPGGA,064045.60,3135.4320604,N,12046.5951349,E,4,17,1.5,2.6564,M,8.311,M,00,0004*66
$GPHPD,0,0.000,141.83,-0.02,-12.83,31.5905343,120.7765856,2.656,13632108.428,24924880.988,2.656,0.000,0.000,0.000,0.000,0.000,0.000,0.000,17,16,4*7F
$GPGGA,064045.80,3135.4319716,N,12046.5952182,E,4,17,1.5,2.6578,M,8.311,M,00,0004*6B
$GPHPD,0,0.000,141.70,0.49,-12.91,31.5905329,120.7765870,2.658,13632109.858,24924882.509,2.658,0.000,0.000,0.000,0.000,0.000,0.000,0.000,17,16,4*57
$GPGGA,064046.00,3135.4318760,N,12046.5953046,E,4,17,1.5,2.6663,M,8.311,M,01,0004*60
$GPHPD,0,0.000,141.63,0.40,-12.95,31.5905313,120.7765884,2.666,13632111.391,24924884.108,2.666,0.000,0.000,0.000,0.000,0.000,0.000,0.000,17,16,4*5E
$GPGGA,064046.20,3135.4317759,N,12046.5953945,E,4,17,1.5,2.6662,M,8.311,M,01,0004*6C
$GPHPD,0,0.000,141.48,0.28,-12.98,31.5905296,120.7765899,2.666,13632112.994,24924885.774,2.666,0.000,0.000,0.000,0.000,0.000,0.000,0.000,17,16,4*54
$GPGGA,064046.40,3135.4316741,N,12046.5954885,E,4,17,1.5,2.6613,M,8.311,M,01,0004*6E
$GPHPD,0,0.000,141.16,0.29,-12.99,31.5905279,120.7765915,2.661,13632114.631,24924887.500,2.661,0.000,0.000,0.000,0.000,0.000,0.000,0.000,17,16,4*5E
$GPGGA,064046.60,3135.4315719,N,12046.5955845,E,4,17,1.5,2.6538,M,8.311,M,00,0004*64
$GPHPD,0,0.000,141.19,-0.05,-12.99,31.5905262,120.7765931,2.654,13632116.276,24924889.253,2.654,0.000,0.000,0.000,0.000,0.000,0.000,0.000,17,15,4*77
$GPGGA,064046.80,3135.4314659,N,12046.5956822,E,4,17,1.5,2.6554,M,8.311,M,00,0004*66
$GPHPD,0,0.000,141.11,0.07,-12.97,31.5905244,120.7765947,2.655,13632117.980,24924891.048,2.655,0.000,0.000,0.000,0.000,0.000,0.000,0.000,17,16,4*5A
$GPGGA,064047.00,3135.4313601,N,12046.5957829,E,4,17,1.5,2.6632,M,8.311,M,01,0004*6D
$GPHPD,0,0.000,140.70,0.21,-12.95,31.5905227,120.7765964,2.663,13632119.686,24924892.878,2.663,0.000,0.000,0.000,0.000,0.000,0.000,0.000,17,16,4*51
$GPGGA,064047.20,3135.4312539,N,12046.5958822,E,4,17,1.5,2.6635,M,8.311,M,01,0004*65
$GPHPD,0,0.000,140.77,-0.49,-12.91,31.5905209,120.7765980,2.664,13632121.396,24924894.694,2.664,0.000,0.000,0.000,0.000,0.000,0.000,0.000,17,16,4*72
$GPGGA,064047.40,3135.4311506,N,12046.5959817,E,4,16,1.5,2.6643,M,8.311,M,01,0004*6B
$GPHPD,0,0.000,140.44,-0.22,-12.86,31.5905192,120.7765997,2.664,13632123.064,24924896.495,2.664,0.000,0.000,0.000,0.000,0.000,0.000,0.000,16,16,4*72
$GPGGA,064047.60,3135.4310458,N,12046.5960775,E,4,16,1.5,2.6694,M,8.311,M,00,0004*68
$GPHPD,0,0.000,140.29,-0.41,-12.82,31.5905174,120.7766013,2.669,13632124.747,24924898.260,2.669,0.000,0.000,0.000,0.000,0.000,0.000,0.000,16,16,4*75
$GPGGA,064047.80,3135.4309413,N,12046.5961766,E,4,16,1.5,2.6521,M,8.311,M,00,0004*6F
$GPHPD,0,0.000,140.34,-0.38,-12.80,31.5905157,120.7766029,2.652,13632126.432,24924900.063,2.652,0.000,0.000,0.000,0.000,0.000,0.000,0.000,16,16,4*7F
$GPGGA,064048.00,3135.4308371,N,12046.5962780,E,4,16,1.5,2.6623,M,8.311,M,01,0004*61
$GPHPD,0,0.000,140.10,0.06,-12.78,31.5905140,120.7766046,2.662,13632128.117,24924901.892,2.662,0.000,0.000,0.000,0.000,0.000,0.000,0.000,16,16,4*5A
$GPGGA,064048.20,3135.4307336,N,12046.5963764,E,4,16,1.5,2.6636,M,8.311,M,01,0004*60
$GPHPD,0,0.000,140.14,-0.27,-12.78,31.5905122,120.7766063,2.664,13632129.786,24924903.681,2.664,0.000,0.000,0.000,0.000,0.000,0.000,0.000,16,16,4*72
$GPGGA,064048.40,3135.4306290,N,12046.5964779,E,4,16,1.5,2.6615,M,8.311,M,01,0004*60
$GPHPD,0,0.000,140.12,-0.16,-12.77,31.5905105,120.7766080,2.662,13632131.477,24924905.514,2.662,0.000,0.000,0.000,0.000,0.000,0.000,0.000,16,16,4*7C
$GPGGA,064048.60,3135.4305231,N,12046.5965772,E,4,16,1.5,2.6597,M,8.311,M,01,0004*69
$GPHPD,0,0.000,140.15,-0.27,-12.77,31.5905087,120.7766096,2.660,13632133.182,24924907.328,2.660,0.000,0.000,0.000,0.000,0.000,0.000,0.000,16,16,4*73
$GPGGA,064048.80,3135.4304177,N,12046.5966765,E,4,16,1.5,2.6611,M,8.311,M,01,0004*6F
$GPHPD,0,0.000,140.16,0.08,-12.78,31.5905070,120.7766113,2.661,13632134.880,24924909.139,2.661,0.000,0.000,0.000,0.000,0.000,0.000,0.000,16,16,4*5B
$GPGGA,064049.00,3135.4303091,N,12046.5967793,E,4,16,1.5,2.6691,M,8.311,M,02,0004*6B
$GPHPD,0,0.000,140.04,0.49,-12.77,31.5905052,120.7766130,2.669,13632136.631,24924911.011,2.669,0.000,0.000,0.000,0.000,0.000,0.000,0.000,16,16,4*57
$GPGGA,064049.20,3135.4302039,N,12046.5968795,E,4,16,1.5,2.6720,M,8.311,M,02,0004*68
$GPHPD,0,0.000,139.92,0.27,-12.76,31.5905034,120.7766147,2.672,13632138.328,24924912.831,2.672,0.000,0.000,0.000,0.000,0.000,0.000,0.000,16,16,4*55
$GPGGA,064049.40,3135.4300988,N,12046.5969824,E,4,16,1.5,2.6582,M,8.311,M,02,0004*61
$GPHPD,0,0.000,139.75,0.42,-12.74,31.5905016,120.7766164,2.658,13632140.029,24924914.684,2.658,0.000,0.000,0.000,0.000,0.000,0.000,0.000,16,16,4*57
$GPGGA,064049.60,3135.4299916,N,12046.5970859,E,4,16,1.5,2.6625,M,8.311,M,02,0004*69
$GPHPD,0,0.000,139.67,0.19,-12.73,31.5904999,120.7766181,2.663,13632141.761,24924916.556,2.663,0.000,0.000,0.000,0.000,0.000,0.000,0.000,16,16,4*5D
$GPGGA,064049.80,3135.4298868,N,12046.5971909,E,4,16,1.5,2.6572,M,8.311,M,00,0004*68
$GPHPD,0,0.000,139.33,0.13,-12.73,31.5904981,120.7766198,2.657,13632143.462,24924918.432,2.657,0.000,0.000,0.000,0.000,0.000,0.000,0.000,16,16,4*58
$GPGGA,064050.00,3135.4297776,N,12046.5972968,E,4,16,1.5,2.6632,M,8.311,M,01,0004*65
$GPHPD,0,0.000,139.42,-0.03,-12.73,31.5904963,120.7766216,2.663,13632145.227,24924920.345,2.663,0.000,0.000,0.000,0.000,0.000,0.000,0.000,16,16,4*76
$GPGGA,064050.20,3135.4296703,N,12046.5974000,E,4,16,1.5,2.6713,M,8.311,M,01,0004*67
$GPHPD,0,0.000,139.23,-0.25,-12.70,31.5904945,120.7766233,2.671,13632146.960,24924922.214,2.671,0.000,0.000,0.000,0.000,0.000,0.000,0.000,16,16,4*79
$GPGGA,064050.40,3135.4295618,N,12046.5975021,E,4,16,1.5,2.6700,M,8.311,M,01,0004*69
$GPHPD,0,0.000,139.28,-0.29,-12.71,31.5904927,120.7766250,2.670,13632148.708,24924924.076,2.670,0.000,0.000,0.000,0.000,0.000,0.000,0.000,16,16,4*70
$GPGGA,064050.60,3135.4294508,N,12046.5976129,E,4,16,1.5,2.6652,M,8.311,M,00,0004*65
$GPHPD,0,0.000,139.30,-0.03,-12.71,31.5904908,120.7766269,2.665,13632150.509,24924926.059,2.665,0.000,0.000,0.000,0.000,0.000,0.000,0.000,16,16,4*73
$GPGGA,064050.80,3135.4293427,N,12046.5977202,E,4,16,1.5,2.6658,M,8.311,M,00,0004*61
$GPHPD,0,0.000,139.46,-0.33,-12.69,31.5904890,120.7766287,2.666,13632152.261,24924927.982,2.666,0.000,0.000,0.000,0.000,0.000,0.000,0.000,16,16,4*7D
$GPGGA,064051.00,3135.4292341,N,12046.5978270,E,4,16,1.5,2.6671,M,8.311,M,01,0004*6E
$GPHPD,0,0.000,139.63,-0.28,-12.70,31.5904872,120.7766305,2.667,13632154.020,24924929.902,2.667,0.000,0.000,0.000,0.000,0.000,0.000,0.000,16,16,4*78
$GPGGA,064051.20,3135.4291248,N,12046.5979285,E,4,16,1.5,2.6640,M,8.311,M,01,0004*6E
$GPHPD,0,0.000,139.66,-0.33,-12.68,31.5904854,120.7766321,2.664,13632155.778,24924931.762,2.664,0.000,0.000,0.000,0.000,0.000,0.000,0.000,16,16,4*76
$GPGGA,064051.40,3135.4290174,N,12046.5980348,E,4,16,1.5,2.6634,M,8.311,M,01,0004*60
$GPHPD,0,0.000,139.55,-0.45,-12.68,31.5904836,120.7766339,2.663,13632157.518,24924933.669,2.663,0.000,0.000,0.000,0.000,0.000,0.000,0.000,16,16,4*74
$GPGGA,064051.60,3135.4289096,N,12046.5981391,E,4,16,1.5,2.6706,M,8.311,M,00,0004*63
$GPHPD,0,0.000,139.76,-0.30,-12.67,31.5904818,120.7766357,2.671,13632159.260,24924935.554,2.671,0.000,0.000,0.000,0.000,0.000,0.000,0.000,16,16,4*71
$GPGGA,064051.80,3135.4287994,N,12046.5982411,E,4,16,1.5,2.6622,M,8.311,M,00,0004*63
$GPHPD,0,0.000,139.77,-0.76,-12.68,31.5904800,120.7766374,2.662,13632161.032,24924937.425,2.662,0.000,0.000,0.000,0.000,0.000,0.000,0.000,16,16,4*7E
$GPGGA,064052.00,3135.4286919,N,12046.5983471,E,4,16,1.5,2.6629,M,8.311,M,01,0004*61
$GPHPD,0,0.000,139.68,-0.28,-12.68,31.5904782,120.7766391,2.663,13632162.773,24924939.329,2.663,0.000,0.000,0.000,0.000,0.000,0.000,0.000,16,16,4*71
$GPGGA,064052.20,3135.4285816,N,12046.5984500,E,4,16,1.5,2.6499,M,8.311,M,01,0004*67
$GPHPD,0,0.000,139.78,-0.35,-12.69,31.5904764,120.7766408,2.650,13632164.548,24924941.212,2.650,0.000,0.000,0.000,0.000,0.000,0.000,0.000,16,16,4*78
$GPGGA,064052.40,3135.4284725,N,12046.5985550,E,4,16,1.5,2.6565,M,8.311,M,01,0004*69
$GPHPD,0,0.000,140.10,-0.23,-12.69,31.5904745,120.7766426,2.657,13632166.310,24924943.113,2.657,0.000,0.000,0.000,0.000,0.000,0.000,0.000,16,16,4*79
$GPGGA,064052.60,3135.4283609,N,12046.5986567,E,4,16,1.5,2.6598,M,8.311,M,01,0004*66
$GPHPD,0,0.000,140.31,-0.45,-12.70,31.5904727,120.7766443,2.660,13632168.101,24924944.989,2.660,0.000,0.000,0.000,0.000,0.000,0.000,0.000,16,16,4*75
$GPGGA,064052.80,3135.4282525,N,12046.5987580,E,4,16,1.5,2.6587,M,8.311,M,01,0004*62
$GPHPD,0,0.000,140.48,-0.11,-12.70,31.5904709,120.7766460,2.659,13632169.846,24924946.842,2.659,0.000,0.000,0.000,0.000,0.000,0.000,0.000,16,16,4*78
$GPGGA,064053.00,3135.4281436,N,12046.5988582,E,4,16,1.5,2.6573,M,8.311,M,02,0004*6E
$GPHPD,0,0.000,140.77,-0.05,-12.69,31.5904691,120.7766476,2.657,13632171.596,24924948.684,2.657,0.000,0.000,0.000,0.000,0.000,0.000,0.000,16,16,4*7D
$GPGGA,064053.20,3135.4280319,N,12046.5989615,E,4,16,1.5,2.6504,M,8.311,M,02,0004*6B
$GPHPD,0,0.000,141.01,0.23,-12.70,31.5904672,120.7766494,2.650,13632173.391,24924950.580,2.650,0.000,0.000,0.000,0.000,0.000,0.000,0.000,16,16,4*50
$GPGGA,064053.40,3135.4279216,N,12046.5990613,E,4,16,1.5,2.6475,M,8.311,M,02,0004*6C
$GPHPD,0,0.000,141.17,0.86,-12.70,31.5904654,120.7766510,2.648,13632175.160,24924952.425,2.648,0.000,0.000,0.000,0.000,0.000,0.000,0.000,16,16,4*57
$GPGGA,064053.60,3135.4278106,N,12046.5991653,E,4,16,1.5,2.6534,M,8.311,M,02,0004*6C
$GPHPD,0,0.000,141.53,0.40,-12.69,31.5904635,120.7766528,2.653,13632176.947,24924954.325,2.653,0.000,0.000,0.000,0.000,0.000,0.000,0.000,16,16,4*56
$GPGGA,064053.80,3135.4276976,N,12046.5992619,E,4,16,1.5,2.6592,M,8.311,M,02,0004*62
$GPHPD,0,0.000,141.73,0.96,-12.69,31.5904616,120.7766544,2.659,13632178.748,24924956.148,2.659,0.000,0.000,0.000,0.000,0.000,0.000,0.000,16,16,4*50
$GPGGA,064054.00,3135.4275868,N,12046.5993617,E,4,16,1.5,2.6493,M,8.311,M,03,0004*6E
$GPHPD,0,0.000,141.77,1.26,-12.68,31.5904598,120.7766560,2.649,13632180.523,24924957.996,2.649,0.000,0.000,0.000,0.000,0.000,0.000,0.000,16,16,4*5E
$GPGGA,064054.20,3135.4274745,N,12046.5994593,E,4,16,1.5,2.6542,M,8.311,M,03,0004*68
$GPHPD,0,0.000,142.05,1.41,-12.67,31.5904579,120.7766577,2.654,13632182.316,24924959.827,2.654,0.000,0.000,0.000,0.000,0.000,0.000,0.000,16,16,4*58
$GPGGA,064054.40,3135.4273624,N,12046.5995591,E,4,16,1.5,2.6595,M,8.311,M,03,0004*66
$GPHPD,0,0.000,142.00,0.54,-12.67,31.5904560,120.7766593,2.660,13632184.110,24924961.683,2.660,0.000,0.000,0.000,0.000,0.000,0.000,0.000,16,16,4*53
$GPGGA,064054.60,3135.4272507,N,12046.5996561,E,4,16,1.5,2.6547,M,8.311,M,03,0004*64
$GPHPD,0,0.000,141.84,0.53,-12.66,31.5904542,120.7766609,2.655,13632185.893,24924963.502,2.655,0.000,0.000,0.000,0.000,0.000,0.000,0.000,16,16,4*51
$GPGGA,064054.80,3135.4271376,N,12046.5997566,E,4,16,1.5,2.6590,M,8.311,M,00,0004*66
$GPHPD,0,0.000,141.96,0.81,-12.67,31.5904523,120.7766626,2.659,13632187.703,24924965.373,2.659,0.000,0.000,0.000,0.000,0.000,0.000,0.000,16,16,4*54
$GPGGA,064055.00,3135.4270222,N,12046.5998569,E,4,16,1.5,2.6801,M,8.311,M,01,0004*6A
$GPHPD,0,0.000,141.68,-0.13,-12.63,31.5904504,120.7766643,2.680,13632189.545,24924967.254,2.680,0.000,0.000,0.000,0.000,0.000,0.000,0.000,16,16,4*79
$GPGGA,064055.20,3135.4269113,N,12046.5999587,E,4,16,1.5,2.6709,M,8.311,M,01,0004*67
$GPHPD,0,0.000,141.57,-0.83,-12.64,31.5904485,120.7766660,2.671,13632191.327,24924969.127,2.671,0.000,0.000,0.000,0.000,0.000,0.000,0.000,16,16,4*70
$GPGGA,064055.40,3135.4267971,N,12046.6000628,E,4,16,1.5,2.6738,M,8.311,M,01,0004*6D
$GPHPD,0,0.000,141.48,-0.73,-12.62,31.5904466,120.7766677,2.674,13632193.159,24924971.047,2.674,0.000,0.000,0.000,0.000,0.000,0.000,0.000,16,16,4*7B
$GPGGA,064055.60,3135.4266862,N,12046.6001656,E,4,16,1.5,2.6756,M,8.311,M,00,0004*6C
$GPHPD,0,0.000,141.51,-0.75,-12.62,31.5904448,120.7766694,2.676,13632194.943,24924972.932,2.676,0.000,0.000,0.000,0.000,0.000,0.000,0.000,16,16,4*78
$GPGGA,064055.80,3135.4265723,N,12046.6002691,E,4,16,1.5,2.6783,M,8.311,M,00,0004*6B
$GPHPD,0,0.000,141.52,-1.33,-12.61,31.5904429,120.7766712,2.678,13632196.770,24924974.843,2.678,0.000,0.000,0.000,0.000,0.000,0.000,0.000,16,16,4*7E
$GPGGA,064056.00,3135.4264586,N,12046.6003708,E,4,16,1.5,2.6707,M,8.311,M,01,0004*61
$GPHPD,0,0.000,141.47,-1.35,-12.60,31.5904410,120.7766728,2.671,13632198.591,24924976.731,2.671,0.000,0.000,0.000,0.000,0.000,0.000,0.000,16,16,4*75
$GPGGA,064056.20,3135.4263443,N,12046.6004729,E,4,16,1.5,2.6645,M,8.311,M,01,0004*6F
$GPHPD,0,0.000,141.78,-1.49,-12.60,31.5904391,120.7766745,2.665,13632200.421,24924978.628,2.665,0.000,0.000,0.000,0.000,0.000,0.000,0.000,16,16,4*78
$GPGGA,064056.40,3135.4262314,N,12046.6005764,E,4,17,1.5,2.6584,M,8.312,M,01,0004*69
$GPHPD,0,0.000,141.76,-0.97,-12.59,31.5904372,120.7766763,2.658,13632202.234,24924980.533,2.658,0.000,0.000,0.000,0.000,0.000,0.000,0.000,17,16,4*78
$GPGGA,064056.60,3135.4261175,N,12046.6006766,E,4,17,1.5,2.6555,M,8.312,M,00,0004*61
$GPHPD,0,0.000,141.88,-0.65,-12.58,31.5904353,120.7766779,2.656,13632204.055,24924982.404,2.656,0.000,0.000,0.000,0.000,0.000,0.000,0.000,17,16,4*79
$GPGGA,064056.80,3135.4260051,N,12046.6007791,E,4,17,1.5,2.6511,M,8.312,M,00,0004*60
$GPHPD,0,0.000,142.26,-1.13,-12.58,31.5904334,120.7766797,2.651,13632205.859,24924984.294,2.651,0.000,0.000,0.000,0.000,0.000,0.000,0.000,17,16,4*73
$GPGGA,064057.00,3135.4258925,N,12046.6008778,E,4,17,1.5,2.6473,M,8.312,M,01,0004*64
$GPHPD,0,0.000,142.62,-1.19,-12.61,31.5904315,120.7766813,2.647,13632207.658,24924986.140,2.647,0.000,0.000,0.000,0.000,0.000,0.000,0.000,17,17,4*77
$GPGGA,064057.20,3135.4257788,N,12046.6009733,E,4,17,1.5,2.6466,M,8.312,M,01,0004*6A
$GPHPD,0,0.000,142.87,-0.66,-12.63,31.5904296,120.7766829,2.647,13632209.466,24924987.953,2.647,0.000,0.000,0.000,0.000,0.000,0.000,0.000,17,17,4*7E
$GPGGA,064057.40,3135.4256681,N,12046.6010729,E,4,17,1.5,2.6569,M,8.312,M,01,0004*68
$GPHPD,0,0.000,143.06,-0.92,-12.64,31.5904278,120.7766845,2.657,13632211.240,24924989.799,2.657,0.000,0.000,0.000,0.000,0.000,0.000,0.000,17,16,4*7C
$GPGGA,064057.60,3135.4255535,N,12046.6011704,E,4,17,1.5,2.6537,M,8.312,M,00,0004*61
$GPHPD,0,0.000,142.89,-0.46,-12.64,31.5904259,120.7766862,2.654,13632213.065,24924991.641,2.654,0.000,0.000,0.000,0.000,0.000,0.000,0.000,17,16,4*7F
$GPGGA,064057.80,3135.4254415,N,12046.6012619,E,4,17,1.5,2.6485,M,8.312,M,00,0004*6B
$GPHPD,0,0.000,143.06,-0.50,-12.65,31.5904240,120.7766877,2.649,13632214.842,24924993.397,2.649,0.000,0.000,0.000,0.000,0.000,0.000,0.000,17,16,4*75
$GPGGA,064058.00,3135.4253269,N,12046.6013603,E,4,17,1.5,2.6473,M,8.312,M,01,0004*64
$GPHPD,0,0.000,142.77,0.18,-12.66,31.5904221,120.7766893,2.647,13632216.669,24924995.250,2.647,0.000,0.000,0.000,0.000,0.000,0.000,0.000,17,16,4*54
$GPGGA,064058.20,3135.4252120,N,12046.6014549,E,4,17,1.5,2.6562,M,8.312,M,01,0004*62
$GPHPD,0,0.000,143.12,0.95,-12.66,31.5904202,120.7766909,2.656,13632218.492,24924997.060,2.656,0.000,0.000,0.000,0.000,0.000,0.000,0.000,17,16,4*5B
$GPGGA,064058.40,3135.4250993,N,12046.6015501,E,4,17,1.5,2.6524,M,8.312,M,01,0004*69
$GPHPD,0,0.000,142.92,1.24,-12.67,31.5904183,120.7766925,2.652,13632220.286,24924998.864,2.652,0.000,0.000,0.000,0.000,0.000,0.000,0.000,17,16,4*57
$GPGGA,064058.60,3135.4249831,N,12046.6016489,E,4,17,1.5,2.6516,M,8.312,M,00,0004*68
$GPHPD,0,0.000,142.92,1.36,-12.70,31.5904164,120.7766941,2.652,13632222.136,24925000.731,2.652,0.000,0.000,0.000,0.000,0.000,0.000,0.000,17,16,4*55
$GPGGA,064058.80,3135.4248706,N,12046.6017408,E,4,17,1.5,2.6604,M,8.312,M,00,0004*64
$GPHPD,0,0.000,142.99,0.98,-12.70,31.5904145,120.7766957,2.660,13632223.920,24925002.494,2.660,0.000,0.000,0.000,0.000,0.000,0.000,0.000,17,16,4*5F
$GPGGA,064059.00,3135.4247581,N,12046.6018402,E,4,17,1.5,2.6475,M,8.312,M,01,0004*6F
$GPHPD,0,0.000,142.97,0.87,-12.69,31.5904126,120.7766973,2.648,13632225.719,24925004.348,2.648,0.000,0.000,0.000,0.000,0.000,0.000,0.000,17,16,4*56
$GPGGA,064059.20,3135.4246415,N,12046.6019325,E,4,17,1.5,2.6515,M,8.312,M,01,0004*64
$GPHPD,0,0.000,143.82,1.26,-12.66,31.5904107,120.7766989,2.652,13632227.563,24925006.140,2.652,0.000,0.000,0.000,0.000,0.000,0.000,0.000,17,16,4*55
$GPGGA,064059.40,3135.4245280,N,12046.6020272,E,4,17,1.5,2.6619,M,8.312,M,01,0004*6D
$GPHPD,0,0.000,143.83,0.95,-12.66,31.5904088,120.7767005,2.662,13632229.366,24925007.942,2.662,0.000,0.000,0.000,0.000,0.000,0.000,0.000,17,16,4*51
$GPGGA,064059.60,3135.4244145,N,12046.6021270,E,4,17,1.5,2.6521,M,8.312,M,00,0004*6E
$GPHPD,0,0.000,143.92,0.41,-12.66,31.5904069,120.7767021,2.652,13632231.181,24925009.806,2.652,0.000,0.000,0.000,0.000,0.000,0.000,0.000,17,16,4*5C
$GPGGA,064059.80,3135.4242998,N,12046.6022194,E,4,17,1.5,2.6576,M,8.312,M,00,0004*66
$GPHPD,0,0.000,143.66,1.29,-12.68,31.5904050,120.7767037,2.658,13632232.997,24925011.588,2.658,0.000,0.000,0.000,0.000,0.000,0.000,0.000,17,16,4*55
$GPGGA,064100.00,3135.4241824,N,12046.6023049,E,4,17,1.5,2.6798,M,8.312,M,01,0004*65
$GPHPD,0,0.000,143.75,0.61,-12.69,31.5904030,120.7767051,2.680,13632234.838,24925013.302,2.680,0.000,0.000,0.000,0.000,0.000,0.000,0.000,17,16,4*59
$GPGGA,064100.20,3135.4240730,N,12046.6024100,E,4,16,1.6,2.6664,M,8.312,M,01,0004*67
$GPHPD,0,0.000,143.49,0.44,-12.72,31.5904012,120.7767068,2.666,13632236.604,24925015.207,2.666,0.000,0.000,0.000,0.000,0.000,0.000,0.000,16,15,4*52
$GPGGA,064100.40,3135.4239605,N,12046.6025054,E,4,16,1.6,2.6595,M,8.312,M,01,0004*64
$GPHPD,0,0.000,143.34,0.17,-12.73,31.5903993,120.7767084,2.660,13632238.395,24925017.012,2.660,0.000,0.000,0.000,0.000,0.000,0.000,0.000,16,15,4*5D
$GPGGA,064100.60,3135.4238410,N,12046.6026022,E,4,16,1.6,2.6646,M,8.312,M,00,0004*6F
$GPHPD,0,0.000,143.28,-0.22,-12.74,31.5903974,120.7767100,2.665,13632240.289,24925018.875,2.665,0.000,0.000,0.000,0.000,0.000,0.000,0.000,16,15,4*7D
$GPGGA,064100.80,3135.4237311,N,12046.6027009,E,4,16,1.8,2.6608,M,8.312,M,00,0004*64
$GPHPD,0,0.000,143.19,0.28,-12.75,31.5903955,120.7767117,2.661,13632242.050,24925020.704,2.661,0.000,0.000,0.000,0.000,0.000,0.000,0.000,16,15,4*5A
$GPGGA,064101.00,3135.4236148,N,12046.6027964,E,4,16,1.6,2.6590,M,8.312,M,01,0004*6D
$GPHPD,0,0.000,143.87,-0.98,-12.76,31.5903936,120.7767133,2.659,13632243.895,24925022.533,2.659,0.000,0.000,0.000,0.000,0.000,0.000,0.000,16,15,4*7F
$GPGGA,064101.20,3135.4234996,N,12046.6028941,E,4,16,1.6,2.6602,M,8.312,M,01,0004*66
$GPHPD,0,0.000,143.70,-0.55,-12.77,31.5903917,120.7767149,2.660,13632245.729,24925024.382,2.660,0.000,0.000,0.000,0.000,0.000,0.000,0.000,16,15,4*7D
$GPGGA,064101.40,3135.4233878,N,12046.6029888,E,4,16,1.8,2.6542,M,8.312,M,01,0004*6A
$GPHPD,0,0.000,143.89,-1.17,-12.79,31.5903898,120.7767165,2.654,13632247.509,24925026.174,2.654,0.000,0.000,0.000,0.000,0.000,0.000,0.000,16,16,4*72
$GPGGA,064101.60,3135.4232719,N,12046.6030852,E,4,16,1.8,2.6556,M,8.312,M,00,0004*6A
$GPHPD,0,0.000,144.20,-0.70,-12.78,31.5903879,120.7767181,2.656,13632249.350,24925028.011,2.656,0.000,0.000,0.000,0.000,0.000,0.000,0.000,16,16,4*7A
$GPGGA,064101.80,3135.4231571,N,12046.6031776,E,4,16,1.8,2.6700,M,8.312,M,00,0004*62
$GPHPD,0,0.000,144.43,0.07,-12.77,31.5903860,120.7767196,2.670,13632251.168,24925029.794,2.670,0.000,0.000,0.000,0.000,0.000,0.000,0.000,16,16,4*58
$GPGGA,064102.00,3135.4230400,N,12046.6032752,E,4,16,1.8,2.6619,M,8.312,M,01,0004*62
$GPHPD,0,0.000,144.16,-0.37,-12.77,31.5903840,120.7767213,2.662,13632253.029,24925031.652,2.662,0.000,0.000,0.000,0.000,0.000,0.000,0.000,16,16,4*7E
$GPGGA,064102.20,3135.4229236,N,12046.6033713,E,4,16,1.8,2.6507,M,8.312,M,01,0004*63
$GPHPD,0,0.000,144.24,-0.58,-12.75,31.5903821,120.7767229,2.651,13632254.877,24925033.489,2.651,0.000,0.000,0.000,0.000,0.000,0.000,0.000,16,16,4*78
$GPGGA,064102.40,3135.4228104,N,12046.6034655,E,4,16,1.8,2.6422,M,8.312,M,01,0004*64
$GPHPD,0,0.000,144.20,0.47,-12.74,31.5903802,120.7767244,2.642,13632256.676,24925035.283,2.642,0.000,0.000,0.000,0.000,0.000,0.000,0.000,16,16,4*53
$GPGGA,064102.60,3135.4226928,N,12046.6035583,E,4,16,1.5,2.6521,M,8.312,M,00,0004*69
$GPHPD,0,0.000,144.33,1.13,-12.74,31.5903782,120.7767260,2.652,13632258.534,24925037.087,2.652,0.000,0.000,0.000,0.000,0.000,0.000,0.000,16,16,4*5F
$GPGGA,064102.80,3135.4225765,N,12046.6036544,E,4,16,1.5,2.6572,M,8.312,M,00,0004*6D
$GPHPD,0,0.000,144.22,1.02,-12.73,31.5903763,120.7767276,2.657,13632260.380,24925038.923,2.657,0.000,0.000,0.000,0.000,0.000,0.000,0.000,16,16,4*5A
$GPGGA,064103.00,3135.4224599,N,12046.6037477,E,4,16,1.5,2.6619,M,8.312,M,01,0004*6B
$GPHPD,0,0.000,144.23,1.28,-12.72,31.5903743,120.7767291,2.662,13632262.226,24925040.726,2.662,0.000,0.000,0.000,0.000,0.000,0.000,0.000,16,16,4*52
$GPGGA,064103.20,3135.4223439,N,12046.6038403,E,4,16,1.5,2.6593,M,8.312,M,01,0004*68
$GPHPD,0,0.000,144.35,0.48,-12.72,31.5903724,120.7767307,2.659,13632264.061,24925042.518,2.659,0.000,0.000,0.000,0.000,0.000,0.000,0.000,16,16,4*57
$GPGGA,064103.40,3135.4222286,N,12046.6039380,E,4,16,1.6,2.6648,M,8.312,M,01,0004*66
$GPHPD,0,0.000,144.47,0.01,-12.71,31.5903705,120.7767323,2.665,13632265.896,24925044.367,2.665,0.000,0.000,0.000,0.000,0.000,0.000,0.000,16,16,4*50
$GPGGA,064103.60,3135.4221085,N,12046.6040280,E,4,16,1.6,2.6616,M,8.312,M,00,0004*63
$GPHPD,0,0.000,144.66,0.29,-12.72,31.5903685,120.7767338,2.662,13632267.785,24925046.152,2.662,0.000,0.000,0.000,0.000,0.000,0.000,0.000,16,16,4*50
$GPGGA,064103.80,3135.4219947,N,12046.6041260,E,4,16,1.6,2.6715,M,8.312,M,00,0004*6C
$GPHPD,0,0.000,144.29,-0.49,-12.74,31.5903666,120.7767354,2.672,13632269.599,24925047.996,2.672,0.000,0.000,0.000,0.000,0.000,0.000,0.000,16,16,4*71
$GPGGA,064104.00,3135.4218791,N,12046.6042172,E,4,16,1.6,2.6759,M,8.312,M,01,0004*6D
$GPHPD,0,0.000,144.46,0.40,-12.73,31.5903647,120.7767370,2.676,13632271.426,24925049.768,2.676,0.000,0.000,0.000,0.000,0.000,0.000,0.000,16,16,4*53
$GPGGA,064104.20,3135.4217613,N,12046.6043166,E,4,16,1.6,2.6678,M,8.312,M,01,0004*6D
$GPHPD,0,0.000,144.29,-1.26,-12.73,31.5903627,120.7767386,2.668,13632273.301,24925051.653,2.668,0.000,0.000,0.000,0.000,0.000,0.000,0.000,16,16,4*79
$GPGGA,064104.40,3135.4216433,N,12046.6044125,E,4,16,1.6,2.6535,M,8.312,M,01,0004*60
$GPHPD,0,0.000,144.23,-0.48,-12.75,31.5903607,120.7767402,2.654,13632275.171,24925053.496,2.654,0.000,0.000,0.000,0.000,0.000,0.000,0.000,16,16,4*7F
$GPGGA,064104.60,3135.4215308,N,12046.6045039,E,4,16,1.5,2.6658,M,8.312,M,00,0004*69
$GPHPD,0,0.000,143.97,0.18,-12.76,31.5903588,120.7767417,2.666,13632276.954,24925055.253,2.666,0.000,0.000,0.000,0.000,0.000,0.000,0.000,16,16,4*59
$GPGGA,064104.80,3135.4214164,N,12046.6045996,E,4,16,1.5,2.6569,M,8.312,M,00,0004*63
$GPHPD,0,0.000,143.86,-0.38,-12.77,31.5903569,120.7767433,2.657,13632278.773,24925057.073,2.657,0.000,0.000,0.000,0.000,0.000,0.000,0.000,16,16,4*79
$GPGGA,064105.00,3135.4213020,N,12046.6046931,E,4,17,1.5,2.6800,M,8.312,M,01,0004*60
$GPHPD,0,0.000,143.96,0.22,-12.77,31.5903550,120.7767449,2.680,13632280.587,24925058.866,2.680,0.000,0.000,0.000,0.000,0.000,0.000,0.000,17,16,4*55
$GPGGA,064105.20,3135.4211872,N,12046.6047875,E,4,17,1.5,2.6604,M,8.312,M,01,0004*65
$GPHPD,0,0.000,144.06,-0.75,-12.78,31.5903531,120.7767465,2.660,13632282.409,24925060.673,2.660,0.000,0.000,0.000,0.000,0.000,0.000,0.000,17,17,4*77
$GPGGA,064105.40,3135.4210716,N,12046.6048826,E,4,17,1.6,2.6633,M,8.312,M,01,0004*61
$GPHPD,0,0.000,143.95,-0.24,-12.79,31.5903512,120.7767480,2.663,13632284.243,24925062.492,2.663,0.000,0.000,0.000,0.000,0.000,0.000,0.000,17,17,4*74
$GPGGA,064105.60,3135.4209557,N,12046.6049814,E,4,17,1.5,2.6500,M,8.312,M,00,0004*6D
$GPHPD,0,0.000,143.98,0.18,-12.81,31.5903493,120.7767497,2.650,13632286.090,24925064.358,2.650,0.000,0.000,0.000,0.000,0.000,0.000,0.000,17,17,4*5B
$GPGGA,064105.80,3135.4208417,N,12046.6050742,E,4,17,1.5,2.6510,M,8.312,M,00,0004*62
$GPHPD,0,0.000,144.15,0.26,-12.80,31.5903474,120.7767512,2.651,13632287.897,24925066.141,2.651,0.000,0.000,0.000,0.000,0.000,0.000,0.000,17,17,4*56
$GPGGA,064106.00,3135.4207278,N,12046.6051660,E,4,17,1.5,2.6549,M,8.312,M,01,0004*64
$GPHPD,0,0.000,143.97,0.52,-12.83,31.5903455,120.7767528,2.655,13632289.701,24925067.911,2.655,0.000,0.000,0.000,0.000,0.000,0.000,0.000,17,17,4*53
$GPGGA,064106.20,3135.4206138,N,12046.6052606,E,4,17,1.5,2.6423,M,8.312,M,01,0004*6E
$GPHPD,0,0.000,144.11,0.29,-12.85,31.5903436,120.7767543,2.642,13632291.511,24925069.715,2.642,0.000,0.000,0.000,0.000,0.000,0.000,0.000,17,17,4*56
$GPGGA,064106.40,3135.4204982,N,12046.6053532,E,4,17,1.5,2.6560,M,8.312,M,01,0004*60
$GPHPD,0,0.000,144.47,1.17,-12.86,31.5903416,120.7767559,2.656,13632293.341,24925071.505,2.656,0.000,0.000,0.000,0.000,0.000,0.000,0.000,17,17,4*58
$GPGGA,064106.60,3135.4203838,N,12046.6054455,E,4,17,1.5,2.6636,M,8.312,M,00,0004*63
$GPHPD,0,0.000,144.62,0.94,-12.87,31.5903397,120.7767574,2.664,13632295.153,24925073.283,2.664,0.000,0.000,0.000,0.000,0.000,0.000,0.000,17,17,4*59
$GPGGA,064106.80,3135.4202702,N,12046.6055378,E,4,17,1.5,2.6614,M,8.312,M,00,0004*63
$GPHPD,0,0.000,144.79,1.01,-12.89,31.5903378,120.7767590,2.661,13632296.953,24925075.058,2.661,0.000,0.000,0.000,0.000,0.000,0.000,0.000,17,17,4*52
$GPGGA,064107.00,3135.4201538,N,12046.6056288,E,4,17,1.5,2.6628,M,8.312,M,01,0004*61
$GPHPD,0,0.000,144.87,0.76,-12.89,31.5903359,120.7767605,2.663,13632298.791,24925076.833,2.663,0.000,0.000,0.000,0.000,0.000,0.000,0.000,17,17,4*56
$GPGGA,064107.20,3135.4200374,N,12046.6057187,E,4,17,1.5,2.6594,M,8.312,M,01,0004*65
$GPHPD,0,0.000,144.98,1.22,-12.89,31.5903340,120.7767620,2.659,13632300.627,24925078.594,2.659,0.000,0.000,0.000,0.000,0.000,0.000,0.000,17,17,4*55
$GPGGA,064107.40,3135.4199195,N,12046.6058090,E,4,17,1.5,2.6724,M,8.312,M,01,0004*6C
$GPHPD,0,0.000,145.02,0.50,-12.88,31.5903320,120.7767635,2.672,13632302.484,24925080.369,2.672,0.000,0.000,0.000,0.000,0.000,0.000,0.000,17,17,4*5A
$GPGGA,064107.60,3135.4198022,N,12046.6059020,E,4,17,1.5,2.6665,M,8.312,M,00,0004*6D
$GPHPD,0,0.000,144.86,-0.20,-12.87,31.5903300,120.7767650,2.667,13632304.339,24925082.173,2.667,0.000,0.000,0.000,0.000,0.000,0.000,0.000,17,17,4*7F
$GPGGA,064107.80,3135.4196860,N,12046.6059897,E,4,17,1.5,2.6812,M,8.312,M,00,0004*69
$GPHPD,0,0.000,145.16,-0.43,-12.85,31.5903281,120.7767665,2.681,13632306.167,24925083.907,2.681,0.000,0.000,0.000,0.000,0.000,0.000,0.000,17,17,4*7F
$GPGGA,064108.00,3135.4195718,N,12046.6060861,E,4,17,1.5,2.6705,M,8.312,M,01,0004*66
$GPHPD,0,0.000,144.99,-0.40,-12.86,31.5903262,120.7767681,2.671,13632307.984,24925085.734,2.671,0.000,0.000,0.000,0.000,0.000,0.000,0.000,17,17,4*72
$GPGGA,064108.20,3135.4194524,N,12046.6061751,E,4,17,1.6,2.6854,M,8.312,M,01,0004*6D
$GPHPD,0,0.000,145.18,0.13,-12.84,31.5903242,120.7767696,2.685,13632309.861,24925087.503,2.685,0.000,0.000,0.000,0.000,0.000,0.000,0.000,17,17,4*57
$GPGGA,064108.40,3135.4193368,N,12046.6062717,E,4,17,1.6,2.6765,M,8.312,M,01,0004*6E
$GPHPD,0,0.000,145.16,-0.42,-12.84,31.5903223,120.7767712,2.677,13632311.698,24925089.340,2.677,0.000,0.000,0.000,0.000,0.000,0.000,0.000,17,17,4*74
$GPGGA,064108.60,3135.4192199,N,12046.6063615,E,4,17,1.5,2.6880,M,8.312,M,00,0004*65
$GPHPD,0,0.000,145.29,-0.21,-12.82,31.5903203,120.7767727,2.688,13632313.540,24925091.104,2.688,0.000,0.000,0.000,0.000,0.000,0.000,0.000,17,17,4*70
$GPGGA,064108.80,3135.4191044,N,12046.6064592,E,4,17,1.5,2.6850,M,8.312,M,00,0004*6F
$GPHPD,0,0.000,145.05,-0.13,-12.80,31.5903184,120.7767743,2.685,13632315.379,24925092.954,2.685,0.000,0.000,0.000,0.000,0.000,0.000,0.000,17,17,4*77
$GPGGA,064109.00,3135.4189868,N,12046.6065546,E,4,17,1.5,2.6951,M,8.312,M,01,0004*60
$GPHPD,0,0.000,144.99,0.14,-12.78,31.5903164,120.7767759,2.695,13632317.242,24925094.789,2.695,0.000,0.000,0.000,0.000,0.000,0.000,0.000,17,17,4*58
$GPGGA,064109.20,3135.4188690,N,12046.6066504,E,4,17,1.5,2.6879,M,8.312,M,01,0004*64
$GPHPD,0,0.000,145.13,-0.44,-12.78,31.5903145,120.7767775,2.688,13632319.110,24925096.630,2.688,0.000,0.000,0.000,0.000,0.000,0.000,0.000,17,17,4*75
$GPGGA,064109.40,3135.4187537,N,12046.6067477,E,4,17,1.5,2.7119,M,8.312,M,01,0004*69
$GPHPD,0,0.000,145.08,-0.41,-12.80,31.5903126,120.7767791,2.712,13632320.944,24925098.474,2.712,0.000,0.000,0.000,0.000,0.000,0.000,0.000,17,17,4*7D
$GPGGA,064109.60,3135.4186340,N,12046.6068398,E,4,16,1.5,2.7103,M,8.312,M,00,0004*6E
$GPHPD,0,0.000,145.17,-1.63,-12.80,31.5903106,120.7767807,2.710,13632322.831,24925100.282,2.710,0.000,0.000,0.000,0.000,0.000,0.000,0.000,16,17,4*7F
$GPGGA,064109.80,3135.4185167,N,12046.6069286,E,4,16,1.8,2.6719,M,8.312,M,00,0004*6A
$GPHPD,0,0.000,145.03,-1.54,-12.81,31.5903086,120.7767821,2.672,13632324.677,24925102.035,2.672,0.000,0.000,0.000,0.000,0.000,0.000,0.000,16,16,4*75
$GPGGA,064110.00,3135.4183976,N,12046.6070225,E,4,16,1.8,2.6718,M,8.312,M,01,0004*65
$GPHPD,0,0.000,144.94,-0.38,-12.82,31.5903066,120.7767837,2.672,13632326.559,24925103.861,2.672,0.000,0.000,0.000,0.000,0.000,0.000,0.000,16,16,4*7E
$GPGGA,064110.20,3135.4182812,N,12046.6071127,E,4,16,1.8,2.6751,M,8.312,M,01,0004*68
$GPHPD,0,0.000,144.84,-0.37,-12.83,31.5903047,120.7767852,2.675,13632328.395,24925105.626,2.675,0.000,0.000,0.000,0.000,0.000,0.000,0.000,16,16,4*72
$GPGGA,064110.40,3135.4181627,N,12046.6072096,E,4,16,1.8,2.6684,M,8.312,M,01,0004*64
$GPHPD,0,0.000,144.86,-0.05,-12.85,31.5903027,120.7767868,2.668,13632330.275,24925107.484,2.668,0.000,0.000,0.000,0.000,0.000,0.000,0.000,16,16,4*76
$GPGGA,064110.60,3135.4180474,N,12046.6073068,E,4,16,1.8,2.6797,M,8.312,M,00,0004*61
$GPHPD,0,0.000,145.22,-0.06,-12.87,31.5903008,120.7767884,2.680,13632332.109,24925109.327,2.680,0.000,0.000,0.000,0.000,0.000,0.000,0.000,16,16,4*7D
$GPGGA,064110.80,3135.4179283,N,12046.6073993,E,4,16,1.8,2.6802,M,8.312,M,00,0004*69
$GPHPD,0,0.000,145.18,-0.04,-12.88,31.5902988,120.7767900,2.680,13632333.988,24925111.136,2.680,0.000,0.000,0.000,0.000,0.000,0.000,0.000,16,16,4*7F
$GPGGA,064111.00,3135.4178127,N,12046.6074903,E,4,16,1.8,2.6782,M,8.312,M,01,0004*64
$GPHPD,0,0.000,145.23,-0.27,-12.88,31.5902969,120.7767915,2.678,13632335.815,24925112.906,2.678,0.000,0.000,0.000,0.000,0.000,0.000,0.000,16,16,4*76
$GPGGA,064111.20,3135.4176966,N,12046.6075827,E,4,16,1.8,2.6793,M,8.312,M,01,0004*63
$GPHPD,0,0.000,144.91,0.50,-12.90,31.5902949,120.7767930,2.679,13632337.651,24925114.696,2.679,0.000,0.000,0.000,0.000,0.000,0.000,0.000,16,16,4*53
$GPGGA,064111.40,3135.4175788,N,12046.6076793,E,4,16,1.8,2.6843,M,8.312,M,01,0004*69
$GPHPD,0,0.000,144.94,0.75,-12.92,31.5902930,120.7767947,2.684,13632339.520,24925116.547,2.684,0.000,0.000,0.000,0.000,0.000,0.000,0.000,16,16,4*5B
$GPGGA,064111.60,3135.4174619,N,12046.6077699,E,4,16,1.8,2.6978,M,8.312,M,00,0004*61
$GPHPD,0,0.000,145.04,0.65,-12.93,31.5902910,120.7767962,2.698,13632341.364,24925118.319,2.698,0.000,0.000,0.000,0.000,0.000,0.000,0.000,16,16,4*5C
$GPGGA,064111.80,3135.4173463,N,12046.6078615,E,4,16,1.8,2.6919,M,8.312,M,00,0004*6B
$GPHPD,0,0.000,144.23,0.85,-12.95,31.5902891,120.7767977,2.692,13632343.191,24925120.097,2.692,0.000,0.000,0.000,0.000,0.000,0.000,0.000,16,16,4*58
$GPGGA,064112.00,3135.4172295,N,12046.6079546,E,4,16,1.8,2.6888,M,8.312,M,01,0004*62
$GPHPD,0,0.000,144.36,1.03,-12.95,31.5902872,120.7767992,2.689,13632345.039,24925121.899,2.689,0.000,0.000,0.000,0.000,0.000,0.000,0.000,16,16,4*57
$GPGGA,064112.20,3135.4171144,N,12046.6080509,E,4,16,1.8,2.6960,M,8.312,M,01,0004*66
$GPHPD,0,0.000,144.69,1.68,-12.96,31.5902852,120.7768008,2.696,13632346.869,24925123.731,2.696,0.000,0.000,0.000,0.000,0.000,0.000,0.000,16,16,4*55
$GPGGA,064112.40,3135.4169986,N,12046.6081440,E,4,16,1.8,2.6973,M,8.312,M,01,0004*60
$GPHPD,0,0.000,144.15,0.66,-12.97,31.5902833,120.7768024,2.697,13632348.702,24925125.527,2.697,0.000,0.000,0.000,0.000,0.000,0.000,0.000,16,16,4*56
$GPGGA,064112.60,3135.4168848,N,12046.6082355,E,4,16,1.8,2.6875,M,8.312,M,00,0004*66
$GPHPD,0,0.000,144.61,0.22,-12.96,31.5902814,120.7768039,2.688,13632350.504,24925127.293,2.688,0.000,0.000,0.000,0.000,0.000,0.000,0.000,16,16,4*5A
$GPGGA,064112.80,3135.4167689,N,12046.6083317,E,4,16,1.8,2.6829,M,8.312,M,00,0004*6A
$GPHPD,0,0.000,144.29,1.02,-12.97,31.5902795,120.7768055,2.683,13632352.345,24925129.128,2.683,0.000,0.000,0.000,0.000,0.000,0.000,0.000,16,16,4*54
$GPGGA,064113.00,3135.4166530,N,12046.6084250,E,4,16,1.8,2.7018,M,8.312,M,01,0004*6C
$GPHPD,0,0.000,144.63,-0.01,-12.98,31.5902776,120.7768071,2.702,13632354.180,24925130.927,2.702,0.000,0.000,0.000,0.000,0.000,0.000,0.000,16,16,4*73
$GPGGA,064113.20,3135.4165366,N,12046.6085153,E,4,16,1.8,2.7135,M,8.312,M,01,0004*67
$GPHPD,0,0.000,144.84,-0.23,-12.97,31.5902756,120.7768086,2.714,13632356.017,24925132.694,2.714,0.000,0.000,0.000,0.000,0.000,0.000,0.000,16,16,4*77
$GPGGA,064113.40,3135.4164244,N,12046.6086115,E,4,17,1.8,2.6878,M,8.312,M,01,0004*60
$GPHPD,0,0.000,144.36,-0.92,-12.97,31.5902737,120.7768102,2.688,13632357.805,24925134.507,2.688,0.000,0.000,0.000,0.000,0.000,0.000,0.000,17,16,4*7A
$GPGGA,064113.60,3135.4163069,N,12046.6087041,E,4,17,1.8,2.6890,M,8.312,M,00,0004*6E
$GPHPD,0,0.000,144.89,-0.08,-12.97,31.5902718,120.7768117,2.689,13632359.662,24925136.307,2.689,0.000,0.000,0.000,0.000,0.000,0.000,0.000,17,16,4*71
$GPGGA,064113.80,3135.4161911,N,12046.6087974,E,4,17,1.8,2.7061,M,8.312,M,00,0004*6C
$GPHPD,0,0.000,144.63,0.30,-12.97,31.5902699,120.7768133,2.706,13632361.495,24925138.106,2.706,0.000,0.000,0.000,0.000,0.000,0.000,0.000,17,16,4*51
$GPGGA,064114.00,3135.4160731,N,12046.6088896,E,4,17,1.8,2.6919,M,8.312,M,01,0004*6A
$GPHPD,0,0.000,144.74,-0.39,-12.96,31.5902679,120.7768148,2.692,13632363.358,24925139.905,2.692,0.000,0.000,0.000,0.000,0.000,0.000,0.000,17,16,4*7E
$GPGGA,064114.20,3135.4159577,N,12046.6089820,E,4,17,1.5,2.7133,M,8.312,M,01,0004*62
$GPHPD,0,0.000,144.83,-0.08,-12.96,31.5902660,120.7768164,2.713,13632365.185,24925141.691,2.713,0.000,0.000,0.000,0.000,0.000,0.000,0.000,17,17,4*7A
$GPGGA,064114.40,3135.4158447,N,12046.6090776,E,4,17,1.5,2.6994,M,8.312,M,01,0004*67
$GPHPD,0,0.000,144.71,0.17,-12.96,31.5902641,120.7768180,2.699,13632366.983,24925143.501,2.699,0.000,0.000,0.000,0.000,0.000,0.000,0.000,17,17,4*58
$GPGGA,064114.60,3135.4157307,N,12046.6091728,E,4,17,1.5,2.7110,M,8.312,M,00,0004*67
$GPHPD,0,0.000,144.82,-0.28,-12.96,31.5902622,120.7768195,2.711,13632368.795,24925145.313,2.711,0.000,0.000,0.000,0.000,0.000,0.000,0.000,17,17,4*70
$GPGGA,064114.80,3135.4156137,N,12046.6092668,E,4,17,1.5,2.7134,M,8.312,M,00,0004*69
$GPHPD,0,0.000,144.84,0.16,-12.97,31.5902602,120.7768211,2.713,13632370.647,24925147.127,2.713,0.000,0.000,0.000,0.000,0.000,0.000,0.000,17,17,4*5A
$GPGGA,064115.00,3135.4154972,N,12046.6093618,E,4,17,1.5,2.7129,M,8.312,M,01,0004*60
$GPHPD,0,0.000,145.02,0.41,-12.98,31.5902583,120.7768227,2.713,13632372.495,24925148.951,2.713,0.000,0.000,0.000,0.000,0.000,0.000,0.000,17,17,4*5E
$GPGGA,064115.20,3135.4153806,N,12046.6094520,E,4,17,1.5,2.7126,M,8.312,M,01,0004*67
$GPHPD,0,0.000,144.83,0.69,-12.98,31.5902563,120.7768242,2.713,13632374.334,24925150.717,2.713,0.000,0.000,0.000,0.000,0.000,0.000,0.000,17,17,4*5E
$GPGGA,064115.40,3135.4152628,N,12046.6095477,E,4,17,1.5,2.7148,M,8.312,M,01,0004*68
$GPHPD,0,0.000,144.59,0.70,-12.98,31.5902544,120.7768258,2.715,13632376.201,24925152.557,2.715,0.000,0.000,0.000,0.000,0.000,0.000,0.000,17,17,4*5E
$GPGGA,064115.60,3135.4151485,N,12046.6096415,E,4,17,1.5,2.7094,M,8.312,M,00,0004*6A
$GPHPD,0,0.000,144.55,0.65,-12.98,31.5902525,120.7768274,2.709,13632378.014,24925154.354,2.709,0.000,0.000,0.000,0.000,0.000,0.000,0.000,17,17,4*54
$GPGGA,064115.80,3135.4150310,N,12046.6097340,E,4,17,1.5,2.7041,M,8.312,M,00,0004*60
$GPHPD,0,0.000,144.50,0.98,-12.98,31.5902505,120.7768289,2.704,13632379.870,24925156.153,2.704,0.000,0.000,0.000,0.000,0.000,0.000,0.000,17,17,4*5F
$GPGGA,064116.00,3135.4149116,N,12046.6098261,E,4,17,1.5,2.7177,M,8.312,M,01,0004*6F
$GPHPD,0,0.000,144.63,1.02,-12.97,31.5902485,120.7768304,2.718,13632381.753,24925157.958,2.718,0.000,0.000,0.000,0.000,0.000,0.000,0.000,17,17,4*54
$GPGGA,064116.20,3135.4147946,N,12046.6099214,E,4,17,1.5,2.7173,M,8.312,M,01,0004*69
$GPHPD,0,0.000,144.47,1.44,-12.98,31.5902466,120.7768320,2.717,13632383.608,24925159.789,2.717,0.000,0.000,0.000,0.000,0.000,0.000,0.000,17,17,4*55
$GPGGA,064116.40,3135.4146757,N,12046.6100188,E,4,17,1.5,2.7230,M,8.312,M,01,0004*63
$GPHPD,0,0.000,144.65,1.13,-12.98,31.5902446,120.7768336,2.723,13632385.494,24925161.655,2.723,0.000,0.000,0.000,0.000,0.000,0.000,0.000,17,17,4*58
$GPGGA,064116.60,3135.4145561,N,12046.6101131,E,4,17,1.5,2.7263,M,8.312,M,00,0004*61
$GPHPD,0,0.000,144.83,0.72,-12.98,31.5902426,120.7768352,2.726,13632387.384,24925163.488,2.726,0.000,0.000,0.000,0.000,0.000,0.000,0.000,17,17,4*56
$GPGGA,064116.80,3135.4144408,N,12046.6102075,E,4,17,1.5,2.7208,M,8.312,M,00,0004*6F
$GPHPD,0,0.000,144.61,0.20,-12.95,31.5902407,120.7768368,2.721,13632389.213,24925165.298,2.721,0.000,0.000,0.000,0.000,0.000,0.000,0.000,17,17,4*5A
$GPGGA,064117.00,3135.4143217,N,12046.6102979,E,4,17,1.5,2.7271,M,8.312,M,01,0004*63
$GPHPD,0,0.000,144.79,-0.03,-12.95,31.5902387,120.7768383,2.727,13632391.088,24925167.081,2.727,0.000,0.000,0.000,0.000,0.000,0.000,0.000,17,17,4*74
$GPGGA,064117.20,3135.4142006,N,12046.6103917,E,4,17,1.5,2.7314,M,8.312,M,01,0004*69
$GPHPD,0,0.000,144.63,-0.21,-12.92,31.5902367,120.7768399,2.731,13632392.998,24925168.917,2.731,0.000,0.000,0.000,0.000,0.000,0.000,0.000,17,16,4*7E
$GPGGA,064117.40,3135.4140863,N,12046.6104879,E,4,17,1.5,2.7380,M,8.312,M,01,0004*65
$GPHPD,0,0.000,144.93,-0.34,-12.92,31.5902348,120.7768415,2.738,13632394.816,24925170.742,2.738,0.000,0.000,0.000,0.000,0.000,0.000,0.000,17,16,4*7D
$GPGGA,064117.60,3135.4139712,N,12046.6105835,E,4,17,1.5,2.7284,M,8.312,M,00,0004*6D
$GPHPD,0,0.000,144.86,-1.08,-12.92,31.5902329,120.7768431,2.728,13632396.645,24925172.565,2.728,0.000,0.000,0.000,0.000,0.000,0.000,0.000,17,16,4*79
$GPGGA,064117.80,3135.4138530,N,12046.6106774,E,4,17,1.5,2.7411,M,8.312,M,00,0004*63
$GPHPD,0,0.000,145.00,-0.17,-12.91,31.5902309,120.7768446,2.741,13632398.514,24925174.385,2.741,0.000,0.000,0.000,0.000,0.000,0.000,0.000,17,16,4*7F
$GPGGA,064118.00,3135.4137324,N,12046.6107673,E,4,17,1.5,2.7461,M,8.312,M,01,0004*69
$GPHPD,0,0.000,144.95,-0.56,-12.90,31.5902289,120.7768461,2.746,13632400.409,24925176.172,2.746,0.000,0.000,0.000,0.000,0.000,0.000,0.000,17,16,4*79
$GPGGA,064118.20,3135.4136165,N,12046.6108668,E,4,17,1.5,2.7394,M,8.312,M,01,0004*65
$GPHPD,0,0.000,144.86,-0.03,-12.88,31.5902269,120.7768478,2.739,13632402.257,24925178.046,2.739,0.000,0.000,0.000,0.000,0.000,0.000,0.000,17,16,4*73
$GPGGA,064118.40,3135.4134965,N,12046.6109610,E,4,17,1.5,2.7427,M,8.312,M,01,0004*68
$GPHPD,0,0.000,144.86,-0.13,-12.86,31.5902249,120.7768494,2.743,13632404.152,24925179.880,2.743,0.000,0.000,0.000,0.000,0.000,0.000,0.000,17,16,4*7F
$GPGGA,064118.60,3135.4133808,N,12046.6110563,E,4,17,1.5,2.7277,M,8.312,M,00,0004*6A
$GPHPD,0,0.000,144.85,-0.57,-12.84,31.5902230,120.7768509,2.728,13632405.988,24925181.703,2.728,0.000,0.000,0.000,0.000,0.000,0.000,0.000,17,16,4*78
$GPGGA,064118.80,3135.4132625,N,12046.6111495,E,4,17,1.5,2.7329,M,8.312,M,00,0004*67
$GPHPD,0,0.000,144.91,0.41,-12.83,31.5902210,120.7768525,2.733,13632407.857,24925183.515,2.733,0.000,0.000,0.000,0.000,0.000,0.000,0.000,17,16,4*5A
$GPGGA,064119.00,3135.4131474,N,12046.6112434,E,4,17,1.5,2.7365,M,8.312,M,01,0004*6A
$GPHPD,0,0.000,145.22,-0.50,-12.83,31.5902191,120.7768541,2.737,13632409.683,24925185.318,2.737,0.000,0.000,0.000,0.000,0.000,0.000,0.000,17,16,4*72
$GPGGA,064119.20,3135.4130296,N,12046.6113350,E,4,17,1.5,2.7336,M,8.312,M,01,0004*61
$GPHPD,0,0.000,145.40,0.14,-12.85,31.5902172,120.7768556,2.734,13632411.541,24925187.108,2.734,0.000,0.000,0.000,0.000,0.000,0.000,0.000,17,16,4*53
$GPGGA,064119.40,3135.4129134,N,12046.6114291,E,4,17,1.5,2.7353,M,8.312,M,01,0004*6C
$GPHPD,0,0.000,145.16,0.10,-12.87,31.5902152,120.7768572,2.735,13632413.382,24925188.919,2.735,0.000,0.000,0.000,0.000,0.000,0.000,0.000,17,16,4*5E
$GPGGA,064119.60,3135.4127945,N,12046.6115214,E,4,17,1.5,2.7317,M,8.312,M,00,0004*63
$GPHPD,0,0.000,145.36,-0.35,-12.87,31.5902132,120.7768587,2.732,13632415.258,24925190.724,2.732,0.000,0.000,0.000,0.000,0.000,0.000,0.000,17,16,4*73
$GPGGA,064119.80,3135.4126770,N,12046.6116139,E,4,17,1.5,2.7316,M,8.312,M,00,0004*6A
$GPHPD,0,0.000,145.52,0.10,-12.89,31.5902113,120.7768602,2.732,13632417.115,24925192.523,2.732,0.000,0.000,0.000,0.000,0.000,0.000,0.000,17,16,4*57
$GPGGA,064120.00,3135.4125590,N,12046.6117036,E,4,17,1.5,2.7340,M,8.312,M,01,0004*6A
$GPHPD,0,0.000,145.40,0.22,-12.91,31.5902093,120.7768617,2.734,13632418.973,24925194.292,2.734,0.000,0.000,0.000,0.000,0.000,0.000,0.000,17,16,4*5D
$GPGGA,064120.20,3135.4124409,N,12046.6117970,E,4,17,1.5,2.7402,M,8.312,M,01,0004*62
$GPHPD,0,0.000,145.13,1.03,-12.92,31.5902073,120.7768633,2.740,13632420.839,24925196.105,2.740,0.000,0.000,0.000,0.000,0.000,0.000,0.000,17,16,4*59
$GPGGA,064120.40,3135.4123252,N,12046.6118913,E,4,17,1.5,2.7319,M,8.312,M,01,0004*6C
$GPHPD,0,0.000,145.19,0.77,-12.92,31.5902054,120.7768649,2.732,13632422.674,24925197.916,2.732,0.000,0.000,0.000,0.000,0.000,0.000,0.000,17,16,4*57
$GPGGA,064120.60,3135.4122083,N,12046.6119850,E,4,17,1.5,2.7336,M,8.312,M,00,0004*6A
$GPHPD,0,0.000,145.28,0.71,-12.93,31.5902035,120.7768664,2.734,13632424.524,24925199.726,2.734,0.000,0.000,0.000,0.000,0.000,0.000,0.000,17,16,4*59
$GPGGA,064120.80,3135.4120901,N,12046.6120741,E,4,17,1.5,2.7434,M,8.312,M,00,0004*65
$GPHPD,0,0.000,144.99,1.58,-12.93,31.5902015,120.7768679,2.743,13632426.383,24925201.489,2.743,0.000,0.000,0.000,0.000,0.000,0.000,0.000,17,16,4*5B
$GPGGA,064121.00,3135.4119740,N,12046.6121702,E,4,17,1.5,2.7403,M,8.312,M,01,0004*6E
$GPHPD,0,0.000,144.54,1.32,-12.93,31.5901996,120.7768695,2.740,13632428.227,24925203.323,2.740,0.000,0.000,0.000,0.000,0.000,0.000,0.000,17,16,4*51
$GPGGA,064121.20,3135.4118585,N,12046.6122627,E,4,17,1.5,2.7443,M,8.312,M,01,0004*67
$GPHPD,0,0.000,144.85,1.21,-12.92,31.5901976,120.7768710,2.744,13632430.055,24925205.111,2.744,0.000,0.000,0.000,0.000,0.000,0.000,0.000,17,16,4*57
$GPGGA,064121.40,3135.4117396,N,12046.6123562,E,4,17,1.5,2.7526,M,8.312,M,01,0004*6B
$GPHPD,0,0.000,144.74,0.22,-12.91,31.5901957,120.7768726,2.753,13632431.933,24925206.931,2.753,0.000,0.000,0.000,0.000,0.000,0.000,0.000,17,16,4*5F
$GPGGA,064121.60,3135.4116215,N,12046.6124503,E,4,17,1.5,2.7507,M,8.312,M,00,0004*60
$GPHPD,0,0.000,144.60,0.09,-12.90,31.5901937,120.7768742,2.751,13632433.801,24925208.753,2.751,0.000,0.000,0.000,0.000,0.000,0.000,0.000,17,16,4*50
$GPGGA,064121.80,3135.4115033,N,12046.6125421,E,4,17,1.5,2.7655,M,8.312,M,00,0004*6F
$GPHPD,0,0.000,144.68,0.35,-12.89,31.5901917,120.7768757,2.766,13632435.666,24925210.548,2.766,0.000,0.000,0.000,0.000,0.000,0.000,0.000,17,16,4*51
$GPGGA,064122.00,3135.4113866,N,12046.6126382,E,4,17,1.5,2.7688,M,8.312,M,01,0004*66
$GPHPD,0,0.000,144.55,-0.47,-12.87,31.5901898,120.7768773,2.769,13632437.518,24925212.386,2.769,0.000,0.000,0.000,0.000,0.000,0.000,0.000,17,16,4*77
$GPGGA,064122.20,3135.4112687,N,12046.6127309,E,4,17,1.5,2.7641,M,8.312,M,01,0004*63
$GPHPD,0,0.000,144.63,-0.88,-12.86,31.5901878,120.7768788,2.764,13632439.381,24925214.190,2.764,0.000,0.000,0.000,0.000,0.000,0.000,0.000,17,16,4*71
$GPGGA,064122.40,3135.4111538,N,12046.6128275,E,4,17,1.5,2.7529,M,8.312,M,01,0004*69
$GPHPD,0,0.000,144.52,-0.54,-12.85,31.5901859,120.7768805,2.753,13632441.209,24925216.023,2.753,0.000,0.000,0.000,0.000,0.000,0.000,0.000,17,16,4*7D
$GPGGA,064122.60,3135.4110357,N,12046.6129201,E,4,17,1.5,2.7570,M,8.312,M,00,0004*6A
$GPHPD,0,0.000,144.64,-0.11,-12.86,31.5901839,120.7768820,2.757,13632443.074,24925217.827,2.757,0.000,0.000,0.000,0.000,0.000,0.000,0.000,17,16,4*7C
$GPGGA,064122.80,3135.4109192,N,12046.6130166,E,4,17,1.5,2.7700,M,8.312,M,00,0004*68
$GPHPD,0,0.000,144.39,-0.06,-12.84,31.5901820,120.7768836,2.770,13632444.924,24925219.669,2.770,0.000,0.000,0.000,0.000,0.000,0.000,0.000,17,16,4*7E
$GPGGA,064123.00,3135.4108023,N,12046.6131100,E,4,17,1.5,2.7676,M,8.312,M,01,0004*6B
$GPHPD,0,0.000,144.59,-0.28,-12.84,31.5901800,120.7768852,2.768,13632446.774,24925221.476,2.768,0.000,0.000,0.000,0.000,0.000,0.000,0.000,17,16,4*7A
$GPGGA,064123.20,3135.4106882,N,12046.6132087,E,4,17,1.5,2.7813,M,8.312,M,01,0004*64
$GPHPD,0,0.000,144.50,-0.45,-12.87,31.5901781,120.7768868,2.781,13632448.594,24925223.330,2.781,0.000,0.000,0.000,0.000,0.000,0.000,0.000,17,16,4*71
$GPGGA,064123.40,3135.4105721,N,12046.6132978,E,4,17,1.8,2.7653,M,8.312,M,01,0004*69
$GPHPD,0,0.000,144.87,-0.78,-12.88,31.5901762,120.7768883,2.765,13632450.424,24925225.080,2.765,0.000,0.000,0.000,0.000,0.000,0.000,0.000,17,16,4*7F
$GPGGA,064123.60,3135.4104557,N,12046.6133919,E,4,16,1.8,2.7641,M,8.312,M,00,0004*6C
$GPHPD,0,0.000,144.60,-1.15,-12.88,31.5901743,120.7768899,2.764,13632452.268,24925226.893,2.764,0.000,0.000,0.000,0.000,0.000,0.000,0.000,16,15,4*73
$GPGGA,064123.80,3135.4103409,N,12046.6134868,E,4,16,1.8,2.7547,M,8.312,M,00,0004*6A
$GPHPD,0,0.000,144.27,0.32,-12.88,31.5901723,120.7768914,2.755,13632454.090,24925228.705,2.755,0.000,0.000,0.000,0.000,0.000,0.000,0.000,16,15,4*56
$GPGGA,064124.00,3135.4102232,N,12046.6135794,E,4,16,1.8,2.7560,M,8.312,M,01,0004*63
$GPHPD,0,0.000,144.32,0.57,-12.90,31.5901704,120.7768930,2.756,13632455.950,24925230.507,2.756,0.000,0.000,0.000,0.000,0.000,0.000,0.000,16,15,4*56
$GPGGA,064124.20,3135.4101066,N,12046.6136748,E,4,16,1.8,2.7585,M,8.312,M,01,0004*68
$GPHPD,0,0.000,144.19,0.55,-12.90,31.5901684,120.7768946,2.759,13632457.799,24925232.336,2.759,0.000,0.000,0.000,0.000,0.000,0.000,0.000,16,15,4*5A
$GPGGA,064124.40,3135.4099901,N,12046.6137701,E,4,16,1.8,2.7614,M,8.312,M,01,0004*61
$GPHPD,0,0.000,144.34,0.27,-12.92,31.5901665,120.7768962,2.761,13632459.647,24925234.163,2.761,0.000,0.000,0.000,0.000,0.000,0.000,0.000,16,15,4*53
$GPGGA,064124.60,3135.4098745,N,12046.6138644,E,4,16,1.8,2.7548,M,8.312,M,00,0004*68
$GPHPD,0,0.000,144.55,-0.09,-12.93,31.5901646,120.7768977,2.755,13632461.480,24925235.973,2.755,0.000,0.000,0.000,0.000,0.000,0.000,0.000,16,15,4*7B
$GPGGA,064124.80,3135.4097549,N,12046.6139594,E,4,16,1.8,2.7590,M,8.312,M,00,0004*6D
$GPHPD,0,0.000,144.50,0.27,-12.91,31.5901626,120.7768993,2.759,13632463.371,24925237.815,2.759,0.000,0.000,0.000,0.000,0.000,0.000,0.000,16,15,4*59
$GPGGA,064125.00,3135.4096381,N,12046.6140561,E,4,16,1.8,2.7599,M,8.313,M,01,0004*6A
$GPHPD,0,0.000,144.47,0.55,-12.89,31.5901606,120.7769009,2.760,13632465.226,24925239.661,2.760,0.000,0.000,0.000,0.000,0.000,0.000,0.000,16,15,4*5C
$GPGGA,064125.20,3135.4095209,N,12046.6141505,E,4,16,1.8,2.7648,M,8.313,M,01,0004*66
$GPHPD,0,0.000,144.57,0.49,-12.88,31.5901587,120.7769025,2.765,13632467.082,24925241.481,2.765,0.000,0.000,0.000,0.000,0.000,0.000,0.000,16,15,4*58
$GPGGA,064125.40,3135.4094056,N,12046.6142434,E,4,17,1.5,2.7719,M,8.313,M,01,0004*60
$GPHPD,0,0.000,144.58,1.22,-12.88,31.5901568,120.7769041,2.772,13632468.908,24925243.273,2.772,0.000,0.000,0.000,0.000,0.000,0.000,0.000,17,15,4*54
$GPGGA,064125.60,3135.4092919,N,12046.6143376,E,4,17,1.5,2.7771,M,8.313,M,00,0004*69
$GPHPD,0,0.000,144.35,0.49,-12.86,31.5901549,120.7769056,2.777,13632470.714,24925245.070,2.777,0.000,0.000,0.000,0.000,0.000,0.000,0.000,17,16,4*56
$GPGGA,064125.80,3135.4091781,N,12046.6144321,E,4,17,1.5,2.7795,M,8.313,M,00,0004*64
