$GPGGA,074838.60,3135.4019258,N,12046.6267721,E,4,16,1.4,2.8590,M,8.313,M,00,0004*61
$GPHPD,0,0.000,39.40,-0.21,-12.33,31.5900321,120.7771129,2.859,13632600.449,24925437.892,2.859,0.000,0.000,0.000,0.000,0.000,0.000,0.000,16,16,4*43
$GPGGA,074838.80,3135.4020356,N,12046.6268942,E,4,16,1.4,2.8698,M,8.313,M,00,0004*65
$GPHPD,0,0.000,41.09,0.21,-12.35,31.5900339,120.7771149,2.870,13632599.134,24925438.725,2.870,0.000,0.000,0.000,0.000,0.000,0.000,0.000,16,16,4*65
$GPGGA,074839.00,3135.4021456,N,12046.6270203,E,4,16,1.4,2.8756,M,8.313,M,01,0004*6F
$GPHPD,0,0.000,42.57,-0.04,-12.40,31.5900358,120.7771170,2.876,13632597.825,24925439.606,2.876,0.000,0.000,0.000,0.000,0.000,0.000,0.000,16,16,4*4E
$GPGGA,074839.20,3135.4022485,N,12046.6271500,E,4,16,1.4,2.8645,M,8.313,M,01,0004*66
$GPHPD,0,0.000,44.21,-0.33,-12.45,31.5900375,120.7771192,2.865,13632596.623,24925440.571,2.865,0.000,0.000,0.000,0.000,0.000,0.000,0.000,16,16,4*4F
$GPGGA,074839.40,3135.4023513,N,12046.6272836,E,4,16,1.4,2.8672,M,8.313,M,01,0004*60
$GPHPD,0,0.000,45.89,0.11,-12.48,31.5900392,120.7771214,2.867,13632595.431,24925441.584,2.867,0.000,0.000,0.000,0.000,0.000,0.000,0.000,16,16,4*61
$GPGGA,074839.60,3135.4024489,N,12046.6274225,E,4,16,1.4,2.8642,M,8.313,M,00,0004*6B
$GPHPD,0,0.000,47.70,-0.12,-12.49,31.5900408,120.7771237,2.864,13632594.323,24925442.691,2.864,0.000,0.000,0.000,0.000,0.000,0.000,0.000,16,16,4*4E
$GPGGA,074839.80,3135.4025425,N,12046.6275623,E,4,16,1.4,2.8621,M,8.313,M,00,0004*64
$GPHPD,0,0.000,49.26,0.29,-12.45,31.5900424,120.7771260,2.862,13632593.274,24925443.832,2.862,0.000,0.000,0.000,0.000,0.000,0.000,0.000,16,16,4*64
$GPGGA,074840.00,3135.4026321,N,12046.6276983,E,4,16,1.4,2.8676,M,8.313,M,01,0004*67
$GPHPD,0,0.000,50.40,-0.07,-12.34,31.5900439,120.7771283,2.868,13632592.274,24925444.950,2.868,0.000,0.000,0.000,0.000,0.000,0.000,0.000,16,16,4*49
$GPGGA,074840.20,3135.4027167,N,12046.6278280,E,4,16,1.4,2.8627,M,8.313,M,01,0004*66
$GPHPD,0,0.000,51.33,-0.62,-12.29,31.5900453,120.7771305,2.863,13632591.333,24925446.022,2.863,0.000,0.000,0.000,0.000,0.000,0.000,0.000,16,16,4*4F
$GPGGA,074840.40,3135.4027950,N,12046.6279538,E,4,16,1.4,2.8688,M,8.313,M,01,0004*6C
$GPHPD,0,0.000,52.26,0.20,-12.25,31.5900466,120.7771326,2.869,13632590.473,24925447.084,2.869,0.000,0.000,0.000,0.000,0.000,0.000,0.000,16,16,4*67
$GPGGA,074840.60,3135.4028673,N,12046.6280715,E,4,16,1.4,2.8679,M,8.313,M,00,0004*6B
$GPHPD,0,0.000,53.04,-0.03,-12.21,31.5900478,120.7771345,2.868,13632589.682,24925448.082,2.868,0.000,0.000,0.000,0.000,0.000,0.000,0.000,16,16,4*49
$GPGGA,074840.80,3135.4029360,N,12046.6281861,E,4,16,1.4,2.8617,M,8.313,M,00,0004*66
$GPHPD,0,0.000,53.83,0.12,-12.18,31.5900489,120.7771364,2.862,13632588.937,24925449.064,2.862,0.000,0.000,0.000,0.000,0.000,0.000,0.000,16,16,4*65
$GPGGA,074841.00,3135.4030001,N,12046.6282942,E,4,16,1.4,2.8671,M,8.313,M,01,0004*61
$GPHPD,0,0.000,54.34,0.10,-12.16,31.5900500,120.7771382,2.867,13632588.243,24925449.995,2.867,0.000,0.000,0.000,0.000,0.000,0.000,0.000,16,16,4*65
$GPGGA,074841.20,3135.4030624,N,12046.6283967,E,4,16,1.4,2.8632,M,8.313,M,01,0004*63
$GPHPD,0,0.000,54.78,-0.16,-12.16,31.5900510,120.7771399,2.863,13632587.564,24925450.868,2.863,0.000,0.000,0.000,0.000,0.000,0.000,0.000,16,16,4*4B
$GPGGA,074841.40,3135.4031181,N,12046.6285019,E,4,16,1.4,2.8684,M,8.313,M,01,0004*67
$GPHPD,0,0.000,55.45,0.23,-12.14,31.5900520,120.7771417,2.868,13632586.984,24925451.813,2.868,0.000,0.000,0.000,0.000,0.000,0.000,0.000,16,16,4*61
$GPGGA,074841.60,3135.4031713,N,12046.6285975,E,4,16,1.4,2.8713,M,8.313,M,00,0004*65
$GPHPD,0,0.000,55.66,-0.06,-12.12,31.5900529,120.7771433,2.871,13632586.420,24925452.656,2.871,0.000,0.000,0.000,0.000,0.000,0.000,0.000,16,16,4*4C
$GPGGA,074841.80,3135.4032227,N,12046.6286911,E,4,16,1.4,2.8647,M,8.313,M,00,0004*6B
$GPHPD,0,0.000,56.11,0.25,-12.09,31.5900537,120.7771449,2.865,13632585.878,24925453.486,2.865,0.000,0.000,0.000,0.000,0.000,0.000,0.000,16,16,4*67
$GPGGA,074842.00,3135.4032702,N,12046.6287806,E,4,16,1.4,2.8653,M,8.313,M,01,0004*60
$GPHPD,0,0.000,56.27,-0.09,-12.08,31.5900545,120.7771463,2.865,13632585.383,24925454.288,2.865,0.000,0.000,0.000,0.000,0.000,0.000,0.000,16,16,4*4D
$GPGGA,074842.20,3135.4033157,N,12046.6288651,E,4,16,1.4,2.8681,M,8.314,M,01,0004*6E
$GPHPD,0,0.000,56.38,0.14,-12.08,31.5900553,120.7771478,2.868,13632584.906,24925455.043,2.868,0.000,0.000,0.000,0.000,0.000,0.000,0.000,16,16,4*6D
$GPGGA,074842.40,3135.4033620,N,12046.6289454,E,4,16,1.4,2.8644,M,8.314,M,01,0004*60
$GPHPD,0,0.000,56.48,0.17,-12.11,31.5900560,120.7771491,2.864,13632584.410,24925455.741,2.864,0.000,0.000,0.000,0.000,0.000,0.000,0.000,16,16,4*69
$GPGGA,074842.60,3135.4034038,N,12046.6290243,E,4,16,1.4,2.8669,M,8.314,M,00,0004*6C
$GPHPD,0,0.000,56.60,0.14,-12.16,31.5900567,120.7771504,2.867,13632583.975,24925456.450,2.867,0.000,0.000,0.000,0.000,0.000,0.000,0.000,16,16,4*64
$GPGGA,074842.80,3135.4034474,N,12046.6291053,E,4,16,1.4,2.8545,M,8.314,M,00,0004*61
$GPHPD,0,0.000,56.61,0.03,-12.25,31.5900575,120.7771518,2.855,13632583.518,24925457.173,2.855,0.000,0.000,0.000,0.000,0.000,0.000,0.000,16,16,4*6F
$GPGGA,074843.00,3135.4034899,N,12046.6291847,E,4,16,1.4,2.8587,M,8.314,M,01,0004*65
$GPHPD,0,0.000,56.59,0.28,-12.28,31.5900582,120.7771531,2.859,13632583.074,24925457.883,2.859,0.000,0.000,0.000,0.000,0.000,0.000,0.000,16,16,4*6A
$GPGGA,074843.20,3135.4035313,N,12046.6292622,E,4,16,1.4,2.8623,M,8.314,M,01,0004*6C
$GPHPD,0,0.000,56.69,0.47,-12.28,31.5900589,120.7771544,2.862,13632582.641,24925458.577,2.862,0.000,0.000,0.000,0.000,0.000,0.000,0.000,16,16,4*61
$GPGGA,074843.40,3135.4035738,N,12046.6293450,E,4,16,1.4,2.8537,M,8.314,M,01,0004*67
$GPHPD,0,0.000,56.74,0.22,-12.27,31.5900596,120.7771558,2.854,13632582.204,24925459.328,2.854,0.000,0.000,0.000,0.000,0.000,0.000,0.000,16,16,4*6A
$GPGGA,074843.60,3135.4036167,N,12046.6294241,E,4,16,1.4,2.8613,M,8.314,M,00,0004*6F
$GPHPD,0,0.000,56.79,0.28,-12.27,31.5900603,120.7771571,2.861,13632581.753,24925460.032,2.861,0.000,0.000,0.000,0.000,0.000,0.000,0.000,16,16,4*6F
$GPGGA,074843.80,3135.4036568,N,12046.6294990,E,4,16,1.4,2.8568,M,8.314,M,00,0004*62
$GPHPD,0,0.000,57.01,0.16,-12.28,31.5900609,120.7771583,2.857,13632581.334,24925460.702,2.857,0.000,0.000,0.000,0.000,0.000,0.000,0.000,16,16,4*65
$GPGGA,074844.00,3135.4036988,N,12046.6295746,E,4,16,1.4,2.8543,M,8.314,M,01,0004*63
$GPHPD,0,0.000,56.85,0.22,-12.26,31.5900616,120.7771596,2.854,13632580.889,24925461.369,2.854,0.000,0.000,0.000,0.000,0.000,0.000,0.000,16,16,4*6F
$GPGGA,074844.20,3135.4037348,N,12046.6296474,E,4,16,1.4,2.8591,M,8.314,M,01,0004*68
$GPHPD,0,0.000,57.00,0.40,-12.24,31.5900622,120.7771608,2.859,13632580.524,24925462.037,2.859,0.000,0.000,0.000,0.000,0.000,0.000,0.000,16,16,4*67
$GPGGA,074844.40,3135.4037770,N,12046.6297172,E,4,16,1.4,2.8608,M,8.314,M,01,0004*60
$GPHPD,0,0.000,56.91,0.23,-12.24,31.5900630,120.7771620,2.861,13632580.065,24925462.633,2.861,0.000,0.000,0.000,0.000,0.000,0.000,0.000,16,16,4*60
$GPGGA,074844.60,3135.4038094,N,12046.6297851,E,4,16,1.4,2.8652,M,8.314,M,00,0004*66
$GPHPD,0,0.000,57.23,0.02,-12.23,31.5900635,120.7771631,2.865,13632579.741,24925463.264,2.865,0.000,0.000,0.000,0.000,0.000,0.000,0.000,16,16,4*69
$GPGGA,074844.80,3135.4038440,N,12046.6298508,E,4,16,1.4,2.8709,M,8.314,M,00,0004*64
$GPHPD,0,0.000,57.47,0.04,-12.23,31.5900641,120.7771642,2.871,13632579.381,24925463.855,2.871,0.000,0.000,0.000,0.000,0.000,0.000,0.000,16,16,4*6A
$GPGGA,074845.00,3135.4038769,N,12046.6299195,E,4,16,1.5,2.8605,M,8.314,M,01,0004*69
$GPHPD,0,0.000,57.94,0.23,-12.23,31.5900646,120.7771653,2.861,13632579.052,24925464.492,2.861,0.000,0.000,0.000,0.000,0.000,0.000,0.000,16,16,4*6B
$GPGGA,074845.20,3135.4039070,N,12046.6299807,E,4,15,1.5,2.8596,M,8.314,M,01,0004*6D
$GPHPD,0,0.000,58.16,-0.37,-12.23,31.5900651,120.7771663,2.860,13632578.748,24925465.054,2.860,0.000,0.000,0.000,0.000,0.000,0.000,0.000,15,15,4*41
$GPGGA,074845.40,3135.4039383,N,12046.6300436,E,4,15,1.5,2.8700,M,8.314,M,01,0004*66
$GPHPD,0,0.000,58.29,0.41,-12.25,31.5900656,120.7771674,2.870,13632578.429,24925465.631,2.870,0.000,0.000,0.000,0.000,0.000,0.000,0.000,15,15,4*67
$GPGGA,074845.60,3135.4039704,N,12046.6301039,E,4,15,1.5,2.8625,M,8.314,M,00,0004*62
$GPHPD,0,0.000,58.50,0.13,-12.26,31.5900662,120.7771684,2.863,13632578.094,24925466.171,2.863,0.000,0.000,0.000,0.000,0.000,0.000,0.000,15,15,4*67
$GPGGA,074845.80,3135.4039983,N,12046.6301638,E,4,15,1.5,2.8578,M,8.314,M,00,0004*61
$GPHPD,0,0.000,58.71,0.61,-12.28,31.5900666,120.7771694,2.858,13632577.818,24925466.731,2.858,0.000,0.000,0.000,0.000,0.000,0.000,0.000,15,15,4*6B
$GPGGA,074846.00,3135.4040265,N,12046.6302241,E,4,15,1.5,2.8650,M,8.314,M,01,0004*66
$GPHPD,0,0.000,58.59,0.03,-12.32,31.5900671,120.7771704,2.865,13632577.539,24925467.294,2.865,0.000,0.000,0.000,0.000,0.000,0.000,0.000,15,15,4*65
$GPGGA,074846.20,3135.4040603,N,12046.6302829,E,4,15,1.5,2.8648,M,8.314,M,01,0004*6D
$GPHPD,0,0.000,58.56,0.21,-12.37,31.5900677,120.7771714,2.865,13632577.177,24925467.807,2.865,0.000,0.000,0.000,0.000,0.000,0.000,0.000,15,15,4*66
$GPGGA,074846.40,3135.4040912,N,12046.6303451,E,4,15,1.5,2.8623,M,8.314,M,01,0004*6B
$GPHPD,0,0.000,58.63,0.38,-12.44,31.5900682,120.7771724,2.862,13632576.863,24925468.377,2.862,0.000,0.000,0.000,0.000,0.000,0.000,0.000,15,15,4*6B
$GPGGA,074846.60,3135.4041241,N,12046.6304174,E,4,15,1.5,2.8610,M,8.314,M,00,0004*61
$GPHPD,0,0.000,58.80,0.45,-12.55,31.5900687,120.7771736,2.861,13632576.541,24925469.057,2.861,0.000,0.000,0.000,0.000,0.000,0.000,0.000,15,15,4*67
$GPGGA,074846.80,3135.4041632,N,12046.6304926,E,4,15,1.5,2.8552,M,8.314,M,00,0004*65
$GPHPD,0,0.000,59.02,0.45,-12.66,31.5900694,120.7771749,2.855,13632576.136,24925469.737,2.855,0.000,0.000,0.000,0.000,0.000,0.000,0.000,15,15,4*63
$GPGGA,074847.00,3135.4042072,N,12046.6305776,E,4,15,1.5,2.8544,M,8.314,M,01,0004*61
$GPHPD,0,0.000,59.19,0.53,-12.76,31.5900701,120.7771763,2.854,13632575.682,24925470.505,2.854,0.000,0.000,0.000,0.000,0.000,0.000,0.000,15,15,4*6A
$GPGGA,074847.20,3135.4042523,N,12046.6306713,E,4,15,1.5,2.8654,M,8.314,M,01,0004*60
$GPHPD,0,0.000,59.16,0.84,-12.83,31.5900709,120.7771779,2.865,13632575.230,24925471.373,2.865,0.000,0.000,0.000,0.000,0.000,0.000,0.000,15,15,4*6D
$GPGGA,074847.40,3135.4043048,N,12046.6307673,E,4,15,1.5,2.8671,M,8.314,M,01,0004*6E
$GPHPD,0,0.000,58.83,0.18,-12.95,31.5900717,120.7771795,2.867,13632574.677,24925472.225,2.867,0.000,0.000,0.000,0.000,0.000,0.000,0.000,15,15,4*68
$GPGGA,074847.60,3135.4043591,N,12046.6308783,E,4,15,1.5,2.8620,M,8.314,M,00,0004*69
$GPHPD,0,0.000,58.84,-0.18,-13.09,31.5900727,120.7771813,2.862,13632574.128,24925473.248,2.862,0.000,0.000,0.000,0.000,0.000,0.000,0.000,15,15,4*43
$GPGGA,074847.80,3135.4044202,N,12046.6309979,E,4,15,1.5,2.8652,M,8.314,M,00,0004*62
$GPHPD,0,0.000,58.97,0.22,-13.19,31.5900737,120.7771833,2.865,13632573.501,24925474.334,2.865,0.000,0.000,0.000,0.000,0.000,0.000,0.000,15,15,4*62
$GPGGA,074848.00,3135.4044870,N,12046.6311311,E,4,15,1.5,2.8571,M,8.314,M,01,0004*64
$GPHPD,0,0.000,58.95,0.01,-13.26,31.5900748,120.7771855,2.857,13632572.819,24925475.552,2.857,0.000,0.000,0.000,0.000,0.000,0.000,0.000,15,15,4*67
$GPGGA,074848.20,3135.4045556,N,12046.6312754,E,4,15,1.5,2.8681,M,8.314,M,01,0004*64
$GPHPD,0,0.000,59.02,0.01,-13.31,31.5900759,120.7771879,2.868,13632572.135,24925476.893,2.868,0.000,0.000,0.000,0.000,0.000,0.000,0.000,15,15,4*64
$GPGGA,074848.40,3135.4046318,N,12046.6314208,E,4,15,1.5,2.8672,M,8.314,M,01,0004*6B
$GPHPD,0,0.000,58.55,-0.83,-13.33,31.5900772,120.7771903,2.867,13632571.344,24925478.203,2.867,0.000,0.000,0.000,0.000,0.000,0.000,0.000,15,15,4*4D
$GPGGA,074848.60,3135.4047109,N,12046.6315696,E,4,15,1.5,2.8553,M,8.314,M,00,0004*69
$GPHPD,0,0.000,58.75,-0.97,-13.33,31.5900785,120.7771928,2.855,13632570.519,24925479.537,2.855,0.000,0.000,0.000,0.000,0.000,0.000,0.000,15,15,4*45
$GPGGA,074848.80,3135.4047881,N,12046.6317260,E,4,15,1.5,2.8670,M,8.314,M,00,0004*63
$GPHPD,0,0.000,58.95,-0.14,-13.35,31.5900798,120.7771954,2.867,13632569.737,24925480.973,2.867,0.000,0.000,0.000,0.000,0.000,0.000,0.000,15,15,4*4D
$GPGGA,074849.00,3135.4048664,N,12046.6318848,E,4,15,1.5,2.8553,M,8.314,M,01,0004*6C
$GPHPD,0,0.000,58.88,-0.49,-13.33,31.5900811,120.7771981,2.855,13632568.944,24925482.433,2.855,0.000,0.000,0.000,0.000,0.000,0.000,0.000,15,15,4*49
$GPGGA,074849.20,3135.4049470,N,12046.6320479,E,4,15,1.5,2.8609,M,8.314,M,01,0004*61
$GPHPD,0,0.000,58.78,-0.03,-13.31,31.5900825,120.7772008,2.861,13632568.126,24925483.930,2.861,0.000,0.000,0.000,0.000,0.000,0.000,0.000,15,15,4*45
$GPGGA,074849.40,3135.4050299,N,12046.6322115,E,4,16,1.5,2.8556,M,8.314,M,01,0004*69
$GPHPD,0,0.000,58.59,-0.52,-13.30,31.5900838,120.7772035,2.856,13632567.277,24925485.421,2.856,0.000,0.000,0.000,0.000,0.000,0.000,0.000,16,15,4*41
$GPGGA,074849.60,3135.4051094,N,12046.6323708,E,4,15,1.5,2.8516,M,8.314,M,00,0004*68
$GPHPD,0,0.000,58.74,-0.02,-13.29,31.5900852,120.7772062,2.852,13632566.468,24925486.879,2.852,0.000,0.000,0.000,0.000,0.000,0.000,0.000,15,15,4*45
$GPGGA,074849.80,3135.4051920,N,12046.6325328,E,4,16,1.5,2.8660,M,8.314,M,00,0004*61
$GPHPD,0,0.000,58.77,0.12,-13.27,31.5900865,120.7772089,2.866,13632565.620,24925488.352,2.866,0.000,0.000,0.000,0.000,0.000,0.000,0.000,16,15,4*67
$GPGGA,074850.00,3135.4052746,N,12046.6326910,E,4,15,1.5,2.8630,M,8.314,M,01,0004*69
$GPHPD,0,0.000,58.50,-0.19,-13.27,31.5900879,120.7772115,2.863,13632564.764,24925489.779,2.863,0.000,0.000,0.000,0.000,0.000,0.000,0.000,15,15,4*42
$GPGGA,074850.20,3135.4053551,N,12046.6328510,E,4,15,1.5,2.8500,M,8.314,M,01,0004*6C
$GPHPD,0,0.000,58.57,-0.28,-13.27,31.5900893,120.7772142,2.850,13632563.942,24925491.240,2.850,0.000,0.000,0.000,0.000,0.000,0.000,0.000,15,15,4*4A
$GPGGA,074850.40,3135.4054356,N,12046.6330137,E,4,15,1.5,2.8563,M,8.314,M,01,0004*61
$GPHPD,0,0.000,58.42,0.04,-13.27,31.5900906,120.7772169,2.856,13632563.126,24925492.734,2.856,0.000,0.000,0.000,0.000,0.000,0.000,0.000,15,15,4*66
$GPGGA,074850.60,3135.4055153,N,12046.6331754,E,4,15,1.5,2.8495,M,8.314,M,00,0004*6E
$GPHPD,0,0.000,58.43,-0.31,-13.27,31.5900919,120.7772196,2.850,13632562.318,24925494.220,2.850,0.000,0.000,0.000,0.000,0.000,0.000,0.000,15,15,4*4A
$GPGGA,074850.80,3135.4055958,N,12046.6333338,E,4,15,1.5,2.8497,M,8.314,M,00,0004*6D
$GPHPD,0,0.000,58.56,0.26,-13.24,31.5900933,120.7772222,2.850,13632561.493,24925495.661,2.850,0.000,0.000,0.000,0.000,0.000,0.000,0.000,15,15,4*65
$GPGGA,074851.00,3135.4056802,N,12046.6334923,E,4,15,1.5,2.8495,M,8.314,M,01,0004*6D
$GPHPD,0,0.000,58.79,0.23,-13.22,31.5900947,120.7772249,2.850,13632560.612,24925497.082,2.850,0.000,0.000,0.000,0.000,0.000,0.000,0.000,15,15,4*66
$GPGGA,074851.20,3135.4057602,N,12046.6336559,E,4,15,1.5,2.8458,M,8.314,M,01,0004*62
$GPHPD,0,0.000,59.01,0.23,-13.20,31.5900960,120.7772276,2.846,13632559.805,24925498.589,2.846,0.000,0.000,0.000,0.000,0.000,0.000,0.000,15,15,4*60
$GPGGA,074851.40,3135.4058429,N,12046.6338167,E,4,15,1.5,2.8610,M,8.314,M,01,0004*69
$GPHPD,0,0.000,59.09,0.58,-13.17,31.5900974,120.7772303,2.861,13632558.953,24925500.047,2.861,0.000,0.000,0.000,0.000,0.000,0.000,0.000,15,15,4*62
$GPGGA,074851.60,3135.4059223,N,12046.6339786,E,4,15,1.5,2.8590,M,8.314,M,00,0004*64
$GPHPD,0,0.000,59.40,-0.05,-13.15,31.5900987,120.7772330,2.859,13632558.150,24925501.537,2.859,0.000,0.000,0.000,0.000,0.000,0.000,0.000,15,15,4*4C
$GPGGA,074851.80,3135.4060032,N,12046.6341461,E,4,15,1.5,2.8579,M,8.314,M,00,0004*60
$GPHPD,0,0.000,59.41,-0.15,-13.15,31.5901001,120.7772358,2.858,13632557.337,24925503.086,2.858,0.000,0.000,0.000,0.000,0.000,0.000,0.000,15,15,4*45
$GPGGA,074852.00,3135.4060841,N,12046.6343141,E,4,15,1.5,2.8541,M,8.314,M,01,0004*68
$GPHPD,0,0.000,59.20,-0.33,-13.14,31.5901014,120.7772386,2.854,13632556.526,24925504.641,2.854,0.000,0.000,0.000,0.000,0.000,0.000,0.000,15,15,4*4D
$GPGGA,074852.20,3135.4061639,N,12046.6344773,E,4,15,1.5,2.8577,M,8.314,M,01,0004*6F
$GPHPD,0,0.000,59.33,0.10,-13.12,31.5901027,120.7772413,2.858,13632555.720,24925506.145,2.858,0.000,0.000,0.000,0.000,0.000,0.000,0.000,15,15,4*68
$GPGGA,074852.40,3135.4062463,N,12046.6346430,E,4,15,1.5,2.8608,M,8.314,M,01,0004*6A
$GPHPD,0,0.000,59.53,-0.19,-13.11,31.5901041,120.7772441,2.861,13632554.882,24925507.663,2.861,0.000,0.000,0.000,0.000,0.000,0.000,0.000,15,15,4*4A
$GPGGA,074852.60,3135.4063273,N,12046.6348123,E,4,15,1.5,2.8581,M,8.314,M,00,0004*64
$GPHPD,0,0.000,59.34,-0.50,-13.10,31.5901055,120.7772469,2.858,13632554.072,24925509.234,2.858,0.000,0.000,0.000,0.000,0.000,0.000,0.000,15,15,4*47
$GPGGA,074852.80,3135.4064086,N,12046.6349807,E,4,15,1.5,2.8616,M,8.314,M,00,0004*66
$GPHPD,0,0.000,59.50,0.04,-13.11,31.5901068,120.7772497,2.862,13632553.255,24925510.791,2.862,0.000,0.000,0.000,0.000,0.000,0.000,0.000,15,15,4*65
$GPGGA,074853.00,3135.4064951,N,12046.6351500,E,4,15,1.5,2.8570,M,8.314,M,01,0004*6D
$GPHPD,0,0.000,59.24,-0.10,-13.11,31.5901083,120.7772525,2.857,13632552.366,24925512.329,2.857,0.000,0.000,0.000,0.000,0.000,0.000,0.000,15,15,4*46
$GPGGA,074853.20,3135.4065785,N,12046.6353194,E,4,15,1.5,2.8548,M,8.314,M,01,0004*69
$GPHPD,0,0.000,59.07,-0.20,-13.10,31.5901096,120.7772553,2.855,13632551.522,24925513.887,2.855,0.000,0.000,0.000,0.000,0.000,0.000,0.000,15,15,4*4B
$GPGGA,074853.40,3135.4066626,N,12046.6354870,E,4,15,1.5,2.8568,M,8.314,M,01,0004*62
$GPHPD,0,0.000,58.77,-0.20,-13.09,31.5901110,120.7772581,2.857,13632550.664,24925515.418,2.857,0.000,0.000,0.000,0.000,0.000,0.000,0.000,15,15,4*49
$GPGGA,074853.60,3135.4067474,N,12046.6356569,E,4,15,1.5,2.8618,M,8.314,M,01,0004*67
$GPHPD,0,0.000,58.56,-0.25,-13.09,31.5901125,120.7772609,2.862,13632549.801,24925516.974,2.862,0.000,0.000,0.000,0.000,0.000,0.000,0.000,15,15,4*4B
$GPGGA,074853.80,3135.4068365,N,12046.6358284,E,4,15,1.5,2.8476,M,8.314,M,01,0004*61
$GPHPD,0,0.000,58.26,-0.69,-13.06,31.5901139,120.7772638,2.848,13632548.879,24925518.523,2.848,0.000,0.000,0.000,0.000,0.000,0.000,0.000,15,15,4*4A
$GPGGA,074854.00,3135.4069232,N,12046.6359993,E,4,15,1.5,2.8451,M,8.314,M,02,0004*66
$GPHPD,0,0.000,58.43,0.14,-13.04,31.5901154,120.7772667,2.845,13632547.991,24925520.080,2.845,0.000,0.000,0.000,0.000,0.000,0.000,0.000,15,15,4*62
$GPGGA,074854.20,3135.4070092,N,12046.6361702,E,4,15,1.5,2.8477,M,8.314,M,02,0004*6D
$GPHPD,0,0.000,58.24,-0.03,-13.04,31.5901168,120.7772695,2.848,13632547.113,24925521.640,2.848,0.000,0.000,0.000,0.000,0.000,0.000,0.000,15,15,4*43
$GPGGA,074854.40,3135.4070972,N,12046.6363402,E,4,15,1.5,2.8503,M,8.314,M,02,0004*6F
$GPHPD,0,0.000,58.31,0.22,-13.01,31.5901183,120.7772723,2.850,13632546.204,24925523.178,2.850,0.000,0.000,0.000,0.000,0.000,0.000,0.000,15,15,4*6F
$GPGGA,074854.60,3135.4071848,N,12046.6365126,E,4,15,1.5,2.8486,M,8.314,M,02,0004*6D
$GPHPD,0,0.000,58.43,0.02,-12.99,31.5901197,120.7772752,2.849,13632545.306,24925524.747,2.849,0.000,0.000,0.000,0.000,0.000,0.000,0.000,15,15,4*66
$GPGGA,074854.80,3135.4072724,N,12046.6366859,E,4,15,1.5,2.8534,M,8.314,M,00,0004*6D
$GPHPD,0,0.000,58.55,0.12,-12.97,31.5901212,120.7772781,2.853,13632544.410,24925526.327,2.853,0.000,0.000,0.000,0.000,0.000,0.000,0.000,15,15,4*6F
$GPGGA,074855.00,3135.4073608,N,12046.6368556,E,4,15,1.5,2.8421,M,8.314,M,01,0004*62
$GPHPD,0,0.000,58.75,0.32,-12.95,31.5901227,120.7772809,2.842,13632543.495,24925527.859,2.842,0.000,0.000,0.000,0.000,0.000,0.000,0.000,15,15,4*6D
$GPGGA,074855.20,3135.4074458,N,12046.6370298,E,4,15,1.5,2.8473,M,8.314,M,01,0004*6B
$GPHPD,0,0.000,58.96,0.14,-12.93,31.5901241,120.7772838,2.847,13632542.637,24925529.465,2.847,0.000,0.000,0.000,0.000,0.000,0.000,0.000,15,15,4*66
$GPGGA,074855.40,3135.4075342,N,12046.6372028,E,4,15,1.5,2.8471,M,8.314,M,01,0004*69
$GPHPD,0,0.000,58.93,-0.11,-12.91,31.5901256,120.7772867,2.847,13632541.729,24925531.037,2.847,0.000,0.000,0.000,0.000,0.000,0.000,0.000,15,15,4*42
$GPGGA,074855.60,3135.4076246,N,12046.6373796,E,4,15,1.5,2.8536,M,8.314,M,00,0004*6D
$GPHPD,0,0.000,58.77,-0.11,-12.92,31.5901271,120.7772897,2.854,13632540.800,24925532.643,2.854,0.000,0.000,0.000,0.000,0.000,0.000,0.000,15,15,4*42
$GPGGA,074855.80,3135.4077102,N,12046.6375570,E,4,15,1.5,2.8553,M,8.314,M,00,0004*6E
$GPHPD,0,0.000,58.73,-0.33,-12.92,31.5901285,120.7772926,2.855,13632539.940,24925534.284,2.855,0.000,0.000,0.000,0.000,0.000,0.000,0.000,15,15,4*44
$GPGGA,074856.00,3135.4078002,N,12046.6377276,E,4,15,1.5,2.8341,M,8.314,M,01,0004*6C
$GPHPD,0,0.000,58.28,-0.86,-12.90,31.5901300,120.7772955,2.834,13632539.005,24925535.817,2.834,0.000,0.000,0.000,0.000,0.000,0.000,0.000,15,15,4*47
$GPGGA,074856.20,3135.4078870,N,12046.6379050,E,4,15,1.5,2.8442,M,8.314,M,01,0004*6F
$GPHPD,0,0.000,58.40,0.13,-12.89,31.5901315,120.7772984,2.844,13632538.128,24925537.452,2.844,0.000,0.000,0.000,0.000,0.000,0.000,0.000,15,15,4*68
$GPGGA,074856.40,3135.4079792,N,12046.6380767,E,4,15,1.5,2.8383,M,8.314,M,01,0004*64
$GPHPD,0,0.000,58.47,-0.25,-12.88,31.5901330,120.7773013,2.838,13632537.163,24925538.985,2.838,0.000,0.000,0.000,0.000,0.000,0.000,0.000,15,15,4*4F
$GPGGA,074856.60,3135.4080641,N,12046.6382463,E,4,15,1.5,2.8409,M,8.314,M,00,0004*6E
$GPHPD,0,0.000,58.76,0.23,-12.88,31.5901344,120.7773041,2.841,13632536.298,24925540.537,2.841,0.000,0.000,0.000,0.000,0.000,0.000,0.000,15,15,4*6E
$GPGGA,074856.80,3135.4081548,N,12046.6384217,E,4,15,1.5,2.8359,M,8.314,M,00,0004*6A
$GPHPD,0,0.000,58.92,0.11,-12.86,31.5901359,120.7773070,2.836,13632535.362,24925542.124,2.836,0.000,0.000,0.000,0.000,0.000,0.000,0.000,15,15,4*66
$GPGGA,074857.00,3135.4082448,N,12046.6385963,E,4,15,1.5,2.8343,M,8.314,M,01,0004*62
$GPHPD,0,0.000,58.85,-0.23,-12.86,31.5901374,120.7773099,2.834,13632534.434,24925543.706,2.834,0.000,0.000,0.000,0.000,0.000,0.000,0.000,15,15,4*46
$GPGGA,074857.20,3135.4083288,N,12046.6387753,E,4,15,1.5,2.8395,M,8.314,M,01,0004*6F
$GPHPD,0,0.000,59.01,0.06,-12.84,31.5901388,120.7773129,2.840,13632533.600,24925545.375,2.840,0.000,0.000,0.000,0.000,0.000,0.000,0.000,15,15,4*6E
$GPGGA,074857.40,3135.4084147,N,12046.6389485,E,4,15,1.5,2.8500,M,8.314,M,01,0004*62
$GPHPD,0,0.000,58.85,-0.12,-12.83,31.5901402,120.7773158,2.850,13632532.728,24925546.964,2.850,0.000,0.000,0.000,0.000,0.000,0.000,0.000,15,15,4*4C
$GPGGA,074857.60,3135.4085021,N,12046.6391236,E,4,15,1.5,2.8440,M,8.314,M,00,0004*63
$GPHPD,0,0.000,58.77,-0.66,-12.81,31.5901417,120.7773187,2.844,13632531.838,24925548.567,2.844,0.000,0.000,0.000,0.000,0.000,0.000,0.000,15,15,4*4A
$GPGGA,074857.80,3135.4085899,N,12046.6392996,E,4,15,1.5,2.8432,M,8.314,M,00,0004*61
$GPHPD,0,0.000,58.90,-0.66,-12.80,31.5901432,120.7773217,2.843,13632530.944,24925550.178,2.843,0.000,0.000,0.000,0.000,0.000,0.000,0.000,15,15,4*47
$GPGGA,074858.00,3135.4086774,N,12046.6394726,E,4,15,1.5,2.8370,M,8.314,M,01,0004*6A
$GPHPD,0,0.000,59.02,-0.41,-12.78,31.5901446,120.7773245,2.837,13632530.049,24925551.755,2.837,0.000,0.000,0.000,0.000,0.000,0.000,0.000,15,15,4*47
$GPGGA,074858.20,3135.4087623,N,12046.6396480,E,4,15,1.5,2.8446,M,8.314,M,01,0004*65
$GPHPD,0,0.000,59.33,-0.34,-12.78,31.5901460,120.7773275,2.845,13632529.195,24925553.376,2.845,0.000,0.000,0.000,0.000,0.000,0.000,0.000,15,15,4*4F
$GPGGA,074858.40,3135.4088482,N,12046.6398228,E,4,15,1.5,2.8364,M,8.314,M,01,0004*68
$GPHPD,0,0.000,59.15,-0.43,-12.78,31.5901475,120.7773304,2.836,13632528.326,24925554.984,2.836,0.000,0.000,0.000,0.000,0.000,0.000,0.000,15,15,4*43
$GPGGA,074858.60,3135.4089354,N,12046.6399979,E,4,15,1.5,2.8257,M,8.314,M,00,0004*69
$GPHPD,0,0.000,59.24,-0.07,-12.78,31.5901489,120.7773333,2.826,13632527.439,24925556.588,2.826,0.000,0.000,0.000,0.000,0.000,0.000,0.000,15,15,4*42
$GPGGA,074858.80,3135.4090233,N,12046.6401732,E,4,15,1.5,2.8239,M,8.314,M,00,0004*60
$GPHPD,0,0.000,59.24,0.07,-12.78,31.5901504,120.7773362,2.824,13632526.542,24925558.191,2.824,0.000,0.000,0.000,0.000,0.000,0.000,0.000,15,15,4*61
$GPGGA,074859.00,3135.4091102,N,12046.6403491,E,4,15,1.5,2.8227,M,8.314,M,01,0004*6F
$GPHPD,0,0.000,59.00,-0.28,-12.78,31.5901518,120.7773392,2.823,13632525.661,24925559.806,2.823,0.000,0.000,0.000,0.000,0.000,0.000,0.000,15,15,4*42
$GPGGA,074859.20,3135.4091996,N,12046.6405234,E,4,15,1.5,2.8355,M,8.314,M,01,0004*63
$GPHPD,0,0.000,58.79,-0.31,-12.77,31.5901533,120.7773421,2.836,13632524.741,24925561.388,2.836,0.000,0.000,0.000,0.000,0.000,0.000,0.000,15,15,4*48
$GPGGA,074859.40,3135.4092875,N,12046.6406960,E,4,15,1.5,2.8273,M,8.314,M,01,0004*66
$GPHPD,0,0.000,58.70,-0.77,-12.77,31.5901548,120.7773449,2.827,13632523.840,24925562.958,2.827,0.000,0.000,0.000,0.000,0.000,0.000,0.000,15,15,4*4C
$GPGGA,074859.60,3135.4093756,N,12046.6408696,E,4,15,1.5,2.8267,M,8.314,M,00,0004*67
$GPHPD,0,0.000,58.65,-0.38,-12.76,31.5901563,120.7773478,2.827,13632522.937,24925564.538,2.827,0.000,0.000,0.000,0.000,0.000,0.000,0.000,15,15,4*45
$GPGGA,074859.80,3135.4094653,N,12046.6410432,E,4,15,1.5,2.8168,M,8.314,M,00,0004*63
$GPHPD,0,0.000,58.68,-0.12,-12.76,31.5901578,120.7773507,2.817,13632522.011,24925566.110,2.817,0.000,0.000,0.000,0.000,0.000,0.000,0.000,15,15,4*42
$GPGGA,074900.00,3135.4095530,N,12046.6412149,E,4,15,1.5,2.8224,M,8.314,M,01,0004*60
$GPHPD,0,0.000,58.70,-0.20,-12.73,31.5901592,120.7773536,2.822,13632521.110,24925567.670,2.822,0.000,0.000,0.000,0.000,0.000,0.000,0.000,15,15,4*4A
$GPGGA,074900.20,3135.4096382,N,12046.6413926,E,4,15,1.5,2.8167,M,8.314,M,01,0004*6A
$GPHPD,0,0.000,58.47,-0.41,-12.73,31.5901606,120.7773565,2.817,13632520.257,24925569.317,2.817,0.000,0.000,0.000,0.000,0.000,0.000,0.000,15,15,4*4A
$GPGGA,074900.40,3135.4097302,N,12046.6415632,E,4,15,1.5,2.8144,M,8.314,M,01,0004*68
$GPHPD,0,0.000,58.51,-0.10,-12.71,31.5901622,120.7773594,2.814,13632519.293,24925570.839,2.814,0.000,0.000,0.000,0.000,0.000,0.000,0.000,15,15,4*4E
$GPGGA,074900.60,3135.4098173,N,12046.6417377,E,4,15,1.5,2.8161,M,8.314,M,01,0004*60
$GPHPD,0,0.000,58.50,-0.28,-12.70,31.5901636,120.7773623,2.816,13632518.406,24925572.436,2.816,0.000,0.000,0.000,0.000,0.000,0.000,0.000,15,15,4*45
$GPGGA,074900.80,3135.4099032,N,12046.6419113,E,4,15,1.5,2.8179,M,8.314,M,00,0004*6D
$GPHPD,0,0.000,58.48,-0.14,-12.69,31.5901651,120.7773652,2.818,13632517.534,24925574.030,2.818,0.000,0.000,0.000,0.000,0.000,0.000,0.000,15,15,4*47
$GPGGA,074901.00,3135.4099915,N,12046.6420836,E,4,15,1.5,2.8090,M,8.314,M,01,0004*6B
$GPHPD,0,0.000,58.45,-0.18,-12.69,31.5901665,120.7773681,2.809,13632516.626,24925575.594,2.809,0.000,0.000,0.000,0.000,0.000,0.000,0.000,15,15,4*44
$GPGGA,074901.20,3135.4100796,N,12046.6422568,E,4,15,1.5,2.8144,M,8.314,M,01,0004*61
$GPHPD,0,0.000,58.47,-0.01,-12.66,31.5901680,120.7773709,2.814,13632515.723,24925577.170,2.814,0.000,0.000,0.000,0.000,0.000,0.000,0.000,15,15,4*40
$GPGGA,074901.40,3135.4101676,N,12046.6424293,E,4,16,1.4,2.8090,M,8.314,M,01,0004*66
$GPHPD,0,0.000,58.37,-0.04,-12.66,31.5901695,120.7773738,2.809,13632514.819,24925578.738,2.809,0.000,0.000,0.000,0.000,0.000,0.000,0.000,16,16,4*46
$GPGGA,074901.60,3135.4102559,N,12046.6426029,E,4,16,1.4,2.8104,M,8.314,M,00,0004*65
$GPHPD,0,0.000,58.33,0.29,-12.65,31.5901709,120.7773767,2.810,13632513.913,24925580.317,2.810,0.000,0.000,0.000,0.000,0.000,0.000,0.000,16,16,4*6F
$GPGGA,074901.80,3135.4103439,N,12046.6427734,E,4,16,1.4,2.8111,M,8.314,M,00,0004*63
$GPHPD,0,0.000,58.44,0.15,-12.65,31.5901724,120.7773796,2.811,13632513.006,24925581.861,2.811,0.000,0.000,0.000,0.000,0.000,0.000,0.000,16,16,4*67
$GPGGA,074902.00,3135.4104304,N,12046.6429481,E,4,16,1.4,2.8069,M,8.314,M,01,0004*6A
$GPHPD,0,0.000,58.35,0.05,-12.62,31.5901738,120.7773825,2.807,13632512.128,24925583.464,2.807,0.000,0.000,0.000,0.000,0.000,0.000,0.000,16,16,4*6A
$GPGGA,074902.20,3135.4105203,N,12046.6431208,E,4,16,1.4,2.8085,M,8.314,M,01,0004*63
$GPHPD,0,0.000,58.43,0.02,-12.62,31.5901753,120.7773853,2.809,13632511.198,24925585.024,2.809,0.000,0.000,0.000,0.000,0.000,0.000,0.000,16,16,4*6E
$GPGGA,074902.40,3135.4106075,N,12046.6432932,E,4,16,1.4,2.8174,M,8.314,M,01,0004*6B
$GPHPD,0,0.000,58.51,-0.18,-12.60,31.5901768,120.7773882,2.817,13632510.305,24925586.595,2.817,0.000,0.000,0.000,0.000,0.000,0.000,0.000,16,16,4*46
$GPGGA,074902.60,3135.4106962,N,12046.6434693,E,4,15,1.5,2.8116,M,8.314,M,00,0004*63
$GPHPD,0,0.000,58.39,0.12,-12.59,31.5901783,120.7773912,2.812,13632509.399,24925588.203,2.812,0.000,0.000,0.000,0.000,0.000,0.000,0.000,15,15,4*63
$GPGGA,074902.80,3135.4107828,N,12046.6436420,E,4,15,1.5,2.8109,M,8.314,M,00,0004*65
$GPHPD,0,0.000,58.44,-0.33,-12.60,31.5901797,120.7773940,2.811,13632508.516,24925589.781,2.811,0.000,0.000,0.000,0.000,0.000,0.000,0.000,15,15,4*41
$GPGGA,074903.00,3135.4108709,N,12046.6438142,E,4,15,1.5,2.8068,M,8.314,M,01,0004*67
$GPHPD,0,0.000,58.35,-0.03,-12.60,31.5901812,120.7773969,2.807,13632507.610,24925591.345,2.807,0.000,0.000,0.000,0.000,0.000,0.000,0.000,15,15,4*42
$GPGGA,074903.20,3135.4109583,N,12046.6439854,E,4,15,1.5,2.8049,M,8.314,M,01,0004*68
$GPHPD,0,0.000,58.57,0.12,-12.61,31.5901826,120.7773998,2.805,13632506.712,24925592.901,2.805,0.000,0.000,0.000,0.000,0.000,0.000,0.000,15,15,4*68
$GPGGA,074903.40,3135.4110451,N,12046.6441578,E,4,15,1.5,2.8058,M,8.314,M,01,0004*64
$GPHPD,0,0.000,58.42,-0.29,-12.60,31.5901841,120.7774026,2.806,13632505.826,24925594.475,2.806,0.000,0.000,0.000,0.000,0.000,0.000,0.000,15,15,4*41
$GPGGA,074903.60,3135.4111335,N,12046.6443281,E,4,15,1.5,2.8003,M,8.314,M,00,0004*6E
$GPHPD,0,0.000,58.53,-0.04,-12.61,31.5901856,120.7774055,2.800,13632504.912,24925596.014,2.800,0.000,0.000,0.000,0.000,0.000,0.000,0.000,15,15,4*4B
$GPGGA,074903.80,3135.4112220,N,12046.6444987,E,4,15,1.5,2.8037,M,8.314,M,00,0004*6B
$GPHPD,0,0.000,58.64,0.11,-12.62,31.5901870,120.7774083,2.804,13632503.997,24925597.556,2.804,0.000,0.000,0.000,0.000,0.000,0.000,0.000,15,15,4*62
$GPGGA,074904.00,3135.4113082,N,12046.6446721,E,4,15,1.5,2.8051,M,8.314,M,01,0004*6E
$GPHPD,0,0.000,58.61,-0.31,-12.65,31.5901885,120.7774112,2.805,13632503.121,24925599.146,2.805,0.000,0.000,0.000,0.000,0.000,0.000,0.000,15,15,4*42
$GPGGA,074904.20,3135.4113955,N,12046.6448439,E,4,15,1.6,2.7826,M,8.314,M,01,0004*6F
$GPHPD,0,0.000,58.67,-0.46,-12.65,31.5901899,120.7774141,2.783,13632502.226,24925600.709,2.783,0.000,0.000,0.000,0.000,0.000,0.000,0.000,15,15,4*44
$GPGGA,074904.40,3135.4114815,N,12046.6450134,E,4,15,1.6,2.7985,M,8.314,M,01,0004*62
$GPHPD,0,0.000,58.67,0.01,-12.66,31.5901914,120.7774169,2.799,13632501.345,24925602.253,2.799,0.000,0.000,0.000,0.000,0.000,0.000,0.000,15,15,4*68
$GPGGA,074904.60,3135.4115696,N,12046.6451863,E,4,15,1.5,2.7995,M,8.314,M,00,0004*6D
$GPHPD,0,0.000,58.77,-0.63,-12.66,31.5901928,120.7774198,2.800,13632500.441,24925603.825,2.800,0.000,0.000,0.000,0.000,0.000,0.000,0.000,15,15,4*49
$GPGGA,074904.80,3135.4116555,N,12046.6453568,E,4,15,1.5,2.7926,M,8.314,M,00,0004*60
$GPHPD,0,0.000,58.66,-0.94,-12.66,31.5901943,120.7774226,2.793,13632499.563,24925605.381,2.793,0.000,0.000,0.000,0.000,0.000,0.000,0.000,15,15,4*49
$GPGGA,074905.00,3135.4117426,N,12046.6455281,E,4,15,1.5,2.7836,M,8.314,M,01,0004*6A
$GPHPD,0,0.000,58.78,-0.49,-12.65,31.5901957,120.7774255,2.784,13632498.670,24925606.940,2.784,0.000,0.000,0.000,0.000,0.000,0.000,0.000,15,15,4*40
$GPGGA,074905.20,3135.4118257,N,12046.6456993,E,4,15,1.5,2.7822,M,8.314,M,01,0004*69
$GPHPD,0,0.000,58.79,-0.39,-12.66,31.5901971,120.7774283,2.782,13632497.833,24925608.521,2.782,0.000,0.000,0.000,0.000,0.000,0.000,0.000,15,15,4*49
$GPGGA,074905.40,3135.4119122,N,12046.6458702,E,4,15,1.5,2.7787,M,8.315,M,01,0004*66
$GPHPD,0,0.000,58.90,-0.19,-12.64,31.5901985,120.7774312,2.779,13632496.948,24925610.078,2.779,0.000,0.000,0.000,0.000,0.000,0.000,0.000,15,15,4*40
$GPGGA,074905.60,3135.4119980,N,12046.6460415,E,4,15,1.5,2.7751,M,8.315,M,00,0004*60
$GPHPD,0,0.000,58.83,0.13,-12.64,31.5902000,120.7774340,2.775,13632496.073,24925611.645,2.775,0.000,0.000,0.000,0.000,0.000,0.000,0.000,15,15,4*6D
$GPGGA,074905.80,3135.4120835,N,12046.6462102,E,4,15,1.5,2.7834,M,8.315,M,00,0004*66
$GPHPD,0,0.000,58.93,0.12,-12.63,31.5902014,120.7774368,2.783,13632495.197,24925613.182,2.783,0.000,0.000,0.000,0.000,0.000,0.000,0.000,15,15,4*63
$GPGGA,074906.00,3135.4121684,N,12046.6463823,E,4,15,1.5,2.7824,M,8.315,M,01,0004*63
$GPHPD,0,0.000,58.88,0.18,-12.63,31.5902028,120.7774397,2.782,13632494.337,24925614.763,2.782,0.000,0.000,0.000,0.000,0.000,0.000,0.000,15,15,4*6B
$GPGGA,074906.20,3135.4122527,N,12046.6465508,E,4,15,1.5,2.7790,M,8.315,M,01,0004*6A
$GPHPD,0,0.000,58.76,-0.04,-12.63,31.5902042,120.7774425,2.779,13632493.478,24925616.304,2.779,0.000,0.000,0.000,0.000,0.000,0.000,0.000,15,15,4*44
$GPGGA,074906.40,3135.4123372,N,12046.6467202,E,4,15,1.5,2.7907,M,8.315,M,01,0004*64
$GPHPD,0,0.000,58.74,0.66,-12.63,31.5902056,120.7774453,2.791,13632492.618,24925617.855,2.791,0.000,0.000,0.000,0.000,0.000,0.000,0.000,15,15,4*60
$GPGGA,074906.60,3135.4124227,N,12046.6468876,E,4,15,1.5,2.7865,M,8.315,M,00,0004*62
$GPHPD,0,0.000,58.69,0.34,-12.63,31.5902070,120.7774481,2.787,13632491.739,24925619.376,2.787,0.000,0.000,0.000,0.000,0.000,0.000,0.000,15,15,4*65
$GPGGA,074906.80,3135.4125089,N,12046.6470591,E,4,15,1.5,2.7882,M,8.315,M,00,0004*6F
$GPHPD,0,0.000,58.78,0.02,-12.61,31.5902085,120.7774510,2.788,13632490.859,24925620.943,2.788,0.000,0.000,0.000,0.000,0.000,0.000,0.000,15,15,4*6F
$GPGGA,074907.00,3135.4125936,N,12046.6472271,E,4,15,1.5,2.7951,M,8.315,M,01,0004*6E
$GPHPD,0,0.000,58.64,-0.23,-12.63,31.5902099,120.7774538,2.795,13632489.994,24925622.476,2.795,0.000,0.000,0.000,0.000,0.000,0.000,0.000,15,15,4*48
$GPGGA,074907.20,3135.4126796,N,12046.6473948,E,4,15,1.5,2.7975,M,8.315,M,01,0004*6D
$GPHPD,0,0.000,58.99,-0.23,-12.63,31.5902113,120.7774566,2.798,13632489.109,24925623.997,2.798,0.000,0.000,0.000,0.000,0.000,0.000,0.000,15,15,4*4D
$GPGGA,074907.40,3135.4127628,N,12046.6475648,E,4,15,1.5,2.7985,M,8.315,M,01,0004*68
$GPHPD,0,0.000,58.87,-0.76,-12.64,31.5902127,120.7774594,2.799,13632488.268,24925625.563,2.799,0.000,0.000,0.000,0.000,0.000,0.000,0.000,15,15,4*4B
$GPGGA,074907.60,3135.4128488,N,12046.6477361,E,4,14,1.6,2.7750,M,8.315,M,00,0004*64
$GPHPD,0,0.000,58.77,-0.30,-12.66,31.5902141,120.7774623,2.775,13632487.391,24925627.129,2.775,0.000,0.000,0.000,0.000,0.000,0.000,0.000,14,15,4*4A
$GPGGA,074907.80,3135.4129338,N,12046.6479029,E,4,15,1.6,2.7720,M,8.315,M,00,0004*60
$GPHPD,0,0.000,58.54,-0.74,-12.67,31.5902156,120.7774650,2.772,13632486.518,24925628.645,2.772,0.000,0.000,0.000,0.000,0.000,0.000,0.000,15,15,4*4D
$GPGGA,074908.00,3135.4130195,N,12046.6480743,E,4,14,1.6,2.7777,M,8.315,M,01,0004*65
$GPHPD,0,0.000,58.42,-0.83,-12.69,31.5902170,120.7774679,2.778,13632485.645,24925630.213,2.778,0.000,0.000,0.000,0.000,0.000,0.000,0.000,14,14,4*45
$GPGGA,074908.20,3135.4131047,N,12046.6482413,E,4,14,1.6,2.7794,M,8.315,M,01,0004*61
$GPHPD,0,0.000,58.34,0.23,-12.70,31.5902184,120.7774707,2.779,13632484.771,24925631.731,2.779,0.000,0.000,0.000,0.000,0.000,0.000,0.000,14,14,4*6B
$GPGGA,074908.40,3135.4131942,N,12046.6484084,E,4,14,1.6,2.7837,M,8.315,M,01,0004*61
$GPHPD,0,0.000,58.55,-0.47,-12.70,31.5902199,120.7774735,2.784,13632483.835,24925633.226,2.784,0.000,0.000,0.000,0.000,0.000,0.000,0.000,14,14,4*47
$GPGGA,074908.60,3135.4132812,N,12046.6485732,E,4,14,1.6,2.7816,M,8.315,M,00,0004*6D
$GPHPD,0,0.000,58.47,-0.31,-12.71,31.5902214,120.7774762,2.782,13632482.930,24925634.707,2.782,0.000,0.000,0.000,0.000,0.000,0.000,0.000,14,14,4*44
$GPGGA,074908.80,3135.4133665,N,12046.6487411,E,4,14,1.6,2.7752,M,8.315,M,00,0004*63
$GPHPD,0,0.000,58.40,-0.07,-12.72,31.5902228,120.7774790,2.775,13632482.055,24925636.235,2.775,0.000,0.000,0.000,0.000,0.000,0.000,0.000,14,14,4*4B
$GPGGA,074909.00,3135.4134524,N,12046.6489091,E,4,14,1.6,2.7770,M,8.315,M,01,0004*68
$GPHPD,0,0.000,58.42,0.08,-12.72,31.5902242,120.7774818,2.777,13632481.173,24925637.761,2.777,0.000,0.000,0.000,0.000,0.000,0.000,0.000,14,14,4*6B
$GPGGA,074909.20,3135.4135414,N,12046.6490722,E,4,15,1.6,2.7687,M,8.315,M,01,0004*66
$GPHPD,0,0.000,58.02,-0.07,-12.73,31.5902257,120.7774845,2.769,13632480.236,24925639.210,2.769,0.000,0.000,0.000,0.000,0.000,0.000,0.000,15,15,4*4E
$GPGGA,074909.40,3135.4136260,N,12046.6492476,E,4,15,1.6,2.7704,M,8.315,M,01,0004*6C
$GPHPD,0,0.000,57.80,0.85,-12.72,31.5902271,120.7774875,2.770,13632479.386,24925640.833,2.770,0.000,0.000,0.000,0.000,0.000,0.000,0.000,15,15,4*63
$GPGGA,074909.60,3135.4137149,N,12046.6494164,E,4,14,1.6,2.7818,M,8.315,M,00,0004*65
$GPHPD,0,0.000,57.60,-0.06,-12.72,31.5902286,120.7774903,2.782,13632478.463,24925642.351,2.782,0.000,0.000,0.000,0.000,0.000,0.000,0.000,14,14,4*43
$GPGGA,074909.80,3135.4138006,N,12046.6495852,E,4,14,1.6,2.7690,M,8.315,M,00,0004*6D
$GPHPD,0,0.000,57.72,-0.42,-12.72,31.5902300,120.7774931,2.769,13632477.584,24925643.888,2.769,0.000,0.000,0.000,0.000,0.000,0.000,0.000,14,14,4*47
$GPGGA,074910.00,3135.4138926,N,12046.6497506,E,4,13,1.6,2.7633,M,8.315,M,01,0004*67
$GPHPD,0,0.000,57.19,-0.19,-12.73,31.5902315,120.7774958,2.763,13632476.609,24925645.347,2.763,0.000,0.000,0.000,0.000,0.000,0.000,0.000,13,14,4*40
$GPGGA,074910.20,3135.4139793,N,12046.6499160,E,4,14,1.6,2.7856,M,8.315,M,01,0004*64
$GPHPD,0,0.000,57.50,-0.04,-12.74,31.5902330,120.7774986,2.786,13632475.710,24925646.837,2.786,0.000,0.000,0.000,0.000,0.000,0.000,0.000,14,14,4*40
$GPGGA,074910.40,3135.4140684,N,12046.6500802,E,4,14,1.6,2.7623,M,8.315,M,01,0004*6B
$GPHPD,0,0.000,57.32,-0.79,-12.73,31.5902345,120.7775013,2.762,13632474.774,24925648.298,2.762,0.000,0.000,0.000,0.000,0.000,0.000,0.000,14,14,4*4D
$GPGGA,074910.60,3135.4141573,N,12046.6502502,E,4,14,1.6,2.7655,M,8.315,M,00,0004*6C
$GPHPD,0,0.000,57.39,0.20,-12.75,31.5902360,120.7775042,2.766,13632473.853,24925649.831,2.766,0.000,0.000,0.000,0.000,0.000,0.000,0.000,14,14,4*67
$GPGGA,074910.80,3135.4142478,N,12046.6504137,E,4,14,1.6,2.7608,M,8.315,M,00,0004*67
$GPHPD,0,0.000,57.13,-0.07,-12.76,31.5902375,120.7775069,2.761,13632472.895,24925651.276,2.761,0.000,0.000,0.000,0.000,0.000,0.000,0.000,14,14,4*42
$GPGGA,074911.00,3135.4143359,N,12046.6505810,E,4,14,1.6,2.7629,M,8.315,M,01,0004*64
$GPHPD,0,0.000,57.64,-0.04,-12.77,31.5902389,120.7775097,2.763,13632471.980,24925652.781,2.763,0.000,0.000,0.000,0.000,0.000,0.000,0.000,14,14,4*4A
$GPGGA,074911.20,3135.4144249,N,12046.6507475,E,4,14,1.6,2.7671,M,8.315,M,01,0004*61
$GPHPD,0,0.000,57.67,-0.13,-12.77,31.5902404,120.7775125,2.767,13632471.050,24925654.270,2.767,0.000,0.000,0.000,0.000,0.000,0.000,0.000,14,14,4*4C
$GPGGA,074911.40,3135.4145136,N,12046.6509127,E,4,14,1.6,2.7715,M,8.315,M,01,0004*62
$GPHPD,0,0.000,57.71,-0.63,-12.79,31.5902419,120.7775152,2.772,13632470.122,24925655.746,2.772,0.000,0.000,0.000,0.000,0.000,0.000,0.000,14,14,4*4A
$GPGGA,074911.60,3135.4146025,N,12046.6510798,E,4,15,1.5,2.7644,M,8.315,M,00,0004*6C
$GPHPD,0,0.000,57.48,-0.96,-12.78,31.5902434,120.7775180,2.764,13632469.195,24925657.244,2.764,0.000,0.000,0.000,0.000,0.000,0.000,0.000,15,15,4*4A
$GPGGA,074911.80,3135.4146911,N,12046.6512511,E,4,15,1.5,2.7670,M,8.315,M,00,0004*6A
$GPHPD,0,0.000,57.54,-0.05,-12.78,31.5902449,120.7775209,2.767,13632468.280,24925658.794,2.767,0.000,0.000,0.000,0.000,0.000,0.000,0.000,15,15,4*44
$GPGGA,074912.00,3135.4147815,N,12046.6514207,E,4,15,1.5,2.7616,M,8.315,M,01,0004*62
$GPHPD,0,0.000,57.37,-0.63,-12.78,31.5902464,120.7775237,2.762,13632467.336,24925660.313,2.762,0.000,0.000,0.000,0.000,0.000,0.000,0.000,15,15,4*40
$GPGGA,074912.20,3135.4148709,N,12046.6515892,E,4,15,1.5,2.7543,M,8.315,M,01,0004*69
$GPHPD,0,0.000,57.45,-0.58,-12.79,31.5902478,120.7775265,2.754,13632466.405,24925661.825,2.754,0.000,0.000,0.000,0.000,0.000,0.000,0.000,15,15,4*4F
$GPGGA,074912.40,3135.4149627,N,12046.6517561,E,4,15,1.5,2.7480,M,8.315,M,01,0004*6E
$GPHPD,0,0.000,57.09,-0.43,-12.77,31.5902494,120.7775293,2.748,13632465.436,24925663.303,2.748,0.000,0.000,0.000,0.000,0.000,0.000,0.000,15,14,4*47
$GPGGA,074912.60,3135.4150532,N,12046.6519226,E,4,15,1.5,2.7636,M,8.315,M,01,0004*66
$GPHPD,0,0.000,57.41,0.30,-12.76,31.5902509,120.7775320,2.764,13632464.485,24925664.784,2.764,0.000,0.000,0.000,0.000,0.000,0.000,0.000,15,14,4*6A
$GPGGA,074912.80,3135.4151413,N,12046.6520894,E,4,15,1.5,2.7658,M,8.315,M,01,0004*6A
$GPHPD,0,0.000,57.38,-0.28,-12.74,31.5902524,120.7775348,2.766,13632463.568,24925666.283,2.766,0.000,0.000,0.000,0.000,0.000,0.000,0.000,15,14,4*46
$GPGGA,074913.00,3135.4152282,N,12046.6522624,E,4,15,1.5,2.7543,M,8.315,M,02,0004*63
$GPHPD,0,0.000,56.98,-1.01,-12.74,31.5902538,120.7775377,2.754,13632462.681,24925667.864,2.754,0.000,0.000,0.000,0.000,0.000,0.000,0.000,15,14,4*41
$GPGGA,074913.20,3135.4153218,N,12046.6524252,E,4,15,1.5,2.7563,M,8.315,M,02,0004*62
$GPHPD,0,0.000,56.87,-0.27,-12.72,31.5902554,120.7775404,2.756,13632461.679,24925669.282,2.756,0.000,0.000,0.000,0.000,0.000,0.000,0.000,15,14,4*4D
$GPGGA,074913.40,3135.4154103,N,12046.6525957,E,4,16,1.4,2.7647,M,8.315,M,02,0004*62
$GPHPD,0,0.000,56.98,-0.30,-12.75,31.5902568,120.7775433,2.765,13632460.764,24925670.823,2.765,0.000,0.000,0.000,0.000,0.000,0.000,0.000,16,15,4*4E
$GPGGA,074913.60,3135.4155010,N,12046.6527626,E,4,16,1.4,2.7740,M,8.315,M,00,0004*6D
$GPHPD,0,0.000,56.97,-0.20,-12.76,31.5902584,120.7775460,2.774,13632459.811,24925672.308,2.774,0.000,0.000,0.000,0.000,0.000,0.000,0.000,16,15,4*40
$GPGGA,074913.80,3135.4155932,N,12046.6529294,E,4,16,1.5,2.7382,M,8.315,M,00,0004*62
$GPHPD,0,0.000,57.06,0.11,-12.75,31.5902599,120.7775488,2.738,13632458.836,24925673.783,2.738,0.000,0.000,0.000,0.000,0.000,0.000,0.000,16,15,4*6D
$GPGGA,074914.00,3135.4156855,N,12046.6530943,E,4,16,1.4,2.7643,M,8.315,M,01,0004*6F
$GPHPD,0,0.000,57.28,0.31,-12.75,31.5902614,120.7775516,2.764,13632457.856,24925675.234,2.764,0.000,0.000,0.000,0.000,0.000,0.000,0.000,16,15,4*65
$GPGGA,074914.20,3135.4157758,N,12046.6532615,E,4,16,1.5,2.7468,M,8.315,M,01,0004*6A
$GPHPD,0,0.000,57.46,-0.24,-12.77,31.5902629,120.7775544,2.747,13632456.909,24925676.725,2.747,0.000,0.000,0.000,0.000,0.000,0.000,0.000,16,15,4*43
$GPGGA,074914.40,3135.4158652,N,12046.6534372,E,4,16,1.5,2.7414,M,8.315,M,01,0004*61
$GPHPD,0,0.000,57.56,-0.85,-12.78,31.5902644,120.7775573,2.741,13632455.992,24925678.323,2.741,0.000,0.000,0.000,0.000,0.000,0.000,0.000,16,15,4*44
$GPGGA,074914.60,3135.4159574,N,12046.6536059,E,4,15,1.5,2.7621,M,8.315,M,00,0004*6B
$GPHPD,0,0.000,57.40,-0.99,-12.76,31.5902660,120.7775601,2.762,13632455.021,24925679.821,2.762,0.000,0.000,0.000,0.000,0.000,0.000,0.000,15,14,4*4B
$GPGGA,074914.80,3135.4160485,N,12046.6537748,E,4,15,1.5,2.7587,M,8.315,M,00,0004*69
$GPHPD,0,0.000,57.21,-0.81,-12.76,31.5902675,120.7775629,2.759,13632454.066,24925681.328,2.759,0.000,0.000,0.000,0.000,0.000,0.000,0.000,15,14,4*4C
$GPGGA,074915.00,3135.4161385,N,12046.6539444,E,4,15,1.5,2.7537,M,8.315,M,01,0004*6D
$GPHPD,0,0.000,57.03,-0.70,-12.76,31.5902690,120.7775657,2.754,13632453.128,24925682.849,2.754,0.000,0.000,0.000,0.000,0.000,0.000,0.000,15,14,4*43
$GPGGA,074915.20,3135.4162315,N,12046.6541143,E,4,15,1.5,2.7418,M,8.315,M,01,0004*64
$GPHPD,0,0.000,56.79,-0.12,-12.75,31.5902705,120.7775686,2.742,13632452.148,24925684.357,2.742,0.000,0.000,0.000,0.000,0.000,0.000,0.000,15,14,4*4C
$GPGGA,074915.40,3135.4163229,N,12046.6542819,E,4,15,1.5,2.7515,M,8.315,M,01,0004*64
$GPHPD,0,0.000,56.64,0.32,-12.74,31.5902720,120.7775714,2.752,13632451.186,24925685.846,2.752,0.000,0.000,0.000,0.000,0.000,0.000,0.000,15,15,4*69
$GPGGA,074915.60,3135.4164180,N,12046.6544526,E,4,15,1.4,2.7514,M,8.315,M,00,0004*67
$GPHPD,0,0.000,56.69,0.17,-12.73,31.5902736,120.7775742,2.751,13632450.178,24925687.351,2.751,0.000,0.000,0.000,0.000,0.000,0.000,0.000,15,15,4*6F
$GPGGA,074915.80,3135.4165088,N,12046.6546236,E,4,15,1.4,2.7393,M,8.315,M,00,0004*6C
$GPHPD,0,0.000,56.67,0.33,-12.72,31.5902751,120.7775771,2.739,13632449.232,24925688.884,2.739,0.000,0.000,0.000,0.000,0.000,0.000,0.000,15,15,4*6E
$GPGGA,074916.00,3135.4166031,N,12046.6547878,E,4,15,1.4,2.7579,M,8.315,M,01,0004*64
$GPHPD,0,0.000,56.70,0.63,-12.71,31.5902767,120.7775798,2.758,13632448.222,24925690.316,2.758,0.000,0.000,0.000,0.000,0.000,0.000,0.000,15,15,4*65
$GPGGA,074916.20,3135.4166973,N,12046.6549555,E,4,15,1.4,2.7506,M,8.315,M,01,0004*6D
$GPHPD,0,0.000,56.60,0.11,-12.69,31.5902783,120.7775826,2.751,13632447.221,24925691.790,2.751,0.000,0.000,0.000,0.000,0.000,0.000,0.000,15,15,4*6F
$GPGGA,074916.40,3135.4167891,N,12046.6551264,E,4,15,1.4,2.7495,M,8.315,M,01,0004*60
$GPHPD,0,0.000,56.82,0.33,-12.71,31.5902798,120.7775854,2.750,13632446.260,24925693.316,2.750,0.000,0.000,0.000,0.000,0.000,0.000,0.000,15,15,4*69
$GPGGA,074916.60,3135.4168855,N,12046.6552959,E,4,15,1.4,2.7497,M,8.315,M,00,0004*60
$GPHPD,0,0.000,56.66,-0.09,-12.70,31.5902814,120.7775883,2.750,13632445.231,24925694.799,2.750,0.000,0.000,0.000,0.000,0.000,0.000,0.000,15,15,4*44
$GPGGA,074916.80,3135.4169780,N,12046.6554640,E,4,15,1.4,2.7636,M,8.315,M,00,0004*60
$GPHPD,0,0.000,56.72,-0.22,-12.70,31.5902830,120.7775911,2.764,13632444.254,24925696.288,2.764,0.000,0.000,0.000,0.000,0.000,0.000,0.000,15,15,4*41
$GPGGA,074917.00,3135.4170733,N,12046.6556326,E,4,15,1.4,2.7580,M,8.315,M,01,0004*61
$GPHPD,0,0.000,56.75,-0.94,-12.68,31.5902846,120.7775939,2.758,13632443.239,24925697.767,2.758,0.000,0.000,0.000,0.000,0.000,0.000,0.000,15,15,4*40
$GPGGA,074917.20,3135.4171635,N,12046.6558021,E,4,15,1.4,2.7563,M,8.315,M,01,0004*62
$GPHPD,0,0.000,56.82,-0.78,-12.67,31.5902861,120.7775967,2.756,13632442.298,24925699.286,2.756,0.000,0.000,0.000,0.000,0.000,0.000,0.000,15,15,4*45
$GPGGA,074917.40,3135.4172593,N,12046.6559737,E,4,15,1.4,2.7426,M,8.315,M,01,0004*69
$GPHPD,0,0.000,56.53,-0.74,-12.66,31.5902877,120.7775996,2.743,13632441.282,24925700.797,2.743,0.000,0.000,0.000,0.000,0.000,0.000,0.000,15,15,4*41
$GPGGA,074917.60,3135.4173509,N,12046.6561441,E,4,15,1.4,2.7480,M,8.315,M,00,0004*6D
$GPHPD,0,0.000,56.71,-0.22,-12.64,31.5902892,120.7776024,2.748,13632440.323,24925702.319,2.748,0.000,0.000,0.000,0.000,0.000,0.000,0.000,15,15,4*43
$GPGGA,074917.80,3135.4174431,N,12046.6563133,E,4,15,1.4,2.7347,M,8.315,M,00,0004*60
$GPHPD,0,0.000,56.40,-0.50,-12.63,31.5902907,120.7776052,2.735,13632439.353,24925703.823,2.735,0.000,0.000,0.000,0.000,0.000,0.000,0.000,15,15,4*45
$GPGGA,074918.00,3135.4175401,N,12046.6564834,E,4,15,1.4,2.7362,M,8.315,M,01,0004*6A
$GPHPD,0,0.000,56.34,0.05,-12.63,31.5902923,120.7776081,2.736,13632438.317,24925705.310,2.736,0.000,0.000,0.000,0.000,0.000,0.000,0.000,15,15,4*6F
$GPGGA,074918.20,3135.4176340,N,12046.6566523,E,4,15,1.4,2.7312,M,8.315,M,01,0004*67
$GPHPD,0,0.000,56.33,-0.08,-12.61,31.5902939,120.7776109,2.731,13632437.322,24925706.800,2.731,0.000,0.000,0.000,0.000,0.000,0.000,0.000,15,15,4*40
$GPGGA,074918.40,3135.4177308,N,12046.6568217,E,4,15,1.4,2.7443,M,8.315,M,01,0004*61
$GPHPD,0,0.000,56.07,-0.22,-12.60,31.5902955,120.7776137,2.744,13632436.287,24925708.279,2.744,0.000,0.000,0.000,0.000,0.000,0.000,0.000,15,15,4*4C
$GPGGA,074918.60,3135.4178286,N,12046.6569909,E,4,15,1.4,2.7369,M,8.315,M,00,0004*60
$GPHPD,0,0.000,55.97,-0.63,-12.60,31.5902971,120.7776165,2.737,13632435.237,24925709.751,2.737,0.000,0.000,0.000,0.000,0.000,0.000,0.000,15,15,4*44
$GPGGA,074918.80,3135.4179238,N,12046.6571564,E,4,15,1.4,2.7453,M,8.315,M,00,0004*6A
$GPHPD,0,0.000,55.79,0.31,-12.60,31.5902987,120.7776193,2.745,13632434.217,24925711.192,2.745,0.000,0.000,0.000,0.000,0.000,0.000,0.000,15,15,4*6D
$GPGGA,074919.00,3135.4180217,N,12046.6573253,E,4,15,1.4,2.7321,M,8.315,M,01,0004*6A
$GPHPD,0,0.000,55.41,-0.53,-12.60,31.5903004,120.7776221,2.732,13632433.166,24925712.659,2.732,0.000,0.000,0.000,0.000,0.000,0.000,0.000,15,15,4*47
$GPGGA,074919.20,3135.4181173,N,12046.6574928,E,4,15,1.4,2.7336,M,8.315,M,01,0004*6E
$GPHPD,0,0.000,55.21,-0.16,-12.59,31.5903020,120.7776249,2.734,13632432.144,24925714.123,2.734,0.000,0.000,0.000,0.000,0.000,0.000,0.000,15,15,4*4F
$GPGGA,074919.40,3135.4182154,N,12046.6576623,E,4,16,1.4,2.7260,M,8.315,M,01,0004*69
$GPHPD,0,0.000,55.12,-0.11,-12.59,31.5903036,120.7776277,2.726,13632431.091,24925715.596,2.726,0.000,0.000,0.000,0.000,0.000,0.000,0.000,16,16,4*43
$GPGGA,074919.60,3135.4183136,N,12046.6578273,E,4,16,1.4,2.7432,M,8.315,M,00,0004*61
$GPHPD,0,0.000,54.67,0.06,-12.59,31.5903052,120.7776305,2.743,13632430.027,24925717.014,2.743,0.000,0.000,0.000,0.000,0.000,0.000,0.000,16,16,4*6C
$GPGGA,074919.80,3135.4184138,N,12046.6579940,E,4,16,1.4,2.7295,M,8.315,M,00,0004*67
$GPHPD,0,0.000,54.55,-0.32,-12.57,31.5903069,120.7776332,2.730,13632428.938,24925718.441,2.730,0.000,0.000,0.000,0.000,0.000,0.000,0.000,16,16,4*40
$GPGGA,074920.00,3135.4185141,N,12046.6581613,E,4,16,1.4,2.7263,M,8.315,M,01,0004*6C
$GPHPD,0,0.000,54.49,0.10,-12.56,31.5903086,120.7776360,2.726,13632427.850,24925719.875,2.726,0.000,0.000,0.000,0.000,0.000,0.000,0.000,16,16,4*6D
$GPGGA,074920.20,3135.4186145,N,12046.6583247,E,4,16,1.4,2.7358,M,8.315,M,01,0004*67
$GPHPD,0,0.000,54.27,0.27,-12.55,31.5903102,120.7776387,2.736,13632426.751,24925721.261,2.736,0.000,0.000,0.000,0.000,0.000,0.000,0.000,16,16,4*6D
$GPGGA,074920.40,3135.4187181,N,12046.6584864,E,4,16,1.4,2.7357,M,8.315,M,01,0004*6B
$GPHPD,0,0.000,53.85,-0.39,-12.53,31.5903120,120.7776414,2.736,13632425.604,24925722.608,2.736,0.000,0.000,0.000,0.000,0.000,0.000,0.000,16,16,4*41
$GPGGA,074920.60,3135.4188198,N,12046.6586491,E,4,16,1.4,2.7366,M,8.315,M,00,0004*69
$GPHPD,0,0.000,53.71,-0.19,-12.52,31.5903137,120.7776442,2.737,13632424.486,24925723.978,2.737,0.000,0.000,0.000,0.000,0.000,0.000,0.000,16,16,4*4C
$GPGGA,074920.80,3135.4189219,N,12046.6588129,E,4,16,1.4,2.7338,M,8.315,M,00,0004*6F
$GPHPD,0,0.000,53.28,-0.26,-12.51,31.5903154,120.7776469,2.734,13632423.365,24925725.359,2.734,0.000,0.000,0.000,0.000,0.000,0.000,0.000,16,16,4*41
$GPGGA,074921.00,3135.4190264,N,12046.6589748,E,4,16,1.4,2.7304,M,8.315,M,01,0004*6A
$GPHPD,0,0.000,52.96,-0.50,-12.50,31.5903171,120.7776496,2.730,13632422.205,24925726.703,2.730,0.000,0.000,0.000,0.000,0.000,0.000,0.000,16,16,4*4C
$GPGGA,074921.20,3135.4191313,N,12046.6591330,E,4,16,1.4,2.7260,M,8.315,M,01,0004*69
$GPHPD,0,0.000,52.36,-0.58,-12.50,31.5903189,120.7776522,2.726,13632421.033,24925728.000,2.726,0.000,0.000,0.000,0.000,0.000,0.000,0.000,16,16,4*49
$GPGGA,074921.40,3135.4192353,N,12046.6592896,E,4,17,1.4,2.7247,M,8.315,M,01,0004*68
$GPHPD,0,0.000,52.29,-0.41,-12.50,31.5903206,120.7776548,2.725,13632419.870,24925729.284,2.725,0.000,0.000,0.000,0.000,0.000,0.000,0.000,17,16,4*4D
$GPGGA,074921.60,3135.4193401,N,12046.6594489,E,4,17,1.4,2.7348,M,8.315,M,01,0004*61
$GPHPD,0,0.000,52.04,-0.54,-12.50,31.5903223,120.7776575,2.735,13632418.701,24925730.595,2.735,0.000,0.000,0.000,0.000,0.000,0.000,0.000,17,16,4*48
$GPGGA,074921.80,3135.4194481,N,12046.6596055,E,4,17,1.4,2.7275,M,8.315,M,01,0004*68
$GPHPD,0,0.000,51.57,-1.05,-12.49,31.5903241,120.7776601,2.728,13632417.481,24925731.855,2.728,0.000,0.000,0.000,0.000,0.000,0.000,0.000,17,16,4*40
$GPGGA,074922.00,3135.4195545,N,12046.6597587,E,4,17,1.4,2.7260,M,8.315,M,02,0004*67
$GPHPD,0,0.000,51.42,-0.61,-12.47,31.5903259,120.7776626,2.726,13632416.277,24925733.083,2.726,0.000,0.000,0.000,0.000,0.000,0.000,0.000,17,16,4*4A
$GPGGA,074922.20,3135.4196605,N,12046.6599183,E,4,17,1.4,2.7177,M,8.315,M,02,0004*6A
$GPHPD,0,0.000,51.13,-0.66,-12.45,31.5903277,120.7776653,2.718,13632415.091,24925734.390,2.718,0.000,0.000,0.000,0.000,0.000,0.000,0.000,17,16,4*4A
$GPGGA,074922.40,3135.4197673,N,12046.6600758,E,4,17,1.4,2.7149,M,8.315,M,02,0004*62
$GPHPD,0,0.000,50.91,-0.28,-12.44,31.5903295,120.7776679,2.715,13632413.890,24925735.668,2.715,0.000,0.000,0.000,0.000,0.000,0.000,0.000,17,16,4*42
$GPGGA,074922.60,3135.4198722,N,12046.6602313,E,4,17,1.4,2.7131,M,8.315,M,02,0004*6C
$GPHPD,0,0.000,51.14,0.04,-12.44,31.5903312,120.7776705,2.713,13632412.712,24925736.933,2.713,0.000,0.000,0.000,0.000,0.000,0.000,0.000,17,16,4*6F
$GPGGA,074922.80,3135.4199768,N,12046.6603852,E,4,17,1.4,2.7083,M,8.315,M,00,0004*68
$GPHPD,0,0.000,51.30,0.26,-12.43,31.5903329,120.7776731,2.708,13632411.535,24925738.180,2.708,0.000,0.000,0.000,0.000,0.000,0.000,0.000,17,16,4*6B
$GPGGA,074923.00,3135.4200808,N,12046.6605429,E,4,17,1.4,2.7123,M,8.315,M,01,0004*67
$GPHPD,0,0.000,51.46,-0.02,-12.43,31.5903347,120.7776757,2.712,13632410.374,24925739.476,2.712,0.000,0.000,0.000,0.000,0.000,0.000,0.000,17,16,4*46
$GPGGA,074923.20,3135.4201832,N,12046.6606983,E,4,17,1.4,2.7078,M,8.315,M,01,0004*6C
$GPHPD,0,0.000,51.80,0.67,-12.41,31.5903364,120.7776783,2.708,13632409.232,24925740.754,2.708,0.000,0.000,0.000,0.000,0.000,0.000,0.000,17,16,4*6E
$GPGGA,074923.40,3135.4202842,N,12046.6608578,E,4,17,1.4,2.7155,M,8.315,M,01,0004*66
$GPHPD,0,0.000,52.22,0.81,-12.41,31.5903381,120.7776810,2.716,13632408.117,24925742.090,2.716,0.000,0.000,0.000,0.000,0.000,0.000,0.000,17,16,4*6B
$GPGGA,074923.60,3135.4203827,N,12046.6610134,E,4,17,1.4,2.7231,M,8.315,M,00,0004*63
$GPHPD,0,0.000,52.75,0.83,-12.41,31.5903397,120.7776836,2.723,13632407.030,24925743.393,2.723,0.000,0.000,0.000,0.000,0.000,0.000,0.000,17,16,4*62
$GPGGA,074923.80,3135.4204803,N,12046.6611713,E,4,17,1.4,2.7015,M,8.315,M,00,0004*6A
$GPHPD,0,0.000,53.34,0.12,-12.42,31.5903413,120.7776862,2.702,13632405.961,24925744.729,2.702,0.000,0.000,0.000,0.000,0.000,0.000,0.000,17,16,4*6A
$GPGGA,074924.00,3135.4205749,N,12046.6613334,E,4,17,1.4,2.7172,M,8.315,M,01,0004*67
$GPHPD,0,0.000,54.02,0.39,-12.43,31.5903429,120.7776889,2.717,13632404.942,24925746.133,2.717,0.000,0.000,0.000,0.000,0.000,0.000,0.000,17,16,4*63
$GPGGA,074924.20,3135.4206696,N,12046.6614922,E,4,17,1.4,2.7192,M,8.315,M,01,0004*61
$GPHPD,0,0.000,54.57,0.03,-12.43,31.5903445,120.7776915,2.719,13632403.916,24925747.497,2.719,0.000,0.000,0.000,0.000,0.000,0.000,0.000,17,16,4*68
$GPGGA,074924.40,3135.4207609,N,12046.6616521,E,4,17,1.4,2.7239,M,8.315,M,01,0004*6F
$GPHPD,0,0.000,55.26,0.12,-12.45,31.5903460,120.7776942,2.724,13632402.940,24925748.894,2.724,0.000,0.000,0.000,0.000,0.000,0.000,0.000,17,16,4*6E
$GPGGA,074924.60,3135.4208499,N,12046.6618165,E,4,17,1.4,2.7301,M,8.315,M,01,0004*69
$GPHPD,0,0.000,55.91,0.10,-12.45,31.5903475,120.7776969,2.730,13632402.006,24925750.358,2.730,0.000,0.000,0.000,0.000,0.000,0.000,0.000,17,16,4*64
$GPGGA,074924.80,3135.4209374,N,12046.6619770,E,4,17,1.4,2.7190,M,8.315,M,01,0004*6B
$GPHPD,0,0.000,56.50,-0.12,-12.45,31.5903490,120.7776996,2.719,13632401.085,24925751.785,2.719,0.000,0.000,0.000,0.000,0.000,0.000,0.000,17,16,4*43
$GPGGA,074925.00,3135.4210247,N,12046.6621407,E,4,17,1.4,2.7253,M,8.315,M,02,0004*6C
$GPHPD,0,0.000,56.93,-0.13,-12.47,31.5903504,120.7777023,2.725,13632400.174,24925753.251,2.725,0.000,0.000,0.000,0.000,0.000,0.000,0.000,17,16,4*45
$GPGGA,074925.20,3135.4211098,N,12046.6623037,E,4,17,1.4,2.7285,M,8.315,M,02,0004*61
$GPHPD,0,0.000,57.55,-0.35,-12.49,31.5903518,120.7777051,2.729,13632399.292,24925754.721,2.729,0.000,0.000,0.000,0.000,0.000,0.000,0.000,17,16,4*45
$GPGGA,074925.40,3135.4211944,N,12046.6624669,E,4,17,1.4,2.7314,M,8.315,M,02,0004*6C
$GPHPD,0,0.000,58.09,-0.69,-12.51,31.5903532,120.7777078,2.731,13632398.418,24925756.197,2.731,0.000,0.000,0.000,0.000,0.000,0.000,0.000,17,16,4*4C
$GPGGA,074925.60,3135.4212779,N,12046.6626363,E,4,17,1.4,2.7170,M,8.315,M,02,0004*60
$GPHPD,0,0.000,58.39,-0.86,-12.51,31.5903546,120.7777106,2.717,13632397.572,24925757.754,2.717,0.000,0.000,0.000,0.000,0.000,0.000,0.000,17,16,4*4F
$GPGGA,074925.80,3135.4213600,N,12046.6627990,E,4,17,1.4,2.7217,M,8.315,M,00,0004*67
$GPHPD,0,0.000,58.52,-0.14,-12.51,31.5903560,120.7777133,2.722,13632396.733,24925759.238,2.722,0.000,0.000,0.000,0.000,0.000,0.000,0.000,17,16,4*4C
$GPGGA,074926.00,3135.4214451,N,12046.6629645,E,4,17,1.4,2.7153,M,8.316,M,01,0004*65
$GPHPD,0,0.000,58.57,-0.87,-12.52,31.5903574,120.7777161,2.715,13632395.857,24925760.738,2.715,0.000,0.000,0.000,0.000,0.000,0.000,0.000,17,16,4*43
$GPGGA,074926.20,3135.4215294,N,12046.6631314,E,4,17,1.4,2.6981,M,8.316,M,01,0004*67
$GPHPD,0,0.000,58.62,-0.66,-12.51,31.5903588,120.7777189,2.698,13632394.994,24925762.260,2.698,0.000,0.000,0.000,0.000,0.000,0.000,0.000,17,16,4*49
$GPGGA,074926.40,3135.4216124,N,12046.6632990,E,4,17,1.4,2.7180,M,8.316,M,01,0004*67
$GPHPD,0,0.000,58.67,-0.68,-12.50,31.5903602,120.7777217,2.718,13632394.152,24925763.798,2.718,0.000,0.000,0.000,0.000,0.000,0.000,0.000,17,16,4*47
$GPGGA,074926.60,3135.4216961,N,12046.6634637,E,4,17,1.4,2.7036,M,8.316,M,00,0004*65
$GPHPD,0,0.000,58.52,-0.85,-12.52,31.5903616,120.7777244,2.704,13632393.294,24925765.297,2.704,0.000,0.000,0.000,0.000,0.000,0.000,0.000,17,16,4*41
$GPGGA,074926.80,3135.4217798,N,12046.6636298,E,4,17,1.4,2.6971,M,8.316,M,00,0004*6A
$GPHPD,0,0.000,58.71,-0.17,-12.53,31.5903630,120.7777272,2.697,13632392.438,24925766.813,2.697,0.000,0.000,0.000,0.000,0.000,0.000,0.000,17,16,4*4F
$GPGGA,074927.00,3135.4218666,N,12046.6637983,E,4,17,1.4,2.6883,M,8.316,M,01,0004*61
$GPHPD,0,0.000,58.77,0.49,-12.51,31.5903644,120.7777300,2.688,13632391.544,24925768.340,2.688,0.000,0.000,0.000,0.000,0.000,0.000,0.000,17,16,4*60
$GPGGA,074927.20,3135.4219495,N,12046.6639635,E,4,17,1.4,2.6856,M,8.316,M,01,0004*68
$GPHPD,0,0.000,58.79,0.43,-12.51,31.5903658,120.7777327,2.686,13632390.698,24925769.850,2.686,0.000,0.000,0.000,0.000,0.000,0.000,0.000,17,16,4*64
$GPGGA,074927.40,3135.4220355,N,12046.6641331,E,4,17,1.4,2.6921,M,8.316,M,01,0004*60
$GPHPD,0,0.000,58.67,0.35,-12.51,31.5903673,120.7777356,2.692,13632389.817,24925771.394,2.692,0.000,0.000,0.000,0.000,0.000,0.000,0.000,17,17,4*6F
$GPGGA,074927.60,3135.4221200,N,12046.6643000,E,4,17,1.4,2.7010,M,8.316,M,00,0004*6A
$GPHPD,0,0.000,58.62,0.52,-12.51,31.5903687,120.7777383,2.701,13632388.952,24925772.915,2.701,0.000,0.000,0.000,0.000,0.000,0.000,0.000,17,17,4*69
$GPGGA,074927.80,3135.4222046,N,12046.6644674,E,4,17,1.4,2.7104,M,8.316,M,00,0004*61
$GPHPD,0,0.000,58.46,0.11,-12.50,31.5903701,120.7777411,2.710,13632388.086,24925774.441,2.710,0.000,0.000,0.000,0.000,0.000,0.000,0.000,17,17,4*60
$GPGGA,074928.00,3135.4222924,N,12046.6646342,E,4,17,1.4,2.7086,M,8.316,M,01,0004*63
$GPHPD,0,0.000,58.19,-0.74,-12.51,31.5903715,120.7777439,2.709,13632387.174,24925775.942,2.709,0.000,0.000,0.000,0.000,0.000,0.000,0.000,17,17,4*46
$GPGGA,074928.20,3135.4223786,N,12046.6648003,E,4,17,1.4,2.7033,M,8.316,M,01,0004*60
$GPHPD,0,0.000,58.11,0.09,-12.53,31.5903730,120.7777467,2.703,13632386.283,24925777.443,2.703,0.000,0.000,0.000,0.000,0.000,0.000,0.000,17,17,4*63
$GPGGA,074928.40,3135.4224711,N,12046.6649642,E,4,17,1.4,2.7315,M,8.316,M,01,0004*6A
$GPHPD,0,0.000,58.13,0.17,-12.53,31.5903745,120.7777494,2.732,13632385.298,24925778.881,2.732,0.000,0.000,0.000,0.000,0.000,0.000,0.000,17,17,4*64
$GPGGA,074928.60,3135.4225550,N,12046.6651347,E,4,17,1.4,2.7044,M,8.316,M,01,0004*60
$GPHPD,0,0.000,58.06,-1.00,-12.53,31.5903759,120.7777522,2.704,13632384.449,24925780.449,2.704,0.000,0.000,0.000,0.000,0.000,0.000,0.000,17,17,4*4F
$GPGGA,074928.80,3135.4226398,N,12046.6653065,E,4,17,1.4,2.6957,M,8.316,M,01,0004*64
$GPHPD,0,0.000,58.14,-0.89,-12.56,31.5903773,120.7777551,2.696,13632383.589,24925782.027,2.696,0.000,0.000,0.000,0.000,0.000,0.000,0.000,17,17,4*41
$GPGGA,074929.00,3135.4227308,N,12046.6654726,E,4,16,1.4,2.7001,M,8.316,M,02,0004*6B
$GPHPD,0,0.000,57.93,-1.22,-12.54,31.5903788,120.7777579,2.700,13632382.630,24925783.501,2.700,0.000,0.000,0.000,0.000,0.000,0.000,0.000,16,16,4*4D
$GPGGA,074929.20,3135.4228177,N,12046.6656436,E,4,16,1.4,2.7086,M,8.316,M,02,0004*63
$GPHPD,0,0.000,57.93,-0.98,-12.55,31.5903803,120.7777607,2.709,13632381.739,24925785.057,2.709,0.000,0.000,0.000,0.000,0.000,0.000,0.000,16,16,4*41
$GPGGA,074929.40,3135.4229058,N,12046.6658094,E,4,16,1.4,2.7007,M,8.316,M,02,0004*63
$GPHPD,0,0.000,57.81,-0.87,-12.57,31.5903818,120.7777635,2.701,13632380.821,24925786.544,2.701,0.000,0.000,0.000,0.000,0.000,0.000,0.000,16,16,4*46
$GPGGA,074929.60,3135.4229915,N,12046.6659794,E,4,16,1.4,2.7026,M,8.316,M,02,0004*64
