,18,1.2,3.1862,M,8.321,M,01,0004*6C
$GPHPD,0,0.000,58.42,-0.31,-11.35,31.5911000,120.7792401,3.186,13631946.578,24926604.109,3.186,0.000,0.000,0.000,0.000,0.000,0.000,0.000,18,18,4*47
$GPGGA,075126.60,3135.4660608,N,12046.7545374,E,4,18,1.2,3.1931,M,8.321,M,00,0004*6B
$GPHPD,0,0.000,58.68,0.03,-11.36,31.5911010,120.7792423,3.193,13631945.990,24926605.341,3.193,0.000,0.000,0.000,0.000,0.000,0.000,0.000,18,18,4*67
$GPGGA,075126.80,3135.4661204,N,12046.7546568,E,4,18,1.2,3.1946,M,8.321,M,00,0004*64
$GPHPD,0,0.000,58.85,-0.35,-11.37,31.5911020,120.7792443,3.195,13631945.383,24926606.434,3.195,0.000,0.000,0.000,0.000,0.000,0.000,0.000,18,18,4*46
$GPGGA,075127.00,3135.4661802,N,12046.7547670,E,4,18,1.2,3.1968,M,8.321,M,01,0004*67
$GPHPD,0,0.000,58.56,-0.10,-11.39,31.5911030,120.7792461,3.197,13631944.755,24926607.415,3.197,0.000,0.000,0.000,0.000,0.000,0.000,0.000,18,18,4*4C
$GPGGA,075127.20,3135.4662342,N,12046.7548706,E,4,18,1.2,3.1929,M,8.321,M,01,0004*63
$GPHPD,0,0.000,58.30,-0.17,-11.41,31.5911039,120.7792478,3.193,13631944.196,24926608.350,3.193,0.000,0.000,0.000,0.000,0.000,0.000,0.000,18,18,4*45
$GPGGA,075127.40,3135.4662824,N,12046.7549636,E,4,18,1.2,3.1904,M,8.321,M,01,0004*62
$GPHPD,0,0.000,58.04,-0.30,-11.46,31.5911047,120.7792494,3.190,13631943.698,24926609.191,3.190,0.000,0.000,0.000,0.000,0.000,0.000,0.000,18,18,4*4B
$GPGGA,075127.60,3135.4663315,N,12046.7550474,E,4,18,1.2,3.1904,M,8.321,M,00,0004*65
$GPHPD,0,0.000,57.73,-0.14,-11.44,31.5911055,120.7792508,3.190,13631943.169,24926609.915,3.190,0.000,0.000,0.000,0.000,0.000,0.000,0.000,18,18,4*4A
$GPGGA,075127.80,3135.4663716,N,12046.7551291,E,4,18,1.3,3.1766,M,8.321,M,00,0004*6B
$GPHPD,0,0.000,57.66,-0.16,-11.37,31.5911062,120.7792522,3.177,13631942.763,24926610.667,3.177,0.000,0.000,0.000,0.000,0.000,0.000,0.000,18,18,4*4B
$GPGGA,075128.00,3135.4664086,N,12046.7551960,E,4,18,1.2,3.1840,M,8.321,M,01,0004*6B
$GPHPD,0,0.000,57.16,0.09,-11.38,31.5911068,120.7792533,3.184,13631942.372,24926611.258,3.184,0.000,0.000,0.000,0.000,0.000,0.000,0.000,18,18,4*67
$GPGGA,075128.20,3135.4664426,N,12046.7552555,E,4,18,1.2,3.1821,M,8.321,M,01,0004*69
$GPHPD,0,0.000,57.10,0.12,-11.42,31.5911074,120.7792543,3.182,13631942.008,24926611.778,3.182,0.000,0.000,0.000,0.000,0.000,0.000,0.000,18,18,4*65
$GPGGA,075128.40,3135.4664733,N,12046.7553155,E,4,18,1.2,3.1794,M,8.321,M,01,0004*6C
$GPHPD,0,0.000,57.07,0.24,-11.46,31.5911079,120.7792553,3.179,13631941.692,24926612.323,3.179,0.000,0.000,0.000,0.000,0.000,0.000,0.000,18,18,4*61
$GPGGA,075128.60,3135.4664998,N,12046.7553697,E,4,18,1.2,3.1887,M,8.321,M,00,0004*64
$GPHPD,0,0.000,57.01,0.61,-11.50,31.5911083,120.7792562,3.189,13631941.425,24926612.822,3.189,0.000,0.000,0.000,0.000,0.000,0.000,0.000,18,18,4*62
$GPGGA,075128.80,3135.4665283,N,12046.7554161,E,4,18,1.2,3.1772,M,8.321,M,00,0004*66
$GPHPD,0,0.000,56.85,0.13,-11.56,31.5911088,120.7792569,3.177,13631941.113,24926613.216,3.177,0.000,0.000,0.000,0.000,0.000,0.000,0.000,18,18,4*60
$GPGGA,075129.00,3135.4665524,N,12046.7554651,E,4,18,1.2,3.1891,M,8.321,M,01,0004*62
$GPHPD,0,0.000,56.91,0.63,-11.60,31.5911092,120.7792578,3.189,13631940.869,24926613.667,3.189,0.000,0.000,0.000,0.000,0.000,0.000,0.000,18,18,4*6B
$GPGGA,075129.20,3135.4665762,N,12046.7555078,E,4,18,1.2,3.1842,M,8.321,M,01,0004*62
$GPHPD,0,0.000,56.92,0.36,-11.65,31.5911096,120.7792585,3.184,13631940.617,24926614.043,3.184,0.000,0.000,0.000,0.000,0.000,0.000,0.000,18,18,4*6B
$GPGGA,075129.40,3135.4665996,N,12046.7555508,E,4,18,1.2,3.1860,M,8.321,M,01,0004*63
$GPHPD,0,0.000,56.92,0.65,-11.73,31.5911100,120.7792592,3.186,13631940.371,24926614.425,3.186,0.000,0.000,0.000,0.000,0.000,0.000,0.000,18,18,4*63
$GPGGA,075129.60,3135.4666239,N,12046.7555932,E,4,18,1.2,3.1817,M,8.321,M,00,0004*68
$GPHPD,0,0.000,56.89,0.72,-11.83,31.5911104,120.7792599,3.182,13631940.111,24926614.795,3.182,0.000,0.000,0.000,0.000,0.000,0.000,0.000,18,18,4*63
$GPGGA,075129.80,3135.4666500,N,12046.7556417,E,4,18,1.2,3.1808,M,8.321,M,00,0004*6C
$GPHPD,0,0.000,56.95,0.97,-11.96,31.5911108,120.7792607,3.181,13631939.837,24926615.228,3.181,0.000,0.000,0.000,0.000,0.000,0.000,0.000,18,18,4*68
$GPGGA,075130.00,3135.4666789,N,12046.7556953,E,4,18,1.2,3.1829,M,8.321,M,01,0004*60
$GPHPD,0,0.000,57.04,0.52,-12.09,31.5911113,120.7792616,3.183,13631939.534,24926615.706,3.183,0.000,0.000,0.000,0.000,0.000,0.000,0.000,18,18,4*60
$GPGGA,075130.20,3135.4667091,N,12046.7557513,E,4,18,1.2,3.1781,M,8.321,M,01,0004*69
$GPHPD,0,0.000,56.99,0.43,-12.17,31.5911118,120.7792625,3.178,13631939.218,24926616.206,3.178,0.000,0.000,0.000,0.000,0.000,0.000,0.000,18,18,4*6E
$GPGGA,075130.40,3135.4667432,N,12046.7558173,E,4,18,1.2,3.1881,M,8.321,M,01,0004*60
$GPHPD,0,0.000,56.96,0.60,-12.24,31.5911124,120.7792636,3.188,13631938.866,24926616.803,3.188,0.000,0.000,0.000,0.000,0.000,0.000,0.000,18,18,4*60
$GPGGA,075130.60,3135.4667820,N,12046.7558920,E,4,18,1.2,3.1795,M,8.321,M,00,0004*68
$GPHPD,0,0.000,56.89,0.42,-12.37,31.5911130,120.7792649,3.180,13631938.465,24926617.478,3.180,0.000,0.000,0.000,0.000,0.000,0.000,0.000,18,18,4*6F
$GPGGA,075130.80,3135.4668270,N,12046.7559737,E,4,18,1.2,3.1807,M,8.321,M,00,0004*6B
$GPHPD,0,0.000,56.95,0.74,-12.55,31.5911138,120.7792662,3.181,13631937.989,24926618.201,3.181,0.000,0.000,0.000,0.000,0.000,0.000,0.000,18,18,4*65
$GPGGA,075131.00,3135.4668769,N,12046.7560710,E,4,18,1.2,3.1846,M,8.321,M,01,0004*64
$GPHPD,0,0.000,57.10,0.31,-12.71,31.5911146,120.7792679,3.185,13631937.476,24926619.084,3.185,0.000,0.000,0.000,0.000,0.000,0.000,0.000,18,18,4*6E
$GPGGA,075131.20,3135.4669342,N,12046.7561764,E,4,18,1.2,3.1844,M,8.321,M,01,0004*6A
$GPHPD,0,0.000,57.12,0.49,-12.79,31.5911156,120.7792696,3.184,13631936.874,24926620.022,3.184,0.000,0.000,0.000,0.000,0.000,0.000,0.000,18,18,4*62
$GPGGA,075131.40,3135.4669958,N,12046.7562917,E,4,18,1.2,3.1747,M,8.321,M,01,0004*68
$GPHPD,0,0.000,56.92,2.00,-12.90,31.5911166,120.7792715,3.175,13631936.230,24926621.054,3.175,0.000,0.000,0.000,0.000,0.000,0.000,0.000,18,18,4*60
$GPGGA,075131.60,3135.4670641,N,12046.7564181,E,4,18,1.2,3.1866,M,8.321,M,00,0004*69
$GPHPD,0,0.000,56.98,2.23,-12.92,31.5911177,120.7792736,3.187,13631935.514,24926622.180,3.187,0.000,0.000,0.000,0.000,0.000,0.000,0.000,18,18,4*61
$GPGGA,075131.80,3135.4671378,N,12046.7565515,E,4,18,1.2,3.1914,M,8.321,M,00,0004*65
$GPHPD,0,0.000,57.20,1.80,-12.96,31.5911190,120.7792759,3.191,13631934.734,24926623.360,3.191,0.000,0.000,0.000,0.000,0.000,0.000,0.000,18,18,4*61
$GPGGA,075132.00,3135.4672126,N,12046.7566911,E,4,18,1.2,3.1928,M,8.321,M,01,0004*61
$GPHPD,0,0.000,57.14,2.09,-13.05,31.5911202,120.7792782,3.193,13631933.952,24926624.608,3.193,0.000,0.000,0.000,0.000,0.000,0.000,0.000,18,18,4*64
$GPGGA,075132.20,3135.4672971,N,12046.7568375,E,4,18,1.2,3.2152,M,8.321,M,01,0004*69
$GPHPD,0,0.000,57.29,1.93,-13.00,31.5911216,120.7792806,3.215,13631933.046,24926625.882,3.215,0.000,0.000,0.000,0.000,0.000,0.000,0.000,18,18,4*68
$GPGGA,075132.40,3135.4673739,N,12046.7569934,E,4,18,1.3,3.1916,M,8.321,M,01,0004*68
$GPHPD,0,0.000,57.51,0.78,-12.93,31.5911229,120.7792832,3.192,13631932.268,24926627.315,3.192,0.000,0.000,0.000,0.000,0.000,0.000,0.000,18,18,4*6B
$GPGGA,075132.60,3135.4674537,N,12046.7571460,E,4,18,1.3,3.2007,M,8.321,M,00,0004*6F
$GPHPD,0,0.000,57.71,0.47,-12.94,31.5911242,120.7792858,3.201,13631931.441,24926628.690,3.201,0.000,0.000,0.000,0.000,0.000,0.000,0.000,18,18,4*6A
$GPGGA,075132.80,3135.4675360,N,12046.7573046,E,4,18,1.3,3.1968,M,8.321,M,00,0004*65
$GPHPD,0,0.000,57.53,0.26,-12.92,31.5911256,120.7792884,3.197,13631930.590,24926630.124,3.197,0.000,0.000,0.000,0.000,0.000,0.000,0.000,18,18,4*62
$GPGGA,075133.00,3135.4676196,N,12046.7574617,E,4,18,1.3,3.1940,M,8.321,M,01,0004*6A
$GPHPD,0,0.000,57.65,0.18,-12.97,31.5911270,120.7792910,3.194,13631929.718,24926631.532,3.194,0.000,0.000,0.000,0.000,0.000,0.000,0.000,18,18,4*6F
$GPGGA,075133.20,3135.4677013,N,12046.7576254,E,4,18,1.3,3.2008,M,8.321,M,01,0004*62
$GPHPD,0,0.000,57.59,0.12,-12.98,31.5911284,120.7792938,3.201,13631928.886,24926633.030,3.201,0.000,0.000,0.000,0.000,0.000,0.000,0.000,18,18,4*68
$GPGGA,075133.40,3135.4677830,N,12046.7577783,E,4,18,1.3,3.2108,M,8.321,M,01,0004*62
$GPHPD,0,0.000,57.56,-0.58,-12.99,31.5911297,120.7792963,3.211,13631928.032,24926634.398,3.211,0.000,0.000,0.000,0.000,0.000,0.000,0.000,18,18,4*48
$GPGGA,075133.60,3135.4678653,N,12046.7579349,E,4,18,1.2,3.1948,M,8.321,M,00,0004*67
$GPHPD,0,0.000,57.57,-0.85,-13.01,31.5911311,120.7792989,3.195,13631927.178,24926635.808,3.195,0.000,0.000,0.000,0.000,0.000,0.000,0.000,18,18,4*41
$GPGGA,075133.80,3135.4679472,N,12046.7580888,E,4,18,1.2,3.1939,M,8.321,M,00,0004*6F
$GPHPD,0,0.000,57.83,-0.49,-13.04,31.5911325,120.7793015,3.194,13631926.323,24926637.187,3.194,0.000,0.000,0.000,0.000,0.000,0.000,0.000,18,18,4*46
$GPGGA,075134.00,3135.4680287,N,12046.7582422,E,4,18,1.3,3.1877,M,8.321,M,01,0004*6F
$GPHPD,0,0.000,58.05,-0.06,-13.10,31.5911338,120.7793040,3.188,13631925.473,24926638.562,3.188,0.000,0.000,0.000,0.000,0.000,0.000,0.000,18,18,4*44
$GPGGA,075134.20,3135.4681100,N,12046.7583968,E,4,18,1.3,3.1859,M,8.321,M,01,0004*6E
$GPHPD,0,0.000,58.27,0.42,-13.15,31.5911352,120.7793066,3.186,13631924.629,24926639.953,3.186,0.000,0.000,0.000,0.000,0.000,0.000,0.000,18,18,4*67
$GPGGA,075134.40,3135.4681884,N,12046.7585532,E,4,18,1.3,3.1929,M,8.321,M,01,0004*6E
$GPHPD,0,0.000,58.38,0.97,-13.20,31.5911365,120.7793092,3.193,13631923.829,24926641.383,3.193,0.000,0.000,0.000,0.000,0.000,0.000,0.000,18,18,4*69
$GPGGA,075134.60,3135.4682660,N,12046.7587105,E,4,18,1.3,3.2005,M,8.321,M,00,0004*6C
$GPHPD,0,0.000,58.56,0.39,-13.22,31.5911378,120.7793118,3.201,13631923.043,24926642.828,3.201,0.000,0.000,0.000,0.000,0.000,0.000,0.000,18,18,4*65
$GPGGA,075134.80,3135.4683455,N,12046.7588673,E,4,18,1.3,3.1989,M,8.321,M,00,0004*60
$GPHPD,0,0.000,58.53,0.47,-13.23,31.5911391,120.7793145,3.199,13631922.228,24926644.256,3.199,0.000,0.000,0.000,0.000,0.000,0.000,0.000,18,18,4*6C
$GPGGA,075135.00,3135.4684233,N,12046.7590255,E,4,18,1.3,3.1935,M,8.321,M,01,0004*67
$GPHPD,0,0.000,58.71,0.91,-13.19,31.5911404,120.7793171,3.194,13631921.441,24926645.711,3.194,0.000,0.000,0.000,0.000,0.000,0.000,0.000,18,18,4*6F
$GPGGA,075135.20,3135.4685008,N,12046.7591851,E,4,18,1.3,3.2042,M,8.321,M,01,0004*6B
$GPHPD,0,0.000,58.79,0.45,-13.14,31.5911417,120.7793198,3.204,13631920.660,24926647.185,3.204,0.000,0.000,0.000,0.000,0.000,0.000,0.000,18,18,4*6F
$GPGGA,075135.40,3135.4685824,N,12046.7593419,E,4,18,1.2,3.2064,M,8.321,M,01,0004*6C
$GPHPD,0,0.000,58.88,-0.80,-13.11,31.5911430,120.7793224,3.206,13631919.816,24926648.601,3.206,0.000,0.000,0.000,0.000,0.000,0.000,0.000,18,18,4*40
$GPGGA,075135.60,3135.4686623,N,12046.7594987,E,4,18,1.2,3.2135,M,8.321,M,00,0004*6D
$GPHPD,0,0.000,59.02,-0.89,-13.11,31.5911444,120.7793250,3.214,13631918.996,24926650.026,3.214,0.000,0.000,0.000,0.000,0.000,0.000,0.000,18,17,4*47
$GPGGA,075135.80,3135.4687427,N,12046.7596594,E,4,18,1.2,3.2126,M,8.321,M,00,0004*6A
$GPHPD,0,0.000,58.85,-0.04,-13.09,31.5911457,120.7793277,3.213,13631918.176,24926651.496,3.213,0.000,0.000,0.000,0.000,0.000,0.000,0.000,18,17,4*4A
$GPGGA,075136.00,3135.4688233,N,12046.7598158,E,4,18,1.2,3.2131,M,8.321,M,01,0004*60
$GPHPD,0,0.000,58.86,0.06,-13.07,31.5911471,120.7793303,3.213,13631917.346,24926652.913,3.213,0.000,0.000,0.000,0.000,0.000,0.000,0.000,18,17,4*63
$GPGGA,075136.20,3135.4689043,N,12046.7599795,E,4,17,1.3,3.2040,M,8.321,M,01,0004*69
$GPHPD,0,0.000,58.86,0.13,-13.10,31.5911484,120.7793330,3.204,13631916.524,24926654.416,3.204,0.000,0.000,0.000,0.000,0.000,0.000,0.000,17,17,4*69
$GPGGA,075136.40,3135.4689825,N,12046.7601425,E,4,17,1.3,3.2007,M,8.321,M,01,0004*6E
$GPHPD,0,0.000,58.85,0.57,-13.06,31.5911497,120.7793357,3.201,13631915.740,24926655.926,3.201,0.000,0.000,0.000,0.000,0.000,0.000,0.000,17,17,4*62
$GPGGA,075136.60,3135.4690617,N,12046.7603059,E,4,17,1.3,3.2129,M,8.321,M,00,0004*6A
$GPHPD,0,0.000,58.80,0.17,-13.04,31.5911510,120.7793384,3.213,13631914.943,24926657.436,3.213,0.000,0.000,0.000,0.000,0.000,0.000,0.000,17,17,4*63
$GPGGA,075136.80,3135.4691432,N,12046.7604689,E,4,17,1.3,3.2146,M,8.321,M,00,0004*65
$GPHPD,0,0.000,58.63,-0.23,-13.12,31.5911524,120.7793411,3.215,13631914.113,24926658.927,3.215,0.000,0.000,0.000,0.000,0.000,0.000,0.000,17,17,4*40
$GPGGA,075137.00,3135.4692243,N,12046.7606299,E,4,17,1.3,3.2150,M,8.321,M,01,0004*6E
$GPHPD,0,0.000,58.71,-0.33,-13.15,31.5911537,120.7793438,3.215,13631913.284,24926660.396,3.215,0.000,0.000,0.000,0.000,0.000,0.000,0.000,17,17,4*4D
$GPGGA,075137.20,3135.4693068,N,12046.7607960,E,4,17,1.3,3.2148,M,8.321,M,01,0004*63
$GPHPD,0,0.000,58.76,-0.59,-13.16,31.5911551,120.7793466,3.215,13631912.446,24926661.919,3.215,0.000,0.000,0.000,0.000,0.000,0.000,0.000,17,17,4*4B
$GPGGA,075137.40,3135.4693894,N,12046.7609634,E,4,17,1.3,3.2015,M,8.321,M,01,0004*67
$GPHPD,0,0.000,58.79,-0.67,-13.13,31.5911565,120.7793494,3.202,13631911.608,24926663.457,3.202,0.000,0.000,0.000,0.000,0.000,0.000,0.000,17,17,4*48
$GPGGA,075137.60,3135.4694747,N,12046.7611274,E,4,17,1.3,3.2052,M,8.321,M,00,0004*68
$GPHPD,0,0.000,58.90,-0.42,-13.08,31.5911579,120.7793521,3.205,13631910.726,24926664.938,3.205,0.000,0.000,0.000,0.000,0.000,0.000,0.000,17,17,4*4F
$GPGGA,075137.80,3135.4695622,N,12046.7612969,E,4,17,1.3,3.1997,M,8.321,M,00,0004*62
$GPHPD,0,0.000,58.78,-0.43,-12.99,31.5911594,120.7793549,3.200,13631909.823,24926666.473,3.200,0.000,0.000,0.000,0.000,0.000,0.000,0.000,17,17,4*4E
$GPGGA,075138.00,3135.4696481,N,12046.7614726,E,4,17,1.3,3.2021,M,8.321,M,01,0004*68
$GPHPD,0,0.000,58.76,-0.33,-12.84,31.5911608,120.7793579,3.202,13631908.956,24926668.092,3.202,0.000,0.000,0.000,0.000,0.000,0.000,0.000,17,17,4*49
$GPGGA,075138.20,3135.4697337,N,12046.7616467,E,4,17,1.3,3.2016,M,8.321,M,01,0004*61
$GPHPD,0,0.000,58.90,-0.12,-12.76,31.5911622,120.7793608,3.202,13631908.089,24926669.693,3.202,0.000,0.000,0.000,0.000,0.000,0.000,0.000,17,17,4*4F
$GPGGA,075138.40,3135.4698194,N,12046.7618270,E,4,17,1.3,3.1969,M,8.321,M,01,0004*6F
$GPHPD,0,0.000,58.93,-0.01,-12.70,31.5911637,120.7793638,3.197,13631907.234,24926671.368,3.197,0.000,0.000,0.000,0.000,0.000,0.000,0.000,17,17,4*4C
$GPGGA,075138.60,3135.4699087,N,12046.7620063,E,4,17,1.3,3.1984,M,8.321,M,00,0004*66
$GPHPD,0,0.000,58.84,-0.21,-12.52,31.5911651,120.7793668,3.198,13631906.326,24926673.011,3.198,0.000,0.000,0.000,0.000,0.000,0.000,0.000,17,17,4*41
$GPGGA,075138.80,3135.4699994,N,12046.7621843,E,4,17,1.3,3.2085,M,8.321,M,00,0004*63
$GPHPD,0,0.000,58.83,-0.31,-12.34,31.5911667,120.7793697,3.209,13631905.395,24926674.629,3.209,0.000,0.000,0.000,0.000,0.000,0.000,0.000,17,17,4*43
$GPGGA,075139.00,3135.4700863,N,12046.7623645,E,4,17,1.3,3.2043,M,8.321,M,01,0004*63
$GPHPD,0,0.000,59.00,-0.75,-12.27,31.5911681,120.7793727,3.204,13631904.522,24926676.296,3.204,0.000,0.000,0.000,0.000,0.000,0.000,0.000,17,17,4*40
$GPGGA,075139.20,3135.4701759,N,12046.7625456,E,4,17,1.3,3.2057,M,8.321,M,01,0004*65
$GPHPD,0,0.000,59.05,-0.64,-12.24,31.5911696,120.7793758,3.206,13631903.613,24926677.959,3.206,0.000,0.000,0.000,0.000,0.000,0.000,0.000,17,17,4*47
$GPGGA,075139.40,3135.4702673,N,12046.7627282,E,4,17,1.3,3.1955,M,8.321,M,01,0004*6C
$GPHPD,0,0.000,58.95,-0.64,-12.21,31.5911711,120.7793788,3.196,13631902.681,24926679.629,3.196,0.000,0.000,0.000,0.000,0.000,0.000,0.000,17,17,4*45
$GPGGA,075139.60,3135.4703585,N,12046.7629122,E,4,17,1.3,3.1948,M,8.321,M,01,0004*6E
$GPHPD,0,0.000,59.09,-0.32,-12.21,31.5911726,120.7793819,3.195,13631901.755,24926681.317,3.195,0.000,0.000,0.000,0.000,0.000,0.000,0.000,17,17,4*45
$GPGGA,075139.80,3135.4704478,N,12046.7630984,E,4,17,1.3,3.1913,M,8.321,M,00,0004*67
$GPHPD,0,0.000,59.11,-0.34,-12.27,31.5911741,120.7793850,3.191,13631900.860,24926683.042,3.191,0.000,0.000,0.000,0.000,0.000,0.000,0.000,17,17,4*49
$GPGGA,075140.00,3135.4705416,N,12046.7632846,E,4,17,1.3,3.1880,M,8.321,M,01,0004*6F
$GPHPD,0,0.000,59.06,-0.52,-12.36,31.5911757,120.7793881,3.188,13631899.902,24926684.742,3.188,0.000,0.000,0.000,0.000,0.000,0.000,0.000,17,17,4*40
$GPGGA,075140.20,3135.4706341,N,12046.7634708,E,4,17,1.3,3.1904,M,8.321,M,01,0004*65
$GPHPD,0,0.000,59.21,-0.50,-12.39,31.5911772,120.7793912,3.190,13631898.962,24926686.449,3.190,0.000,0.000,0.000,0.000,0.000,0.000,0.000,17,17,4*49
$GPGGA,075140.40,3135.4707255,N,12046.7636571,E,4,17,1.3,3.1888,M,8.321,M,01,0004*6D
$GPHPD,0,0.000,59.28,-0.63,-12.48,31.5911788,120.7793943,3.189,13631898.038,24926688.163,3.189,0.000,0.000,0.000,0.000,0.000,0.000,0.000,17,17,4*42
$GPGGA,075140.60,3135.4708179,N,12046.7638511,E,4,17,1.3,3.1819,M,8.321,M,00,0004*6C
$GPHPD,0,0.000,59.55,-1.22,-12.57,31.5911803,120.7793975,3.182,13631897.115,24926689.965,3.182,0.000,0.000,0.000,0.000,0.000,0.000,0.000,17,17,4*45
$GPGGA,075140.80,3135.4709117,N,12046.7640429,E,4,17,1.3,3.1820,M,8.321,M,00,0004*64
$GPHPD,0,0.000,59.30,-1.21,-12.62,31.5911819,120.7794007,3.182,13631896.167,24926691.732,3.182,0.000,0.000,0.000,0.000,0.000,0.000,0.000,17,17,4*42
$GPGGA,075141.00,3135.4710080,N,12046.7642373,E,4,17,1.3,3.1543,M,8.322,M,01,0004*6A
$GPHPD,0,0.000,59.31,-1.72,-12.69,31.5911835,120.7794040,3.154,13631895.190,24926693.516,3.154,0.000,0.000,0.000,0.000,0.000,0.000,0.000,17,17,4*4E
$GPGGA,075141.20,3135.4711042,N,12046.7644291,E,4,17,1.3,3.1530,M,8.322,M,01,0004*68
$GPHPD,0,0.000,59.32,-1.25,-12.72,31.5911851,120.7794072,3.153,13631894.208,24926695.269,3.153,0.000,0.000,0.000,0.000,0.000,0.000,0.000,17,17,4*4C
$GPGGA,075141.40,3135.4712024,N,12046.7646217,E,4,17,1.3,3.1453,M,8.322,M,01,0004*65
$GPHPD,0,0.000,59.39,-1.07,-12.75,31.5911867,120.7794104,3.145,13631893.200,24926697.020,3.145,0.000,0.000,0.000,0.000,0.000,0.000,0.000,17,17,4*47
$GPGGA,075141.60,3135.4712997,N,12046.7648151,E,4,17,1.3,3.1496,M,8.322,M,01,0004*60
$GPHPD,0,0.000,59.20,-0.77,-12.75,31.5911883,120.7794136,3.150,13631892.206,24926698.785,3.150,0.000,0.000,0.000,0.000,0.000,0.000,0.000,17,17,4*42
$GPGGA,075141.80,3135.4713963,N,12046.7650098,E,4,17,1.3,3.1333,M,8.322,M,00,0004*60
$GPHPD,0,0.000,59.02,-0.78,-12.76,31.5911899,120.7794168,3.133,13631891.225,24926700.571,3.133,0.000,0.000,0.000,0.000,0.000,0.000,0.000,17,17,4*45
$GPGGA,075142.00,3135.4714905,N,12046.7652038,E,4,17,1.3,3.1327,M,8.322,M,01,0004*60
$GPHPD,0,0.000,58.83,-0.01,-12.77,31.5911915,120.7794201,3.133,13631890.276,24926702.362,3.133,0.000,0.000,0.000,0.000,0.000,0.000,0.000,17,17,4*4A
$GPGGA,075142.20,3135.4715889,N,12046.7654006,E,4,17,1.3,3.1235,M,8.322,M,01,0004*6F
$GPHPD,0,0.000,58.69,-0.02,-12.78,31.5911931,120.7794233,3.124,13631889.274,24926704.163,3.124,0.000,0.000,0.000,0.000,0.000,0.000,0.000,17,17,4*4A
$GPGGA,075142.40,3135.4716894,N,12046.7655931,E,4,17,1.3,3.1230,M,8.322,M,01,0004*6F
$GPHPD,0,0.000,58.77,0.22,-12.78,31.5911948,120.7794266,3.123,13631888.232,24926705.899,3.123,0.000,0.000,0.000,0.000,0.000,0.000,0.000,17,17,4*6A
$GPGGA,075142.60,3135.4717865,N,12046.7657865,E,4,17,1.3,3.1294,M,8.322,M,00,0004*6F
$GPHPD,0,0.000,58.67,0.36,-12.78,31.5911964,120.7794298,3.129,13631887.241,24926707.666,3.129,0.000,0.000,0.000,0.000,0.000,0.000,0.000,17,17,4*66
$GPGGA,075142.80,3135.4718824,N,12046.7659765,E,4,18,1.2,3.1280,M,8.322,M,00,0004*61
$GPHPD,0,0.000,58.43,0.11,-12.78,31.5911980,120.7794329,3.128,13631886.261,24926709.399,3.128,0.000,0.000,0.000,0.000,0.000,0.000,0.000,18,18,4*6C
$GPGGA,075143.00,3135.4719825,N,12046.7661700,E,4,18,1.2,3.1312,M,8.322,M,01,0004*6B
$GPHPD,0,0.000,58.29,0.00,-12.81,31.5911997,120.7794362,3.131,13631885.227,24926711.150,3.131,0.000,0.000,0.000,0.000,0.000,0.000,0.000,18,18,4*60
$GPGGA,075143.20,3135.4720810,N,12046.7663593,E,4,18,1.2,3.1307,M,8.322,M,01,0004*6B
$GPHPD,0,0.000,58.35,-0.08,-12.82,31.5912014,120.7794393,3.131,13631884.208,24926712.859,3.131,0.000,0.000,0.000,0.000,0.000,0.000,0.000,18,18,4*4B
$GPGGA,075143.40,3135.4721787,N,12046.7665496,E,4,18,1.2,3.1324,M,8.322,M,01,0004*6E
$GPHPD,0,0.000,58.24,-0.46,-12.83,31.5912030,120.7794425,3.132,13631883.202,24926714.585,3.132,0.000,0.000,0.000,0.000,0.000,0.000,0.000,18,18,4*4B
$GPGGA,075143.60,3135.4722752,N,12046.7667413,E,4,18,1.2,3.1290,M,8.322,M,01,0004*66
$GPHPD,0,0.000,58.19,-0.57,-12.87,31.5912046,120.7794457,3.129,13631882.216,24926716.335,3.129,0.000,0.000,0.000,0.000,0.000,0.000,0.000,18,18,4*4E
$GPGGA,075143.80,3135.4723721,N,12046.7669340,E,4,18,1.2,3.1206,M,8.322,M,01,0004*6D
$GPHPD,0,0.000,58.46,-0.56,-12.88,31.5912062,120.7794489,3.121,13631881.227,24926718.095,3.121,0.000,0.000,0.000,0.000,0.000,0.000,0.000,18,18,4*49
$GPGGA,075144.00,3135.4724666,N,12046.7671192,E,4,18,1.2,3.1218,M,8.322,M,02,0004*6F
$GPHPD,0,0.000,58.36,-0.38,-12.92,31.5912078,120.7794520,3.122,13631880.256,24926719.778,3.122,0.000,0.000,0.000,0.000,0.000,0.000,0.000,18,18,4*46
$GPGGA,075144.20,3135.4725632,N,12046.7673053,E,4,18,1.2,3.1187,M,8.322,M,02,0004*66
$GPHPD,0,0.000,58.39,-0.45,-12.92,31.5912094,120.7794551,3.119,13631879.258,24926721.460,3.119,0.000,0.000,0.000,0.000,0.000,0.000,0.000,18,18,4*4E
$GPGGA,075144.40,3135.4726584,N,12046.7674952,E,4,18,1.2,3.1173,M,8.322,M,02,0004*69
$GPHPD,0,0.000,58.46,-0.51,-12.93,31.5912110,120.7794583,3.117,13631878.287,24926723.196,3.117,0.000,0.000,0.000,0.000,0.000,0.000,0.000,18,18,4*4D
$GPGGA,075144.60,3135.4727556,N,12046.7676836,E,4,18,1.2,3.1216,M,8.322,M,02,0004*64
$GPHPD,0,0.000,58.36,-0.56,-12.94,31.5912126,120.7794614,3.122,13631877.284,24926724.902,3.122,0.000,0.000,0.000,0.000,0.000,0.000,0.000,18,18,4*4C
$GPGGA,075144.80,3135.4728506,N,12046.7678673,E,4,18,1.2,3.1079,M,8.322,M,00,0004*68
$GPHPD,0,0.000,58.44,-0.31,-12.94,31.5912142,120.7794645,3.108,13631876.303,24926726.564,3.108,0.000,0.000,0.000,0.000,0.000,0.000,0.000,18,18,4*4F
$GPGGA,075145.00,3135.4729407,N,12046.7680526,E,4,18,1.2,3.1074,M,8.322,M,01,0004*68
$GPHPD,0,0.000,58.32,0.04,-12.94,31.5912157,120.7794675,3.107,13631875.396,24926728.274,3.107,0.000,0.000,0.000,0.000,0.000,0.000,0.000,18,17,4*6A
$GPGGA,075145.20,3135.4730351,N,12046.7682368,E,4,18,1.2,3.0988,M,8.322,M,01,0004*63
$GPHPD,0,0.000,58.59,0.54,-12.93,31.5912173,120.7794706,3.099,13631874.424,24926729.946,3.099,0.000,0.000,0.000,0.000,0.000,0.000,0.000,18,18,4*6D
$GPGGA,075145.40,3135.4731278,N,12046.7684201,E,4,18,1.2,3.0953,M,8.322,M,01,0004*60
$GPHPD,0,0.000,58.56,0.93,-12.94,31.5912188,120.7794737,3.095,13631873.476,24926731.617,3.095,0.000,0.000,0.000,0.000,0.000,0.000,0.000,18,18,4*6A
$GPGGA,075145.60,3135.4732186,N,12046.7686004,E,4,18,1.2,3.0974,M,8.322,M,00,0004*62
$GPHPD,0,0.000,58.48,0.69,-12.93,31.5912203,120.7794767,3.097,13631872.548,24926733.263,3.097,0.000,0.000,0.000,0.000,0.000,0.000,0.000,18,18,4*6A
$GPGGA,075145.80,3135.4733097,N,12046.7687778,E,4,18,1.2,3.1033,M,8.322,M,00,0004*6A
$GPHPD,0,0.000,58.44,0.53,-12.93,31.5912218,120.7794796,3.103,13631871.610,24926734.872,3.103,0.000,0.000,0.000,0.000,0.000,0.000,0.000,18,18,4*6B
$GPGGA,075146.00,3135.4733993,N,12046.7689596,E,4,18,1.2,3.1077,M,8.322,M,01,0004*61
$GPHPD,0,0.000,58.54,0.37,-12.92,31.5912233,120.7794827,3.108,13631870.702,24926736.543,3.108,0.000,0.000,0.000,0.000,0.000,0.000,0.000,18,18,4*6B
$GPGGA,075146.20,3135.4734883,N,12046.7691357,E,4,18,1.2,3.1168,M,8.322,M,01,0004*69
$GPHPD,0,0.000,58.44,0.03,-12.90,31.5912248,120.7794856,3.117,13631869.791,24926738.148,3.117,0.000,0.000,0.000,0.000,0.000,0.000,0.000,18,18,4*66
$GPGGA,075146.40,3135.4735789,N,12046.7693090,E,4,18,1.2,3.1213,M,8.322,M,01,0004*6E
$GPHPD,0,0.000,58.35,-0.19,-12.88,31.5912263,120.7794885,3.121,13631868.852,24926739.711,3.121,0.000,0.000,0.000,0.000,0.000,0.000,0.000,18,17,4*4D
$GPGGA,075146.60,3135.4736682,N,12046.7694855,E,4,18,1.3,3.1066,M,8.322,M,01,0004*62
$GPHPD,0,0.000,58.66,-0.15,-12.84,31.5912278,120.7794914,3.107,13631867.938,24926741.319,3.107,0.000,0.000,0.000,0.000,0.000,0.000,0.000,18,17,4*49
$GPGGA,075146.80,3135.4737587,N,12046.7696597,E,4,18,1.4,3.0997,M,8.322,M,01,0004*6B
$GPHPD,0,0.000,58.62,-0.22,-12.82,31.5912293,120.7794943,3.100,13631867.002,24926742.893,3.100,0.000,0.000,0.000,0.000,0.000,0.000,0.000,18,17,4*42
$GPGGA,075147.00,3135.4738445,N,12046.7698331,E,4,18,1.4,3.1025,M,8.322,M,02,0004*64
$GPHPD,0,0.000,58.51,-0.24,-12.80,31.5912307,120.7794972,3.103,13631866.132,24926744.485,3.103,0.000,0.000,0.000,0.000,0.000,0.000,0.000,18,17,4*46
$GPGGA,075147.20,3135.4739325,N,12046.7700046,E,4,18,1.4,3.1019,M,8.322,M,02,0004*6A
$GPHPD,0,0.000,58.56,-0.14,-12.77,31.5912322,120.7795001,3.102,13631865.226,24926746.041,3.102,0.000,0.000,0.000,0.000,0.000,0.000,0.000,18,17,4*4A
$GPGGA,075147.40,3135.4740186,N,12046.7701780,E,4,18,1.4,3.1016,M,8.322,M,02,0004*6A
$GPHPD,0,0.000,58.81,-0.39,-12.74,31.5912336,120.7795030,3.102,13631864.351,24926747.630,3.102,0.000,0.000,0.000,0.000,0.000,0.000,0.000,18,18,4*45
$GPGGA,075147.60,3135.4741037,N,12046.7703507,E,4,18,1.3,3.1089,M,8.322,M,02,0004*6C
$GPHPD,0,0.000,58.51,-0.22,-12.71,31.5912351,120.7795058,3.109,13631863.489,24926749.218,3.109,0.000,0.000,0.000,0.000,0.000,0.000,0.000,18,18,4*4D
$GPGGA,075147.80,3135.4741883,N,12046.7705189,E,4,18,1.3,3.1112,M,8.322,M,00,0004*60
$GPHPD,0,0.000,58.71,-0.05,-12.68,31.5912365,120.7795086,3.111,13631862.625,24926750.754,3.111,0.000,0.000,0.000,0.000,0.000,0.000,0.000,18,18,4*46
$GPGGA,075148.00,3135.4742718,N,12046.7706890,E,4,18,1.3,3.1103,M,8.322,M,01,0004*6A
$GPHPD,0,0.000,58.77,0.00,-12.68,31.5912379,120.7795115,3.110,13631861.780,24926752.319,3.110,0.000,0.000,0.000,0.000,0.000,0.000,0.000,18,18,4*6C
$GPGGA,075148.20,3135.4743559,N,12046.7708565,E,4,18,1.3,3.1033,M,8.322,M,01,0004*65
$GPHPD,0,0.000,58.72,-0.72,-12.68,31.5912393,120.7795143,3.103,13631860.922,24926753.849,3.103,0.000,0.000,0.000,0.000,0.000,0.000,0.000,18,18,4*4E
$GPGGA,075148.40,3135.4744384,N,12046.7710231,E,4,18,1.3,3.1062,M,8.322,M,01,0004*69
$GPHPD,0,0.000,58.77,0.43,-12.69,31.5912406,120.7795171,3.106,13631860.085,24926755.378,3.106,0.000,0.000,0.000,0.000,0.000,0.000,0.000,18,18,4*64
$GPGGA,075148.60,3135.4745230,N,12046.7711928,E,4,18,1.2,3.1057,M,8.322,M,01,0004*61
$GPHPD,0,0.000,58.62,0.30,-12.70,31.5912421,120.7795199,3.106,13631859.224,24926756.932,3.106,0.000,0.000,0.000,0.000,0.000,0.000,0.000,18,18,4*6B
$GPGGA,075148.80,3135.4746070,N,12046.7713583,E,4,18,1.2,3.1012,M,8.322,M,01,0004*64
$GPHPD,0,0.000,58.68,0.50,-12.71,31.5912435,120.7795226,3.101,13631858.363,24926758.439,3.101,0.000,0.000,0.000,0.000,0.000,0.000,0.000,18,18,4*6F
$GPGGA,075149.00,3135.4746882,N,12046.7715238,E,4,18,1.2,3.0890,M,8.322,M,02,0004*69
$GPHPD,0,0.000,58.75,0.24,-12.71,31.5912448,120.7795254,3.089,13631857.541,24926759.962,3.089,0.000,0.000,0.000,0.000,0.000,0.000,0.000,18,18,4*64
$GPGGA,075149.20,3135.4747742,N,12046.7716854,E,4,18,1.2,3.1043,M,8.322,M,02,0004*6D
$GPHPD,0,0.000,58.67,0.46,-12.71,31.5912462,120.7795281,3.104,13631856.644,24926761.410,3.104,0.000,0.000,0.000,0.000,0.000,0.000,0.000,18,18,4*67
$GPGGA,075149.40,3135.4748590,N,12046.7718507,E,4,18,1.3,3.1019,M,8.322,M,02,0004*62
$GPHPD,0,0.000,58.51,-0.34,-12.69,31.5912477,120.7795308,3.102,13631855.772,24926762.910,3.102,0.000,0.000,0.000,0.000,0.000,0.000,0.000,18,18,4*4E
$GPGGA,075149.60,3135.4749409,N,12046.7720146,E,4,18,1.3,3.1051,M,8.322,M,02,0004*66
$GPHPD,0,0.000,58.50,0.11,-12.67,31.5912490,120.7795336,3.105,13631854.937,24926764.409,3.105,0.000,0.000,0.000,0.000,0.000,0.000,0.000,18,18,4*62
$GPGGA,075149.80,3135.4750267,N,12046.7721787,E,4,18,1.3,3.1065,M,8.322,M,00,0004*61
$GPHPD,0,0.000,58.37,-0.07,-12.65,31.5912504,120.7795363,3.107,13631854.048,24926765.889,3.107,0.000,0.000,0.000,0.000,0.000,0.000,0.000,18,18,4*43
$GPGGA,075150.00,3135.4751088,N,12046.7723449,E,4,18,1.3,3.1168,M,8.322,M,01,0004*6D
$GPHPD,0,0.000,58.24,0.26,-12.63,31.5912518,120.7795391,3.117,13631853.215,24926767.415,3.117,0.000,0.000,0.000,0.000,0.000,0.000,0.000,18,18,4*6F
$GPGGA,075150.20,3135.4751935,N,12046.7725082,E,4,18,1.3,3.1154,M,8.322,M,01,0004*6A
$GPHPD,0,0.000,58.15,-0.57,-12.63,31.5912532,120.7795418,3.115,13631852.340,24926768.891,3.115,0.000,0.000,0.000,0.000,0.000,0.000,0.000,18,18,4*47
$GPGGA,075150.40,3135.4752794,N,12046.7726687,E,4,18,1.3,3.1248,M,8.322,M,01,0004*64
$GPHPD,0,0.000,57.81,1.01,-12.63,31.5912547,120.7795445,3.125,13631851.442,24926770.327,3.125,0.000,0.000,0.000,0.000,0.000,0.000,0.000,18,18,4*69
$GPGGA,075150.60,3135.4753632,N,12046.7728335,E,4,18,1.2,3.1090,M,8.322,M,00,0004*6F
$GPHPD,0,0.000,57.91,0.78,-12.61,31.5912561,120.7795472,3.109,13631850.582,24926771.826,3.109,0.000,0.000,0.000,0.000,0.000,0.000,0.000,18,18,4*62
$GPGGA,075150.80,3135.4754484,N,12046.7729963,E,4,18,1.2,3.1107,M,8.322,M,00,0004*6E
$GPHPD,0,0.000,57.82,0.98,-12.62,31.5912575,120.7795499,3.111,13631849.699,24926773.294,3.111,0.000,0.000,0.000,0.000,0.000,0.000,0.000,18,18,4*6D
$GPGGA,075151.00,3135.4755326,N,12046.7731591,E,4,18,1.3,3.1029,M,8.322,M,01,0004*6C
$GPHPD,0,0.000,57.80,0.95,-12.63,31.5912589,120.7795527,3.103,13631848.830,24926774.767,3.103,0.000,0.000,0.000,0.000,0.000,0.000,0.000,18,18,4*66
$GPGGA,075151.20,3135.4756174,N,12046.7733216,E,4,17,1.3,3.0961,M,8.322,M,01,0004*69
$GPHPD,0,0.000,57.66,0.13,-12.65,31.5912603,120.7795554,3.096,13631847.951,24926776.233,3.096,0.000,0.000,0.000,0.000,0.000,0.000,0.000,17,18,4*63
$GPGGA,075151.40,3135.4757017,N,12046.7734825,E,4,18,1.3,3.0956,M,8.322,M,01,0004*6C
$GPHPD,0,0.000,57.75,-0.14,-12.70,31.5912617,120.7795580,3.096,13631847.077,24926777.682,3.096,0.000,0.000,0.000,0.000,0.000,0.000,0.000,18,17,4*41
$GPGGA,075151.60,3135.4757876,N,12046.7736440,E,4,18,1.3,3.1065,M,8.322,M,01,0004*64
$GPHPD,0,0.000,57.41,0.30,-12.72,31.5912631,120.7795607,3.107,13631846.181,24926779.130,3.107,0.000,0.000,0.000,0.000,0.000,0.000,0.000,18,18,4*61
$GPGGA,075151.80,3135.4758719,N,12046.7738054,E,4,17,1.3,3.0967,M,8.322,M,01,0004*69
$GPHPD,0,0.000,57.04,-0.01,-12.75,31.5912645,120.7795634,3.097,13631845.307,24926780.585,3.097,0.000,0.000,0.000,0.000,0.000,0.000,0.000,17,17,4*48
$GPGGA,075152.00,3135.4759599,N,12046.7739649,E,4,17,1.3,3.0962,M,8.322,M,02,0004*64
$GPHPD,0,0.000,56.90,0.62,-12.78,31.5912660,120.7795661,3.096,13631844.378,24926781.997,3.096,0.000,0.000,0.000,0.000,0.000,0.000,0.000,17,17,4*61
$GPGGA,075152.20,3135.4760442,N,12046.7741237,E,4,17,1.3,3.0942,M,8.322,M,02,0004*6B
$GPHPD,0,0.000,56.99,0.97,-12.79,31.5912674,120.7795687,3.094,13631843.499,24926783.421,3.094,0.000,0.000,0.000,0.000,0.000,0.000,0.000,17,17,4*63
$GPGGA,075152.40,3135.4761341,N,12046.7742828,E,4,17,1.3,3.1024,M,8.322,M,02,0004*67
$GPHPD,0,0.000,56.79,1.23,-12.80,31.5912689,120.7795714,3.102,13631842.541,24926784.816,3.102,0.000,0.000,0.000,0.000,0.000,0.000,0.000,17,17,4*66
$GPGGA,075152.60,3135.4762230,N,12046.7744393,E,4,17,1.3,3.1036,M,8.322,M,02,0004*6F
$GPHPD,0,0.000,56.85,0.12,-12.82,31.5912704,120.7795740,3.104,13631841.592,24926786.186,3.104,0.000,0.000,0.000,0.000,0.000,0.000,0.000,17,17,4*6E
$GPGGA,075152.80,3135.4763081,N,12046.7745994,E,4,17,1.3,3.1095,M,8.322,M,00,0004*6F
$GPHPD,0,0.000,56.97,0.04,-12.83,31.5912718,120.7795767,3.110,13631840.705,24926787.621,3.110,0.000,0.000,0.000,0.000,0.000,0.000,0.000,17,17,4*65
$GPGGA,075153.00,3135.4763941,N,12046.7747578,E,4,17,1.3,3.1143,M,8.322,M,01,0004*64
$GPHPD,0,0.000,56.94,-0.27,-12.81,31.5912732,120.7795793,3.114,13631839.801,24926789.031,3.114,0.000,0.000,0.000,0.000,0.000,0.000,0.000,17,17,4*47
$GPGGA,075153.20,3135.4764819,N,12046.7749149,E,4,17,1.3,3.1197,M,8.322,M,01,0004*6C
$GPHPD,0,0.000,56.66,-0.52,-12.81,31.5912747,120.7795819,3.120,13631838.869,24926790.414,3.120,0.000,0.000,0.000,0.000,0.000,0.000,0.000,17,17,4*43
$GPGGA,075153.40,3135.4765685,N,12046.7750797,E,4,17,1.3,3.0906,M,8.322,M,01,0004*6C
$GPHPD,0,0.000,56.50,-0.98,-12.81,31.5912761,120.7795847,3.091,13631837.970,24926791.897,3.091,0.000,0.000,0.000,0.000,0.000,0.000,0.000,17,17,4*4F
$GPGGA,075153.60,3135.4766558,N,12046.7752401,E,4,16,1.3,3.0966,M,8.322,M,01,0004*67
$GPHPD,0,0.000,56.53,-0.02,-12.80,31.5912776,120.7795873,3.097,13631837.052,24926793.323,3.097,0.000,0.000,0.000,0.000,0.000,0.000,0.000,16,15,4*43
$GPGGA,075153.80,3135.4767437,N,12046.7753980,E,4,16,1.3,3.0954,M,8.322,M,01,0004*64
$GPHPD,0,0.000,56.25,0.01,-12.80,31.5912791,120.7795900,3.095,13631836.120,24926794.716,3.095,0.000,0.000,0.000,0.000,0.000,0.000,0.000,16,15,4*60
$GPGGA,075154.00,3135.4768305,N,12046.7755556,E,4,16,1.3,3.0943,M,8.322,M,02,0004*66
$GPHPD,0,0.000,55.87,-0.09,-12.82,31.5912805,120.7795926,3.094,13631835.204,24926796.111,3.094,0.000,0.000,0.000,0.000,0.000,0.000,0.000,16,15,4*4F
$GPGGA,075154.20,3135.4769209,N,12046.7757134,E,4,16,1.3,3.0946,M,8.322,M,02,0004*6F
$GPHPD,0,0.000,55.77,-0.09,-12.79,31.5912820,120.7795952,3.095,13631834.236,24926797.488,3.095,0.000,0.000,0.000,0.000,0.000,0.000,0.000,16,15,4*44
$GPGGA,075154.40,3135.4770085,N,12046.7758714,E,4,16,1.3,3.0855,M,8.322,M,02,0004*6F
$GPHPD,0,0.000,55.70,0.67,-12.77,31.5912835,120.7795979,3.086,13631833.309,24926798.883,3.086,0.000,0.000,0.000,0.000,0.000,0.000,0.000,16,15,4*67
$GPGGA,075154.60,3135.4771021,N,12046.7760286,E,4,17,1.3,3.0885,M,8.322,M,02,0004*6B
$GPHPD,0,0.000,55.48,0.60,-12.76,31.5912850,120.7796005,3.089,13631832.295,24926800.234,3.089,0.000,0.000,0.000,0.000,0.000,0.000,0.000,17,17,4*66
$GPGGA,075154.80,3135.4771941,N,12046.7761898,E,4,17,1.3,3.0769,M,8.322,M,00,0004*61
$GPHPD,0,0.000,55.70,0.42,-12.74,31.5912866,120.7796032,3.077,13631831.311,24926801.642,3.077,0.000,0.000,0.000,0.000,0.000,0.000,0.000,17,17,4*64
$GPGGA,075155.00,3135.4772840,N,12046.7763488,E,4,17,1.3,3.0927,M,8.322,M,01,0004*61
$GPHPD,0,0.000,55.52,0.74,-12.73,31.5912881,120.7796058,3.093,13631830.354,24926803.037,3.093,0.000,0.000,0.000,0.000,0.000,0.000,0.000,17,17,4*65
$GPGGA,075155.20,3135.4773793,N,12046.7765074,E,4,17,1.3,3.0964,M,8.322,M,01,0004*65
$GPHPD,0,0.000,55.11,0.19,-12.68,31.5912897,120.7796085,3.096,13631829.318,24926804.394,3.096,0.000,0.000,0.000,0.000,0.000,0.000,0.000,17,17,4*69
$GPGGA,075155.40,3135.4774748,N,12046.7766725,E,4,17,1.3,3.1049,M,8.322,M,01,0004*65
$GPHPD,0,0.000,55.09,-0.23,-12.62,31.5912912,120.7796112,3.105,13631828.293,24926805.829,3.105,0.000,0.000,0.000,0.000,0.000,0.000,0.000,17,17,4*42
$GPGGA,075155.60,3135.4775670,N,12046.7768340,E,4,17,1.3,3.0995,M,8.322,M,00,0004*6D
$GPHPD,0,0.000,54.92,-0.47,-12.59,31.5912928,120.7796139,3.100,13631827.307,24926807.240,3.100,0.000,0.000,0.000,0.000,0.000,0.000,0.000,17,17,4*4F
$GPGGA,075155.80,3135.4776579,N,12046.7769977,E,4,17,1.3,3.0973,M,8.322,M,00,0004*6D
$GPHPD,0,0.000,54.64,-0.06,-12.56,31.5912943,120.7796166,3.097,13631826.345,24926808.685,3.097,0.000,0.000,0.000,0.000,0.000,0.000,0.000,17,17,4*4E
$GPGGA,075156.00,3135.4777568,N,12046.7771569,E,4,17,1.3,3.1028,M,8.322,M,01,0004*6A
$GPHPD,0,0.000,54.42,-0.18,-12.54,31.5912959,120.7796193,3.103,13631825.259,24926810.029,3.103,0.000,0.000,0.000,0.000,0.000,0.000,0.000,17,17,4*40
$GPGGA,075156.20,3135.4778527,N,12046.7773158,E,4,17,1.3,3.0997,M,8.322,M,01,0004*64
$GPHPD,0,0.000,54.62,-0.22,-12.56,31.5912975,120.7796219,3.100,13631824.216,24926811.387,3.100,0.000,0.000,0.000,0.000,0.000,0.000,0.000,17,17,4*4A
$GPGGA,075156.40,3135.4779511,N,12046.7774764,E,4,17,1.3,3.1002,M,8.322,M,01,0004*6C
$GPHPD,0,0.000,54.22,-0.52,-12.56,31.5912992,120.7796246,3.100,13631823.140,24926812.751,3.100,0.000,0.000,0.000,0.000,0.000,0.000,0.000,17,17,4*41
$GPGGA,075156.60,3135.4780506,N,12046.7776357,E,4,17,1.3,3.0996,M,8.322,M,00,0004*6C
$GPHPD,0,0.000,54.16,-0.62,-12.57,31.5913008,120.7796273,3.100,13631822.047,24926814.093,3.100,0.000,0.000,0.000,0.000,0.000,0.000,0.000,17,17,4*41
$GPGGA,075156.80,3135.4781480,N,12046.7777998,E,4,17,1.3,3.1014,M,8.322,M,00,0004*66
$GPHPD,0,0.000,54.01,-0.73,-12.59,31.5913025,120.7796300,3.101,13631820.992,24926815.505,3.101,0.000,0.000,0.000,0.000,0.000,0.000,0.000,17,17,4*4B
$GPGGA,075157.00,3135.4782474,N,12046.7779622,E,4,17,1.3,3.0791,M,8.322,M,01,0004*6D
$GPHPD,0,0.000,53.51,-1.40,-12.61,31.5913041,120.7796327,3.079,13631819.906,24926816.884,3.079,0.000,0.000,0.000,0.000,0.000,0.000,0.000,17,17,4*44
$GPGGA,075157.20,3135.4783509,N,12046.7781249,E,4,17,1.3,3.0785,M,8.322,M,01,0004*6E
$GPHPD,0,0.000,53.22,-0.39,-12.62,31.5913058,120.7796354,3.079,13631818.762,24926818.244,3.079,0.000,0.000,0.000,0.000,0.000,0.000,0.000,17,17,4*45
$GPGGA,075157.40,3135.4784511,N,12046.7782853,E,4,17,1.3,3.0756,M,8.322,M,01,0004*6A
$GPHPD,0,0.000,52.93,-1.03,-12.61,31.5913075,120.7796381,3.076,13631817.661,24926819.595,3.076,0.000,0.000,0.000,0.000,0.000,0.000,0.000,17,17,4*45
$GPGGA,075157.60,3135.4785534,N,12046.7784465,E,4,17,1.3,3.0739,M,8.322,M,00,0004*69
$GPHPD,0,0.000,52.57,-0.76,-12.59,31.5913092,120.7796408,3.074,13631816.531,24926820.943,3.074,0.000,0.000,0.000,0.000,0.000,0.000,0.000,17,17,4*40
$GPGGA,075157.80,3135.4786556,N,12046.7786036,E,4,17,1.3,3.0611,M,8.322,M,00,0004*6B
$GPHPD,0,0.000,52.25,-0.84,-12.60,31.5913109,120.7796434,3.061,13631815.395,24926822.243,3.061,0.000,0.000,0.000,0.000,0.000,0.000,0.000,17,17,4*4C
$GPGGA,075158.00,3135.4787585,N,12046.7787635,E,4,17,1.3,3.0693,M,8.322,M,01,0004*6C
$GPHPD,0,0.000,51.83,-0.38,-12.58,31.5913126,120.7796461,3.069,13631814.254,24926823.572,3.069,0.000,0.000,0.000,0.000,0.000,0.000,0.000,17,17,4*4B
$GPGGA,075158.20,3135.4788660,N,12046.7789202,E,4,17,1.3,3.0654,M,8.322,M,01,0004*6C
$GPHPD,0,0.000,51.38,-0.46,-12.60,31.5913144,120.7796487,3.065,13631813.041,24926824.836,3.065,0.000,0.000,0.000,0.000,0.000,0.000,0.000,17,17,4*4E
$GPGGA,075158.40,3135.4789717,N,12046.7790745,E,4,17,1.3,3.0629,M,8.322,M,01,0004*6E
$GPHPD,0,0.000,51.02,-0.61,-12.62,31.5913162,120.7796512,3.063,13631811.849,24926826.081,3.063,0.000,0.000,0.000,0.000,0.000,0.000,0.000,17,16,4*4C
$GPGGA,075158.60,3135.4790786,N,12046.7792285,E,4,17,1.3,3.0668,M,8.322,M,00,0004*63
$GPHPD,0,0.000,50.58,-0.02,-12.59,31.5913180,120.7796538,3.067,13631810.639,24926827.316,3.067,0.000,0.000,0.000,0.000,0.000,0.000,0.000,17,17,4*4E
$GPGGA,075158.80,3135.4791879,N,12046.7793803,E,4,17,1.3,3.0539,M,8.322,M,00,0004*61
$GPHPD,0,0.000,50.05,-0.31,-12.59,31.5913198,120.7796563,3.054,13631809.391,24926828.510,3.054,0.000,0.000,0.000,0.000,0.000,0.000,0.000,17,17,4*41
$GPGGA,075159.00,3135.4792978,N,12046.7795328,E,4,17,1.3,3.0560,M,8.322,M,01,0004*62
$GPHPD,0,0.000,49.60,0.04,-12.62,31.5913216,120.7796589,3.056,13631808.136,24926829.710,3.056,0.000,0.000,0.000,0.000,0.000,0.000,0.000,17,17,4*65
$GPGGA,075159.20,3135.4794094,N,12046.7796759,E,4,17,1.3,3.0564,M,8.322,M,01,0004*68
$GPHPD,0,0.000,48.95,0.28,-12.60,31.5913235,120.7796613,3.056,13631806.838,24926830.786,3.056,0.000,0.000,0.000,0.000,0.000,0.000,0.000,17,16,4*6C
$GPGGA,075159.40,3135.4795183,N,12046.7798247,E,4,17,1.3,3.0612,M,8.322,M,01,0004*6E
$GPHPD,0,0.000,48.40,0.04,-12.63,31.5913253,120.7796637,3.061,13631805.589,24926831.946,3.061,0.000,0.000,0.000,0.000,0.000,0.000,0.000,17,17,4*69
$GPGGA,075159.60,3135.4796288,N,12046.7799701,E,4,17,1.3,3.0569,M,8.322,M,00,0004*6F
$GPHPD,0,0.000,47.99,0.42,-12.62,31.5913271,120.7796662,3.057,13631804.311,24926833.056,3.057,0.000,0.000,0.000,0.000,0.000,0.000,0.000,17,17,4*6D
$GPGGA,075159.80,3135.4797406,N,12046.7801148,E,4,17,1.3,3.0563,M,8.322,M,00,0004*6F
$GPHPD,0,0.000,47.49,0.85,-12.60,31.5913290,120.7796686,3.056,13631803.013,24926834.150,3.056,0.000,0.000,0.000,0.000,0.000,0.000,0.000,17,17,4*6A
$GPGGA,075200.00,3135.4798547,N,12046.7802571,E,4,17,1.5,3.0633,M,8.322,M,01,0004*6F
$GPHPD,0,0.000,47.21,0.24,-12.59,31.5913309,120.7796710,3.063,13631801.677,24926835.202,3.063,0.000,0.000,0.000,0.000,0.000,0.000,0.000,17,17,4*69
$GPGGA,075200.20,3135.4799717,N,12046.7804019,E,4,17,1.3,3.0573,M,8.322,M,01,0004*67
$GPHPD,0,0.000,46.90,0.16,-12.56,31.5913329,120.7796734,3.057,13631800.306,24926836.267,3.057,0.000,0.000,0.000,0.000,0.000,0.000,0.000,17,17,4*6A
$GPGGA,075200.40,3135.4800827,N,12046.7805431,E,4,17,1.3,3.0758,M,8.322,M,01,0004*66
$GPHPD,0,0.000,46.94,0.20,-12.54,31.5913347,120.7796757,3.076,13631799.012,24926837.324,3.076,0.000,0.000,0.000,0.000,0.000,0.000,0.000,17,17,4*6A
$GPGGA,075200.60,3135.4801973,N,12046.7806829,E,4,17,1.3,3.0733,M,8.322,M,00,0004*6F
$GPHPD,0,0.000,46.80,-0.60,-12.56,31.5913366,120.7796780,3.073,13631797.664,24926838.342,3.073,0.000,0.000,0.000,0.000,0.000,0.000,0.000,17,17,4*4B
$GPGGA,075200.80,3135.4803111,N,12046.7808252,E,4,17,1.3,3.0733,M,8.322,M,00,0004*67
$GPHPD,0,0.000,46.53,-0.28,-12.51,31.5913385,120.7796804,3.073,13631796.333,24926839.396,3.073,0.000,0.000,0.000,0.000,0.000,0.000,0.000,17,17,4*4E
$GPGGA,075201.00,3135.4804248,N,12046.7809669,E,4,17,1.5,3.0697,M,8.322,M,01,0004*63
$GPHPD,0,0.000,46.71,-0.42,-12.47,31.5913404,120.7796828,3.070,13631795.002,24926840.443,3.070,0.000,0.000,0.000,0.000,0.000,0.000,0.000,17,17,4*46
$GPGGA,075201.20,3135.4805369,N,12046.7811136,E,4,17,1.8,3.0596,M,8.322,M,01,0004*69
$GPHPD,0,0.000,46.73,-0.90,-12.43,31.5913423,120.7796852,3.060,13631793.704,24926841.559,3.060,0.000,0.000,0.000,0.000,0.000,0.000,0.000,17,16,4*4A
$GPGGA,075201.40,3135.4806507,N,12046.7812569,E,4,18,1.8,3.0685,M,8.323,M,01,0004*60
$GPHPD,0,0.000,46.89,-0.87,-12.42,31.5913442,120.7796876,3.069,13631792.375,24926842.625,3.069,0.000,0.000,0.000,0.000,0.000,0.000,0.000,18,18,4*40
$GPGGA,075201.60,3135.4807642,N,12046.7814010,E,4,17,1.8,3.0590,M,8.323,M,00,0004*65
$GPHPD,0,0.000,47.09,-0.63,-12.42,31.5913461,120.7796900,3.059,13631791.051,24926843.702,3.059,0.000,0.000,0.000,0.000,0.000,0.000,0.000,17,18,4*4E
$GPGGA,075201.80,3135.4808741,N,12046.7815491,E,4,17,1.8,3.0646,M,8.323,M,00,0004*62
$GPHPD,0,0.000,47.66,-0.58,-12.43,31.5913479,120.7796925,3.065,13631789.787,24926844.848,3.065,0.000,0.000,0.000,0.000,0.000,0.000,0.000,17,18,4*43
$GPGGA,075202.00,3135.4809830,N,12046.7816933,E,4,17,1.4,3.0789,M,8.323,M,01,0004*68
$GPHPD,0,0.000,47.81,-0.78,-12.41,31.5913497,120.7796949,3.079,13631788.529,24926845.953,3.079,0.000,0.000,0.000,0.000,0.000,0.000,0.000,17,17,4*42
$GPGGA,075202.20,3135.4810940,N,12046.7818404,E,4,17,1.4,3.0836,M,8.323,M,01,0004*68
$GPHPD,0,0.000,48.37,-0.54,-12.44,31.5913516,120.7796973,3.084,13631787.247,24926847.081,3.084,0.000,0.000,0.000,0.000,0.000,0.000,0.000,17,17,4*4E
$GPGGA,075202.40,3135.4812015,N,12046.7819901,E,4,17,1.4,3.0740,M,8.323,M,01,0004*62
$GPHPD,0,0.000,48.89,-0.76,-12.45,31.5913534,120.7796998,3.074,13631786.021,24926848.260,3.074,0.000,0.000,0.000,0.000,0.000,0.000,0.000,17,17,4*4E
$GPGGA,075202.60,3135.4813090,N,12046.7821399,E,4,17,1.3,3.0700,M,8.323,M,00,0004*6E
$GPHPD,0,0.000,49.24,-0.74,-12.46,31.5913552,120.7797023,3.070,13631784.794,24926849.441,3.070,0.000,0.000,0.000,0.000,0.000,0.000,0.000,17,16,4*4F
$GPGGA,075202.80,3135.4814134,N,12046.7822918,E,4,17,1.3,3.0640,M,8.323,M,00,0004*6D
$GPHPD,0,0.000,49.79,-0.39,-12.48,31.5913569,120.7797049,3.064,13631783.616,24926850.665,3.064,0.000,0.000,0.000,0.000,0.000,0.000,0.000,17,16,4*44
$GPGGA,075203.00,3135.4815218,N,12046.7824475,E,4,17,1.3,3.0312,M,8.323,M,01,0004*6B
$GPHPD,0,0.000,50.31,-0.56,-12.50,31.5913587,120.7797075,3.031,13631782.388,24926851.911,3.031,0.000,0.000,0.000,0.000,0.000,0.000,0.000,17,16,4*41
$GPGGA,075203.20,3135.4816249,N,12046.7825973,E,4,17,1.3,3.0319,M,8.323,M,01,0004*6F
$GPHPD,0,0.000,50.51,0.21,-12.50,31.5913604,120.7797100,3.032,13631781.224,24926853.118,3.032,0.000,0.000,0.000,0.000,0.000,0.000,0.000,17,16,4*66
$GPGGA,075203.40,3135.4817282,N,12046.7827513,E,4,17,1.4,3.0326,M,8.323,M,01,0004*6C
$GPHPD,0,0.000,50.88,0.10,-12.51,31.5913621,120.7797125,3.033,13631780.066,24926854.373,3.033,0.000,0.000,0.000,0.000,0.000,0.000,0.000,17,16,4*6C
$GPGGA,075203.60,3135.4818292,N,12046.7829048,E,4,16,1.4,3.0428,M,8.323,M,00,0004*6C
$GPHPD,0,0.000,51.42,-0.08,-12.50,31.5913638,120.7797151,3.043,13631778.939,24926855.636,3.043,0.000,0.000,0.000,0.000,0.000,0.000,0.000,16,16,4*45
$GPGGA,075203.80,3135.4819321,N,12046.7830597,E,4,16,1.4,3.0368,M,8.323,M,00,0004*66
$GPHPD,0,0.000,51.66,-0.26,-12.51,31.5913655,120.7797177,3.037,13631777.788,24926856.905,3.037,0.000,0.000,0.000,0.000,0.000,0.000,0.000,16,16,4*46
$GPGGA,075204.00,3135.4820335,N,12046.7832141,E,4,16,1.4,3.0345,M,8.323,M,01,0004*65
$GPHPD,0,0.000,51.84,0.15,-12.52,31.5913672,120.7797202,3.035,13631776.657,24926858.177,3.035,0.000,0.000,0.000,0.000,0.000,0.000,0.000,16,16,4*61
$GPGGA,075204.20,3135.4821368,N,12046.7833682,E,4,16,1.4,3.0346,M,8.323,M,01,0004*64
$GPHPD,0,0.000,52.03,0.00,-12.52,31.5913689,120.7797228,3.035,13631775.499,24926859.434,3.035,0.000,0.000,0.000,0.000,0.000,0.000,0.000,16,16,4*65
$GPGGA,075204.40,3135.4822385,N,12046.7835262,E,4,16,1.4,3.0336,M,8.323,M,01,0004*69
$GPHPD,0,0.000,52.42,-0.34,-12.50,31.5913706,120.7797254,3.034,13631774.371,24926860.747,3.034,0.000,0.000,0.000,0.000,0.000,0.000,0.000,16,16,4*48
$GPGGA,075204.60,3135.4823404,N,12046.7836782,E,4,16,1.4,3.0411,M,8.323,M,00,0004*6F
$GPHPD,0,0.000,52.49,-0.09,-12.49,31.5913723,120.7797280,3.041,13631773.229,24926861.987,3.041,0.000,0.000,0.000,0.000,0.000,0.000,0.000,16,16,4*43
$GPGGA,075204.80,3135.4824387,N,12046.7838373,E,4,16,1.4,3.0374,M,8.323,M,00,0004*6A
$GPHPD,0,0.000,52.64,-0.11,-12.50,31.5913740,120.7797306,3.037,13631772.152,24926863.333,3.037,0.000,0.000,0.000,0.000,0.000,0.000,0.000,16,16,4*4E
$GPGGA,075205.00,3135.4825381,N,12046.7839955,E,4,16,1.4,3.0291,M,8.323,M,01,0004*60
$GPHPD,0,0.000,52.53,-0.72,-12.52,31.5913756,120.7797333,3.029,13631771.057,24926864.662,3.029,0.000,0.000,0.000,0.000,0.000,0.000,0.000,16,16,4*4D
$GPGGA,075205.20,3135.4826391,N,12046.7841507,E,4,16,1.4,3.0272,M,8.323,M,01,0004*69
$GPHPD,0,0.000,52.73,-0.79,-12.50,31.5913773,120.7797358,3.027,13631769.934,24926865.946,3.027,0.000,0.000,0.000,0.000,0.000,0.000,0.000,16,16,4*41
$GPGGA,075205.40,3135.4827379,N,12046.7843064,E,4,16,1.4,3.0336,M,8.323,M,01,0004*6B
$GPHPD,0,0.000,52.66,-0.08,-12.52,31.5913790,120.7797384,3.034,13631768.843,24926867.249,3.034,0.000,0.000,0.000,0.000,0.000,0.000,0.000,16,16,4*4B
$GPGGA,075205.60,3135.4828413,N,12046.7844621,E,4,16,1.8,3.0190,M,8.323,M,01,0004*6F
$GPHPD,0,0.000,52.39,-0.54,-12.53,31.5913807,120.7797410,3.019,13631767.686,24926868.524,3.019,0.000,0.000,0.000,0.000,0.000,0.000,0.000,16,16,4*49
$GPGGA,075205.80,3135.4829438,N,12046.7846201,E,4,16,1.8,2.9963,M,8.323,M,01,0004*61
$GPHPD,0,0.000,52.42,-0.29,-12.49,31.5913824,120.7797437,2.996,13631766.547,24926869.833,2.996,0.000,0.000,0.000,0.000,0.000,0.000,0.000,16,16,4*45
$GPGGA,075206.00,3135.4830410,N,12046.7847778,E,4,16,1.8,3.0069,M,8.323,M,02,0004*6A
$GPHPD,0,0.000,52.25,-1.59,-12.47,31.5913840,120.7797463,3.007,13631765.483,24926871.169,3.007,0.000,0.000,0.000,0.000,0.000,0.000,0.000,16,16,4*4A
$GPGGA,075206.20,3135.4831396,N,12046.7849353,E,4,15,1.8,3.0160,M,8.323,M,02,0004*68
$GPHPD,0,0.000,52.36,-2.37,-12.46,31.5913857,120.7797489,3.016,13631764.398,24926872.494,3.016,0.000,0.000,0.000,0.000,0.000,0.000,0.000,15,15,4*48
$GPGGA,075206.40,3135.4832408,N,12046.7850914,E,4,15,2.0,3.0151,M,8.323,M,02,0004*65
$GPHPD,0,0.000,52.58,-0.47,-12.45,31.5913873,120.7797515,3.015,13631763.274,24926873.787,3.015,0.000,0.000,0.000,0.000,0.000,0.000,0.000,15,15,4*40
$GPGGA,075206.60,3135.4833389,N,12046.7852456,E,4,15,1.8,3.0120,M,8.323,M,02,0004*6C
$GPHPD,0,0.000,52.90,-0.50,-12.46,31.5913890,120.7797541,3.012,13631762.190,24926875.076,3.012,0.000,0.000,0.000,0.000,0.000,0.000,0.000,15,15,4*4A
$GPGGA,075206.80,3135.4834384,N,12046.7854047,E,4,15,1.8,2.9983,M,8.323,M,00,0004*61
$GPHPD,0,0.000,53.09,-0.51,-12.43,31.5913906,120.7797567,2.998,13631761.096,24926876.415,2.998,0.000,0.000,0.000,0.000,0.000,0.000,0.000,15,15,4*43
$GPGGA,075207.00,3135.4835353,N,12046.7855634,E,4,15,1.8,2.9982,M,8.323,M,01,0004*60
$GPHPD,0,0.000,53.44,-0.44,-12.43,31.5913923,120.7797594,2.998,13631760.038,24926877.765,2.998,0.000,0.000,0.000,0.000,0.000,0.000,0.000,15,15,4*45
$GPGGA,075207.20,3135.4836351,N,12046.7857223,E,4,15,1.8,2.9909,M,8.323,M,01,0004*60
$GPHPD,0,0.000,53.65,-0.64,-12.42,31.5913939,120.7797620,2.991,13631758.939,24926879.100,2.991,0.000,0.000,0.000,0.000,0.000,0.000,0.000,15,15,4*4A
$GPGGA,075207.40,3135.4837305,N,12046.7858855,E,4,18,1.6,2.9869,M,8.323,M,01,0004*66
$GPHPD,0,0.000,54.05,-0.24,-12.38,31.5913955,120.7797648,2.987,13631757.911,24926880.513,2.987,0.000,0.000,0.000,0.000,0.000,0.000,0.000,18,17,4*4C
$GPGGA,075207.60,3135.4838277,N,12046.7860490,E,4,18,1.6,2.9789,M,8.323,M,00,0004*61
$GPHPD,0,0.000,54.17,-0.21,-12.37,31.5913971,120.7797675,2.979,13631756.858,24926881.919,2.979,0.000,0.000,0.000,0.000,0.000,0.000,0.000,18,17,4*47
$GPGGA,075207.80,3135.4839209,N,12046.7862109,E,4,18,1.6,2.9855,M,8.323,M,00,0004*6E
$GPHPD,0,0.000,54.65,-0.03,-12.35,31.5913987,120.7797702,2.986,13631755.859,24926883.328,2.986,0.000,0.000,0.000,0.000,0.000,0.000,0.000,18,17,4*40
$GPGGA,075208.00,3135.4840130,N,12046.7863717,E,4,18,1.5,3.0009,M,8.323,M,01,0004*6D
$GPHPD,0,0.000,54.98,-1.09,-12.29,31.5914002,120.7797729,3.001,13631754.874,24926884.731,3.001,0.000,0.000,0.000,0.000,0.000,0.000,0.000,18,17,4*4B
$GPGGA,075208.20,3135.4841019,N,12046.7865293,E,4,18,1.5,3.0032,M,8.323,M,01,0004*63
$GPHPD,0,0.000,55.59,0.35,-12.26,31.5914017,120.7797755,3.003,13631753.927,24926886.114,3.003,0.000,0.000,0.000,0.000,0.000,0.000,0.000,18,17,4*67
$GPGGA,075208.40,3135.4841891,N,12046.7866850,E,4,18,1.5,3.0039,M,8.323,M,01,0004*60
$GPHPD,0,0.000,56.06,0.47,-12.19,31.5914032,120.7797781,3.004,13631753.001,24926887.484,3.004,0.000,0.000,0.000,0.000,0.000,0.000,0.000,18,17,4*69
$GPGGA,075208.60,3135.4842675,N,12046.7868328,E,4,18,1.5,3.0205,M,8.323,M,00,0004*63
$GPHPD,0,0.000,56.13,0.42,-12.15,31.5914045,120.7797805,3.021,13631752.184,24926888.810,3.021,0.000,0.000,0.000,0.000,0.000,0.000,0.000,18,16,4*65
$GPGGA,075208.80,3135.4843444,N,12046.7869745,E,4,18,1.5,3.0081,M,8.323,M,00,0004*6C
$GPHPD,0,0.000,56.37,-0.29,-12.13,31.5914057,120.7797829,3.008,13631751.376,24926890.071,3.008,0.000,0.000,0.000,0.000,0.000,0.000,0.000,18,16,4*42
$GPGGA,075209.00,3135.4844183,N,12046.7871075,E,4,18,1.2,3.0153,M,8.323,M,01,0004*69
$GPHPD,0,0.000,56.60,-0.33,-12.05,31.5914070,120.7797851,3.015,13631750.593,24926891.245,3.015,0.000,0.000,0.000,0.000,0.000,0.000,0.000,18,16,4*4E
$GPGGA,075209.20,3135.4844838,N,12046.7872344,E,4,18,1.2,3.0255,M,8.323,M,01,0004*65
$GPHPD,0,0.000,57.12,0.25,-12.00,31.5914081,120.7797872,3.026,13631749.918,24926892.394,3.026,0.000,0.000,0.000,0.000,0.000,0.000,0.000,18,16,4*63
$GPGGA,075209.40,3135.4845475,N,12046.7873531,E,4,18,1.3,3.0222,M,8.323,M,01,0004*63
$GPHPD,0,0.000,57.35,0.12,-11.96,31.5914091,120.7797892,3.022,13631749.251,24926893.455,3.022,0.000,0.000,0.000,0.000,0.000,0.000,0.000,18,16,4*6C
$GPGGA,075209.60,3135.4846040,N,12046.7874631,E,4,18,1.5,3.0203,M,8.323,M,00,0004*60
$GPHPD,0,0.000,57.49,-0.39,-11.88,31.5914101,120.7797911,3.020,13631748.669,24926894.452,3.020,0.000,0.000,0.000,0.000,0.000,0.000,0.000,18,17,4*41
$GPGGA,075209.80,3135.4846520,N,12046.7875580,E,4,18,1.5,2.9995,M,8.323,M,00,0004*69
$GPHPD,0,0.000,57.62,-0.83,-11.76,31.5914109,120.7797926,3.000,13631748.178,24926895.317,3.000,0.000,0.000,0.000,0.000,0.000,0.000,0.000,18,17,4*44
$GPGGA,075210.00,3135.4846951,N,12046.7876415,E,4,18,1.5,3.0043,M,8.323,M,01,0004*66
$GPHPD,0,0.000,58.35,-0.19,-11.65,31.5914116,120.7797940,3.004,13631747.734,24926896.073,3.004,0.000,0.000,0.000,0.000,0.000,0.000,0.000,18,17,4*45
$GPGGA,075210.20,3135.4847316,N,12046.7877085,E,4,18,1.5,2.9887,M,8.323,M,01,0004*68
$GPHPD,0,0.000,58.17,-0.20,-11.59,31.5914122,120.7797951,2.989,13631747.350,24926896.669,2.989,0.000,0.000,0.000,0.000,0.000,0.000,0.000,18,17,4*4C
$GPGGA,075210.40,3135.4847607,N,12046.7877672,E,4,18,1.5,2.9825,M,8.323,M,01,0004*6D
$GPHPD,0,0.000,58.60,-0.15,-11.55,31.5914127,120.7797961,2.983,13631747.054,24926897.207,2.983,0.000,0.000,0.000,0.000,0.000,0.000,0.000,18,17,4*4A
$GPGGA,075210.60,3135.4847825,N,12046.7878163,E,4,18,1.5,2.9849,M,8.323,M,00,0004*62
$GPHPD,0,0.000,58.76,0.26,-11.49,31.5914130,120.7797969,2.985,13631746.843,24926897.672,2.985,0.000,0.000,0.000,0.000,0.000,0.000,0.000,18,17,4*6A
$GPGGA,075210.80,3135.4848011,N,12046.7878530,E,4,18,1.5,2.9893,M,8.323,M,00,0004*69
$GPHPD,0,0.000,58.61,-0.22,-11.44,31.5914134,120.7797976,2.989,13631746.652,24926898.007,2.989,0.000,0.000,0.000,0.000,0.000,0.000,0.000,18,17,4*47
$GPGGA,075211.00,3135.4848149,N,12046.7878808,E,4,18,1.5,2.9984,M,8.323,M,01,0004*6C
$GPHPD,0,0.000,58.66,0.02,-11.42,31.5914136,120.7797980,2.998,13631746.512,24926898.262,2.998,0.000,0.000,0.000,0.000,0.000,0.000,0.000,18,17,4*64
$GPGGA,075211.20,3135.4848261,N,12046.7879043,E,4,18,1.5,2.9970,M,8.323,M,01,0004*6A
$GPHPD,0,0.000,58.70,-0.09,-11.46,31.5914138,120.7797984,2.997,13631746.400,24926898.480,2.997,0.000,0.000,0.000,0.000,0.000,0.000,0.000,18,17,4*43
$GPGGA,075211.40,3135.4848383,N,12046.7879287,E,4,18,1.4,2.9920,M,8.323,M,01,0004*6F
$GPHPD,0,0.000,58.79,-0.21,-11.48,31.5914140,120.7797988,2.992,13631746.276,24926898.703,2.992,0.000,0.000,0.000,0.000,0.000,0.000,0.000,18,17,4*42
$GPGGA,075211.60,3135.4848490,N,12046.7879478,E,4,17,1.4,2.9931,M,8.323,M,01,0004*61
$GPHPD,0,0.000,58.75,-0.39,-11.49,31.5914142,120.7797991,2.993,13631746.162,24926898.871,2.993,0.000,0.000,0.000,0.000,0.000,0.000,0.000,17,16,4*4E
$GPGGA,075211.80,3135.4848563,N,12046.7879641,E,4,17,1.4,2.9952,M,8.323,M,00,0004*6E
$GPHPD,0,0.000,58.86,-0.19,-11.51,31.5914143,120.7797994,2.995,13631746.091,24926899.025,2.995,0.000,0.000,0.000,0.000,0.000,0.000,0.000,17,16,4*48
$GPGGA,075212.00,3135.4848629,N,12046.7879779,E,4,17,1.4,2.9980,M,8.323,M,01,0004*6C
$GPHPD,0,0.000,58.89,-0.43,-11.52,31.5914144,120.7797996,2.998,13631746.025,24926899.153,2.998,0.000,0.000,0.000,0.000,0.000,0.000,0.000,17,16,4*41
$GPGGA,075212.20,3135.4848691,N,12046.7879859,E,4,17,1.4,2.9963,M,8.323,M,01,0004*6D
$GPHPD,0,0.000,58.95,-0.34,-11.52,31.5914145,120.7797998,2.996,13631745.953,24926899.214,2.996,0.000,0.000,0.000,0.000,0.000,0.000,0.000,17,16,4*48
$GPGGA,075212.40,3135.4848709,N,12046.7879928,E,4,17,1.4,2.9900,M,8.323,M,01,0004*69
$GPHPD,0,0.000,58.99,-0.42,-11.51,31.5914145,120.7797999,2.990,13631745.942,24926899.286,2.990,0.000,0.000,0.000,0.000,0.000,0.000,0.000,17,16,4*4C
$GPGGA,075212.60,3135.4848721,N,12046.7879974,E,4,17,1.4,2.9955,M,8.323,M,00,0004*69
$GPHPD,0,0.000,58.95,-0.40,-11.51,31.5914145,120.7798000,2.996,13631745.934,24926899.335,2.996,0.000,0.000,0.000,0.000,0.000,0.000,0.000,17,16,4*4C
$GPGGA,075212.80,3135.4848726,N,12046.7879968,E,4,17,1.4,2.9886,M,8.323,M,00,0004*62
$GPHPD,0,0.000,59.00,-0.53,-11.55,31.5914145,120.7797999,2.989,13631745.925,24926899.325,2.989,0.000,0.000,0.000,0.000,0.000,0.000,0.000,17,16,4*40
$GPGGA,075213.00,3135.4848709,N,12046.7879959,E,4,17,1.4,2.9915,M,8.323,M,01,0004*6E
$GPHPD,0,0.000,58.95,-0.18,-11.56,31.5914145,120.7797999,2.992,13631745.948,24926899.324,2.992,0.000,0.000,0.000,0.000,0.000,0.000,0.000,17,16,4*4B
$GPGGA,075213.20,3135.4848719,N,12046.7879971,E,4,17,1.4,2.9974,M,8.323,M,01,0004*60
$GPHPD,0,0.000,59.08,-0.21,-11.59,31.5914145,120.7798000,2.997,13631745.936,24926899.332,2.997,0.000,0.000,0.000,0.000,0.000,0.000,0.000,17,16,4*43
$GPGGA,075213.40,3135.4848703,N,12046.7879958,E,4,17,1.4,3.0007,M,8.323,M,01,0004*63
$GPHPD,0,0.000,59.00,-0.48,-11.62,31.5914145,120.7797999,3.001,13631745.956,24926899.326,3.001,0.000,0.000,0.000,0.000,0.000,0.000,0.000,17,16,4*49
$GPGGA,075213.60,3135.4848718,N,12046.7879969,E,4,17,1.4,2.9972,M,8.323,M,00,0004*6B
$GPHPD,0,0.000,58.91,-0.50,-11.66,31.5914145,120.7797999,2.997,13631745.937,24926899.330,2.997,0.000,0.000,0.000,0.000,0.000,0.000,0.000,17,16,4*4D
$GPGGA,075213.80,3135.4848722,N,12046.7879968,E,4,17,1.4,2.9968,M,8.323,M,00,0004*66
$GPHPD,0,0.000,59.03,-0.16,-11.69,31.5914145,120.7797999,2.997,13631745.931,24926899.327,2.997,0.000,0.000,0.000,0.000,0.000,0.000,0.000,17,16,4*4A
$GPGGA,075214.00,3135.4848729,N,12046.7879980,E,4,17,1.4,2.9942,M,8.323,M,01,0004*6D
$GPHPD,0,0.000,59.04,-0.35,-11.74,31.5914145,120.7798000,2.994,13631745.924,24926899.337,2.994,0.000,0.000,0.000,0.000,0.000,0.000,0.000,17,16,4*43
$GPGGA,075214.20,3135.4848723,N,12046.7879982,E,4,17,1.4,2.9956,M,8.323,M,01,0004*62
$GPHPD,0,0.000,59.04,-1.02,-11.77,31.5914145,120.7798000,2.996,13631745.933,24926899.343,2.996,0.000,0.000,0.000,0.000,0.000,0.000,0.000,17,16,4*40
$GPGGA,075214.40,3135.4848721,N,12046.7879977,E,4,17,1.4,2.9972,M,8.323,M,01,0004*6A
$GPHPD,0,0.000,59.00,-1.04,-11.80,31.5914145,120.7798000,2.997,13631745.934,24926899.338,2.997,0.000,0.000,0.000,0.000,0.000,0.000,0.000,17,16,4*41
$GPGGA,075214.60,3135.4848703,N,12046.7879974,E,4,17,1.4,3.0048,M,8.323,M,00,0004*62
$GPHPD,0,0.000,58.96,-1.30,-11.83,31.5914145,120.7798000,3.005,13631745.959,24926899.345,3.005,0.000,0.000,0.000,0.000,0.000,0.000,0.000,17,16,4*4A
$GPGGA,075214.80,3135.4848712,N,12046.7879983,E,4,17,1.4,2.9952,M,8.323,M,00,0004*6E
$GPHPD,0,0.000,58.83,-1.71,-11.86,31.5914145,120.7798000,2.995,13631745.948,24926899.351,2.995,0.000,0.000,0.000,0.000,0.000,0.000,0.000,17,16,4*4B
$GPGGA,075215.00,3135.4848703,N,12046.7879959,E,4,17,1.4,2.9961,M,8.323,M,01,0004*61
$GPHPD,0,0.000,58.92,-1.06,-11.90,31.5914145,120.7797999,2.996,13631745.956,24926899.327,2.996,0.000,0.000,0.000,0.000,0.000,0.000,0.000,17,16,4*44
$GPGGA,075215.20,3135.4848703,N,12046.7879938,E,4,17,1.4,2.9953,M,8.323,M,01,0004*65
$GPHPD,0,0.000,58.90,-1.16,-11.94,31.5914145,120.7797999,2.995,13631745.952,24926899.302,2.995,0.000,0.000,0.000,0.000,0.000,0.000,0.000,17,16,4*40
$GPGGA,075215.40,3135.4848699,N,12046.7879955,E,4,17,1.4,3.0004,M,8.323,M,01,0004*69
$GPHPD,0,0.000,58.95,-1.16,-11.97,31.5914145,120.7797999,3.000,13631745.961,24926899.325,3.000,0.000,0.000,0.000,0.000,0.000,0.000,0.000,17,16,4*43
$GPGGA,075215.60,3135.4848704,N,12046.7879975,E,4,17,1.4,2.9986,M,8.323,M,00,0004*66
$GPHPD,0,0.000,58.87,-1.34,-11.99,31.5914145,120.7798000,2.999,13631745.958,24926899.346,2.999,0.000,0.000,0.000,0.000,0.000,0.000,0.000,17,16,4*47
$GPGGA,075215.80,3135.4848705,N,12046.7879977,E,4,17,1.4,3.0010,M,8.323,M,00,0004*65
$GPHPD,0,0.000,58.81,-1.28,-12.02,31.5914145,120.7798000,3.001,13631745.957,24926899.348,3.001,0.000,0.000,0.000,0.000,0.000,0.000,0.000,17,16,4*4C
$GPGGA,075216.00,3135.4848697,N,12046.7879954,E,4,17,1.4,3.0037,M,8.323,M,01,0004*61
$GPHPD,0,0.000,58.95,-1.22,-12.05,31.5914145,120.7797999,3.004,13631745.964,24926899.325,3.004,0.000,0.000,0.000,0.000,0.000,0.000,0.000,17,16,4*49
$GPGGA,075216.20,3135.4848713,N,12046.7879959,E,4,17,1.4,3.0016,M,8.323,M,01,0004*60
$GPHPD,0,0.000,58.86,-1.57,-12.07,31.5914145,120.7797999,3.002,13631745.942,24926899.321,3.002,0.000,0.000,0.000,0.000,0.000,0.000,0.000,17,16,4*4B
$GPGGA,075216.40,3135.4848707,N,12046.7879975,E,4,17,1.4,2.9999,M,8.323,M,01,0004*6B
$GPHPD,0,0.000,59.06,-1.41,-12.09,31.5914145,120.7798000,3.000,13631745.954,24926899.344,3.000,0.000,0.000,0.000,0.000,0.000,0.000,0.000,17,16,4*49
$GPGGA,075216.60,3135.4848712,N,12046.7879970,E,4,17,1.4,2.9994,M,8.323,M,00,0004*64
$GPHPD,0,0.000,58.87,-1.32,-12.10,31.5914145,120.7798000,2.999,13631745.946,24926899.335,2.999,0.000,0.000,0.000,0.000,0.000,0.000,0.000,17,16,4*48
$GPGGA,075216.80,3135.4848723,N,12046.7879950,E,4,17,1.4,2.9994,M,8.323,M,00,0004*6A
$GPHPD,0,0.000,58.96,-1.01,-12.12,31.5914145,120.7797999,2.999,13631745.926,24926899.305,2.999,0.000,0.000,0.000,0.000,0.000,0.000,0.000,17,16,4*49
$GPGGA,075217.00,3135.4848734,N,12046.7879990,E,4,17,1.4,2.9980,M,8.323,M,01,0004*6D
$GPHPD,0,0.000,59.09,-1.42,-12.15,31.5914146,120.7798000,2.998,13631745.918,24926899.346,2.998,0.000,0.000,0.000,0.000,0.000,0.000,0.000,17,16,4*41
$GPGGA,075217.20,3135.4848765,N,12046.7880022,E,4,17,1.4,2.9910,M,8.323,M,01,0004*64
$GPHPD,0,0.000,59.03,-1.20,-12.20,31.5914146,120.7798000,2.991,13631745.881,24926899.367,2.991,0.000,0.000,0.000,0.000,0.000,0.000,0.000,17,16,4*4B
$GPGGA,075217.40,3135.4848788,N,12046.7880079,E,4,17,1.4,2.9942,M,8.323,M,01,0004*68 