$GPGGA,075235.20,3135.5162153,N,12046.8502561,E,4,15,2.0,2.5503,M,8.327,M,01,0004*6E
$GPHPD,0,0.000,59.18,0.05,-12.75,31.5919369,120.7808376,2.550,13631425.682,24927467.654,2.550,0.000,0.000,0.000,0.000,0.000,0.000,0.000,15,14,4*6D
$GPGGA,075235.40,3135.5166725,N,12046.8511790,E,4,15,2.0,2.5583,M,8.327,M,01,0004*6D
$GPHPD,0,0.000,59.19,0.02,-12.42,31.5919445,120.7808530,2.558,13631421.040,24927476.122,2.558,0.000,0.000,0.000,0.000,0.000,0.000,0.000,15,14,4*68
$GPGGA,075235.60,3135.5171121,N,12046.8520578,E,4,15,2.0,2.5531,M,8.327,M,00,0004*65
$GPHPD,0,0.000,59.02,-0.41,-11.97,31.5919519,120.7808676,2.553,13631416.559,24927484.160,2.553,0.000,0.000,0.000,0.000,0.000,0.000,0.000,15,14,4*48
$GPGGA,075235.80,3135.5175277,N,12046.8528917,E,4,15,2.0,2.5601,M,8.327,M,00,0004*62
$GPHPD,0,0.000,59.14,0.04,-11.55,31.5919588,120.7808815,2.560,13631412.330,24927491.797,2.560,0.000,0.000,0.000,0.000,0.000,0.000,0.000,15,14,4*69
$GPGGA,075236.00,3135.5179193,N,12046.8536801,E,4,15,2.0,2.5606,M,8.327,M,01,0004*63
$GPHPD,0,0.000,59.30,-0.12,-11.12,31.5919653,120.7808947,2.561,13631408.350,24927499.024,2.561,0.000,0.000,0.000,0.000,0.000,0.000,0.000,15,14,4*4F
$GPGGA,075236.20,3135.5182879,N,12046.8544209,E,4,14,2.0,2.5809,M,8.327,M,01,0004*6F
$GPHPD,0,0.000,59.16,-0.35,-10.65,31.5919715,120.7809070,2.581,13631404.601,24927505.812,2.581,0.000,0.000,0.000,0.000,0.000,0.000,0.000,14,14,4*45
$GPGGA,075236.40,3135.5186337,N,12046.8551066,E,4,15,2.0,2.5834,M,8.327,M,01,0004*6C
$GPHPD,0,0.000,58.77,-2.27,-10.16,31.5919772,120.7809184,2.583,13631401.065,24927512.068,2.583,0.000,0.000,0.000,0.000,0.000,0.000,0.000,15,14,4*4E
$GPGGA,075236.60,3135.5189544,N,12046.8557397,E,4,15,2.0,2.5824,M,8.327,M,00,0004*68
$GPHPD,0,0.000,58.78,-2.24,-9.83,31.5919826,120.7809290,2.582,13631397.780,24927517.835,2.582,0.000,0.000,0.000,0.000,0.000,0.000,0.000,15,14,4*7F
$GPGGA,075236.80,3135.5192518,N,12046.8563303,E,4,14,2.0,2.5820,M,8.327,M,00,0004*6A
$GPHPD,0,0.000,58.73,-2.38,-9.48,31.5919875,120.7809388,2.582,13631394.741,24927523.226,2.582,0.000,0.000,0.000,0.000,0.000,0.000,0.000,14,13,4*77
$GPGGA,075237.00,3135.5195216,N,12046.8568743,E,4,14,2.0,2.5877,M,8.327,M,01,0004*65
$GPHPD,0,0.000,58.96,0.10,-9.11,31.5919920,120.7809479,2.588,13631392.000,24927528.215,2.588,0.000,0.000,0.000,0.000,0.000,0.000,0.000,14,13,4*52
$GPGGA,075237.20,3135.5197728,N,12046.8573645,E,4,14,2.0,2.6115,M,8.327,M,01,0004*6E
$GPHPD,0,0.000,58.76,0.54,-8.72,31.5919962,120.7809561,2.612,13631389.416,24927532.664,2.612,0.000,0.000,0.000,0.000,0.000,0.000,0.000,14,13,4*56
$GPGGA,075237.40,3135.5199970,N,12046.8578059,E,4,17,1.6,2.5922,M,8.327,M,01,0004*6C
$GPHPD,0,0.000,58.86,-0.05,-8.32,31.5920000,120.7809634,2.592,13631387.117,24927536.682,2.592,0.000,0.000,0.000,0.000,0.000,0.000,0.000,17,15,4*73
$GPGGA,075237.60,3135.5201947,N,12046.8581887,E,4,17,1.6,2.6068,M,8.327,M,00,0004*60
$GPHPD,0,0.000,58.67,0.48,-7.89,31.5920032,120.7809698,2.607,13631385.077,24927540.147,2.607,0.000,0.000,0.000,0.000,0.000,0.000,0.000,17,15,4*5A
$GPGGA,075237.80,3135.5203643,N,12046.8585227,E,4,17,1.6,2.6068,M,8.327,M,00,0004*63
$GPHPD,0,0.000,58.46,-0.46,-7.49,31.5920061,120.7809754,2.607,13631383.338,24927543.187,2.607,0.000,0.000,0.000,0.000,0.000,0.000,0.000,17,15,4*70
$GPGGA,075238.00,3135.5205057,N,12046.8588031,E,4,16,1.6,2.6198,M,8.327,M,01,0004*67
$GPHPD,0,0.000,58.67,0.09,-7.10,31.5920084,120.7809801,2.620,13631381.892,24927545.745,2.620,0.000,0.000,0.000,0.000,0.000,0.000,0.000,16,15,4*5B
$GPGGA,075238.20,3135.5206213,N,12046.8590246,E,4,16,1.6,2.6112,M,8.327,M,01,0004*6D
$GPHPD,0,0.000,58.04,-0.48,-6.79,31.5920104,120.7809837,2.611,13631380.695,24927547.744,2.611,0.000,0.000,0.000,0.000,0.000,0.000,0.000,16,15,4*7F
$GPGGA,075238.40,3135.5207059,N,12046.8591910,E,4,16,1.6,2.6076,M,8.327,M,01,0004*6C
$GPHPD,0,0.000,58.50,0.23,-6.48,31.5920118,120.7809865,2.608,13631379.827,24927549.258,2.608,0.000,0.000,0.000,0.000,0.000,0.000,0.000,16,15,4*51
$GPGGA,075238.60,3135.5207696,N,12046.8593095,E,4,17,1.6,2.6141,M,8.327,M,00,0004*68
$GPHPD,0,0.000,58.53,0.59,-6.27,31.5920128,120.7809885,2.614,13631379.160,24927550.316,2.614,0.000,0.000,0.000,0.000,0.000,0.000,0.000,17,16,4*50
$GPGGA,075238.80,3135.5208109,N,12046.8593899,E,4,17,1.6,2.6162,M,8.327,M,00,0004*6D
$GPHPD,0,0.000,58.60,1.32,-6.20,31.5920135,120.7809898,2.616,13631378.735,24927551.045,2.616,0.000,0.000,0.000,0.000,0.000,0.000,0.000,17,16,4*58
$GPGGA,075239.00,3135.5208378,N,12046.8594424,E,4,17,1.6,2.6099,M,8.327,M,01,0004*69
$GPHPD,0,0.000,58.47,1.58,-6.16,31.5920140,120.7809907,2.610,13631378.458,24927551.521,2.610,0.000,0.000,0.000,0.000,0.000,0.000,0.000,17,16,4*5E
$GPGGA,075239.20,3135.5208507,N,12046.8594676,E,4,17,1.6,2.6100,M,8.327,M,01,0004*61
$GPHPD,0,0.000,58.51,0.80,-6.17,31.5920142,120.7809911,2.610,13631378.325,24927551.750,2.610,0.000,0.000,0.000,0.000,0.000,0.000,0.000,17,16,4*50
$GPGGA,075239.40,3135.5208517,N,12046.8594696,E,4,17,1.6,2.6096,M,8.327,M,01,0004*66
$GPHPD,0,0.000,58.42,1.15,-6.26,31.5920142,120.7809912,2.610,13631378.315,24927551.769,2.610,0.000,0.000,0.000,0.000,0.000,0.000,0.000,17,16,4*57
$GPGGA,075239.60,3135.5208479,N,12046.8594634,E,4,17,1.4,2.6070,M,8.327,M,00,0004*6E
$GPHPD,0,0.000,58.27,0.37,-6.60,31.5920141,120.7809911,2.607,13631378.357,24927551.716,2.607,0.000,0.000,0.000,0.000,0.000,0.000,0.000,17,16,4*59
$GPGGA,075239.80,3135.5208485,N,12046.8594634,E,4,17,1.4,2.6031,M,8.327,M,00,0004*66
$GPHPD,0,0.000,58.37,0.52,-6.97,31.5920141,120.7809911,2.603,13631378.348,24927551.712,2.603,0.000,0.000,0.000,0.000,0.000,0.000,0.000,17,16,4*59
$GPGGA,075240.00,3135.5208484,N,12046.8594649,E,4,17,1.4,2.6049,M,8.327,M,01,0004*65
$GPHPD,0,0.000,58.40,1.11,-7.20,31.5920141,120.7809911,2.605,13631378.353,24927551.731,2.605,0.000,0.000,0.000,0.000,0.000,0.000,0.000,17,16,4*59
$GPGGA,075240.20,3135.5208489,N,12046.8594642,E,4,17,1.4,2.6102,M,8.327,M,01,0004*6F
$GPHPD,0,0.000,58.37,0.62,-7.40,31.5920141,120.7809911,2.610,13631378.344,24927551.720,2.610,0.000,0.000,0.000,0.000,0.000,0.000,0.000,17,16,4*5C
$GPGGA,075240.40,3135.5208479,N,12046.8594638,E,4,17,1.4,2.6043,M,8.327,M,01,0004*6F
$GPHPD,0,0.000,58.42,0.95,-7.61,31.5920141,120.7809911,2.604,13631378.357,24927551.721,2.604,0.000,0.000,0.000,0.000,0.000,0.000,0.000,17,16,4*56
$GPGGA,075240.60,3135.5208464,N,12046.8594640,E,4,17,1.4,2.6136,M,8.327,M,00,0004*6C
$GPHPD,0,0.000,58.45,1.37,-7.82,31.5920141,120.7809911,2.614,13631378.379,24927551.732,2.614,0.000,0.000,0.000,0.000,0.000,0.000,0.000,17,16,4*5B
$GPGGA,075240.80,3135.5208457,N,12046.8594636,E,4,17,1.4,2.6068,M,8.327,M,00,0004*69
$GPHPD,0,0.000,58.35,0.53,-8.02,31.5920141,120.7809911,2.607,13631378.388,24927551.731,2.607,0.000,0.000,0.000,0.000,0.000,0.000,0.000,17,16,4*55
$GPGGA,075241.00,3135.5208459,N,12046.8594617,E,4,17,1.4,2.6182,M,8.327,M,01,0004*69
$GPHPD,0,0.000,58.53,1.30,-8.23,31.5920141,120.7809910,2.618,13631378.382,24927551.707,2.618,0.000,0.000,0.000,0.000,0.000,0.000,0.000,17,16,4*5C
$GPGGA,075241.20,3135.5208454,N,12046.8594612,E,4,17,1.4,2.6091,M,8.327,M,01,0004*60
$GPHPD,0,0.000,58.28,0.50,-8.39,31.5920141,120.7809910,2.609,13631378.388,24927551.704,2.609,0.000,0.000,0.000,0.000,0.000,0.000,0.000,17,16,4*55
$GPGGA,075241.40,3135.5208434,N,12046.8594596,E,4,17,1.4,2.6175,M,8.327,M,01,0004*64
$GPHPD,0,0.000,58.49,1.02,-8.55,31.5920141,120.7809910,2.618,13631378.413,24927551.696,2.618,0.000,0.000,0.000,0.000,0.000,0.000,0.000,17,16,4*51
$GPGGA,075241.60,3135.5208441,N,12046.8594576,E,4,17,1.4,2.6186,M,8.327,M,00,0004*67
$GPHPD,0,0.000,58.32,0.41,-8.67,31.5920141,120.7809910,2.619,13631378.399,24927551.668,2.619,0.000,0.000,0.000,0.000,0.000,0.000,0.000,17,16,4*5E
$GPGGA,075241.80,3135.5208376,N,12046.8594472,E,4,17,1.4,2.6149,M,8.327,M,00,0004*6C
$GPHPD,0,0.000,58.35,0.45,-8.61,31.5920140,120.7809908,2.615,13631378.471,24927551.580,2.615,0.000,0.000,0.000,0.000,0.000,0.000,0.000,17,16,4*57
$GPGGA,075242.00,3135.5208245,N,12046.8594189,E,4,17,1.4,2.6149,M,8.327,M,01,0004*66
$GPHPD,0,0.000,58.27,0.17,-8.54,31.5920137,120.7809903,2.615,13631378.600,24927551.315,2.615,0.000,0.000,0.000,0.000,0.000,0.000,0.000,17,16,4*50
$GPGGA,075242.20,3135.5208017,N,12046.8593744,E,4,17,1.4,2.5979,M,8.327,M,01,0004*69
$GPHPD,0,0.000,58.27,0.15,-8.53,31.5920134,120.7809896,2.598,13631378.834,24927550.912,2.598,0.000,0.000,0.000,0.000,0.000,0.000,0.000,17,16,4*5E
$GPGGA,075242.40,3135.5207700,N,12046.8593099,E,4,17,1.4,2.6045,M,8.327,M,01,0004*63
$GPHPD,0,0.000,58.37,0.84,-8.54,31.5920128,120.7809885,2.605,13631379.155,24927550.318,2.605,0.000,0.000,0.000,0.000,0.000,0.000,0.000,17,16,4*50
$GPGGA,075242.60,3135.5207274,N,12046.8592300,E,4,17,1.4,2.6189,M,8.327,M,00,0004*65
$GPHPD,0,0.000,58.46,0.87,-8.56,31.5920121,120.7809872,2.619,13631379.600,24927549.603,2.619,0.000,0.000,0.000,0.000,0.000,0.000,0.000,17,16,4*56
$GPGGA,075242.80,3135.5206793,N,12046.8591375,E,4,17,1.4,2.6187,M,8.327,M,00,0004*69
$GPHPD,0,0.000,58.41,0.32,-8.62,31.5920113,120.7809856,2.619,13631380.098,24927548.767,2.619,0.000,0.000,0.000,0.000,0.000,0.000,0.000,17,16,4*5C
$GPGGA,075243.00,3135.5206251,N,12046.8590295,E,4,17,1.4,2.6030,M,8.327,M,01,0004*69
$GPHPD,0,0.000,58.48,0.19,-8.67,31.5920104,120.7809838,2.603,13631380.651,24927547.781,2.603,0.000,0.000,0.000,0.000,0.000,0.000,0.000,17,16,4*53
$GPGGA,075243.20,3135.5205621,N,12046.8589095,E,4,17,1.4,2.6045,M,8.327,M,01,0004*63
$GPHPD,0,0.000,58.49,0.01,-8.69,31.5920094,120.7809818,2.605,13631381.305,24927546.700,2.605,0.000,0.000,0.000,0.000,0.000,0.000,0.000,17,16,4*52
$GPGGA,075243.40,3135.5204956,N,12046.8587804,E,4,17,1.4,2.6167,M,8.327,M,01,0004*64
$GPHPD,0,0.000,58.25,0.42,-8.78,31.5920083,120.7809797,2.617,13631381.990,24927545.531,2.617,0.000,0.000,0.000,0.000,0.000,0.000,0.000,17,16,4*54
$GPGGA,075243.60,3135.5204256,N,12046.8586408,E,4,17,1.4,2.6062,M,8.327,M,00,0004*69
$GPHPD,0,0.000,57.98,-0.85,-8.95,31.5920071,120.7809773,2.606,13631382.704,24927544.255,2.606,0.000,0.000,0.000,0.000,0.000,0.000,0.000,17,16,4*7B
$GPGGA,075243.80,3135.5203561,N,12046.8585023,E,4,17,1.4,2.5937,M,8.327,M,00,0004*67
$GPHPD,0,0.000,58.43,0.35,-9.14,31.5920059,120.7809750,2.594,13631383.414,24927542.989,2.594,0.000,0.000,0.000,0.000,0.000,0.000,0.000,17,16,4*58
$GPGGA,075244.00,3135.5202853,N,12046.8583635,E,4,17,1.4,2.5968,M,8.327,M,01,0004*69
$GPHPD,0,0.000,58.39,0.49,-9.32,31.5920048,120.7809727,2.597,13631384.141,24927541.727,2.597,0.000,0.000,0.000,0.000,0.000,0.000,0.000,17,16,4*51
$GPGGA,075244.20,3135.5202128,N,12046.8582274,E,4,17,1.4,2.6020,M,8.327,M,01,0004*68
$GPHPD,0,0.000,58.22,0.35,-9.46,31.5920035,120.7809705,2.602,13631384.898,24927540.508,2.602,0.000,0.000,0.000,0.000,0.000,0.000,0.000,17,16,4*5A
$GPGGA,075244.40,3135.5201414,N,12046.8580903,E,4,17,1.4,2.6167,M,8.327,M,01,0004*6C
$GPHPD,0,0.000,58.08,0.13,-9.62,31.5920024,120.7809682,2.617,13631385.637,24927539.271,2.617,0.000,0.000,0.000,0.000,0.000,0.000,0.000,17,16,4*53
$GPGGA,075244.60,3135.5200741,N,12046.8579552,E,4,17,1.4,2.6090,M,8.327,M,00,0004*6A
$GPHPD,0,0.000,58.11,-0.82,-9.77,31.5920012,120.7809659,2.609,13631386.321,24927538.033,2.609,0.000,0.000,0.000,0.000,0.000,0.000,0.000,17,16,4*7D
$GPGGA,075244.80,3135.5200074,N,12046.8578200,E,4,17,1.4,2.5860,M,8.327,M,00,0004*60
$GPHPD,0,0.000,58.31,0.34,-9.92,31.5920001,120.7809637,2.586,13631386.998,24927536.791,2.586,0.000,0.000,0.000,0.000,0.000,0.000,0.000,17,16,4*57
$GPGGA,075245.00,3135.5199328,N,12046.8576871,E,4,17,1.4,2.6012,M,8.327,M,01,0004*6D
$GPHPD,0,0.000,58.21,0.62,-10.07,31.5919989,120.7809615,2.601,13631387.791,24927535.623,2.601,0.000,0.000,0.000,0.000,0.000,0.000,0.000,17,16,4*6F
$GPGGA,075245.20,3135.5198631,N,12046.8575550,E,4,17,1.4,2.6040,M,8.327,M,01,0004*69
$GPHPD,0,0.000,57.92,-0.89,-10.16,31.5919977,120.7809593,2.604,13631388.516,24927534.436,2.604,0.000,0.000,0.000,0.000,0.000,0.000,0.000,17,16,4*49
$GPGGA,075245.40,3135.5197967,N,12046.8574204,E,4,17,1.4,2.6050,M,8.327,M,01,0004*6A
$GPHPD,0,0.000,57.94,-0.52,-10.31,31.5919966,120.7809570,2.605,13631389.189,24927533.199,2.605,0.000,0.000,0.000,0.000,0.000,0.000,0.000,17,16,4*45
$GPGGA,075245.60,3135.5197294,N,12046.8572910,E,4,17,1.4,2.5936,M,8.327,M,00,0004*6C
$GPHPD,0,0.000,58.15,-0.37,-10.45,31.5919955,120.7809549,2.594,13631389.885,24927532.030,2.594,0.000,0.000,0.000,0.000,0.000,0.000,0.000,17,16,4*4F
$GPGGA,075245.80,3135.5196624,N,12046.8571629,E,4,17,1.4,2.5947,M,8.327,M,00,0004*6C
$GPHPD,0,0.000,58.11,0.11,-10.59,31.5919944,120.7809527,2.595,13631390.580,24927530.876,2.595,0.000,0.000,0.000,0.000,0.000,0.000,0.000,17,16,4*6F
$GPGGA,075246.00,3135.5196004,N,12046.8570354,E,4,17,1.4,2.5871,M,8.327,M,01,0004*68
$GPHPD,0,0.000,58.14,0.68,-10.75,31.5919933,120.7809506,2.587,13631391.204,24927529.699,2.587,0.000,0.000,0.000,0.000,0.000,0.000,0.000,17,16,4*64
$GPGGA,075246.20,3135.5195371,N,12046.8569153,E,4,17,1.4,2.5920,M,8.327,M,01,0004*60
$GPHPD,0,0.000,58.38,0.95,-10.85,31.5919923,120.7809486,2.592,13631391.862,24927528.619,2.592,0.000,0.000,0.000,0.000,0.000,0.000,0.000,17,16,4*6C
$GPGGA,075246.40,3135.5194748,N,12046.8567962,E,4,17,1.8,2.5896,M,8.327,M,01,0004*6D
$GPHPD,0,0.000,58.06,-0.40,-10.98,31.5919912,120.7809466,2.590,13631392.508,24927527.546,2.590,0.000,0.000,0.000,0.000,0.000,0.000,0.000,17,16,4*40
$GPGGA,075246.60,3135.5194138,N,12046.8566790,E,4,17,1.4,2.5874,M,8.327,M,00,0004*6D
$GPHPD,0,0.000,58.09,-0.16,-11.10,31.5919902,120.7809447,2.587,13631393.140,24927526.488,2.587,0.000,0.000,0.000,0.000,0.000,0.000,0.000,17,16,4*44
$GPGGA,075246.80,3135.5193505,N,12046.8565635,E,4,18,1.4,2.5798,M,8.327,M,00,0004*61
$GPHPD,0,0.000,58.05,0.40,-11.18,31.5919892,120.7809427,2.580,13631393.807,24927525.463,2.580,0.000,0.000,0.000,0.000,0.000,0.000,0.000,18,16,4*63
$GPGGA,075247.00,3135.5192937,N,12046.8564486,E,4,18,1.4,2.5765,M,8.327,M,01,0004*6C
$GPHPD,0,0.000,57.82,1.02,-11.30,31.5919882,120.7809408,2.577,13631394.383,24927524.408,2.577,0.000,0.000,0.000,0.000,0.000,0.000,0.000,18,16,4*6E
$GPGGA,075247.20,3135.5192356,N,12046.8563354,E,4,18,1.4,2.5812,M,8.327,M,01,0004*63
$GPHPD,0,0.000,58.14,1.34,-11.37,31.5919873,120.7809389,2.581,13631394.981,24927523.382,2.581,0.000,0.000,0.000,0.000,0.000,0.000,0.000,18,16,4*66
$GPGGA,075247.40,3135.5191796,N,12046.8562258,E,4,18,1.4,2.5783,M,8.327,M,01,0004*65
$GPHPD,0,0.000,58.13,0.84,-11.45,31.5919863,120.7809371,2.578,13631395.557,24927522.386,2.578,0.000,0.000,0.000,0.000,0.000,0.000,0.000,18,16,4*6B
$GPGGA,075247.60,3135.5191227,N,12046.8561163,E,4,18,1.4,2.5776,M,8.327,M,00,0004*6B
$GPHPD,0,0.000,58.14,0.71,-11.54,31.5919854,120.7809353,2.578,13631396.145,24927521.397,2.578,0.000,0.000,0.000,0.000,0.000,0.000,0.000,18,16,4*65
$GPGGA,075247.80,3135.5190707,N,12046.8560137,E,4,18,1.4,2.5741,M,8.327,M,00,0004*67
$GPHPD,0,0.000,58.12,0.60,-11.63,31.5919845,120.7809336,2.574,13631396.678,24927520.462,2.574,0.000,0.000,0.000,0.000,0.000,0.000,0.000,18,16,4*61
$GPGGA,075248.00,3135.5190191,N,12046.8559135,E,4,18,1.4,2.5689,M,8.327,M,01,0004*65
$GPHPD,0,0.000,57.98,0.41,-11.77,31.5919837,120.7809319,2.569,13631397.210,24927519.554,2.569,0.000,0.000,0.000,0.000,0.000,0.000,0.000,18,16,4*67
$GPGGA,075248.20,3135.5189699,N,12046.8558182,E,4,18,1.4,2.5606,M,8.327,M,01,0004*6A
$GPHPD,0,0.000,58.11,0.93,-11.88,31.5919828,120.7809303,2.561,13631397.718,24927518.692,2.561,0.000,0.000,0.000,0.000,0.000,0.000,0.000,18,16,4*66
$GPGGA,075248.40,3135.5189250,N,12046.8557280,E,4,18,1.4,2.5569,M,8.327,M,01,0004*69
$GPHPD,0,0.000,58.12,0.92,-11.98,31.5919821,120.7809288,2.557,13631398.174,24927517.865,2.557,0.000,0.000,0.000,0.000,0.000,0.000,0.000,18,16,4*64
$GPGGA,075248.60,3135.5188805,N,12046.8556458,E,4,18,1.4,2.5694,M,8.327,M,00,0004*62
$GPHPD,0,0.000,58.33,1.09,-12.07,31.5919813,120.7809274,2.569,13631398.641,24927517.133,2.569,0.000,0.000,0.000,0.000,0.000,0.000,0.000,18,16,4*68
$GPGGA,075248.80,3135.5188386,N,12046.8555667,E,4,18,1.4,2.5695,M,8.327,M,00,0004*60
$GPHPD,0,0.000,58.03,-0.05,-12.16,31.5919806,120.7809261,2.570,13631399.078,24927516.423,2.570,0.000,0.000,0.000,0.000,0.000,0.000,0.000,18,16,4*43
$GPGGA,075249.00,3135.5188006,N,12046.8554921,E,4,18,1.4,2.5659,M,8.327,M,01,0004*6F
$GPHPD,0,0.000,58.09,0.18,-12.25,31.5919800,120.7809249,2.566,13631399.468,24927515.745,2.566,0.000,0.000,0.000,0.000,0.000,0.000,0.000,18,16,4*61
$GPGGA,075249.20,3135.5187638,N,12046.8554220,E,4,18,1.4,2.5676,M,8.327,M,01,0004*6E
$GPHPD,0,0.000,58.14,0.58,-12.32,31.5919794,120.7809237,2.568,13631399.850,24927515.114,2.568,0.000,0.000,0.000,0.000,0.000,0.000,0.000,18,16,4*61
$GPGGA,075249.40,3135.5187284,N,12046.8553546,E,4,17,1.4,2.5641,M,8.327,M,01,0004*60
$GPHPD,0,0.000,58.04,0.45,-12.38,31.5919788,120.7809226,2.564,13631400.218,24927514.507,2.564,0.000,0.000,0.000,0.000,0.000,0.000,0.000,17,16,4*62
$GPGGA,075249.60,3135.5186957,N,12046.8552922,E,4,17,1.4,2.5580,M,8.327,M,00,0004*66
$GPHPD,0,0.000,58.04,0.44,-12.44,31.5919783,120.7809215,2.558,13631400.557,24927513.945,2.558,0.000,0.000,0.000,0.000,0.000,0.000,0.000,17,16,4*62
$GPGGA,075249.80,3135.5186654,N,12046.8552303,E,4,17,1.4,2.5671,M,8.327,M,00,0004*60
$GPHPD,0,0.000,58.14,0.85,-12.49,31.5919778,120.7809205,2.567,13631400.863,24927513.375,2.567,0.000,0.000,0.000,0.000,0.000,0.000,0.000,17,16,4*65
$GPGGA,075250.00,3135.5186348,N,12046.8551736,E,4,17,1.4,2.5675,M,8.327,M,01,0004*6C
$GPHPD,0,0.000,58.06,0.24,-12.53,31.5919772,120.7809196,2.568,13631401.184,24927512.869,2.568,0.000,0.000,0.000,0.000,0.000,0.000,0.000,17,16,4*63
$GPGGA,075250.20,3135.5186057,N,12046.8551166,E,4,17,1.4,2.5716,M,8.327,M,01,0004*64
$GPHPD,0,0.000,57.96,0.54,-12.57,31.5919768,120.7809186,2.572,13631401.483,24927512.351,2.572,0.000,0.000,0.000,0.000,0.000,0.000,0.000,17,16,4*6E
$GPGGA,075250.40,3135.5185774,N,12046.8550662,E,4,18,1.4,2.5596,M,8.327,M,01,0004*60
$GPHPD,0,0.000,57.92,0.02,-12.61,31.5919763,120.7809178,2.560,13631401.784,24927511.908,2.560,0.000,0.000,0.000,0.000,0.000,0.000,0.000,18,16,4*68
$GPGGA,075250.60,3135.5185510,N,12046.8550108,E,4,18,1.4,2.5695,M,8.327,M,00,0004*68
$GPHPD,0,0.000,57.82,0.64,-12.64,31.5919759,120.7809168,2.570,13631402.048,24927511.394,2.570,0.000,0.000,0.000,0.000,0.000,0.000,0.000,18,16,4*6F
$GPGGA,075250.80,3135.5185267,N,12046.8549599,E,4,18,1.4,2.5820,M,8.327,M,00,0004*65
$GPHPD,0,0.000,57.68,0.19,-12.66,31.5919754,120.7809160,2.582,13631402.291,24927510.921,2.582,0.000,0.000,0.000,0.000,0.000,0.000,0.000,18,16,4*65
$GPGGA,075251.00,3135.5184976,N,12046.8549116,E,4,18,1.4,2.5889,M,8.327,M,01,0004*67
$GPHPD,0,0.000,57.49,-0.42,-12.70,31.5919750,120.7809152,2.589,13631402.607,24927510.508,2.589,0.000,0.000,0.000,0.000,0.000,0.000,0.000,18,16,4*4B
$GPGGA,075251.20,3135.5184754,N,12046.8548622,E,4,18,1.4,2.5691,M,8.327,M,01,0004*6D
$GPHPD,0,0.000,57.17,-1.08,-12.74,31.5919746,120.7809144,2.569,13631402.823,24927510.042,2.569,0.000,0.000,0.000,0.000,0.000,0.000,0.000,18,16,4*48
$GPGGA,075251.40,3135.5184509,N,12046.8548231,E,4,18,1.4,2.5777,M,8.327,M,01,0004*6E
$GPHPD,0,0.000,57.24,-0.01,-12.79,31.5919742,120.7809137,2.578,13631403.093,24927509.713,2.578,0.000,0.000,0.000,0.000,0.000,0.000,0.000,18,16,4*44
$GPGGA,075251.60,3135.5184299,N,12046.8547827,E,4,18,1.4,2.5756,M,8.327,M,00,0004*62
$GPHPD,0,0.000,56.98,-0.04,-12.83,31.5919738,120.7809130,2.576,13631403.310,24927509.348,2.576,0.000,0.000,0.000,0.000,0.000,0.000,0.000,18,16,4*4A
$GPGGA,075251.80,3135.5184099,N,12046.8547446,E,4,18,1.4,2.5770,M,8.327,M,00,0004*61
$GPHPD,0,0.000,56.94,-0.10,-12.86,31.5919735,120.7809124,2.577,13631403.518,24927509.005,2.577,0.000,0.000,0.000,0.000,0.000,0.000,0.000,18,16,4*4A
$GPGGA,075252.00,3135.5183883,N,12046.8547106,E,4,18,1.2,2.5833,M,8.327,M,01,0004*60
$GPHPD,0,0.000,56.87,0.17,-12.89,31.5919731,120.7809118,2.583,13631403.756,24927508.721,2.583,0.000,0.000,0.000,0.000,0.000,0.000,0.000,18,16,4*6E
$GPGGA,075252.20,3135.5183702,N,12046.8546757,E,4,18,1.2,2.5775,M,8.327,M,01,0004*6A
$GPHPD,0,0.000,56.83,0.18,-12.91,31.5919728,120.7809113,2.578,13631403.943,24927508.405,2.578,0.000,0.000,0.000,0.000,0.000,0.000,0.000,18,16,4*60
$GPGGA,075252.40,3135.5183534,N,12046.8546454,E,4,18,1.2,2.5792,M,8.327,M,01,0004*62
$GPHPD,0,0.000,56.82,0.20,-12.94,31.5919726,120.7809108,2.579,13631404.121,24927508.138,2.579,0.000,0.000,0.000,0.000,0.000,0.000,0.000,18,16,4*6B
$GPGGA,075252.60,3135.5183372,N,12046.8546140,E,4,18,1.2,2.5836,M,8.327,M,00,0004*64
$GPHPD,0,0.000,56.77,-0.17,-12.99,31.5919723,120.7809102,2.584,13631404.288,24927507.853,2.584,0.000,0.000,0.000,0.000,0.000,0.000,0.000,18,16,4*41
$GPGGA,075252.80,3135.5183238,N,12046.8545896,E,4,18,1.2,2.5830,M,8.327,M,00,0004*62
$GPHPD,0,0.000,56.66,-0.24,-13.05,31.5919721,120.7809098,2.583,13631404.430,24927507.637,2.583,0.000,0.000,0.000,0.000,0.000,0.000,0.000,18,16,4*4C
$GPGGA,075253.00,3135.5183157,N,12046.8545705,E,4,18,1.2,2.5801,M,8.327,M,01,0004*67
$GPHPD,0,0.000,56.75,-0.33,-13.12,31.5919719,120.7809095,2.580,13631404.506,24927507.454,2.580,0.000,0.000,0.000,0.000,0.000,0.000,0.000,18,16,4*4B
$GPGGA,075253.20,3135.5183070,N,12046.8545551,E,4,18,1.2,2.5813,M,8.327,M,01,0004*61
$GPHPD,0,0.000,56.84,-0.22,-13.18,31.5919718,120.7809093,2.581,13631404.599,24927507.319,2.581,0.000,0.000,0.000,0.000,0.000,0.000,0.000,18,16,4*40
$GPGGA,075253.40,3135.5183040,N,12046.8545482,E,4,18,1.2,2.5798,M,8.327,M,01,0004*67
$GPHPD,0,0.000,56.67,-0.13,-13.24,31.5919717,120.7809091,2.580,13631404.628,24927507.253,2.580,0.000,0.000,0.000,0.000,0.000,0.000,0.000,18,16,4*4B
$GPGGA,075253.60,3135.5183007,N,12046.8545429,E,4,18,1.2,2.5833,M,8.327,M,00,0004*68
$GPHPD,0,0.000,56.77,-0.31,-13.28,31.5919717,120.7809090,2.583,13631404.664,24927507.209,2.583,0.000,0.000,0.000,0.000,0.000,0.000,0.000,18,16,4*40
$GPGGA,075253.80,3135.5183021,N,12046.8545429,E,4,18,1.2,2.5806,M,8.327,M,00,0004*64
$GPHPD,0,0.000,56.80,-0.13,-13.29,31.5919717,120.7809090,2.581,13631404.644,24927507.200,2.581,0.000,0.000,0.000,0.000,0.000,0.000,0.000,18,16,4*42
$GPGGA,075254.00,3135.5182994,N,12046.8545441,E,4,18,1.2,2.5868,M,8.327,M,01,0004*6A
$GPHPD,0,0.000,56.93,0.22,-13.27,31.5919717,120.7809091,2.587,13631404.685,24927507.231,2.587,0.000,0.000,0.000,0.000,0.000,0.000,0.000,18,16,4*6F
$GPGGA,075254.20,3135.5183015,N,12046.8545456,E,4,18,1.2,2.5820,M,8.327,M,01,0004*63
$GPHPD,0,0.000,56.67,-0.28,-13.27,31.5919717,120.7809091,2.582,13631404.658,24927507.236,2.582,0.000,0.000,0.000,0.000,0.000,0.000,0.000,18,16,4*44
$GPGGA,075254.40,3135.5183009,N,12046.8545435,E,4,18,1.2,2.5837,M,8.327,M,01,0004*6B
$GPHPD,0,0.000,56.76,-0.07,-13.26,31.5919717,120.7809091,2.584,13631404.662,24927507.215,2.584,0.000,0.000,0.000,0.000,0.000,0.000,0.000,18,16,4*40
$GPGGA,075254.60,3135.5183015,N,12046.8545444,E,4,18,1.2,2.5785,M,8.327,M,00,0004*65
$GPHPD,0,0.000,56.80,-0.10,-13.25,31.5919717,120.7809091,2.579,13631404.656,24927507.222,2.579,0.000,0.000,0.000,0.000,0.000,0.000,0.000,18,16,4*4F
$GPGGA,075254.80,3135.5183013,N,12046.8545446,E,4,18,1.2,2.5754,M,8.327,M,00,0004*63
$GPHPD,0,0.000,56.75,0.07,-13.24,31.5919717,120.7809091,2.575,13631404.659,24927507.226,2.575,0.000,0.000,0.000,0.000,0.000,0.000,0.000,18,16,4*64
$GPGGA,075255.00,3135.5183000,N,12046.8545441,E,4,18,1.2,2.5754,M,8.327,M,01,0004*6E
$GPHPD,0,0.000,56.73,0.10,-13.23,31.5919717,120.7809091,2.575,13631404.676,24927507.227,2.575,0.000,0.000,0.000,0.000,0.000,0.000,0.000,18,16,4*6F
$GPGGA,075255.20,3135.5183009,N,12046.8545429,E,4,18,1.2,2.5784,M,8.327,M,01,0004*66
$GPHPD,0,0.000,56.58,0.06,-13.22,31.5919717,120.7809090,2.578,13631404.661,24927507.207,2.578,0.000,0.000,0.000,0.000,0.000,0.000,0.000,18,16,4*65
$GPGGA,075255.40,3135.5183000,N,12046.8545435,E,4,18,1.2,2.5857,M,8.327,M,01,0004*65
$GPHPD,0,0.000,56.76,0.02,-13.21,31.5919717,120.7809091,2.586,13631404.675,24927507.220,2.586,0.000,0.000,0.000,0.000,0.000,0.000,0.000,18,16,4*6F
$GPGGA,075255.60,3135.5183013,N,12046.8545452,E,4,18,1.2,2.5811,M,8.327,M,00,0004*67
$GPHPD,0,0.000,56.66,-0.21,-13.22,31.5919717,120.7809091,2.581,13631404.660,24927507.233,2.581,0.000,0.000,0.000,0.000,0.000,0.000,0.000,18,16,4*47
$GPGGA,075255.80,3135.5183019,N,12046.8545467,E,4,18,1.2,2.5816,M,8.327,M,00,0004*62
$GPHPD,0,0.000,56.77,-0.03,-13.30,31.5919717,120.7809091,2.582,13631404.655,24927507.247,2.582,0.000,0.000,0.000,0.000,0.000,0.000,0.000,18,16,4*41
$GPGGA,075256.00,3135.5183084,N,12046.8545593,E,4,18,1.2,2.5812,M,8.327,M,01,0004*62
$GPHPD,0,0.000,56.66,-0.35,-13.50,31.5919718,120.7809093,2.581,13631404.588,24927507.361,2.581,0.000,0.000,0.000,0.000,0.000,0.000,0.000,18,16,4*49
$GPGGA,075256.20,3135.5183224,N,12046.8545853,E,4,18,1.2,2.5802,M,8.327,M,01,0004*68
$GPHPD,0,0.000,56.68,-0.27,-13.64,31.5919720,120.7809098,2.580,13631404.441,24927507.594,2.580,0.000,0.000,0.000,0.000,0.000,0.000,0.000,18,16,4*4B
$GPGGA,075256.40,3135.5183438,N,12046.8546244,E,4,18,1.2,2.5752,M,8.327,M,01,0004*60
$GPHPD,0,0.000,56.68,-0.32,-13.78,31.5919724,120.7809104,2.575,13631404.215,24927507.940,2.575,0.000,0.000,0.000,0.000,0.000,0.000,0.000,18,16,4*40
$GPGGA,075256.60,3135.5183726,N,12046.8546754,E,4,18,1.2,2.5733,M,8.327,M,00,0004*6C
$GPHPD,0,0.000,56.68,-0.09,-13.90,31.5919729,120.7809113,2.573,13631403.909,24927508.388,2.573,0.000,0.000,0.000,0.000,0.000,0.000,0.000,18,16,4*45
$GPGGA,075256.80,3135.5184083,N,12046.8547418,E,4,18,1.2,2.5885,M,8.327,M,00,0004*65
$GPHPD,0,0.000,56.74,0.04,-14.01,31.5919735,120.7809124,2.589,13631403.535,24927508.981,2.589,0.000,0.000,0.000,0.000,0.000,0.000,0.000,18,16,4*6E
$GPGGA,075257.00,3135.5184494,N,12046.8548185,E,4,18,1.2,2.5813,M,8.327,M,01,0004*6E
$GPHPD,0,0.000,56.64,-0.24,-14.11,31.5919742,120.7809136,2.581,13631403.105,24927509.666,2.581,0.000,0.000,0.000,0.000,0.000,0.000,0.000,18,16,4*42
$GPGGA,075257.20,3135.5184987,N,12046.8549041,E,4,18,1.2,2.5863,M,8.327,M,01,0004*6C
$GPHPD,0,0.000,56.59,0.14,-14.14,31.5919750,120.7809151,2.586,13631402.576,24927510.412,2.586,0.000,0.000,0.000,0.000,0.000,0.000,0.000,18,16,4*6D
$GPGGA,075257.40,3135.5185526,N,12046.8550006,E,4,18,1.4,2.5613,M,8.327,M,01,0004*68
$GPHPD,0,0.000,56.46,-0.57,-14.19,31.5919759,120.7809167,2.561,13631402.004,24927511.261,2.561,0.000,0.000,0.000,0.000,0.000,0.000,0.000,18,16,4*4B
$GPGGA,075257.60,3135.5186100,N,12046.8551023,E,4,18,1.4,2.5586,M,8.327,M,00,0004*61
$GPHPD,0,0.000,56.45,0.27,-14.18,31.5919768,120.7809184,2.559,13631401.393,24927512.154,2.559,0.000,0.000,0.000,0.000,0.000,0.000,0.000,18,16,4*64
$GPGGA,075257.80,3135.5186674,N,12046.8552085,E,4,17,1.4,2.5748,M,8.327,M,00,0004*6B
$GPHPD,0,0.000,56.59,0.41,-14.10,31.5919778,120.7809201,2.575,13631400.791,24927513.100,2.575,0.000,0.000,0.000,0.000,0.000,0.000,0.000,17,16,4*66
$GPGGA,075258.00,3135.5187247,N,12046.8553112,E,4,17,1.4,2.5677,M,8.327,M,01,0004*6B
$GPHPD,0,0.000,56.53,0.03,-14.04,31.5919787,120.7809219,2.568,13631400.183,24927514.005,2.568,0.000,0.000,0.000,0.000,0.000,0.000,0.000,17,16,4*60
$GPGGA,075258.20,3135.5187819,N,12046.8554150,E,4,17,1.4,2.5645,M,8.327,M,01,0004*68
$GPHPD,0,0.000,56.61,0.42,-14.00,31.5919797,120.7809236,2.565,13631399.579,24927514.924,2.565,0.000,0.000,0.000,0.000,0.000,0.000,0.000,17,16,4*60
$GPGGA,075258.40,3135.5188381,N,12046.8555159,E,4,17,1.4,2.5687,M,8.327,M,01,0004*6D
$GPHPD,0,0.000,56.79,0.48,-13.99,31.5919806,120.7809253,2.569,13631398.983,24927515.813,2.569,0.000,0.000,0.000,0.000,0.000,0.000,0.000,17,16,4*6C
$GPGGA,075258.60,3135.5188929,N,12046.8556237,E,4,17,1.4,2.5662,M,8.327,M,00,0004*65
$GPHPD,0,0.000,57.07,0.53,-13.99,31.5919815,120.7809271,2.566,13631398.421,24927516.794,2.566,0.000,0.000,0.000,0.000,0.000,0.000,0.000,17,16,4*6A
$GPGGA,075258.80,3135.5189519,N,12046.8557297,E,4,18,1.4,2.5616,M,8.327,M,00,0004*62
$GPHPD,0,0.000,56.92,0.79,-13.99,31.5919825,120.7809288,2.562,13631397.795,24927517.729,2.562,0.000,0.000,0.000,0.000,0.000,0.000,0.000,18,16,4*61
$GPGGA,075259.00,3135.5190125,N,12046.8558424,E,4,18,1.4,2.5660,M,8.327,M,01,0004*69
$GPHPD,0,0.000,57.24,0.94,-14.01,31.5919835,120.7809307,2.566,13631397.161,24927518.735,2.566,0.000,0.000,0.000,0.000,0.000,0.000,0.000,18,16,4*60
$GPGGA,075259.20,3135.5190754,N,12046.8559586,E,4,18,1.4,2.5657,M,8.327,M,01,0004*67
$GPHPD,0,0.000,57.29,0.72,-14.02,31.5919846,120.7809326,2.566,13631396.500,24927519.770,2.566,0.000,0.000,0.000,0.000,0.000,0.000,0.000,18,16,4*63
$GPGGA,075259.40,3135.5191394,N,12046.8560814,E,4,18,1.4,2.5724,M,8.327,M,01,0004*61
$GPHPD,0,0.000,57.50,1.23,-14.05,31.5919857,120.7809347,2.572,13631395.838,24927520.879,2.572,0.000,0.000,0.000,0.000,0.000,0.000,0.000,18,16,4*61
$GPGGA,075259.60,3135.5192093,N,12046.8562100,E,4,18,1.4,2.5700,M,8.327,M,00,0004*6D
$GPHPD,0,0.000,57.59,0.91,-14.10,31.5919868,120.7809368,2.570,13631395.103,24927522.022,2.570,0.000,0.000,0.000,0.000,0.000,0.000,0.000,18,16,4*60
$GPGGA,075259.80,3135.5192798,N,12046.8563428,E,4,18,1.4,2.5760,M,8.327,M,00,0004*67
$GPHPD,0,0.000,57.64,1.13,-14.13,31.5919880,120.7809390,2.576,13631394.368,24927523.213,2.576,0.000,0.000,0.000,0.000,0.000,0.000,0.000,18,16,4*68
$GPGGA,075300.00,3135.5193544,N,12046.8564838,E,4,18,1.4,2.5775,M,8.327,M,01,0004*6F
$GPHPD,0,0.000,57.58,1.22,-14.18,31.5919892,120.7809414,2.578,13631393.591,24927524.479,2.578,0.000,0.000,0.000,0.000,0.000,0.000,0.000,18,16,4*6C
$GPGGA,075300.20,3135.5194309,N,12046.8566288,E,4,18,1.4,2.5885,M,8.327,M,01,0004*66
$GPHPD,0,0.000,57.32,0.22,-14.17,31.5919905,120.7809438,2.589,13631392.796,24927525.783,2.589,0.000,0.000,0.000,0.000,0.000,0.000,0.000,18,16,4*6C
$GPGGA,075300.40,3135.5195070,N,12046.8567726,E,4,18,1.4,2.6012,M,8.327,M,01,0004*69
$GPHPD,0,0.000,57.57,0.50,-14.10,31.5919918,120.7809462,2.601,13631392.003,24927527.074,2.601,0.000,0.000,0.000,0.000,0.000,0.000,0.000,18,16,4*68
$GPGGA,075300.60,3135.5195817,N,12046.8569173,E,4,18,1.4,2.5933,M,8.327,M,00,0004*62
$GPHPD,0,0.000,57.73,0.06,-13.99,31.5919930,120.7809486,2.593,13631391.232,24927528.384,2.593,0.000,0.000,0.000,0.000,0.000,0.000,0.000,18,16,4*6B
$GPGGA,075300.80,3135.5196523,N,12046.8570541,E,4,18,1.4,2.5950,M,8.327,M,00,0004*6D
$GPHPD,0,0.000,57.65,-0.24,-13.91,31.5919942,120.7809509,2.595,13631390.504,24927529.622,2.595,0.000,0.000,0.000,0.000,0.000,0.000,0.000,18,16,4*41
$GPGGA,075301.00,3135.5197209,N,12046.8571903,E,4,18,1.4,2.6053,M,8.327,M,01,0004*69
$GPHPD,0,0.000,57.85,0.23,-13.83,31.5919953,120.7809532,2.605,13631389.803,24927530.866,2.605,0.000,0.000,0.000,0.000,0.000,0.000,0.000,18,16,4*6A
$GPGGA,075301.20,3135.5197927,N,12046.8573219,E,4,18,1.4,2.5885,M,8.327,M,01,0004*6E
$GPHPD,0,0.000,57.70,-0.68,-13.77,31.5919965,120.7809554,2.589,13631389.047,24927532.034,2.589,0.000,0.000,0.000,0.000,0.000,0.000,0.000,18,16,4*49
$GPGGA,075301.40,3135.5198602,N,12046.8574507,E,4,17,1.4,2.6035,M,8.327,M,01,0004*6F
$GPHPD,0,0.000,58.22,0.72,-13.70,31.5919977,120.7809575,2.604,13631388.347,24927533.195,2.604,0.000,0.000,0.000,0.000,0.000,0.000,0.000,17,16,4*66
$GPGGA,075301.60,3135.5199219,N,12046.8575775,E,4,17,1.4,2.6059,M,8.327,M,00,0004*6F
$GPHPD,0,0.000,57.77,-1.12,-13.66,31.5919987,120.7809596,2.606,13631387.725,24927534.365,2.606,0.000,0.000,0.000,0.000,0.000,0.000,0.000,17,16,4*43
$GPGGA,075301.80,3135.5199876,N,12046.8577004,E,4,17,1.4,2.6082,M,8.327,M,00,0004*67
$GPHPD,0,0.000,57.79,-0.34,-13.62,31.5919998,120.7809617,2.608,13631387.038,24927535.464,2.608,0.000,0.000,0.000,0.000,0.000,0.000,0.000,17,16,4*44
$GPGGA,075302.00,3135.5200548,N,12046.8578224,E,4,17,1.4,2.5936,M,8.327,M,01,0004*64
$GPHPD,0,0.000,58.01,-0.07,-13.57,31.5920009,120.7809637,2.594,13631386.329,24927536.544,2.594,0.000,0.000,0.000,0.000,0.000,0.000,0.000,17,16,4*49
$GPGGA,075302.20,3135.5201165,N,12046.8579430,E,4,17,1.4,2.6076,M,8.327,M,01,0004*60
$GPHPD,0,0.000,58.20,0.47,-13.54,31.5920019,120.7809657,2.608,13631385.694,24927537.639,2.608,0.000,0.000,0.000,0.000,0.000,0.000,0.000,17,16,4*6F
$GPGGA,075302.40,3135.5201818,N,12046.8580679,E,4,18,1.2,2.5809,M,8.327,M,01,0004*66
$GPHPD,0,0.000,58.23,0.00,-13.51,31.5920030,120.7809678,2.581,13631385.017,24927538.765,2.581,0.000,0.000,0.000,0.000,0.000,0.000,0.000,18,16,4*69
$GPGGA,075302.60,3135.5202432,N,12046.8581837,E,4,18,1.6,2.5903,M,8.327,M,00,0004*68
$GPHPD,0,0.000,58.12,0.41,-13.49,31.5920041,120.7809697,2.590,13631384.377,24927539.804,2.590,0.000,0.000,0.000,0.000,0.000,0.000,0.000,18,16,4*6D
$GPGGA,075302.80,3135.5202990,N,12046.8582993,E,4,18,1.4,2.6388,M,8.327,M,00,0004*67
$GPHPD,0,0.000,57.74,-1.54,-13.48,31.5920050,120.7809717,2.639,13631383.817,24927540.873,2.639,0.000,0.000,0.000,0.000,0.000,0.000,0.000,18,16,4*46
$GPGGA,075303.00,3135.5203683,N,12046.8584232,E,4,18,1.8,2.5871,M,8.327,M,01,0004*67
$GPHPD,0,0.000,57.84,-2.24,-13.50,31.5920061,120.7809737,2.587,13631383.081,24927541.964,2.587,0.000,0.000,0.000,0.000,0.000,0.000,0.000,18,16,4*45
$GPGGA,075303.20,3135.5204306,N,12046.8585475,E,4,15,1.8,2.5944,M,8.327,M,01,0004*64
$GPHPD,0,0.000,57.97,-1.94,-13.51,31.5920072,120.7809758,2.594,13631382.446,24927543.100,2.594,0.000,0.000,0.000,0.000,0.000,0.000,0.000,15,14,4*4C
$GPGGA,075303.40,3135.5204946,N,12046.8586739,E,4,15,1.8,2.5945,M,8.327,M,01,0004*65
$GPHPD,0,0.000,58.06,0.18,-13.52,31.5920082,120.7809779,2.595,13631381.790,24927544.252,2.595,0.000,0.000,0.000,0.000,0.000,0.000,0.000,15,14,4*64
$GPGGA,075303.60,3135.5205602,N,12046.8588007,E,4,15,1.8,2.5904,M,8.327,M,00,0004*69
$GPHPD,0,0.000,58.19,0.62,-13.54,31.5920093,120.7809800,2.590,13631381.113,24927545.399,2.590,0.000,0.000,0.000,0.000,0.000,0.000,0.000,15,14,4*6A
$GPGGA,075303.80,3135.5206265,N,12046.8589315,E,4,15,1.8,2.5884,M,8.327,M,00,0004*69
$GPHPD,0,0.000,58.00,0.53,-13.56,31.5920104,120.7809822,2.588,13631380.434,24927546.591,2.588,0.000,0.000,0.000,0.000,0.000,0.000,0.000,15,14,4*61
$GPGGA,075304.00,3135.5206994,N,12046.8590615,E,4,15,1.8,2.5939,M,8.327,M,01,0004*68
$GPHPD,0,0.000,58.38,0.60,-13.60,31.5920117,120.7809844,2.594,13631379.659,24927547.734,2.594,0.000,0.000,0.000,0.000,0.000,0.000,0.000,15,14,4*6E
$GPGGA,075304.20,3135.5207657,N,12046.8591985,E,4,16,1.4,2.5996,M,8.327,M,01,0004*66
$GPHPD,0,0.000,58.37,0.44,-13.59,31.5920128,120.7809866,2.600,13631378.992,24927549.000,2.600,0.000,0.000,0.000,0.000,0.000,0.000,0.000,16,15,4*64
$GPGGA,075304.40,3135.5208371,N,12046.8593382,E,4,16,1.4,2.6096,M,8.327,M,01,0004*6B
$GPHPD,0,0.000,58.48,0.71,-13.60,31.5920140,120.7809890,2.610,13631378.258,24927550.269,2.610,0.000,0.000,0.000,0.000,0.000,0.000,0.000,16,14,4*6E
$GPGGA,075304.60,3135.5209110,N,12046.8594836,E,4,16,1.4,2.6054,M,8.327,M,00,0004*61
$GPHPD,0,0.000,58.30,0.12,-13.61,31.5920152,120.7809914,2.605,13631377.500,24927551.592,2.605,0.000,0.000,0.000,0.000,0.000,0.000,0.000,16,14,4*6C
$GPGGA,075304.80,3135.5209881,N,12046.8596311,E,4,16,1.4,2.6032,M,8.327,M,00,0004*62
$GPHPD,0,0.000,58.51,0.82,-13.63,31.5920165,120.7809939,2.603,13631376.701,24927552.922,2.603,0.000,0.000,0.000,0.000,0.000,0.000,0.000,16,14,4*6D
$GPGGA,075305.00,3135.5210616,N,12046.8597774,E,4,16,1.4,2.6189,M,8.327,M,01,0004*65
$GPHPD,0,0.000,58.46,0.66,-13.65,31.5920177,120.7809963,2.619,13631375.951,24927554.258,2.619,0.000,0.000,0.000,0.000,0.000,0.000,0.000,16,14,4*63
$GPGGA,075305.20,3135.5211416,N,12046.8599260,E,4,16,1.4,2.6424,M,8.327,M,01,0004*68
$GPHPD,0,0.000,58.12,-0.07,-13.66,31.5920190,120.7809988,2.642,13631375.113,24927555.584,2.642,0.000,0.000,0.000,0.000,0.000,0.000,0.000,16,14,4*4E
$GPGGA,075305.40,3135.5212207,N,12046.8600824,E,4,16,1.4,2.6404,M,8.327,M,01,0004*60
$GPHPD,0,0.000,58.57,1.01,-13.67,31.5920203,120.7810014,2.640,13631374.303,24927557.010,2.640,0.000,0.000,0.000,0.000,0.000,0.000,0.000,16,15,4*60
$GPGGA,075305.60,3135.5213014,N,12046.8602354,E,4,15,1.8,2.6829,M,8.327,M,00,0004*60
$GPHPD,0,0.000,58.42,0.19,-13.68,31.5920217,120.7810039,2.683,13631373.464,24927558.385,2.683,0.000,0.000,0.000,0.000,0.000,0.000,0.000,15,14,4*6A
$GPGGA,075305.80,3135.5213807,N,12046.8604010,E,4,14,2.0,2.6047,M,8.327,M,00,0004*6B
$GPHPD,0,0.000,58.52,0.01,-13.67,31.5920230,120.7810067,2.605,13631372.670,24927559.920,2.605,0.000,0.000,0.000,0.000,0.000,0.000,0.000,14,14,4*60
$GPGGA,075306.00,3135.5214650,N,12046.8605645,E,4,15,2.0,2.6062,M,8.327,M,01,0004*6B
$GPHPD,0,0.000,58.53,0.34,-13.67,31.5920244,120.7810094,2.606,13631371.800,24927561.401,2.606,0.000,0.000,0.000,0.000,0.000,0.000,0.000,15,14,4*66
$GPGGA,075306.20,3135.5215484,N,12046.8607287,E,4,14,2.0,2.5941,M,8.327,M,01,0004*61
$GPHPD,0,0.000,58.65,0.39,-13.68,31.5920258,120.7810121,2.594,13631370.945,24927562.896,2.594,0.000,0.000,0.000,0.000,0.000,0.000,0.000,14,13,4*65
$GPGGA,075306.40,3135.5216317,N,12046.8608924,E,4,14,2.0,2.6062,M,8.327,M,01,0004*6F
$GPHPD,0,0.000,58.21,0.05,-13.68,31.5920272,120.7810149,2.606,13631370.090,24927564.385,2.606,0.000,0.000,0.000,0.000,0.000,0.000,0.000,14,13,4*62
$GPGGA,075306.60,3135.5217202,N,12046.8610574,E,4,14,2.0,2.6088,M,8.327,M,00,0004*6C
$GPHPD,0,0.000,58.21,0.31,-13.70,31.5920287,120.7810176,2.609,13631369.164,24927565.860,2.609,0.000,0.000,0.000,0.000,0.000,0.000,0.000,14,13,4*69
$GPGGA,075306.80,3135.5218067,N,12046.8612251,E,4,15,2.0,2.6141,M,8.327,M,00,0004*6B
$GPHPD,0,0.000,58.01,0.11,-13.71,31.5920301,120.7810204,2.614,13631368.272,24927567.378,2.614,0.000,0.000,0.000,0.000,0.000,0.000,0.000,15,14,4*62
$GPGGA,075307.00,3135.5218938,N,12046.8613893,E,4,15,2.0,2.6124,M,8.327,M,01,0004*66
$GPHPD,0,0.000,57.66,-0.36,-13.70,31.5920316,120.7810232,2.612,13631367.364,24927568.851,2.612,0.000,0.000,0.000,0.000,0.000,0.000,0.000,15,14,4*40
$GPGGA,075307.20,3135.5219832,N,12046.8615524,E,4,14,2.0,2.5971,M,8.327,M,01,0004*63
$GPHPD,0,0.000,57.53,0.21,-13.69,31.5920331,120.7810259,2.597,13631366.422,24927570.298,2.597,0.000,0.000,0.000,0.000,0.000,0.000,0.000,14,14,4*6E
$GPGGA,075307.40,3135.5220707,N,12046.8617246,E,4,16,2.0,2.6096,M,8.327,M,01,0004*66
$GPHPD,0,0.000,57.44,0.74,-13.68,31.5920345,120.7810287,2.610,13631365.525,24927571.865,2.610,0.000,0.000,0.000,0.000,0.000,0.000,0.000,16,15,4*66
$GPGGA,075307.60,3135.5221618,N,12046.8618871,E,4,16,1.7,2.6148,M,8.327,M,00,0004*6C
$GPHPD,0,0.000,57.26,0.24,-13.68,31.5920360,120.7810315,2.615,13631364.557,24927573.294,2.615,0.000,0.000,0.000,0.000,0.000,0.000,0.000,16,15,4*68
$GPGGA,075307.80,3135.5222524,N,12046.8620547,E,4,16,1.7,2.6051,M,8.327,M,00,0004*67
$GPHPD,0,0.000,57.00,-0.10,-13.68,31.5920375,120.7810342,2.605,13631363.606,24927574.788,2.605,0.000,0.000,0.000,0.000,0.000,0.000,0.000,16,15,4*4F
$GPGGA,075308.00,3135.5223441,N,12046.8622214,E,4,16,1.7,2.6216,M,8.327,M,01,0004*60
$GPHPD,0,0.000,56.83,1.04,-13.68,31.5920391,120.7810370,2.622,13631362.638,24927576.264,2.622,0.000,0.000,0.000,0.000,0.000,0.000,0.000,16,15,4*6E
$GPGGA,075308.20,3135.5224353,N,12046.8623892,E,4,16,1.7,2.6172,M,8.327,M,01,0004*65
$GPHPD,0,0.000,56.59,0.69,-13.67,31.5920406,120.7810398,2.617,13631361.679,24927577.757,2.617,0.000,0.000,0.000,0.000,0.000,0.000,0.000,16,15,4*61
$GPGGA,075308.40,3135.5225263,N,12046.8625556,E,4,16,1.7,2.6313,M,8.327,M,01,0004*66
$GPHPD,0,0.000,56.35,0.10,-13.65,31.5920421,120.7810426,2.631,13631360.720,24927579.233,2.631,0.000,0.000,0.000,0.000,0.000,0.000,0.000,16,15,4*65
$GPGGA,075308.60,3135.5226196,N,12046.8627240,E,4,16,1.7,2.6331,M,8.327,M,00,0004*6D
$GPHPD,0,0.000,56.17,0.16,-13.61,31.5920437,120.7810454,2.633,13631359.733,24927580.721,2.633,0.000,0.000,0.000,0.000,0.000,0.000,0.000,16,15,4*6D
$GPGGA,075308.80,3135.5227130,N,12046.8628898,E,4,16,1.7,2.6408,M,8.327,M,00,0004*63
$GPHPD,0,0.000,56.16,0.08,-13.57,31.5920452,120.7810482,2.641,13631358.739,24927582.177,2.641,0.000,0.000,0.000,0.000,0.000,0.000,0.000,16,15,4*62
$GPGGA,075309.00,3135.5228063,N,12046.8630547,E,4,16,1.7,2.6438,M,8.327,M,01,0004*66
$GPHPD,0,0.000,55.99,-0.59,-13.53,31.5920468,120.7810509,2.644,13631357.744,24927583.622,2.644,0.000,0.000,0.000,0.000,0.000,0.000,0.000,16,15,4*43
$GPGGA,075309.20,3135.5229015,N,12046.8632224,E,4,17,1.7,2.6334,M,8.327,M,01,0004*6E
$GPHPD,0,0.000,56.03,-0.22,-13.48,31.5920484,120.7810537,2.633,13631356.729,24927585.090,2.633,0.000,0.000,0.000,0.000,0.000,0.000,0.000,17,16,4*4B
$GPGGA,075309.40,3135.5229961,N,12046.8633879,E,4,17,1.7,2.6450,M,8.327,M,01,0004*64
$GPHPD,0,0.000,55.93,0.47,-13.43,31.5920499,120.7810565,2.645,13631355.717,24927586.535,2.645,0.000,0.000,0.000,0.000,0.000,0.000,0.000,17,16,4*68
$GPGGA,075309.60,3135.5230888,N,12046.8635575,E,4,17,1.6,2.6419,M,8.327,M,00,0004*62
$GPHPD,0,0.000,55.97,-0.37,-13.40,31.5920515,120.7810593,2.642,13631354.740,24927588.041,2.642,0.000,0.000,0.000,0.000,0.000,0.000,0.000,17,16,4*42
$GPGGA,075309.80,3135.5231846,N,12046.8637212,E,4,17,1.6,2.6291,M,8.327,M,00,0004*6D
$GPHPD,0,0.000,55.75,-0.03,-13.37,31.5920531,120.7810620,2.629,13631353.708,24927589.457,2.629,0.000,0.000,0.000,0.000,0.000,0.000,0.000,17,16,4*4D
$GPGGA,075310.00,3135.5232769,N,12046.8638869,E,4,17,1.6,2.6379,M,8.327,M,01,0004*63
$GPHPD,0,0.000,55.86,0.54,-13.34,31.5920546,120.7810648,2.638,13631352.729,24927590.918,2.638,0.000,0.000,0.000,0.000,0.000,0.000,0.000,17,16,4*6F
$GPGGA,075310.20,3135.5233731,N,12046.8640491,E,4,17,1.6,2.6435,M,8.327,M,01,0004*66
$GPHPD,0,0.000,55.37,0.35,-13.32,31.5920562,120.7810675,2.644,13631351.688,24927592.314,2.644,0.000,0.000,0.000,0.000,0.000,0.000,0.000,17,16,4*61
$GPGGA,075310.40,3135.5234691,N,12046.8642170,E,4,17,1.6,2.6312,M,8.327,M,01,0004*66
$GPHPD,0,0.000,55.06,-0.50,-13.29,31.5920578,120.7810703,2.631,13631350.661,24927593.779,2.631,0.000,0.000,0.000,0.000,0.000,0.000,0.000,17,16,4*44
$GPGGA,075310.60,3135.5235648,N,12046.8643813,E,4,17,1.6,2.6420,M,8.327,M,00,0004*6B
$GPHPD,0,0.000,54.97,0.54,-13.29,31.5920594,120.7810730,2.642,13631349.632,24927595.203,2.642,0.000,0.000,0.000,0.000,0.000,0.000,0.000,17,16,4*66
$GPGGA,075310.80,3135.5236642,N,12046.8645448,E,4,17,1.6,2.6331,M,8.327,M,00,0004*6F
$GPHPD,0,0.000,54.48,-0.13,-13.26,31.5920611,120.7810757,2.633,13631348.548,24927596.596,2.633,0.000,0.000,0.000,0.000,0.000,0.000,0.000,17,16,4*4D
$GPGGA,075311.00,3135.5237608,N,12046.8647054,E,4,17,1.4,2.6442,M,8.327,M,01,0004*62
$GPHPD,0,0.000,54.20,-0.01,-13.23,31.5920627,120.7810784,2.644,13631347.498,24927597.971,2.644,0.000,0.000,0.000,0.000,0.000,0.000,0.000,17,16,4*49
$GPGGA,075311.20,3135.5238602,N,12046.8648700,E,4,17,1.4,2.6281,M,8.327,M,01,0004*65
$GPHPD,0,0.000,54.04,-0.32,-13.23,31.5920643,120.7810812,2.628,13631346.416,24927599.377,2.628,0.000,0.000,0.000,0.000,0.000,0.000,0.000,17,16,4*48
$GPGGA,075311.40,3135.5239566,N,12046.8650337,E,4,17,1.6,2.6399,M,8.327,M,01,0004*60
$GPHPD,0,0.000,54.27,0.72,-13.21,31.5920659,120.7810839,2.640,13631345.375,24927600.790,2.640,0.000,0.000,0.000,0.000,0.000,0.000,0.000,17,16,4*6F
$GPGGA,075311.60,3135.5240594,N,12046.8651942,E,4,17,1.6,2.6355,M,8.327,M,00,0004*69
$GPHPD,0,0.000,54.03,0.62,-13.18,31.5920677,120.7810866,2.636,13631344.237,24927602.127,2.636,0.000,0.000,0.000,0.000,0.000,0.000,0.000,17,16,4*6A
$GPGGA,075311.80,3135.5241541,N,12046.8653581,E,4,17,1.6,2.6413,M,8.327,M,00,0004*6A
$GPHPD,0,0.000,54.19,0.91,-13.18,31.5920692,120.7810893,2.641,13631343.220,24927603.552,2.641,0.000,0.000,0.000,0.000,0.000,0.000,0.000,17,16,4*6A
$GPGGA,075312.00,3135.5242495,N,12046.8655197,E,4,17,1.6,2.6393,M,8.327,M,01,0004*61
$GPHPD,0,0.000,54.33,0.55,-13.16,31.5920708,120.7810920,2.639,13631342.189,24927604.945,2.639,0.000,0.000,0.000,0.000,0.000,0.000,0.000,17,16,4*63
$GPGGA,075312.20,3135.5243459,N,12046.8656807,E,4,17,1.6,2.6545,M,8.327,M,01,0004*6C
$GPHPD,0,0.000,54.36,0.58,-13.15,31.5920724,120.7810947,2.655,13631341.143,24927606.325,2.655,0.000,0.000,0.000,0.000,0.000,0.000,0.000,17,16,4*6C
$GPGGA,075312.40,3135.5244419,N,12046.8658424,E,4,17,1.6,2.6605,M,8.327,M,01,0004*6D
$GPHPD,0,0.000,54.58,0.18,-13.15,31.5920740,120.7810974,2.661,13631340.104,24927607.716,2.661,0.000,0.000,0.000,0.000,0.000,0.000,0.000,17,16,4*65
$GPGGA,075312.60,3135.5245352,N,12046.8660026,E,4,17,1.6,2.6665,M,8.328,M,00,0004*63
$GPHPD,0,0.000,54.68,-0.45,-13.14,31.5920756,120.7811000,2.667,13631339.100,24927609.105,2.667,0.000,0.000,0.000,0.000,0.000,0.000,0.000,17,16,4*4E
$GPGGA,075312.80,3135.5246305,N,12046.8661637,E,4,17,1.6,2.6648,M,8.328,M,00,0004*64
$GPHPD,0,0.000,54.56,-0.68,-13.14,31.5920772,120.7811027,2.665,13631338.069,24927610.493,2.665,0.000,0.000,0.000,0.000,0.000,0.000,0.000,17,16,4*42
$GPGGA,075313.00,3135.5247261,N,12046.8663274,E,4,16,1.6,2.6569,M,8.328,M,01,0004*6E
$GPHPD,0,0.000,55.08,-0.50,-13.10,31.5920788,120.7811055,2.657,13631337.040,24927611.910,2.657,0.000,0.000,0.000,0.000,0.000,0.000,0.000,16,16,4*45
$GPGGA,075313.20,3135.5248178,N,12046.8664865,E,4,17,1.6,2.6547,M,8.328,M,01,0004*68
$GPHPD,0,0.000,55.06,-0.14,-13.08,31.5920803,120.7811081,2.655,13631336.056,24927613.295,2.655,0.000,0.000,0.000,0.000,0.000,0.000,0.000,17,16,4*44
$GPGGA,075313.40,3135.5249149,N,12046.8666496,E,4,17,1.6,2.6553,M,8.328,M,01,0004*6A
$GPHPD,0,0.000,54.80,-0.38,-13.06,31.5920819,120.7811108,2.655,13631335.004,24927614.697,2.655,0.000,0.000,0.000,0.000,0.000,0.000,0.000,17,16,4*45
$GPGGA,075313.60,3135.5250128,N,12046.8668109,E,4,17,1.6,2.6409,M,8.328,M,00,0004*65
$GPHPD,0,0.000,54.74,0.09,-13.04,31.5920835,120.7811135,2.641,13631333.937,24927616.072,2.641,0.000,0.000,0.000,0.000,0.000,0.000,0.000,17,16,4*63
$GPGGA,075313.80,3135.5251079,N,12046.8669717,E,4,17,1.6,2.6420,M,8.328,M,00,0004*6C
$GPHPD,0,0.000,54.65,0.57,-13.03,31.5920851,120.7811162,2.642,13631332.909,24927617.457,2.642,0.000,0.000,0.000,0.000,0.000,0.000,0.000,17,16,4*61
$GPGGA,075314.00,3135.5252031,N,12046.8671316,E,4,17,1.6,2.6454,M,8.328,M,01,0004*62
$GPHPD,0,0.000,54.22,0.19,-13.02,31.5920867,120.7811189,2.645,13631331.877,24927618.831,2.645,0.000,0.000,0.000,0.000,0.000,0.000,0.000,17,16,4*61
$GPGGA,075314.20,3135.5253019,N,12046.8672936,E,4,17,1.6,2.6394,M,8.328,M,01,0004*6B
$GPHPD,0,0.000,54.25,0.28,-13.02,31.5920884,120.7811216,2.639,13631330.799,24927620.210,2.639,0.000,0.000,0.000,0.000,0.000,0.000,0.000,17,16,4*60
$GPGGA,075314.40,3135.5253949,N,12046.8674555,E,4,17,1.7,2.6560,M,8.328,M,01,0004*62
$GPHPD,0,0.000,54.15,0.57,-13.03,31.5920899,120.7811243,2.656,13631329.802,24927621.620,2.656,0.000,0.000,0.000,0.000,0.000,0.000,0.000,17,16,4*65
$GPGGA,075314.60,3135.5254939,N,12046.8676151,E,4,17,1.6,2.6469,M,8.328,M,00,0004*6A
$GPHPD,0,0.000,54.10,0.32,-13.03,31.5920916,120.7811269,2.647,13631328.716,24927622.969,2.647,0.000,0.000,0.000,0.000,0.000,0.000,0.000,17,16,4*67
$GPGGA,075314.80,3135.5255882,N,12046.8677743,E,4,17,1.6,2.6491,M,8.328,M,00,0004*67
$GPHPD,0,0.000,54.23,0.33,-13.03,31.5920931,120.7811296,2.649,13631327.696,24927624.339,2.649,0.000,0.000,0.000,0.000,0.000,0.000,0.000,17,16,4*6C
$GPGGA,075315.00,3135.5256849,N,12046.8679328,E,4,17,1.6,2.6556,M,8.328,M,01,0004*66
$GPHPD,0,0.000,54.49,0.95,-13.03,31.5920947,120.7811322,2.656,13631326.640,24927625.688,2.656,0.000,0.000,0.000,0.000,0.000,0.000,0.000,17,16,4*67
$GPGGA,075315.20,3135.5257808,N,12046.8680928,E,4,17,1.6,2.6485,M,8.328,M,01,0004*63
$GPHPD,0,0.000,54.70,0.58,-13.03,31.5920963,120.7811349,2.649,13631325.599,24927627.059,2.649,0.000,0.000,0.000,0.000,0.000,0.000,0.000,17,16,4*6B
$GPGGA,075315.40,3135.5258755,N,12046.8682550,E,4,17,1.6,2.6573,M,8.328,M,01,0004*64
$GPHPD,0,0.000,54.93,0.65,-13.05,31.5920979,120.7811376,2.657,13631324.579,24927628.464,2.657,0.000,0.000,0.000,0.000,0.000,0.000,0.000,17,16,4*63
$GPGGA,075315.60,3135.5259672,N,12046.8684147,E,4,17,1.6,2.6607,M,8.328,M,00,0004*66
$GPHPD,0,0.000,54.84,0.10,-13.06,31.5920995,120.7811402,2.661,13631323.597,24927629.855,2.661,0.000,0.000,0.000,0.000,0.000,0.000,0.000,17,15,4*69
$GPGGA,075315.80,3135.5260641,N,12046.8685723,E,4,17,1.6,2.6710,M,8.328,M,00,0004*60
$GPHPD,0,0.000,54.71,-0.14,-13.07,31.5921011,120.7811429,2.671,13631322.537,24927631.192,2.671,0.000,0.000,0.000,0.000,0.000,0.000,0.000,17,15,4*46
$GPGGA,075316.00,3135.5261571,N,12046.8687336,E,4,17,1.6,2.6699,M,8.328,M,01,0004*69
$GPHPD,0,0.000,54.94,0.17,-13.09,31.5921026,120.7811456,2.670,13631321.539,24927632.595,2.670,0.000,0.000,0.000,0.000,0.000,0.000,0.000,17,15,4*6C
$GPGGA,075316.20,3135.5262493,N,12046.8688937,E,4,17,1.6,2.6818,M,8.328,M,01,0004*66
$GPHPD,0,0.000,54.85,0.03,-13.09,31.5921042,120.7811482,2.682,13631320.551,24927633.989,2.682,0.000,0.000,0.000,0.000,0.000,0.000,0.000,17,15,4*6D
$GPGGA,075316.40,3135.5263429,N,12046.8690538,E,4,15,1.7,2.6676,M,8.328,M,01,0004*6F
$GPHPD,0,0.000,54.79,0.08,-13.10,31.5921057,120.7811509,2.668,13631319.543,24927635.375,2.668,0.000,0.000,0.000,0.000,0.000,0.000,0.000,15,14,4*6E
$GPGGA,075316.60,3135.5264355,N,12046.8692150,E,4,15,1.7,2.6676,M,8.328,M,00,0004*6F
$GPHPD,0,0.000,55.07,-0.66,-13.11,31.5921073,120.7811536,2.668,13631318.551,24927636.780,2.668,0.000,0.000,0.000,0.000,0.000,0.000,0.000,15,14,4*47
$GPGGA,075316.80,3135.5265281,N,12046.8693762,E,4,15,1.7,2.6666,M,8.328,M,00,0004*6F
$GPHPD,0,0.000,55.23,-0.58,-13.11,31.5921088,120.7811563,2.667,13631317.559,24927638.185,2.667,0.000,0.000,0.000,0.000,0.000,0.000,0.000,15,14,4*42
$GPGGA,075317.00,3135.5266198,N,12046.8695378,E,4,15,1.7,2.6631,M,8.328,M,01,0004*64
$GPHPD,0,0.000,55.67,0.49,-13.11,31.5921103,120.7811590,2.663,13631316.580,24927639.600,2.663,0.000,0.000,0.000,0.000,0.000,0.000,0.000,15,14,4*6F
$GPGGA,075317.20,3135.5267111,N,12046.8696984,E,4,15,1.7,2.6738,M,8.328,M,01,0004*64
$GPHPD,0,0.000,55.74,-0.08,-13.11,31.5921119,120.7811616,2.674,13631315.606,24927641.005,2.674,0.000,0.000,0.000,0.000,0.000,0.000,0.000,15,14,4*41
$GPGGA,075317.40,3135.5268040,N,12046.8698631,E,4,17,1.7,2.6439,M,8.328,M,01,0004*67
$GPHPD,0,0.000,55.90,-0.58,-13.11,31.5921134,120.7811644,2.644,13631314.616,24927642.450,2.644,0.000,0.000,0.000,0.000,0.000,0.000,0.000,17,16,4*41
$GPGGA,075317.60,3135.5268970,N,12046.8700307,E,4,17,1.7,2.6548,M,8.328,M,00,0004*69
$GPHPD,0,0.000,56.25,1.04,-13.13,31.5921150,120.7811672,2.655,13631313.632,24927643.930,2.655,0.000,0.000,0.000,0.000,0.000,0.000,0.000,17,16,4*67
$GPGGA,075317.80,3135.5269811,N,12046.8701888,E,4,17,1.7,2.6735,M,8.328,M,00,0004*65
$GPHPD,0,0.000,56.14,0.42,-13.13,31.5921164,120.7811698,2.674,13631312.754,24927645.346,2.674,0.000,0.000,0.000,0.000,0.000,0.000,0.000,17,16,4*68
$GPGGA,075318.00,3135.5270721,N,12046.8703516,E,4,17,1.7,2.6590,M,8.328,M,01,0004*62
$GPHPD,0,0.000,56.22,0.28,-13.15,31.5921179,120.7811725,2.659,13631311.788,24927646.780,2.659,0.000,0.000,0.000,0.000,0.000,0.000,0.000,17,16,4*63
$GPGGA,075318.20,3135.5271598,N,12046.8705120,E,4,17,1.4,2.6764,M,8.328,M,01,0004*6C
$GPHPD,0,0.000,56.25,0.18,-13.16,31.5921193,120.7811752,2.676,13631310.864,24927648.204,2.676,0.000,0.000,0.000,0.000,0.000,0.000,0.000,17,15,4*68
$GPGGA,075318.40,3135.5272501,N,12046.8706747,E,4,17,1.4,2.6781,M,8.328,M,01,0004*66
$GPHPD,0,0.000,56.62,0.78,-13.18,31.5921208,120.7811779,2.678,13631309.908,24927649.640,2.678,0.000,0.000,0.000,0.000,0.000,0.000,0.000,17,15,4*6D
$GPGGA,075318.60,3135.5273405,N,12046.8708344,E,4,17,1.6,2.6627,M,8.328,M,00,0004*67
$GPHPD,0,0.000,56.62,0.28,-13.19,31.5921223,120.7811806,2.663,13631308.944,24927651.039,2.663,0.000,0.000,0.000,0.000,0.000,0.000,0.000,17,15,4*6F
$GPGGA,075318.80,3135.5274286,N,12046.8709996,E,4,17,1.6,2.6841,M,8.328,M,00,0004*69
$GPHPD,0,0.000,57.19,1.10,-13.19,31.5921238,120.7811833,2.684,13631308.025,24927652.519,2.684,0.000,0.000,0.000,0.000,0.000,0.000,0.000,17,15,4*6E
$GPGGA,075319.00,3135.5275163,N,12046.8711659,E,4,17,1.6,2.6570,M,8.328,M,01,0004*62
$GPHPD,0,0.000,57.21,0.55,-13.20,31.5921253,120.7811861,2.657,13631307.113,24927654.013,2.657,0.000,0.000,0.000,0.000,0.000,0.000,0.000,17,15,4*67
$GPGGA,075319.20,3135.5276035,N,12046.8713304,E,4,17,1.8,2.6843,M,8.328,M,01,0004*6D
$GPHPD,0,0.000,57.23,0.43,-13.18,31.5921267,120.7811888,2.684,13631306.204,24927655.489,2.684,0.000,0.000,0.000,0.000,0.000,0.000,0.000,17,15,4*6B
$GPGGA,075319.40,3135.5276939,N,12046.8714995,E,4,15,1.7,2.6679,M,8.328,M,01,0004*61
$GPHPD,0,0.000,57.47,-0.02,-13.18,31.5921282,120.7811917,2.668,13631305.259,24927657.002,2.668,0.000,0.000,0.000,0.000,0.000,0.000,0.000,15,14,4*40
$GPGGA,075319.60,3135.5277798,N,12046.8716628,E,4,15,1.7,2.6760,M,8.328,M,00,0004*64
$GPHPD,0,0.000,57.58,0.13,-13.16,31.5921297,120.7811944,2.676,13631304.367,24927658.471,2.676,0.000,0.000,0.000,0.000,0.000,0.000,0.000,15,14,4*6D
$GPGGA,075319.80,3135.5278642,N,12046.8718247,E,4,15,1.7,2.7003,M,8.328,M,00,0004*63
$GPHPD,0,0.000,57.87,0.96,-13.14,31.5921311,120.7811971,2.700,13631303.493,24927659.932,2.700,0.000,0.000,0.000,0.000,0.000,0.000,0.000,15,14,4*69
$GPGGA,075320.00,3135.5279554,N,12046.8719963,E,4,15,1.7,2.6713,M,8.328,M,01,0004*6E
$GPHPD,0,0.000,57.27,-1.22,-13.15,31.5921326,120.7811999,2.671,13631302.542,24927661.471,2.671,0.000,0.000,0.000,0.000,0.000,0.000,0.000,15,14,4*4E
$GPGGA,075320.20,3135.5280404,N,12046.8721629,E,4,15,1.7,2.6880,M,8.328,M,01,0004*61
$GPHPD,0,0.000,57.56,-0.65,-13.13,31.5921340,120.7812027,2.688,13631301.668,24927662.985,2.688,0.000,0.000,0.000,0.000,0.000,0.000,0.000,15,14,4*4E
$GPGGA,075320.40,3135.5281288,N,12046.8723290,E,4,16,1.7,2.7040,M,8.328,M,01,0004*66
$GPHPD,0,0.000,57.58,-1.01,-13.13,31.5921355,120.7812055,2.704,13631300.746,24927664.473,2.704,0.000,0.000,0.000,0.000,0.000,0.000,0.000,16,15,4*4E
$GPGGA,075320.60,3135.5282161,N,12046.8724973,E,4,16,1.7,2.7041,M,8.328,M,00,0004*62
$GPHPD,0,0.000,57.79,-0.58,-13.15,31.5921369,120.7812083,2.704,13631299.844,24927665.995,2.704,0.000,0.000,0.000,0.000,0.000,0.000,0.000,16,15,4*4A
$GPGGA,075320.80,3135.5283049,N,12046.8726615,E,4,16,1.7,2.6796,M,8.328,M,00,0004*67
$GPHPD,0,0.000,57.83,-0.60,-13.15,31.5921384,120.7812110,2.680,13631298.912,24927667.458,2.680,0.000,0.000,0.000,0.000,0.000,0.000,0.000,16,15,4*41
$GPGGA,075321.00,3135.5283924,N,12046.8728286,E,4,16,1.7,2.6586,M,8.328,M,01,0004*6E
$GPHPD,0,0.000,57.88,-0.36,-13.18,31.5921399,120.7812138,2.659,13631298.004,24927668.963,2.659,0.000,0.000,0.000,0.000,0.000,0.000,0.000,16,15,4*46
$GPGGA,075321.20,3135.5284799,N,12046.8729968,E,4,16,1.7,2.6561,M,8.328,M,01,0004*60
$GPHPD,0,0.000,58.34,1.60,-13.18,31.5921413,120.7812166,2.656,13631297.099,24927670.482,2.656,0.000,0.000,0.000,0.000,0.000,0.000,0.000,16,15,4*6F
$GPGGA,075321.40,3135.5285637,N,12046.8731664,E,4,16,1.6,2.6833,M,8.328,M,01,0004*63
$GPHPD,0,0.000,58.23,1.77,-13.19,31.5921427,120.7812194,2.683,13631296.249,24927672.040,2.683,0.000,0.000,0.000,0.000,0.000,0.000,0.000,16,15,4*62
$GPGGA,075321.60,3135.5286517,N,12046.8733347,E,4,16,1.6,2.6719,M,8.328,M,00,0004*63
$GPHPD,0,0.000,57.94,0.24,-13.21,31.5921442,120.7812222,2.672,13631295.337,24927673.557,2.672,0.000,0.000,0.000,0.000,0.000,0.000,0.000,16,15,4*69
$GPGGA,075321.80,3135.5287392,N,12046.8735037,E,4,16,1.6,2.6696,M,8.328,M,00,0004*63
$GPHPD,0,0.000,58.28,0.92,-13.19,31.5921457,120.7812251,2.670,13631294.433,24927675.085,2.670,0.000,0.000,0.000,0.000,0.000,0.000,0.000,16,15,4*69
$GPGGA,075322.00,3135.5288241,N,12046.8736700,E,4,16,1.6,2.6953,M,8.328,M,01,0004*6F
$GPHPD,0,0.000,58.78,2.16,-13.19,31.5921471,120.7812278,2.695,13631293.561,24927676.597,2.695,0.000,0.000,0.000,0.000,0.000,0.000,0.000,16,15,4*69
$GPGGA,075322.20,3135.5289111,N,12046.8738413,E,4,16,1.6,2.7001,M,8.328,M,01,0004*6A
$GPHPD,0,0.000,58.46,-0.09,-13.19,31.5921485,120.7812307,2.700,13631292.669,24927678.156,2.700,0.000,0.000,0.000,0.000,0.000,0.000,0.000,16,15,4*4A
$GPGGA,075322.40,3135.5289984,N,12046.8740112,E,4,16,1.6,2.6912,M,8.328,M,01,0004*69
$GPHPD,0,0.000,58.58,0.33,-13.17,31.5921500,120.7812335,2.691,13631291.770,24927679.696,2.691,0.000,0.000,0.000,0.000,0.000,0.000,0.000,16,14,4*63
$GPGGA,075322.60,3135.5290838,N,12046.8741822,E,4,16,1.6,2.6890,M,8.328,M,00,0004*64
$GPHPD,0,0.000,58.61,0.72,-13.17,31.5921514,120.7812364,2.689,13631290.900,24927681.261,2.689,0.000,0.000,0.000,0.000,0.000,0.000,0.000,16,14,4*6E
$GPGGA,075322.80,3135.5291694,N,12046.8743520,E,4,16,1.6,2.7195,M,8.328,M,00,0004*63
$GPHPD,0,0.000,58.49,0.44,-13.14,31.5921528,120.7812392,2.720,13631290.024,24927682.810,2.720,0.000,0.000,0.000,0.000,0.000,0.000,0.000,16,14,4*64
$GPGGA,075323.00,3135.5292565,N,12046.8745248,E,4,17,1.7,2.6847,M,8.328,M,01,0004*6D
$GPHPD,0,0.000,58.50,-0.03,-13.14,31.5921543,120.7812421,2.685,13631289.134,24927684.387,2.685,0.000,0.000,0.000,0.000,0.000,0.000,0.000,17,14,4*4A
$GPGGA,075323.20,3135.5293465,N,12046.8746960,E,4,17,1.7,2.7050,M,8.328,M,01,0004*62
$GPHPD,0,0.000,59.00,1.40,-13.13,31.5921558,120.7812449,2.705,13631288.199,24927685.928,2.705,0.000,0.000,0.000,0.000,0.000,0.000,0.000,17,14,4*6E
$GPGGA,075323.40,3135.5294314,N,12046.8748676,E,4,16,2.0,2.6925,M,8.328,M,01,0004*6B
$GPHPD,0,0.000,59.12,0.93,-13.11,31.5921572,120.7812478,2.693,13631287.338,24927687.503,2.693,0.000,0.000,0.000,0.000,0.000,0.000,0.000,16,15,4*6B
$GPGGA,075323.60,3135.5295223,N,12046.8750395,E,4,17,1.7,2.6895,M,8.328,M,00,0004*62
$GPHPD,0,0.000,59.49,1.44,-13.07,31.5921587,120.7812507,2.690,13631286.391,24927689.047,2.690,0.000,0.000,0.000,0.000,0.000,0.000,0.000,17,15,4*62
$GPGGA,075323.80,3135.5296078,N,12046.8752075,E,4,17,1.7,2.7169,M,8.328,M,00,0004*67
$GPHPD,0,0.000,59.42,1.12,-13.04,31.5921601,120.7812535,2.717,13631285.514,24927690.575,2.717,0.000,0.000,0.000,0.000,0.000,0.000,0.000,17,15,4*61
$GPGGA,075324.00,3135.5296943,N,12046.8753820,E,4,17,1.7,2.7211,M,8.328,M,01,0004*6D
$GPHPD,0,0.000,59.41,1.20,-13.00,31.5921616,120.7812564,2.721,13631284.635,24927692.175,2.721,0.000,0.000,0.000,0.000,0.000,0.000,0.000,17,15,4*62
$GPGGA,075324.20,3135.5297806,N,12046.8755522,E,4,17,1.7,2.7234,M,8.328,M,01,0004*60
$GPHPD,0,0.000,59.35,1.35,-12.99,31.5921630,120.7812592,2.723,13631283.751,24927693.725,2.723,0.000,0.000,0.000,0.000,0.000,0.000,0.000,17,15,4*6F
$GPGGA,075324.40,3135.5298676,N,12046.8757225,E,4,17,1.7,2.7463,M,8.328,M,01,0004*66
$GPHPD,0,0.000,59.13,1.34,-12.99,31.5921645,120.7812620,2.746,13631282.857,24927695.273,2.746,0.000,0.000,0.000,0.000,0.000,0.000,0.000,17,15,4*6A
$GPGGA,075324.60,3135.5299568,N,12046.8758923,E,4,17,1.7,2.7245,M,8.328,M,00,0004*68
$GPHPD,0,0.000,58.08,-0.23,-13.00,31.5921659,120.7812649,2.725,13631281.931,24927696.801,2.725,0.000,0.000,0.000,0.000,0.000,0.000,0.000,17,15,4*46
$GPGGA,075324.80,3135.5300437,N,12046.8760641,E,4,17,1.7,2.7411,M,8.328,M,00,0004*6B
$GPHPD,0,0.000,58.11,1.01,-13.01,31.5921674,120.7812677,2.741,13631281.041,24927698.367,2.741,0.000,0.000,0.000,0.000,0.000,0.000,0.000,17,15,4*6A
$GPGGA,075325.00,3135.5301306,N,12046.8762375,E,4,17,2.0,2.7571,M,8.328,M,01,0004*64
$GPHPD,0,0.000,57.33,-0.95,-12.99,31.5921688,120.7812706,2.757,13631280.155,24927699.952,2.757,0.000,0.000,0.000,0.000,0.000,0.000,0.000,17,15,4*48
$GPGGA,075325.20,3135.5302208,N,12046.8764058,E,4,17,1.7,2.7644,M,8.328,M,01,0004*61
$GPHPD,0,0.000,57.03,-1.09,-12.98,31.5921703,120.7812734,2.764,13631279.211,24927701.456,2.764,0.000,0.000,0.000,0.000,0.000,0.000,0.000,17,15,4*41
$GPGGA,075325.40,3135.5303117,N,12046.8765788,E,4,16,1.7,2.7728,M,8.328,M,01,0004*6A
$GPHPD,0,0.000,56.80,-1.18,-12.97,31.5921719,120.7812763,2.773,13631278.267,24927703.013,2.773,0.000,0.000,0.000,0.000,0.000,0.000,0.000,16,14,4*4A
$GPGGA,075325.60,3135.5304035,N,12046.8767477,E,4,16,1.6,2.7462,M,8.328,M,00,0004*62
$GPHPD,0,0.000,57.24,-1.04,-12.97,31.5921734,120.7812791,2.746,13631277.302,24927704.515,2.746,0.000,0.000,0.000,0.000,0.000,0.000,0.000,16,14,4*43
$GPGGA,075325.80,3135.5304929,N,12046.8769173,E,4,16,1.6,2.7301,M,8.328,M,00,0004*65
$GPHPD,0,0.000,57.95,1.49,-12.98,31.5921749,120.7812820,2.730,13631276.373,24927706.040,2.730,0.000,0.000,0.000,0.000,0.000,0.000,0.000,16,14,4*6D
$GPGGA,075326.00,3135.5305817,N,12046.8770902,E,4,16,1.6,2.7472,M,8.328,M,01,0004*67
$GPHPD,0,0.000,57.89,0.28,-12.95,31.5921764,120.7812848,2.747,13631275.458,24927707.608,2.747,0.000,0.000,0.000,0.000,0.000,0.000,0.000,16,14,4*6C
$GPGGA,075326.20,3135.5306788,N,12046.8772622,E,4,16,1.8,2.7049,M,8.328,M,01,0004*62
$GPHPD,0,0.000,57.93,-1.50,-12.94,31.5921780,120.7812877,2.705,13631274.424,24927709.117,2.705,0.000,0.000,0.000,0.000,0.000,0.000,0.000,16,14,4*4E
