$GPGGA,074153.40,3135.3989410,N,12046.6146630,E,4,18,1.3,2.8389,M,8.313,M,01,0004*6D
$GPHPD,0,0.000,195.58,0.31,-9.91,31.5899824,120.7769111,2.839,13632618.497,24925309.237,2.839,0.000,0.000,0.000,0.000,0.000,0.000,0.000,18,18,4*6B
$GPGGA,074153.60,3135.3987507,N,12046.6145855,E,4,18,1.3,2.8375,M,8.313,M,00,0004*6A
$GPHPD,0,0.000,197.20,-0.06,-9.95,31.5899792,120.7769098,2.838,13632621.046,24925309.410,2.838,0.000,0.000,0.000,0.000,0.000,0.000,0.000,18,18,4*48
$GPGGA,074153.80,3135.3985769,N,12046.6145035,E,4,18,1.3,2.8256,M,8.313,M,00,0004*62
$GPHPD,0,0.000,198.85,-0.02,-9.99,31.5899763,120.7769084,2.826,13632623.352,24925309.433,2.826,0.000,0.000,0.000,0.000,0.000,0.000,0.000,18,18,4*46
$GPGGA,074154.00,3135.3984131,N,12046.6144263,E,4,18,1.3,2.8320,M,8.313,M,01,0004*66
$GPHPD,0,0.000,200.13,0.53,-10.04,31.5899736,120.7769071,2.832,13632625.524,24925309.455,2.832,0.000,0.000,0.000,0.000,0.000,0.000,0.000,18,18,4*55
$GPGGA,074154.20,3135.3982621,N,12046.6143487,E,4,18,1.3,2.8359,M,8.313,M,01,0004*61
$GPHPD,0,0.000,201.58,0.49,-10.05,31.5899710,120.7769058,2.836,13632627.515,24925309.398,2.836,0.000,0.000,0.000,0.000,0.000,0.000,0.000,18,18,4*58
$GPGGA,074154.40,3135.3981262,N,12046.6142732,E,4,18,1.3,2.8412,M,8.313,M,01,0004*63
$GPHPD,0,0.000,202.80,0.84,-10.07,31.5899688,120.7769046,2.841,13632629.294,24925309.278,2.841,0.000,0.000,0.000,0.000,0.000,0.000,0.000,18,18,4*5D
$GPGGA,074154.60,3135.3979996,N,12046.6142008,E,4,18,1.3,2.8412,M,8.313,M,00,0004*69
$GPHPD,0,0.000,204.08,-0.08,-10.08,31.5899667,120.7769033,2.841,13632630.948,24925309.142,2.841,0.000,0.000,0.000,0.000,0.000,0.000,0.000,18,17,4*79
$GPGGA,074154.80,3135.3978859,N,12046.6141318,E,4,18,1.3,2.8338,M,8.313,M,00,0004*6A
$GPHPD,0,0.000,205.39,-0.03,-10.13,31.5899648,120.7769022,2.834,13632632.425,24925308.972,2.834,0.000,0.000,0.000,0.000,0.000,0.000,0.000,18,18,4*77
$GPGGA,074155.00,3135.3977798,N,12046.6140614,E,4,18,1.6,2.8316,M,8.313,M,01,0004*6E
$GPHPD,0,0.000,206.36,0.06,-10.25,31.5899630,120.7769010,2.832,13632633.792,24925308.740,2.832,0.000,0.000,0.000,0.000,0.000,0.000,0.000,18,18,4*59
$GPGGA,074155.20,3135.3976741,N,12046.6139971,E,4,18,1.6,2.8379,M,8.313,M,01,0004*62
$GPHPD,0,0.000,207.19,-0.53,-10.33,31.5899612,120.7769000,2.838,13632635.165,24925308.580,2.838,0.000,0.000,0.000,0.000,0.000,0.000,0.000,18,18,4*78
$GPGGA,074155.40,3135.3975804,N,12046.6139315,E,4,18,1.6,2.8443,M,8.313,M,01,0004*6F
$GPHPD,0,0.000,208.19,0.01,-10.36,31.5899597,120.7768989,2.844,13632636.364,24925308.334,2.844,0.000,0.000,0.000,0.000,0.000,0.000,0.000,18,18,4*56
$GPGGA,074155.60,3135.3974948,N,12046.6138723,E,4,18,1.6,2.8431,M,8.313,M,01,0004*60
$GPHPD,0,0.000,209.02,-0.27,-10.39,31.5899582,120.7768979,2.843,13632637.462,24925308.119,2.843,0.000,0.000,0.000,0.000,0.000,0.000,0.000,18,18,4*7D
$GPGGA,074155.80,3135.3974217,N,12046.6138163,E,4,18,1.6,2.8390,M,8.313,M,00,0004*60
$GPHPD,0,0.000,209.79,-0.45,-10.41,31.5899570,120.7768969,2.839,13632638.388,24925307.869,2.839,0.000,0.000,0.000,0.000,0.000,0.000,0.000,18,17,4*74
$GPGGA,074156.00,3135.3973571,N,12046.6137700,E,4,18,1.6,2.8529,M,8.313,M,01,0004*62
$GPHPD,0,0.000,210.50,-0.23,-10.40,31.5899560,120.7768962,2.853,13632639.213,24925307.686,2.853,0.000,0.000,0.000,0.000,0.000,0.000,0.000,18,17,4*71
$GPGGA,074156.20,3135.3973011,N,12046.6137295,E,4,18,1.6,2.8517,M,8.313,M,01,0004*67
$GPHPD,0,0.000,211.11,-0.69,-10.40,31.5899550,120.7768955,2.852,13632639.928,24925307.524,2.852,0.000,0.000,0.000,0.000,0.000,0.000,0.000,18,17,4*74
$GPGGA,074156.40,3135.3972590,N,12046.6136954,E,4,18,1.6,2.8513,M,8.313,M,01,0004*6F
$GPHPD,0,0.000,211.67,-0.62,-10.39,31.5899543,120.7768949,2.851,13632640.458,24925307.358,2.851,0.000,0.000,0.000,0.000,0.000,0.000,0.000,18,17,4*76
$GPGGA,074156.60,3135.3972236,N,12046.6136700,E,4,18,1.6,2.8554,M,8.313,M,00,0004*6B
$GPHPD,0,0.000,211.92,-0.39,-10.40,31.5899537,120.7768945,2.855,13632640.910,24925307.257,2.855,0.000,0.000,0.000,0.000,0.000,0.000,0.000,18,17,4*7C
$GPGGA,074156.80,3135.3971988,N,12046.6136499,E,4,17,1.6,2.8537,M,8.313,M,00,0004*61
$GPHPD,0,0.000,212.41,-0.48,-10.40,31.5899533,120.7768942,2.854,13632641.222,24925307.159,2.854,0.000,0.000,0.000,0.000,0.000,0.000,0.000,17,17,4*7D
$GPGGA,074157.00,3135.3971825,N,12046.6136346,E,4,17,1.6,2.8507,M,8.313,M,01,0004*69
$GPHPD,0,0.000,212.65,-0.48,-10.43,31.5899530,120.7768939,2.851,13632641.423,24925307.070,2.851,0.000,0.000,0.000,0.000,0.000,0.000,0.000,17,17,4*7A
$GPGGA,074157.20,3135.3971715,N,12046.6136257,E,4,17,1.6,2.8487,M,8.313,M,01,0004*6F
$GPHPD,0,0.000,212.67,-0.29,-10.45,31.5899529,120.7768938,2.849,13632641.561,24925307.026,2.849,0.000,0.000,0.000,0.000,0.000,0.000,0.000,17,17,4*74
$GPGGA,074157.40,3135.3971670,N,12046.6136226,E,4,17,1.6,2.8504,M,8.313,M,01,0004*67
$GPHPD,0,0.000,212.79,0.14,-10.48,31.5899528,120.7768937,2.850,13632641.619,24925307.015,2.850,0.000,0.000,0.000,0.000,0.000,0.000,0.000,17,17,4*57
$GPGGA,074157.60,3135.3971672,N,12046.6136261,E,4,17,1.6,2.8499,M,8.313,M,00,0004*60
$GPHPD,0,0.000,212.86,-0.23,-10.55,31.5899528,120.7768938,2.850,13632641.623,24925307.056,2.850,0.000,0.000,0.000,0.000,0.000,0.000,0.000,17,17,4*73
$GPGGA,074157.80,3135.3971645,N,12046.6136230,E,4,17,1.6,2.8482,M,8.313,M,00,0004*64
$GPHPD,0,0.000,213.10,-0.30,-10.67,31.5899527,120.7768937,2.848,13632641.655,24925307.034,2.848,0.000,0.000,0.000,0.000,0.000,0.000,0.000,17,17,4*7B
$GPGGA,074158.00,3135.3971653,N,12046.6136237,E,4,17,1.6,2.8462,M,8.313,M,01,0004*6C
$GPHPD,0,0.000,212.74,-0.39,-10.78,31.5899528,120.7768937,2.846,13632641.645,24925307.038,2.846,0.000,0.000,0.000,0.000,0.000,0.000,0.000,17,17,4*7D
$GPGGA,074158.20,3135.3971669,N,12046.6136232,E,4,17,1.6,2.8448,M,8.313,M,01,0004*6A
$GPHPD,0,0.000,212.92,-0.09,-10.86,31.5899528,120.7768937,2.845,13632641.621,24925307.023,2.845,0.000,0.000,0.000,0.000,0.000,0.000,0.000,17,17,4*7F
$GPGGA,074158.40,3135.3971661,N,12046.6136229,E,4,17,1.6,2.8461,M,8.313,M,01,0004*65
$GPHPD,0,0.000,212.73,0.18,-10.98,31.5899528,120.7768937,2.846,13632641.632,24925307.024,2.846,0.000,0.000,0.000,0.000,0.000,0.000,0.000,17,17,4*57
$GPGGA,074158.60,3135.3971616,N,12046.6136195,E,4,17,1.6,2.8455,M,8.313,M,00,0004*65
$GPHPD,0,0.000,212.78,-0.05,-11.15,31.5899527,120.7768937,2.846,13632641.689,24925307.009,2.846,0.000,0.000,0.000,0.000,0.000,0.000,0.000,17,17,4*79
$GPGGA,074158.80,3135.3971526,N,12046.6136108,E,4,17,1.6,2.8446,M,8.313,M,00,0004*6D
$GPHPD,0,0.000,212.86,-0.13,-11.32,31.5899525,120.7768935,2.845,13632641.800,24925306.957,2.845,0.000,0.000,0.000,0.000,0.000,0.000,0.000,17,17,4*76
$GPGGA,074159.00,3135.3971361,N,12046.6135979,E,4,17,1.6,2.8517,M,8.313,M,01,0004*68
$GPHPD,0,0.000,212.92,-0.37,-11.51,31.5899523,120.7768933,2.852,13632642.008,24925306.897,2.852,0.000,0.000,0.000,0.000,0.000,0.000,0.000,17,17,4*7E
$GPGGA,074159.20,3135.3971130,N,12046.6135787,E,4,17,1.6,2.8437,M,8.313,M,01,0004*60
$GPHPD,0,0.000,213.21,-0.46,-11.67,31.5899519,120.7768930,2.844,13632642.298,24925306.800,2.844,0.000,0.000,0.000,0.000,0.000,0.000,0.000,17,17,4*7B
$GPGGA,074159.40,3135.3970800,N,12046.6135513,E,4,17,1.6,2.8445,M,8.313,M,01,0004*67
$GPHPD,0,0.000,213.30,-0.06,-11.85,31.5899513,120.7768925,2.845,13632642.712,24925306.662,2.845,0.000,0.000,0.000,0.000,0.000,0.000,0.000,17,17,4*70
$GPGGA,074159.60,3135.3970385,N,12046.6135160,E,4,17,1.6,2.8417,M,8.313,M,00,0004*65
$GPHPD,0,0.000,213.57,0.09,-12.03,31.5899506,120.7768919,2.842,13632643.231,24925306.477,2.842,0.000,0.000,0.000,0.000,0.000,0.000,0.000,17,17,4*56
$GPGGA,074159.80,3135.3969882,N,12046.6134743,E,4,17,1.6,2.8379,M,8.313,M,00,0004*66
$GPHPD,0,0.000,213.97,-0.05,-12.20,31.5899498,120.7768912,2.838,13632643.862,24925306.267,2.838,0.000,0.000,0.000,0.000,0.000,0.000,0.000,17,17,4*7C
$GPGGA,074200.00,3135.3969275,N,12046.6134240,E,4,17,1.6,2.8442,M,8.313,M,01,0004*6B
$GPHPD,0,0.000,214.45,-0.22,-12.40,31.5899488,120.7768904,2.844,13632644.623,24925306.014,2.844,0.000,0.000,0.000,0.000,0.000,0.000,0.000,17,17,4*7B
$GPGGA,074200.20,3135.3968585,N,12046.6133643,E,4,17,1.6,2.8435,M,8.313,M,01,0004*60
$GPHPD,0,0.000,215.14,-0.68,-12.59,31.5899476,120.7768894,2.844,13632645.484,24925305.696,2.844,0.000,0.000,0.000,0.000,0.000,0.000,0.000,17,17,4*70
$GPGGA,074200.40,3135.3967764,N,12046.6132916,E,4,17,1.6,2.8447,M,8.313,M,01,0004*6F
$GPHPD,0,0.000,215.62,-0.14,-12.81,31.5899463,120.7768882,2.845,13632646.504,24925305.297,2.845,0.000,0.000,0.000,0.000,0.000,0.000,0.000,17,17,4*73
$GPGGA,074200.60,3135.3966850,N,12046.6132071,E,4,17,1.6,2.8408,M,8.313,M,00,0004*66
$GPHPD,0,0.000,216.35,-0.80,-12.93,31.5899448,120.7768868,2.841,13632647.633,24925304.810,2.841,0.000,0.000,0.000,0.000,0.000,0.000,0.000,17,17,4*73
$GPGGA,074200.80,3135.3965861,N,12046.6131160,E,4,17,1.6,2.8464,M,8.313,M,00,0004*61
$GPHPD,0,0.000,216.87,-0.30,-12.99,31.5899431,120.7768853,2.846,13632648.856,24925304.287,2.846,0.000,0.000,0.000,0.000,0.000,0.000,0.000,17,17,4*7B
$GPGGA,074201.00,3135.3964816,N,12046.6130159,E,4,17,1.6,2.8516,M,8.313,M,01,0004*67
$GPHPD,0,0.000,218.03,-0.15,-13.02,31.5899414,120.7768836,2.852,13632650.140,24925303.688,2.852,0.000,0.000,0.000,0.000,0.000,0.000,0.000,17,17,4*72
$GPGGA,074201.20,3135.3963791,N,12046.6129067,E,4,17,1.6,2.8539,M,8.313,M,01,0004*6B
$GPHPD,0,0.000,219.17,-0.22,-13.02,31.5899397,120.7768818,2.854,13632651.377,24925302.967,2.854,0.000,0.000,0.000,0.000,0.000,0.000,0.000,17,17,4*7A
$GPGGA,074201.40,3135.3962749,N,12046.6127951,E,4,17,1.6,2.8471,M,8.313,M,01,0004*66
$GPHPD,0,0.000,220.56,-0.77,-13.03,31.5899379,120.7768799,2.847,13632652.633,24925302.228,2.847,0.000,0.000,0.000,0.000,0.000,0.000,0.000,17,17,4*74
$GPGGA,074201.60,3135.3961694,N,12046.6126822,E,4,17,1.6,2.8516,M,8.313,M,00,0004*63
$GPHPD,0,0.000,221.60,-0.37,-12.99,31.5899362,120.7768780,2.852,13632653.905,24925301.481,2.852,0.000,0.000,0.000,0.000,0.000,0.000,0.000,17,17,4*79
$GPGGA,074201.80,3135.3960668,N,12046.6125630,E,4,17,1.6,2.8540,M,8.313,M,00,0004*62
$GPHPD,0,0.000,223.27,-0.69,-12.88,31.5899344,120.7768761,2.854,13632655.124,24925300.640,2.854,0.000,0.000,0.000,0.000,0.000,0.000,0.000,17,17,4*7B
$GPGGA,074202.00,3135.3959743,N,12046.6124481,E,4,17,1.6,2.8652,M,8.313,M,01,0004*63
$GPHPD,0,0.000,224.58,-0.84,-12.76,31.5899329,120.7768741,2.865,13632656.207,24925299.793,2.865,0.000,0.000,0.000,0.000,0.000,0.000,0.000,17,17,4*70
$GPGGA,074202.20,3135.3958890,N,12046.6123353,E,4,17,1.6,2.8572,M,8.313,M,01,0004*6F
$GPHPD,0,0.000,226.16,-1.10,-12.69,31.5899315,120.7768723,2.857,13632657.193,24925298.929,2.857,0.000,0.000,0.000,0.000,0.000,0.000,0.000,17,17,4*70
$GPGGA,074202.40,3135.3958125,N,12046.6122225,E,4,17,1.6,2.8423,M,8.313,M,01,0004*6A
$GPHPD,0,0.000,227.55,-1.23,-12.61,31.5899302,120.7768704,2.842,13632658.053,24925298.014,2.842,0.000,0.000,0.000,0.000,0.000,0.000,0.000,17,17,4*78
$GPGGA,074202.60,3135.3957418,N,12046.6121170,E,4,17,1.6,2.8480,M,8.313,M,00,0004*64
$GPHPD,0,0.000,228.74,-0.75,-12.52,31.5899290,120.7768686,2.848,13632658.845,24925297.153,2.848,0.000,0.000,0.000,0.000,0.000,0.000,0.000,17,16,4*74
$GPGGA,074202.80,3135.3956781,N,12046.6120162,E,4,17,1.6,2.8464,M,8.312,M,00,0004*61
$GPHPD,0,0.000,230.04,-0.93,-12.43,31.5899280,120.7768669,2.846,13632659.548,24925296.308,2.846,0.000,0.000,0.000,0.000,0.000,0.000,0.000,17,17,4*7F
$GPGGA,074203.00,3135.3956190,N,12046.6119224,E,4,17,1.6,2.8383,M,8.312,M,01,0004*6A
$GPHPD,0,0.000,230.86,-0.35,-12.37,31.5899270,120.7768654,2.838,13632660.199,24925295.521,2.838,0.000,0.000,0.000,0.000,0.000,0.000,0.000,17,17,4*77
$GPGGA,074203.20,3135.3955628,N,12046.6118345,E,4,17,1.6,2.8338,M,8.312,M,01,0004*68
$GPHPD,0,0.000,231.73,0.06,-12.34,31.5899260,120.7768639,2.834,13632660.821,24925294.788,2.834,0.000,0.000,0.000,0.000,0.000,0.000,0.000,17,17,4*52
$GPGGA,074203.40,3135.3955114,N,12046.6117491,E,4,17,1.7,2.8373,M,8.312,M,01,0004*69
$GPHPD,0,0.000,232.65,0.09,-12.31,31.5899252,120.7768625,2.837,13632661.380,24925294.058,2.837,0.000,0.000,0.000,0.000,0.000,0.000,0.000,17,17,4*5B
$GPGGA,074203.60,3135.3954642,N,12046.6116748,E,4,17,1.6,2.8454,M,8.312,M,00,0004*6A
$GPHPD,0,0.000,233.29,-0.68,-12.31,31.5899244,120.7768612,2.845,13632661.901,24925293.436,2.845,0.000,0.000,0.000,0.000,0.000,0.000,0.000,17,17,4*73
$GPGGA,074203.80,3135.3954230,N,12046.6116004,E,4,17,1.6,2.8366,M,8.312,M,00,0004*6C
$GPHPD,0,0.000,233.97,-0.75,-12.31,31.5899237,120.7768600,2.837,13632662.337,24925292.779,2.837,0.000,0.000,0.000,0.000,0.000,0.000,0.000,17,17,4*78
$GPGGA,074204.00,3135.3953786,N,12046.6115319,E,4,17,1.7,2.8422,M,8.312,M,01,0004*67
$GPHPD,0,0.000,234.37,-0.58,-12.30,31.5899230,120.7768589,2.842,13632662.830,24925292.211,2.842,0.000,0.000,0.000,0.000,0.000,0.000,0.000,17,17,4*79
$GPGGA,074204.20,3135.3953395,N,12046.6114637,E,4,17,1.7,2.8439,M,8.312,M,01,0004*61
$GPHPD,0,0.000,234.89,-0.55,-12.29,31.5899223,120.7768577,2.844,13632663.249,24925291.616,2.844,0.000,0.000,0.000,0.000,0.000,0.000,0.000,17,17,4*7F
$GPGGA,074204.40,3135.3953010,N,12046.6113943,E,4,17,1.7,2.8485,M,8.312,M,01,0004*65
$GPHPD,0,0.000,235.27,-0.82,-12.30,31.5899217,120.7768566,2.849,13632663.656,24925291.003,2.849,0.000,0.000,0.000,0.000,0.000,0.000,0.000,17,15,4*75
$GPGGA,074204.60,3135.3952633,N,12046.6113250,E,4,17,1.7,2.8422,M,8.312,M,00,0004*64
$GPHPD,0,0.000,235.42,-0.68,-12.31,31.5899211,120.7768554,2.842,13632664.052,24925290.387,2.842,0.000,0.000,0.000,0.000,0.000,0.000,0.000,17,16,4*7C
$GPGGA,074204.80,3135.3952246,N,12046.6112611,E,4,17,1.7,2.8465,M,8.312,M,00,0004*6F
$GPHPD,0,0.000,235.52,-0.76,-12.35,31.5899204,120.7768544,2.847,13632664.474,24925289.842,2.847,0.000,0.000,0.000,0.000,0.000,0.000,0.000,17,16,4*79
$GPGGA,074205.00,3135.3951852,N,12046.6111939,E,4,17,1.7,2.8485,M,8.312,M,01,0004*63
$GPHPD,0,0.000,235.69,-1.15,-12.39,31.5899198,120.7768532,2.849,13632664.899,24925289.261,2.849,0.000,0.000,0.000,0.000,0.000,0.000,0.000,17,16,4*7A
$GPGGA,074205.20,3135.3951436,N,12046.6111239,E,4,17,1.7,2.8415,M,8.312,M,01,0004*6D
$GPHPD,0,0.000,236.03,-0.97,-12.43,31.5899191,120.7768521,2.842,13632665.349,24925288.659,2.842,0.000,0.000,0.000,0.000,0.000,0.000,0.000,17,16,4*71
$GPGGA,074205.40,3135.3951039,N,12046.6110473,E,4,17,1.7,2.8431,M,8.312,M,01,0004*6F
$GPHPD,0,0.000,236.02,-0.92,-12.47,31.5899184,120.7768508,2.843,13632665.759,24925287.966,2.843,0.000,0.000,0.000,0.000,0.000,0.000,0.000,17,15,4*74
$GPGGA,074205.60,3135.3950580,N,12046.6109711,E,4,17,1.7,2.8351,M,8.312,M,00,0004*64
$GPHPD,0,0.000,236.09,-1.27,-12.50,31.5899176,120.7768495,2.835,13632666.258,24925287.314,2.835,0.000,0.000,0.000,0.000,0.000,0.000,0.000,17,15,4*76
$GPGGA,074205.80,3135.3950114,N,12046.6108875,E,4,16,1.8,2.8162,M,8.312,M,00,0004*63
$GPHPD,0,0.000,235.70,-0.93,-12.51,31.5899169,120.7768481,2.816,13632666.752,24925286.577,2.816,0.000,0.000,0.000,0.000,0.000,0.000,0.000,16,15,4*73
$GPGGA,074206.00,3135.3949678,N,12046.6108057,E,4,17,1.7,2.8314,M,8.312,M,01,0004*69
$GPHPD,0,0.000,235.68,-0.78,-12.45,31.5899161,120.7768468,2.831,13632667.207,24925285.845,2.831,0.000,0.000,0.000,0.000,0.000,0.000,0.000,17,15,4*7F
$GPGGA,074206.20,3135.3949255,N,12046.6107347,E,4,17,1.7,2.8327,M,8.312,M,01,0004*6D
$GPHPD,0,0.000,235.46,-0.53,-12.35,31.5899154,120.7768456,2.833,13632667.666,24925285.235,2.833,0.000,0.000,0.000,0.000,0.000,0.000,0.000,17,15,4*78
$GPGGA,074206.40,3135.3948894,N,12046.6106708,E,4,17,1.7,2.8310,M,8.312,M,01,0004*67
$GPHPD,0,0.000,235.48,-0.61,-12.29,31.5899148,120.7768445,2.831,13632668.050,24925284.674,2.831,0.000,0.000,0.000,0.000,0.000,0.000,0.000,17,15,4*79
$GPGGA,074206.60,3135.3948503,N,12046.6106093,E,4,16,1.8,2.8259,M,8.312,M,00,0004*60
$GPHPD,0,0.000,235.41,-0.63,-12.28,31.5899142,120.7768435,2.826,13632668.482,24925284.160,2.826,0.000,0.000,0.000,0.000,0.000,0.000,0.000,16,15,4*76
$GPGGA,074206.80,3135.3948173,N,12046.6105462,E,4,16,1.8,2.8239,M,8.312,M,00,0004*62
$GPHPD,0,0.000,235.30,0.03,-12.27,31.5899136,120.7768424,2.824,13632668.824,24925283.591,2.824,0.000,0.000,0.000,0.000,0.000,0.000,0.000,16,15,4*5A
$GPGGA,074207.00,3135.3947807,N,12046.6104868,E,4,16,1.8,2.8258,M,8.312,M,01,0004*6F
$GPHPD,0,0.000,235.35,-0.63,-12.28,31.5899130,120.7768414,2.826,13632669.225,24925283.088,2.826,0.000,0.000,0.000,0.000,0.000,0.000,0.000,16,15,4*79
$GPGGA,074207.20,3135.3947468,N,12046.6104258,E,4,15,1.4,2.8257,M,8.312,M,01,0004*61
$GPHPD,0,0.000,235.48,-0.85,-12.29,31.5899124,120.7768404,2.826,13632669.584,24925282.550,2.826,0.000,0.000,0.000,0.000,0.000,0.000,0.000,15,15,4*70
$GPGGA,074207.40,3135.3947142,N,12046.6103660,E,4,15,1.4,2.8271,M,8.312,M,01,0004*66
$GPHPD,0,0.000,235.36,-0.86,-12.32,31.5899119,120.7768394,2.827,13632669.927,24925282.018,2.827,0.000,0.000,0.000,0.000,0.000,0.000,0.000,15,15,4*7C
$GPGGA,074207.60,3135.3946787,N,12046.6103034,E,4,15,1.4,2.8238,M,8.312,M,00,0004*61
$GPHPD,0,0.000,235.11,-0.88,-12.37,31.5899113,120.7768384,2.824,13632670.305,24925281.470,2.824,0.000,0.000,0.000,0.000,0.000,0.000,0.000,15,15,4*72
$GPGGA,074207.80,3135.3946390,N,12046.6102334,E,4,15,1.4,2.8151,M,8.312,M,00,0004*63
$GPHPD,0,0.000,235.28,-0.74,-12.42,31.5899107,120.7768372,2.815,13632670.729,24925280.857,2.815,0.000,0.000,0.000,0.000,0.000,0.000,0.000,15,15,4*77
$GPGGA,074208.00,3135.3945943,N,12046.6101615,E,4,15,1.4,2.8207,M,8.312,M,01,0004*67
$GPHPD,0,0.000,235.28,-0.46,-12.47,31.5899099,120.7768360,2.821,13632671.219,24925280.250,2.821,0.000,0.000,0.000,0.000,0.000,0.000,0.000,15,15,4*7C
$GPGGA,074208.20,3135.3945487,N,12046.6100823,E,4,15,1.4,2.8163,M,8.312,M,01,0004*6B
$GPHPD,0,0.000,235.49,-0.71,-12.55,31.5899091,120.7768347,2.816,13632671.708,24925279.560,2.816,0.000,0.000,0.000,0.000,0.000,0.000,0.000,15,15,4*76
$GPGGA,074208.40,3135.3945014,N,12046.6099957,E,4,15,1.4,2.8243,M,8.312,M,01,0004*61
$GPHPD,0,0.000,235.55,-0.53,-12.67,31.5899084,120.7768333,2.824,13632672.206,24925278.791,2.824,0.000,0.000,0.000,0.000,0.000,0.000,0.000,15,15,4*78
$GPGGA,074208.60,3135.3944444,N,12046.6099008,E,4,15,1.4,2.8235,M,8.312,M,01,0004*61
$GPHPD,0,0.000,235.51,-0.97,-12.75,31.5899074,120.7768317,2.824,13632672.825,24925277.978,2.824,0.000,0.000,0.000,0.000,0.000,0.000,0.000,15,15,4*73
$GPGGA,074208.80,3135.3943880,N,12046.6097983,E,4,15,1.4,2.8304,M,8.312,M,00,0004*6A
$GPHPD,0,0.000,235.79,-0.99,-12.81,31.5899065,120.7768300,2.830,13632673.420,24925277.071,2.830,0.000,0.000,0.000,0.000,0.000,0.000,0.000,15,15,4*72
$GPGGA,074209.00,3135.3943255,N,12046.6096858,E,4,15,1.4,2.8239,M,8.312,M,01,0004*69
$GPHPD,0,0.000,236.17,-1.34,-12.88,31.5899054,120.7768281,2.824,13632674.082,24925276.078,2.824,0.000,0.000,0.000,0.000,0.000,0.000,0.000,15,15,4*7F
$GPGGA,074209.20,3135.3942586,N,12046.6095643,E,4,15,1.4,2.8204,M,8.312,M,01,0004*6A
$GPHPD,0,0.000,236.18,-1.26,-12.94,31.5899043,120.7768261,2.820,13632674.789,24925275.002,2.820,0.000,0.000,0.000,0.000,0.000,0.000,0.000,15,15,4*74
$GPGGA,074209.40,3135.3941902,N,12046.6094388,E,4,15,1.4,2.8077,M,8.312,M,01,0004*6A
$GPHPD,0,0.000,236.38,-1.30,-13.00,31.5899032,120.7768240,2.808,13632675.508,24925273.886,2.808,0.000,0.000,0.000,0.000,0.000,0.000,0.000,15,15,4*70
$GPGGA,074209.60,3135.3941145,N,12046.6093028,E,4,15,1.4,2.8137,M,8.312,M,00,0004*69
$GPHPD,0,0.000,236.56,-0.43,-13.04,31.5899019,120.7768217,2.814,13632676.310,24925272.687,2.814,0.000,0.000,0.000,0.000,0.000,0.000,0.000,15,15,4*70
$GPGGA,074209.80,3135.3940398,N,12046.6091658,E,4,15,1.4,2.8101,M,8.312,M,00,0004*62
$GPHPD,0,0.000,236.69,-0.56,-13.05,31.5899007,120.7768194,2.810,13632677.096,24925271.470,2.810,0.000,0.000,0.000,0.000,0.000,0.000,0.000,15,15,4*7B
$GPGGA,074210.00,3135.3939642,N,12046.6090236,E,4,15,1.4,2.8049,M,8.312,M,01,0004*6F
$GPHPD,0,0.000,237.10,-0.62,-13.07,31.5898994,120.7768171,2.805,13632677.885,24925270.195,2.805,0.000,0.000,0.000,0.000,0.000,0.000,0.000,15,15,4*7D
$GPGGA,074210.20,3135.3938872,N,12046.6088783,E,4,15,1.4,2.8095,M,8.312,M,01,0004*62
$GPHPD,0,0.000,237.24,-0.56,-13.09,31.5898981,120.7768146,2.810,13632678.687,24925268.891,2.810,0.000,0.000,0.000,0.000,0.000,0.000,0.000,15,15,4*74
$GPGGA,074210.40,3135.3938079,N,12046.6087254,E,4,15,1.4,2.8034,M,8.312,M,01,0004*6C
$GPHPD,0,0.000,237.15,-0.95,-13.10,31.5898968,120.7768121,2.803,13632679.506,24925267.508,2.803,0.000,0.000,0.000,0.000,0.000,0.000,0.000,15,15,4*7E
$GPGGA,074210.60,3135.3937283,N,12046.6085788,E,4,15,1.4,2.8007,M,8.312,M,00,0004*61
$GPHPD,0,0.000,237.20,-0.85,-13.10,31.5898955,120.7768096,2.801,13632680.342,24925266.204,2.801,0.000,0.000,0.000,0.000,0.000,0.000,0.000,15,15,4*70
$GPGGA,074210.80,3135.3936467,N,12046.6084292,E,4,15,1.4,2.8035,M,8.312,M,00,0004*6C
$GPHPD,0,0.000,237.33,-0.61,-13.09,31.5898941,120.7768072,2.804,13632681.201,24925264.875,2.804,0.000,0.000,0.000,0.000,0.000,0.000,0.000,15,15,4*76
$GPGGA,074211.00,3135.3935686,N,12046.6082789,E,4,15,1.4,2.8008,M,8.312,M,01,0004*6D
$GPHPD,0,0.000,237.65,-0.94,-13.10,31.5898928,120.7768046,2.801,13632682.009,24925263.517,2.801,0.000,0.000,0.000,0.000,0.000,0.000,0.000,15,15,4*78
$GPGGA,074211.20,3135.3934875,N,12046.6081266,E,4,15,1.4,2.8014,M,8.312,M,01,0004*66
$GPHPD,0,0.000,237.49,-0.48,-13.09,31.5898915,120.7768021,2.801,13632682.855,24925262.152,2.801,0.000,0.000,0.000,0.000,0.000,0.000,0.000,15,15,4*75
$GPGGA,074211.40,3135.3934107,N,12046.6079756,E,4,15,1.4,2.7956,M,8.312,M,01,0004*6D
$GPHPD,0,0.000,237.68,-0.84,-13.09,31.5898902,120.7767996,2.796,13632683.642,24925260.778,2.796,0.000,0.000,0.000,0.000,0.000,0.000,0.000,15,15,4*7F
$GPGGA,074211.60,3135.3933306,N,12046.6078225,E,4,15,1.4,2.7927,M,8.312,M,00,0004*6C
$GPHPD,0,0.000,237.72,-0.52,-13.09,31.5898888,120.7767970,2.793,13632684.473,24925259.398,2.793,0.000,0.000,0.000,0.000,0.000,0.000,0.000,15,15,4*73
$GPGGA,074211.80,3135.3932477,N,12046.6076705,E,4,15,1.4,2.8005,M,8.312,M,00,0004*6D
$GPHPD,0,0.000,237.63,-0.82,-13.08,31.5898875,120.7767945,2.801,13632685.345,24925258.047,2.801,0.000,0.000,0.000,0.000,0.000,0.000,0.000,15,15,4*78
$GPGGA,074212.00,3135.3931680,N,12046.6075170,E,4,15,1.4,2.7859,M,8.312,M,01,0004*67
$GPHPD,0,0.000,237.96,-0.49,-13.08,31.5898861,120.7767920,2.786,13632686.169,24925256.660,2.786,0.000,0.000,0.000,0.000,0.000,0.000,0.000,15,15,4*71
$GPGGA,074212.20,3135.3930922,N,12046.6073607,E,4,15,1.4,2.7879,M,8.312,M,01,0004*60
$GPHPD,0,0.000,237.81,-0.57,-13.06,31.5898849,120.7767893,2.788,13632686.932,24925255.216,2.788,0.000,0.000,0.000,0.000,0.000,0.000,0.000,15,15,4*75
$GPGGA,074212.40,3135.3930069,N,12046.6072062,E,4,15,1.4,2.7883,M,8.312,M,01,0004*61
$GPHPD,0,0.000,237.91,-0.71,-13.05,31.5898834,120.7767868,2.788,13632687.833,24925253.850,2.788,0.000,0.000,0.000,0.000,0.000,0.000,0.000,15,15,4*72
$GPGGA,074212.60,3135.3929281,N,12046.6070555,E,4,15,1.4,2.7827,M,8.312,M,00,0004*63
$GPHPD,0,0.000,237.96,-0.62,-13.04,31.5898821,120.7767843,2.783,13632688.650,24925252.491,2.783,0.000,0.000,0.000,0.000,0.000,0.000,0.000,15,15,4*7F
$GPGGA,074212.80,3135.3928465,N,12046.6069001,E,4,15,1.4,2.7831,M,8.312,M,00,0004*6B
$GPHPD,0,0.000,238.14,-0.80,-13.02,31.5898808,120.7767817,2.783,13632689.497,24925251.092,2.783,0.000,0.000,0.000,0.000,0.000,0.000,0.000,15,15,4*76
$GPGGA,074213.00,3135.3927628,N,12046.6067442,E,4,15,1.4,2.7898,M,8.312,M,01,0004*69
$GPHPD,0,0.000,238.18,-0.32,-13.01,31.5898794,120.7767791,2.790,13632690.372,24925249.699,2.790,0.000,0.000,0.000,0.000,0.000,0.000,0.000,15,15,4*7B
$GPGGA,074213.20,3135.3926836,N,12046.6065856,E,4,15,1.4,2.7802,M,8.312,M,01,0004*63
$GPHPD,0,0.000,238.58,-0.63,-13.03,31.5898781,120.7767764,2.780,13632691.179,24925248.247,2.780,0.000,0.000,0.000,0.000,0.000,0.000,0.000,15,15,4*79
$GPGGA,074213.40,3135.3926063,N,12046.6064259,E,4,15,1.4,2.7843,M,8.312,M,01,0004*6C
$GPHPD,0,0.000,239.09,-0.19,-13.03,31.5898768,120.7767738,2.784,13632691.956,24925246.771,2.784,0.000,0.000,0.000,0.000,0.000,0.000,0.000,15,15,4*74
$GPGGA,074213.60,3135.3925324,N,12046.6062652,E,4,15,1.4,2.7792,M,8.312,M,00,0004*66
$GPHPD,0,0.000,239.25,-0.10,-13.04,31.5898755,120.7767711,2.779,13632692.683,24925245.263,2.779,0.000,0.000,0.000,0.000,0.000,0.000,0.000,15,15,4*70
$GPGGA,074213.80,3135.3924493,N,12046.6061002,E,4,15,1.4,2.7746,M,8.312,M,00,0004*6B
$GPHPD,0,0.000,239.34,-0.21,-13.03,31.5898742,120.7767683,2.775,13632693.532,24925243.757,2.775,0.000,0.000,0.000,0.000,0.000,0.000,0.000,15,15,4*75
$GPGGA,074214.00,3135.3923727,N,12046.6059332,E,4,15,1.4,2.7806,M,8.312,M,01,0004*6E
$GPHPD,0,0.000,239.64,-0.51,-13.02,31.5898729,120.7767656,2.781,13632694.285,24925242.189,2.781,0.000,0.000,0.000,0.000,0.000,0.000,0.000,15,15,4*7B
$GPGGA,074214.20,3135.3922966,N,12046.6057744,E,4,15,1.4,2.7834,M,8.312,M,01,0004*6C
$GPHPD,0,0.000,239.58,-0.92,-13.01,31.5898716,120.7767629,2.783,13632695.047,24925240.717,2.783,0.000,0.000,0.000,0.000,0.000,0.000,0.000,15,15,4*72
$GPGGA,074214.40,3135.3922151,N,12046.6056108,E,4,15,1.4,2.7880,M,8.312,M,01,0004*66
$GPHPD,0,0.000,239.71,-0.92,-12.99,31.5898703,120.7767602,2.788,13632695.876,24925239.218,2.788,0.000,0.000,0.000,0.000,0.000,0.000,0.000,15,15,4*7A
$GPGGA,074214.60,3135.3921332,N,12046.6054449,E,4,15,1.4,2.7957,M,8.312,M,00,0004*68
$GPHPD,0,0.000,239.61,-0.80,-12.98,31.5898689,120.7767574,2.796,13632696.706,24925237.695,2.796,0.000,0.000,0.000,0.000,0.000,0.000,0.000,15,15,4*7C
$GPGGA,074214.80,3135.3920574,N,12046.6052827,E,4,15,1.4,2.7617,M,8.312,M,00,0004*6A
$GPHPD,0,0.000,240.00,-1.47,-12.97,31.5898676,120.7767547,2.762,13632697.457,24925236.180,2.762,0.000,0.000,0.000,0.000,0.000,0.000,0.000,15,15,4*74
$GPGGA,074215.00,3135.3919778,N,12046.6051148,E,4,15,1.4,2.7597,M,8.312,M,01,0004*6E
$GPHPD,0,0.000,239.94,-0.49,-12.96,31.5898663,120.7767519,2.760,13632698.250,24925234.618,2.760,0.000,0.000,0.000,0.000,0.000,0.000,0.000,15,15,4*7C
$GPGGA,074215.20,3135.3918975,N,12046.6049482,E,4,15,1.4,2.7580,M,8.312,M,01,0004*62
$GPHPD,0,0.000,239.89,-0.28,-12.96,31.5898650,120.7767491,2.758,13632699.056,24925233.076,2.758,0.000,0.000,0.000,0.000,0.000,0.000,0.000,15,15,4*7A
$GPGGA,074215.40,3135.3918143,N,12046.6047800,E,4,15,1.4,2.7659,M,8.312,M,01,0004*66
$GPHPD,0,0.000,239.89,-0.54,-12.95,31.5898636,120.7767463,2.766,13632699.900,24925231.532,2.766,0.000,0.000,0.000,0.000,0.000,0.000,0.000,15,15,4*72
$GPGGA,074215.60,3135.3917335,N,12046.6046135,E,4,16,1.4,2.7663,M,8.312,M,00,0004*6D
$GPHPD,0,0.000,239.88,-1.00,-12.92,31.5898622,120.7767436,2.766,13632700.713,24925229.995,2.766,0.000,0.000,0.000,0.000,0.000,0.000,0.000,16,16,4*74
$GPGGA,074215.80,3135.3916523,N,12046.6044465,E,4,16,1.4,2.7687,M,8.312,M,00,0004*6B
$GPHPD,0,0.000,239.76,-0.84,-12.91,31.5898609,120.7767408,2.769,13632701.531,24925228.453,2.769,0.000,0.000,0.000,0.000,0.000,0.000,0.000,16,16,4*7A
$GPGGA,074216.00,3135.3915702,N,12046.6042769,E,4,16,1.4,2.7649,M,8.312,M,01,0004*68
$GPHPD,0,0.000,239.55,-0.77,-12.90,31.5898595,120.7767379,2.765,13632702.357,24925226.886,2.765,0.000,0.000,0.000,0.000,0.000,0.000,0.000,16,16,4*7E
$GPGGA,074216.20,3135.3914879,N,12046.6041091,E,4,16,1.4,2.7679,M,8.312,M,01,0004*68
$GPHPD,0,0.000,239.50,-0.73,-12.89,31.5898581,120.7767352,2.768,13632703.189,24925225.341,2.768,0.000,0.000,0.000,0.000,0.000,0.000,0.000,16,16,4*78
$GPGGA,074216.40,3135.3914050,N,12046.6039419,E,4,16,1.4,2.7470,M,8.312,M,01,0004*6D
$GPHPD,0,0.000,239.39,-0.69,-12.88,31.5898568,120.7767324,2.747,13632704.031,24925223.807,2.747,0.000,0.000,0.000,0.000,0.000,0.000,0.000,16,16,4*71
$GPGGA,074216.60,3135.3913208,N,12046.6037721,E,4,16,1.4,2.7527,M,8.312,M,00,0004*63
$GPHPD,0,0.000,239.42,-0.44,-12.88,31.5898553,120.7767295,2.753,13632704.886,24925222.250,2.753,0.000,0.000,0.000,0.000,0.000,0.000,0.000,16,16,4*7C
$GPGGA,074216.80,3135.3912393,N,12046.6036030,E,4,16,1.4,2.7543,M,8.312,M,00,0004*6B
$GPHPD,0,0.000,239.35,-0.50,-12.87,31.5898540,120.7767267,2.754,13632705.704,24925220.685,2.754,0.000,0.000,0.000,0.000,0.000,0.000,0.000,16,16,4*73
$GPGGA,074217.00,3135.3911548,N,12046.6034319,E,4,16,1.4,2.7550,M,8.312,M,01,0004*68
$GPHPD,0,0.000,239.41,-0.33,-12.87,31.5898526,120.7767239,2.755,13632706.560,24925219.113,2.755,0.000,0.000,0.000,0.000,0.000,0.000,0.000,16,16,4*7F
$GPGGA,074217.20,3135.3910728,N,12046.6032617,E,4,16,1.4,2.7607,M,8.312,M,01,0004*63
$GPHPD,0,0.000,239.41,-0.33,-12.86,31.5898512,120.7767210,2.761,13632707.383,24925217.538,2.761,0.000,0.000,0.000,0.000,0.000,0.000,0.000,16,16,4*7B
$GPGGA,074217.40,3135.3909879,N,12046.6030914,E,4,16,1.4,2.7477,M,8.312,M,01,0004*6D
$GPHPD,0,0.000,239.45,-0.97,-12.83,31.5898498,120.7767182,2.748,13632708.247,24925215.979,2.748,0.000,0.000,0.000,0.000,0.000,0.000,0.000,16,16,4*72
$GPGGA,074217.60,3135.3909017,N,12046.6029204,E,4,16,1.4,2.7676,M,8.312,M,00,0004*6F
$GPHPD,0,0.000,239.40,-0.50,-12.83,31.5898484,120.7767153,2.768,13632709.128,24925214.418,2.768,0.000,0.000,0.000,0.000,0.000,0.000,0.000,16,16,4*7D
$GPGGA,074217.80,3135.3908203,N,12046.6027485,E,4,16,1.4,2.7662,M,8.312,M,00,0004*63
$GPHPD,0,0.000,239.30,-1.18,-12.82,31.5898470,120.7767125,2.766,13632709.939,24925212.819,2.766,0.000,0.000,0.000,0.000,0.000,0.000,0.000,16,16,4*7F
$GPGGA,074218.00,3135.3907364,N,12046.6025796,E,4,16,1.4,2.7621,M,8.312,M,01,0004*6E
$GPHPD,0,0.000,239.07,-1.14,-12.81,31.5898456,120.7767097,2.762,13632710.791,24925211.270,2.762,0.000,0.000,0.000,0.000,0.000,0.000,0.000,16,16,4*7A
$GPGGA,074218.20,3135.3906524,N,12046.6024097,E,4,16,1.4,2.7496,M,8.312,M,01,0004*66
$GPHPD,0,0.000,239.07,-1.16,-12.80,31.5898442,120.7767068,2.750,13632711.643,24925209.710,2.750,0.000,0.000,0.000,0.000,0.000,0.000,0.000,16,16,4*79
$GPGGA,074218.40,3135.3905664,N,12046.6022399,E,4,16,1.4,2.7490,M,8.312,M,01,0004*69
$GPHPD,0,0.000,239.00,-0.65,-12.80,31.5898428,120.7767040,2.749,13632712.524,24925208.163,2.749,0.000,0.000,0.000,0.000,0.000,0.000,0.000,16,16,4*7F
$GPGGA,074218.60,3135.3904811,N,12046.6020709,E,4,16,1.4,2.7424,M,8.312,M,00,0004*67
$GPHPD,0,0.000,239.01,-0.61,-12.79,31.5898414,120.7767012,2.742,13632713.396,24925206.622,2.742,0.000,0.000,0.000,0.000,0.000,0.000,0.000,16,16,4*76
$GPGGA,074218.80,3135.3903963,N,12046.6018999,E,4,16,1.4,2.7317,M,8.312,M,00,0004*61
$GPHPD,0,0.000,239.01,-0.31,-12.78,31.5898399,120.7766983,2.732,13632714.257,24925205.053,2.732,0.000,0.000,0.000,0.000,0.000,0.000,0.000,16,16,4*78
$GPGGA,074219.00,3135.3903131,N,12046.6017329,E,4,16,1.4,2.7399,M,8.312,M,01,0004*6E
$GPHPD,0,0.000,238.67,-0.28,-12.75,31.5898386,120.7766955,2.740,13632715.104,24925203.523,2.740,0.000,0.000,0.000,0.000,0.000,0.000,0.000,16,16,4*79
$GPGGA,074219.20,3135.3902239,N,12046.6015640,E,4,16,1.4,2.7381,M,8.312,M,01,0004*67
$GPHPD,0,0.000,238.58,-0.32,-12.75,31.5898371,120.7766927,2.738,13632716.031,24925202.006,2.738,0.000,0.000,0.000,0.000,0.000,0.000,0.000,16,16,4*74
$GPGGA,074219.40,3135.3901393,N,12046.6013958,E,4,16,1.4,2.7405,M,8.312,M,01,0004*68
$GPHPD,0,0.000,238.69,-0.32,-12.75,31.5898357,120.7766899,2.741,13632716.895,24925200.470,2.741,0.000,0.000,0.000,0.000,0.000,0.000,0.000,16,16,4*77
$GPGGA,074219.60,3135.3900533,N,12046.6012259,E,4,16,1.4,2.7571,M,8.312,M,00,0004*6F
$GPHPD,0,0.000,238.41,-0.88,-12.74,31.5898342,120.7766871,2.757,13632717.776,24925198.921,2.757,0.000,0.000,0.000,0.000,0.000,0.000,0.000,16,16,4*77
$GPGGA,074219.80,3135.3899685,N,12046.6010593,E,4,16,1.4,2.7471,M,8.312,M,00,0004*6C
$GPHPD,0,0.000,238.40,-1.25,-12.72,31.5898328,120.7766843,2.747,13632718.646,24925197.406,2.747,0.000,0.000,0.000,0.000,0.000,0.000,0.000,16,16,4*71
$GPGGA,074220.00,3135.3898841,N,12046.6008912,E,4,16,1.4,2.7457,M,8.312,M,01,0004*60
$GPHPD,0,0.000,238.25,-1.03,-12.71,31.5898314,120.7766815,2.746,13632719.507,24925195.870,2.746,0.000,0.000,0.000,0.000,0.000,0.000,0.000,16,16,4*71
$GPGGA,074220.20,3135.3897964,N,12046.6007269,E,4,16,1.4,2.7417,M,8.312,M,01,0004*67
$GPHPD,0,0.000,238.42,-1.14,-12.71,31.5898299,120.7766788,2.742,13632720.423,24925194.399,2.742,0.000,0.000,0.000,0.000,0.000,0.000,0.000,16,16,4*79
$GPGGA,074220.40,3135.3897112,N,12046.6005601,E,4,16,1.4,2.7357,M,8.312,M,01,0004*63
$GPHPD,0,0.000,238.34,-0.61,-12.72,31.5898285,120.7766760,2.736,13632721.298,24925192.883,2.736,0.000,0.000,0.000,0.000,0.000,0.000,0.000,16,16,4*72
$GPGGA,074220.60,3135.3896254,N,12046.6003911,E,4,16,1.4,2.7407,M,8.312,M,00,0004*6A
$GPHPD,0,0.000,238.47,-0.61,-12.71,31.5898271,120.7766732,2.741,13632722.177,24925191.345,2.741,0.000,0.000,0.000,0.000,0.000,0.000,0.000,16,16,4*7A
$GPGGA,074220.80,3135.3895405,N,12046.6002272,E,4,16,1.8,2.7227,M,8.312,M,00,0004*62
$GPHPD,0,0.000,238.29,-1.18,-12.71,31.5898257,120.7766705,2.723,13632723.054,24925189.862,2.723,0.000,0.000,0.000,0.000,0.000,0.000,0.000,16,15,4*78
$GPGGA,074221.00,3135.3894548,N,12046.6000595,E,4,16,1.8,2.7364,M,8.312,M,01,0004*69
$GPHPD,0,0.000,238.24,-0.60,-12.72,31.5898242,120.7766677,2.736,13632723.934,24925188.339,2.736,0.000,0.000,0.000,0.000,0.000,0.000,0.000,16,16,4*70
$GPGGA,074221.20,3135.3893687,N,12046.5998936,E,4,16,1.8,2.7446,M,8.312,M,01,0004*65
$GPHPD,0,0.000,238.13,-0.84,-12.71,31.5898228,120.7766649,2.745,13632724.824,24925186.839,2.745,0.000,0.000,0.000,0.000,0.000,0.000,0.000,16,16,4*7E
$GPGGA,074221.40,3135.3892844,N,12046.5997313,E,4,16,1.8,2.7285,M,8.312,M,01,0004*68
$GPHPD,0,0.000,238.37,-1.28,-12.72,31.5898214,120.7766622,2.729,13632725.696,24925185.372,2.729,0.000,0.000,0.000,0.000,0.000,0.000,0.000,16,16,4*7F
$GPGGA,074221.60,3135.3891989,N,12046.5995648,E,4,16,1.6,2.7230,M,8.312,M,00,0004*61
$GPHPD,0,0.000,238.28,-0.79,-12.72,31.5898200,120.7766594,2.723,13632726.576,24925183.862,2.723,0.000,0.000,0.000,0.000,0.000,0.000,0.000,16,16,4*7D
$GPGGA,074221.80,3135.3891126,N,12046.5993980,E,4,16,1.6,2.7135,M,8.312,M,00,0004*69
$GPHPD,0,0.000,238.10,-0.92,-12.72,31.5898185,120.7766566,2.714,13632727.467,24925182.353,2.714,0.000,0.000,0.000,0.000,0.000,0.000,0.000,16,15,4*7B
$GPGGA,074222.00,3135.3890288,N,12046.5992344,E,4,16,1.4,2.7215,M,8.312,M,01,0004*65
$GPHPD,0,0.000,238.02,0.30,-12.72,31.5898171,120.7766539,2.722,13632728.328,24925180.868,2.722,0.000,0.000,0.000,0.000,0.000,0.000,0.000,16,16,4*5D
$GPGGA,074222.20,3135.3889468,N,12046.5990686,E,4,16,1.4,2.7035,M,8.312,M,01,0004*6E
$GPHPD,0,0.000,238.01,0.11,-12.71,31.5898158,120.7766511,2.704,13632729.160,24925179.346,2.704,0.000,0.000,0.000,0.000,0.000,0.000,0.000,16,16,4*51
$GPGGA,074222.40,3135.3888582,N,12046.5989044,E,4,16,1.4,2.7102,M,8.312,M,01,0004*69
$GPHPD,0,0.000,237.92,0.06,-12.70,31.5898143,120.7766484,2.710,13632730.089,24925177.881,2.710,0.000,0.000,0.000,0.000,0.000,0.000,0.000,16,15,4*57
$GPGGA,074222.60,3135.3887734,N,12046.5987403,E,4,16,1.4,2.6929,M,8.312,M,00,0004*63
$GPHPD,0,0.000,237.99,-0.55,-12.68,31.5898129,120.7766457,2.693,13632730.964,24925176.396,2.693,0.000,0.000,0.000,0.000,0.000,0.000,0.000,16,15,4*7A
$GPGGA,074222.80,3135.3886883,N,12046.5985812,E,4,16,1.4,2.7219,M,8.312,M,00,0004*68
$GPHPD,0,0.000,237.71,0.86,-12.67,31.5898115,120.7766430,2.722,13632731.853,24925174.972,2.722,0.000,0.000,0.000,0.000,0.000,0.000,0.000,16,15,4*58
$GPGGA,074223.00,3135.3886033,N,12046.5984101,E,4,16,1.4,2.7024,M,8.312,M,01,0004*65
$GPHPD,0,0.000,237.89,-0.22,-12.67,31.5898101,120.7766402,2.702,13632732.717,24925173.404,2.702,0.000,0.000,0.000,0.000,0.000,0.000,0.000,16,15,4*7F
$GPGGA,074223.20,3135.3885169,N,12046.5982464,E,4,16,1.4,2.6941,M,8.312,M,01,0004*61
$GPHPD,0,0.000,238.07,-0.70,-12.65,31.5898086,120.7766374,2.694,13632733.616,24925171.932,2.694,0.000,0.000,0.000,0.000,0.000,0.000,0.000,16,15,4*70
$GPGGA,074223.40,3135.3884358,N,12046.5980814,E,4,16,1.4,2.6998,M,8.312,M,01,0004*6B
$GPHPD,0,0.000,238.01,-0.28,-12.65,31.5898073,120.7766347,2.700,13632734.436,24925170.415,2.700,0.000,0.000,0.000,0.000,0.000,0.000,0.000,16,16,4*7C
$GPGGA,074223.60,3135.3883464,N,12046.5979218,E,4,16,1.4,2.7047,M,8.312,M,00,0004*6D
$GPHPD,0,0.000,237.77,0.27,-12.63,31.5898058,120.7766320,2.705,13632735.386,24925169.010,2.705,0.000,0.000,0.000,0.000,0.000,0.000,0.000,16,16,4*5A
$GPGGA,074223.80,3135.3882614,N,12046.5977562,E,4,16,1.4,2.6980,M,8.312,M,00,0004*60
$GPHPD,0,0.000,238.03,0.42,-12.62,31.5898044,120.7766293,2.698,13632736.260,24925167.508,2.698,0.000,0.000,0.000,0.000,0.000,0.000,0.000,16,16,4*58
$GPGGA,074224.00,3135.3881781,N,12046.5975944,E,4,16,1.4,2.7274,M,8.312,M,01,0004*6B
$GPHPD,0,0.000,237.97,0.49,-12.60,31.5898030,120.7766266,2.727,13632737.119,24925166.041,2.727,0.000,0.000,0.000,0.000,0.000,0.000,0.000,16,16,4*5F
$GPGGA,074224.20,3135.3880898,N,12046.5974293,E,4,16,1.4,2.7251,M,8.312,M,01,0004*68
$GPHPD,0,0.000,237.82,-1.34,-12.59,31.5898015,120.7766238,2.725,13632738.041,24925164.564,2.725,0.000,0.000,0.000,0.000,0.000,0.000,0.000,16,16,4*78
$GPGGA,074224.40,3135.3880075,N,12046.5972660,E,4,16,1.4,2.7194,M,8.312,M,01,0004*61
$GPHPD,0,0.000,237.96,-1.03,-12.59,31.5898001,120.7766211,2.719,13632738.882,24925163.074,2.719,0.000,0.000,0.000,0.000,0.000,0.000,0.000,16,16,4*73
$GPGGA,074224.60,3135.3879193,N,12046.5971005,E,4,16,1.4,2.7271,M,8.312,M,00,0004*63
$GPHPD,0,0.000,237.91,-1.43,-12.59,31.5897987,120.7766183,2.727,13632739.803,24925161.592,2.727,0.000,0.000,0.000,0.000,0.000,0.000,0.000,16,16,4*77
$GPGGA,074224.80,3135.3878311,N,12046.5969353,E,4,16,1.6,2.7270,M,8.312,M,00,0004*6E
$GPHPD,0,0.000,237.84,-1.16,-12.59,31.5897972,120.7766156,2.727,13632740.724,24925160.113,2.727,0.000,0.000,0.000,0.000,0.000,0.000,0.000,16,16,4*79
$GPGGA,074225.00,3135.3877450,N,12046.5967684,E,4,16,1.4,2.7213,M,8.312,M,01,0004*6D
$GPHPD,0,0.000,237.89,-1.27,-12.60,31.5897958,120.7766128,2.721,13632741.612,24925158.601,2.721,0.000,0.000,0.000,0.000,0.000,0.000,0.000,16,16,4*77
$GPGGA,074225.20,3135.3876605,N,12046.5965997,E,4,16,1.4,2.6995,M,8.312,M,01,0004*67
$GPHPD,0,0.000,237.98,-0.93,-12.60,31.5897943,120.7766100,2.700,13632742.473,24925157.058,2.700,0.000,0.000,0.000,0.000,0.000,0.000,0.000,16,16,4*7A
$GPGGA,074225.40,3135.3875739,N,12046.5964317,E,4,16,1.4,2.6980,M,8.312,M,01,0004*6B
$GPHPD,0,0.000,237.90,-0.80,-12.60,31.5897929,120.7766072,2.698,13632743.366,24925155.537,2.698,0.000,0.000,0.000,0.000,0.000,0.000,0.000,16,16,4*74
$GPGGA,074225.60,3135.3874853,N,12046.5962716,E,4,16,1.4,2.7073,M,8.312,M,00,0004*6D
$GPHPD,0,0.000,237.94,-1.44,-12.62,31.5897914,120.7766045,2.707,13632744.303,24925154.121,2.707,0.000,0.000,0.000,0.000,0.000,0.000,0.000,16,16,4*77
$GPGGA,074225.80,3135.3874018,N,12046.5961037,E,4,16,1.4,2.6930,M,8.312,M,00,0004*6C
$GPHPD,0,0.000,237.81,-1.38,-12.63,31.5897900,120.7766017,2.693,13632745.152,24925152.583,2.693,0.000,0.000,0.000,0.000,0.000,0.000,0.000,16,16,4*76
$GPGGA,074226.00,3135.3873133,N,12046.5959399,E,4,16,1.4,2.7008,M,8.312,M,01,0004*66
$GPHPD,0,0.000,237.60,-1.27,-12.65,31.5897886,120.7765990,2.701,13632746.080,24925151.122,2.701,0.000,0.000,0.000,0.000,0.000,0.000,0.000,16,16,4*7A
$GPGGA,074226.20,3135.3872282,N,12046.5957744,E,4,16,1.4,2.7049,M,8.312,M,01,0004*63
$GPHPD,0,0.000,237.65,-0.97,-12.64,31.5897871,120.7765962,2.705,13632746.956,24925149.622,2.705,0.000,0.000,0.000,0.000,0.000,0.000,0.000,16,16,4*7D
$GPGGA,074226.40,3135.3871419,N,12046.5956059,E,4,16,1.4,2.6907,M,8.312,M,01,0004*6A
$GPHPD,0,0.000,237.52,-0.86,-12.65,31.5897857,120.7765934,2.691,13632747.844,24925148.092,2.691,0.000,0.000,0.000,0.000,0.000,0.000,0.000,16,16,4*70
$GPGGA,074226.60,3135.3870538,N,12046.5954406,E,4,16,1.4,2.6916,M,8.312,M,00,0004*66
$GPHPD,0,0.000,237.39,-0.59,-12.65,31.5897842,120.7765907,2.692,13632748.763,24925146.611,2.692,0.000,0.000,0.000,0.000,0.000,0.000,0.000,16,16,4*7D
$GPGGA,074226.80,3135.3869656,N,12046.5952763,E,4,16,1.4,2.6934,M,8.312,M,00,0004*6D
$GPHPD,0,0.000,237.89,-0.76,-12.66,31.5897828,120.7765879,2.693,13632749.686,24925145.143,2.693,0.000,0.000,0.000,0.000,0.000,0.000,0.000,16,16,4*74
$GPGGA,074227.00,3135.3868789,N,12046.5951110,E,4,16,1.4,2.6968,M,8.312,M,01,0004*6F
$GPHPD,0,0.000,237.81,-0.69,-12.66,31.5897813,120.7765852,2.697,13632750.586,24925143.655,2.697,0.000,0.000,0.000,0.000,0.000,0.000,0.000,16,16,4*7E
$GPGGA,074227.20,3135.3867930,N,12046.5949444,E,4,16,1.6,2.6992,M,8.311,M,01,0004*67
$GPHPD,0,0.000,238.07,-0.92,-12.68,31.5897799,120.7765824,2.699,13632751.471,24925142.145,2.699,0.000,0.000,0.000,0.000,0.000,0.000,0.000,16,16,4*76
$GPGGA,074227.40,3135.3867071,N,12046.5947766,E,4,16,1.4,2.6925,M,8.311,M,01,0004*6E
$GPHPD,0,0.000,238.36,-1.37,-12.68,31.5897785,120.7765796,2.693,13632752.354,24925140.622,2.693,0.000,0.000,0.000,0.000,0.000,0.000,0.000,16,16,4*76
$GPGGA,074227.60,3135.3866224,N,12046.5946089,E,4,16,1.4,2.6943,M,8.311,M,01,0004*68
$GPHPD,0,0.000,238.41,-1.09,-12.69,31.5897770,120.7765768,2.694,13632753.221,24925139.092,2.694,0.000,0.000,0.000,0.000,0.000,0.000,0.000,16,16,4*70
$GPGGA,074227.80,3135.3865361,N,12046.5944447,E,4,16,1.4,2.6837,M,8.311,M,00,0004*62
$GPHPD,0,0.000,238.45,-1.20,-12.69,31.5897756,120.7765741,2.684,13632754.117,24925137.615,2.684,0.000,0.000,0.000,0.000,0.000,0.000,0.000,16,16,4*76
$GPGGA,074228.00,3135.3864504,N,12046.5942825,E,4,16,1.4,2.6941,M,8.311,M,01,0004*6E
$GPHPD,0,0.000,237.96,-0.72,-12.70,31.5897742,120.7765714,2.694,13632755.008,24925136.157,2.694,0.000,0.000,0.000,0.000,0.000,0.000,0.000,16,16,4*72
$GPGGA,074228.20,3135.3863703,N,12046.5941134,E,4,16,1.4,2.6894,M,8.311,M,01,0004*6D
$GPHPD,0,0.000,238.47,-1.29,-12.70,31.5897728,120.7765686,2.689,13632755.806,24925134.584,2.689,0.000,0.000,0.000,0.000,0.000,0.000,0.000,16,16,4*76
$GPGGA,074228.40,3135.3862856,N,12046.5939491,E,4,16,1.4,2.6878,M,8.311,M,01,0004*62
$GPHPD,0,0.000,238.38,-0.80,-12.72,31.5897714,120.7765658,2.688,13632756.680,24925133.096,2.688,0.000,0.000,0.000,0.000,0.000,0.000,0.000,16,16,4*70
$GPGGA,074228.60,3135.3862033,N,12046.5937819,E,4,16,1.4,2.6827,M,8.311,M,00,0004*62
$GPHPD,0,0.000,238.57,-1.04,-12.72,31.5897701,120.7765630,2.683,13632757.513,24925131.559,2.683,0.000,0.000,0.000,0.000,0.000,0.000,0.000,16,16,4*72
$GPGGA,074228.80,3135.3861191,N,12046.5936186,E,4,16,1.4,2.6801,M,8.311,M,00,0004*6C
$GPHPD,0,0.000,238.87,-0.57,-12.72,31.5897687,120.7765603,2.680,13632758.381,24925130.079,2.680,0.000,0.000,0.000,0.000,0.000,0.000,0.000,16,16,4*73
$GPGGA,074229.00,3135.3860407,N,12046.5934498,E,4,16,1.4,2.6731,M,8.311,M,01,0004*6B
$GPHPD,0,0.000,239.40,-0.32,-12.72,31.5897673,120.7765575,2.673,13632759.155,24925128.500,2.673,0.000,0.000,0.000,0.000,0.000,0.000,0.000,16,16,4*7B
$GPGGA,074229.20,3135.3859619,N,12046.5932822,E,4,16,1.4,2.6801,M,8.311,M,01,0004*69
$GPHPD,0,0.000,239.55,-1.08,-12.75,31.5897660,120.7765547,2.680,13632759.938,24925126.937,2.680,0.000,0.000,0.000,0.000,0.000,0.000,0.000,16,16,4*76
$GPGGA,074229.40,3135.3858779,N,12046.5931152,E,4,16,1.4,2.6787,M,8.311,M,01,0004*65
$GPHPD,0,0.000,239.66,-1.05,-12.76,31.5897646,120.7765519,2.679,13632760.796,24925125.412,2.679,0.000,0.000,0.000,0.000,0.000,0.000,0.000,16,16,4*7E
$GPGGA,074229.60,3135.3858005,N,12046.5929487,E,4,16,1.4,2.6842,M,8.311,M,00,0004*68
$GPHPD,0,0.000,240.19,-0.92,-12.78,31.5897633,120.7765491,2.684,13632761.561,24925123.855,2.684,0.000,0.000,0.000,0.000,0.000,0.000,0.000,16,16,4*78
$GPGGA,074229.80,3135.3857203,N,12046.5927787,E,4,16,1.4,2.6691,M,8.311,M,00,0004*60
$GPHPD,0,0.000,240.33,-1.22,-12.79,31.5897620,120.7765463,2.669,13632762.358,24925122.272,2.669,0.000,0.000,0.000,0.000,0.000,0.000,0.000,16,16,4*75
$GPGGA,074230.00,3135.3856442,N,12046.5926108,E,4,16,1.4,2.6764,M,8.311,M,01,0004*68
$GPHPD,0,0.000,240.40,-0.48,-12.82,31.5897607,120.7765435,2.676,13632763.102,24925120.690,2.676,0.000,0.000,0.000,0.000,0.000,0.000,0.000,16,16,4*78
$GPGGA,074230.20,3135.3855666,N,12046.5924455,E,4,16,1.4,2.6795,M,8.311,M,01,0004*6C
$GPHPD,0,0.000,240.20,-1.19,-12.81,31.5897594,120.7765408,2.680,13632763.872,24925119.148,2.680,0.000,0.000,0.000,0.000,0.000,0.000,0.000,16,15,4*7A
$GPGGA,074230.40,3135.3854887,N,12046.5922767,E,4,16,1.4,2.6803,M,8.311,M,01,0004*6E
$GPHPD,0,0.000,240.65,-0.88,-12.82,31.5897581,120.7765379,2.680,13632764.640,24925117.566,2.680,0.000,0.000,0.000,0.000,0.000,0.000,0.000,16,15,4*7A
$GPGGA,074230.60,3135.3854087,N,12046.5921102,E,4,16,1.4,2.6802,M,8.311,M,00,0004*62
$GPHPD,0,0.000,240.44,-1.11,-12.83,31.5897568,120.7765352,2.680,13632765.442,24925116.023,2.680,0.000,0.000,0.000,0.000,0.000,0.000,0.000,16,15,4*73
$GPGGA,074230.80,3135.3853305,N,12046.5919416,E,4,16,1.4,2.6796,M,8.311,M,00,0004*6B
$GPHPD,0,0.000,240.69,-0.81,-12.87,31.5897555,120.7765324,2.680,13632766.214,24925114.445,2.680,0.000,0.000,0.000,0.000,0.000,0.000,0.000,16,15,4*7F
$GPGGA,074231.00,3135.3852504,N,12046.5917781,E,4,16,1.4,2.6681,M,8.311,M,01,0004*61
$GPHPD,0,0.000,240.54,-0.24,-12.88,31.5897542,120.7765296,2.668,13632767.023,24925112.940,2.668,0.000,0.000,0.000,0.000,0.000,0.000,0.000,16,15,4*76
$GPGGA,074231.20,3135.3851733,N,12046.5916077,E,4,16,1.4,2.6759,M,8.311,M,01,0004*6D
$GPHPD,0,0.000,240.71,-0.66,-12.87,31.5897529,120.7765268,2.676,13632767.776,24925111.334,2.676,0.000,0.000,0.000,0.000,0.000,0.000,0.000,16,15,4*79
$GPGGA,074231.40,3135.3850917,N,12046.5914412,E,4,16,1.4,2.6715,M,8.311,M,01,0004*6F
$GPHPD,0,0.000,240.36,-0.88,-12.86,31.5897515,120.7765240,2.672,13632768.600,24925109.801,2.672,0.000,0.000,0.000,0.000,0.000,0.000,0.000,16,15,4*75
$GPGGA,074231.60,3135.3850162,N,12046.5912742,E,4,16,1.4,2.6708,M,8.311,M,00,0004*6A
$GPHPD,0,0.000,240.39,-1.08,-12.88,31.5897503,120.7765212,2.671,13632769.337,24925108.226,2.671,0.000,0.000,0.000,0.000,0.000,0.000,0.000,16,15,4*73
$GPGGA,074231.80,3135.3849368,N,12046.5911068,E,4,16,1.4,2.6779,M,8.311,M,00,0004*6E
$GPHPD,0,0.000,240.06,-0.64,-12.90,31.5897489,120.7765184,2.678,13632770.129,24925106.670,2.678,0.000,0.000,0.000,0.000,0.000,0.000,0.000,16,15,4*7E
$GPGGA,074232.00,3135.3848597,N,12046.5909364,E,4,15,1.4,2.6728,M,8.311,M,01,0004*62
$GPHPD,0,0.000,240.22,-1.31,-12.90,31.5897477,120.7765156,2.673,13632770.882,24925105.063,2.673,0.000,0.000,0.000,0.000,0.000,0.000,0.000,15,15,4*7B
$GPGGA,074232.20,3135.3847791,N,12046.5907737,E,4,15,1.4,2.6665,M,8.311,M,01,0004*6F
$GPHPD,0,0.000,240.01,-1.12,-12.90,31.5897463,120.7765129,2.667,13632771.700,24925103.570,2.667,0.000,0.000,0.000,0.000,0.000,0.000,0.000,15,15,4*73
$GPGGA,074232.40,3135.3846980,N,12046.5906061,E,4,15,1.4,2.6682,M,8.311,M,01,0004*6A
$GPHPD,0,0.000,239.99,-0.95,-12.90,31.5897450,120.7765101,2.668,13632772.515,24925102.021,2.668,0.000,0.000,0.000,0.000,0.000,0.000,0.000,15,15,4*7D
$GPGGA,074232.60,3135.3846199,N,12046.5904395,E,4,15,1.4,2.6743,M,8.311,M,00,0004*6F
$GPHPD,0,0.000,239.98,-0.85,-12.91,31.5897437,120.7765073,2.674,13632773.290,24925100.467,2.674,0.000,0.000,0.000,0.000,0.000,0.000,0.000,15,15,4*76
$GPGGA,074232.80,3135.3845396,N,12046.5902711,E,4,15,1.6,2.6655,M,8.311,M,00,0004*65
$GPHPD,0,0.000,239.88,-0.90,-12.92,31.5897423,120.7765045,2.666,13632774.092,24925098.903,2.666,0.000,0.000,0.000,0.000,0.000,0.000,0.000,15,15,4*78
$GPGGA,074233.00,3135.3844583,N,12046.5901048,E,4,16,1.4,2.6713,M,8.311,M,01,0004*64
$GPHPD,0,0.000,239.71,-0.41,-12.93,31.5897410,120.7765017,2.671,13632774.913,24925097.371,2.671,0.000,0.000,0.000,0.000,0.000,0.000,0.000,16,15,4*77
$GPGGA,074233.20,3135.3843773,N,12046.5899378,E,4,16,1.4,2.6634,M,8.311,M,01,0004*68
$GPHPD,0,0.000,239.52,-0.50,-12.93,31.5897396,120.7764990,2.663,13632775.728,24925095.828,2.663,0.000,0.000,0.000,0.000,0.000,0.000,0.000,16,15,4*7A
$GPGGA,074233.40,3135.3842964,N,12046.5897701,E,4,16,1.4,2.6697,M,8.311,M,01,0004*6A
$GPHPD,0,0.000,239.58,-0.39,-12.92,31.5897383,120.7764962,2.670,13632776.540,24925094.277,2.670,0.000,0.000,0.000,0.000,0.000,0.000,0.000,16,15,4*79
$GPGGA,074233.60,3135.3842131,N,12046.5896016,E,4,16,1.4,2.6656,M,8.311,M,00,0004*6C
$GPHPD,0,0.000,239.34,-0.52,-12.88,31.5897369,120.7764934,2.666,13632777.385,24925092.730,2.666,0.000,0.000,0.000,0.000,0.000,0.000,0.000,16,15,4*7C
$GPGGA,074233.80,3135.3841309,N,12046.5894374,E,4,16,1.4,2.6711,M,8.311,M,00,0004*6F
$GPHPD,0,0.000,239.28,-0.27,-12.87,31.5897355,120.7764906,2.671,13632778.223,24925091.228,2.671,0.000,0.000,0.000,0.000,0.000,0.000,0.000,16,15,4*7F
$GPGGA,074234.00,3135.3840435,N,12046.5892682,E,4,16,1.4,2.6619,M,8.311,M,01,0004*6B
$GPHPD,0,0.000,239.04,-0.80,-12.86,31.5897341,120.7764878,2.662,13632779.125,24925089.696,2.662,0.000,0.000,0.000,0.000,0.000,0.000,0.000,16,15,4*7C
$GPGGA,074234.20,3135.3839633,N,12046.5891022,E,4,16,1.4,2.6675,M,8.311,M,01,0004*66
$GPHPD,0,0.000,239.19,-0.74,-12.85,31.5897327,120.7764850,2.668,13632779.930,24925088.161,2.668,0.000,0.000,0.000,0.000,0.000,0.000,0.000,16,15,4*70
$GPGGA,074234.40,3135.3838790,N,12046.5889317,E,4,16,1.4,2.6543,M,8.311,M,01,0004*63
$GPHPD,0,0.000,239.05,-0.74,-12.84,31.5897313,120.7764822,2.654,13632780.785,24925086.596,2.654,0.000,0.000,0.000,0.000,0.000,0.000,0.000,16,15,4*7A
$GPGGA,074234.60,3135.3837971,N,12046.5887665,E,4,16,1.4,2.6678,M,8.311,M,00,0004*6B
$GPHPD,0,0.000,238.91,-0.17,-12.82,31.5897300,120.7764794,2.668,13632781.617,24925085.080,2.668,0.000,0.000,0.000,0.000,0.000,0.000,0.000,16,15,4*7F
$GPGGA,074234.80,3135.3837095,N,12046.5885988,E,4,16,1.7,2.6639,M,8.311,M,00,0004*6E
$GPHPD,0,0.000,238.70,-0.73,-12.80,31.5897285,120.7764766,2.664,13632782.524,24925083.568,2.664,0.000,0.000,0.000,0.000,0.000,0.000,0.000,16,15,4*74
$GPGGA,074235.00,3135.3836260,N,12046.5884263,E,4,16,1.4,2.6487,M,8.311,M,01,0004*64
$GPHPD,0,0.000,238.75,-0.42,-12.80,31.5897271,120.7764738,2.649,13632783.364,24925081.973,2.649,0.000,0.000,0.000,0.000,0.000,0.000,0.000,16,15,4*74
$GPGGA,074235.20,3135.3835409,N,12046.5882619,E,4,16,1.4,2.6551,M,8.311,M,01,0004*69
$GPHPD,0,0.000,238.40,-0.34,-12.80,31.5897257,120.7764710,2.655,13632784.243,24925080.486,2.655,0.000,0.000,0.000,0.000,0.000,0.000,0.000,16,15,4*78
$GPGGA,074235.40,3135.3834539,N,12046.5880965,E,4,16,1.4,2.6492,M,8.311,M,01,0004*64
$GPHPD,0,0.000,238.18,-0.38,-12.80,31.5897242,120.7764683,2.649,13632785.146,24925078.998,2.649,0.000,0.000,0.000,0.000,0.000,0.000,0.000,16,15,4*74
$GPGGA,074235.60,3135.3833679,N,12046.5879306,E,4,16,1.4,2.6571,M,8.311,M,00,0004*62
$GPHPD,0,0.000,238.12,-0.20,-12.83,31.5897228,120.7764655,2.657,13632786.035,24925077.498,2.657,0.000,0.000,0.000,0.000,0.000,0.000,0.000,16,15,4*77
$GPGGA,074235.80,3135.3832813,N,12046.5877634,E,4,16,1.4,2.6592,M,8.311,M,00,0004*68
$GPHPD,0,0.000,237.97,-0.84,-12.83,31.5897214,120.7764627,2.659,13632786.929,24925075.985,2.659,0.000,0.000,0.000,0.000,0.000,0.000,0.000,16,15,4*76
$GPGGA,074236.00,3135.3831946,N,12046.5875965,E,4,16,1.4,2.6737,M,8.311,M,01,0004*64
$GPHPD,0,0.000,237.93,-0.75,-12.84,31.5897199,120.7764599,2.674,13632787.825,24925074.477,2.674,0.000,0.000,0.000,0.000,0.000,0.000,0.000,16,15,4*76
$GPGGA,074236.20,3135.3831059,N,12046.5874298,E,4,16,1.4,2.6688,M,8.311,M,01,0004*6C
$GPHPD,0,0.000,237.66,-0.75,-12.82,31.5897184,120.7764572,2.669,13632788.750,24925072.983,2.669,0.000,0.000,0.000,0.000,0.000,0.000,0.000,16,15,4*71
$GPGGA,074236.40,3135.3830170,N,12046.5872658,E,4,16,1.4,2.6752,M,8.311,M,01,0004*69
$GPHPD,0,0.000,237.57,-0.79,-12.83,31.5897170,120.7764544,2.675,13632789.684,24925071.523,2.675,0.000,0.000,0.000,0.000,0.000,0.000,0.000,16,15,4*7C
$GPGGA,074236.60,3135.3829277,N,12046.5871011,E,4,16,1.4,2.6712,M,8.311,M,00,0004*6A
$GPHPD,0,0.000,237.47,-0.89,-12.84,31.5897155,120.7764517,2.671,13632790.622,24925070.056,2.671,0.000,0.000,0.000,0.000,0.000,0.000,0.000,16,15,4*76
$GPGGA,074236.80,3135.3828396,N,12046.5869360,E,4,16,1.4,2.6722,M,8.311,M,00,0004*64
$GPHPD,0,0.000,237.41,-0.65,-12.84,31.5897140,120.7764489,2.672,13632791.541,24925068.578,2.672,0.000,0.000,0.000,0.000,0.000,0.000,0.000,16,15,4*77
$GPGGA,074237.00,3135.3827508,N,12046.5867725,E,4,16,1.4,2.6716,M,8.311,M,01,0004*6E
$GPHPD,0,0.000,237.25,-0.78,-12.85,31.5897125,120.7764462,2.672,13632792.474,24925067.123,2.672,0.000,0.000,0.000,0.000,0.000,0.000,0.000,16,15,4*7F
$GPGGA,074237.20,3135.3826630,N,12046.5866076,E,4,16,1.4,2.6690,M,8.311,M,01,0004*6A
$GPHPD,0,0.000,237.14,-1.10,-12.87,31.5897111,120.7764435,2.669,13632793.390,24925065.646,2.669,0.000,0.000,0.000,0.000,0.000,0.000,0.000,16,15,4*7F
$GPGGA,074237.40,3135.3825727,N,12046.5864437,E,4,16,1.4,2.6731,M,8.311,M,01,0004*61
$GPHPD,0,0.000,237.18,-0.72,-12.88,31.5897095,120.7764407,2.673,13632794.344,24925064.195,2.673,0.000,0.000,0.000,0.000,0.000,0.000,0.000,16,16,4*70
$GPGGA,074237.60,3135.3824849,N,12046.5862809,E,4,16,1.4,2.6798,M,8.311,M,00,0004*60
$GPHPD,0,0.000,236.95,-0.69,-12.90,31.5897081,120.7764380,2.680,13632795.264,24925062.742,2.680,0.000,0.000,0.000,0.000,0.000,0.000,0.000,16,16,4*72
$GPGGA,074237.80,3135.3823965,N,12046.5861185,E,4,16,1.4,2.6719,M,8.311,M,00,0004*61
$GPHPD,0,0.000,236.98,-0.83,-12.91,31.5897066,120.7764353,2.672,13632796.194,24925061.298,2.672,0.000,0.000,0.000,0.000,0.000,0.000,0.000,16,16,4*73
$GPGGA,074238.00,3135.3823094,N,12046.5859553,E,4,16,1.4,2.6618,M,8.311,M,01,0004*64
$GPHPD,0,0.000,236.87,-0.90,-12.92,31.5897052,120.7764326,2.662,13632797.103,24925059.837,2.662,0.000,0.000,0.000,0.000,0.000,0.000,0.000,16,15,4*71
$GPGGA,074238.20,3135.3822185,N,12046.5857946,E,4,16,1.4,2.6699,M,8.311,M,01,0004*69
$GPHPD,0,0.000,236.52,-0.36,-12.92,31.5897036,120.7764299,2.670,13632798.072,24925058.428,2.670,0.000,0.000,0.000,0.000,0.000,0.000,0.000,16,16,4*7A
$GPGGA,074238.40,3135.3821307,N,12046.5856337,E,4,16,1.4,2.6744,M,8.311,M,01,0004*68
$GPHPD,0,0.000,236.51,-0.99,-12.92,31.5897022,120.7764272,2.674,13632798.996,24925056.999,2.674,0.000,0.000,0.000,0.000,0.000,0.000,0.000,16,16,4*76
$GPGGA,074238.60,3135.3820392,N,12046.5854720,E,4,16,1.4,2.6760,M,8.311,M,00,0004*60
$GPHPD,0,0.000,236.48,-0.48,-12.91,31.5897007,120.7764245,2.676,13632799.971,24925055.581,2.676,0.000,0.000,0.000,0.000,0.000,0.000,0.000,16,15,4*7F
$GPGGA,074238.80,3135.3819504,N,12046.5853092,E,4,16,1.4,2.6718,M,8.311,M,00,0004*6B
$GPHPD,0,0.000,236.25,-0.07,-12.91,31.5896992,120.7764218,2.672,13632800.905,24925054.135,2.672,0.000,0.000,0.000,0.000,0.000,0.000,0.000,16,16,4*76
$GPGGA,074239.00,3135.3818602,N,12046.5851498,E,4,16,1.4,2.6719,M,8.311,M,01,0004*6A
$GPHPD,0,0.000,236.14,-0.55,-12.90,31.5896977,120.7764192,2.672,13632801.866,24925052.738,2.672,0.000,0.000,0.000,0.000,0.000,0.000,0.000,16,16,4*70
$GPGGA,074239.20,3135.3817686,N,12046.5849896,E,4,16,1.4,2.6718,M,8.311,M,01,0004*61
$GPHPD,0,0.000,235.94,-0.17,-12.90,31.5896961,120.7764165,2.672,13632802.846,24925051.339,2.672,0.000,0.000,0.000,0.000,0.000,0.000,0.000,16,16,4*75
$GPGGA,074239.40,3135.3816764,N,12046.5848274,E,4,16,1.4,2.6732,M,8.311,M,01,0004*64
$GPHPD,0,0.000,235.87,0.18,-12.90,31.5896946,120.7764138,2.673,13632803.830,24925049.919,2.673,0.000,0.000,0.000,0.000,0.000,0.000,0.000,16,16,4*59
$GPGGA,074239.60,3135.3815859,N,12046.5846719,E,4,15,1.4,2.6714,M,8.311,M,00,0004*62
$GPHPD,0,0.000,235.59,-0.03,-12.90,31.5896931,120.7764112,2.671,13632804.803,24925048.571,2.671,0.000,0.000,0.000,0.000,0.000,0.000,0.000,15,16,4*72
$GPGGA,074239.80,3135.3814912,N,12046.5845133,E,4,16,1.4,2.6554,M,8.311,M,00,0004*6B
$GPHPD,0,0.000,235.11,-0.37,-12.90,31.5896915,120.7764086,2.655,13632805.830,24925047.209,2.655,0.000,0.000,0.000,0.000,0.000,0.000,0.000,16,16,4*76
$GPGGA,074240.00,3135.3813991,N,12046.5843559,E,4,16,1.4,2.6586,M,8.311,M,01,0004*61
$GPHPD,0,0.000,235.05,-0.16,-12.89,31.5896900,120.7764059,2.659,13632806.822,24925045.847,2.659,0.000,0.000,0.000,0.000,0.000,0.000,0.000,16,16,4*7C
$GPGGA,074240.20,3135.3813053,N,12046.5841994,E,4,16,1.4,2.6614,M,8.311,M,01,0004*63
$GPHPD,0,0.000,234.73,-0.14,-12.87,31.5896884,120.7764033,2.661,13632807.840,24925044.506,2.661,0.000,0.000,0.000,0.000,0.000,0.000,0.000,16,16,4*7D
$GPGGA,074240.40,3135.3812104,N,12046.5840438,E,4,16,1.4,2.6422,M,8.311,M,01,0004*6A
$GPHPD,0,0.000,234.59,-0.11,-12.89,31.5896868,120.7764007,2.642,13632808.876,24925043.182,2.642,0.000,0.000,0.000,0.000,0.000,0.000,0.000,16,16,4*7E
$GPGGA,074240.60,3135.3811122,N,12046.5838862,E,4,16,1.4,2.6493,M,8.311,M,00,0004*68
$GPHPD,0,0.000,234.40,-0.33,-12.86,31.5896852,120.7763981,2.649,13632809.954,24925041.853,2.649,0.000,0.000,0.000,0.000,0.000,0.000,0.000,16,16,4*77
$GPGGA,074240.80,3135.3810182,N,12046.5837285,E,4,16,1.4,2.6488,M,8.311,M,00,0004*6B
$GPHPD,0,0.000,234.27,0.20,-12.87,31.5896836,120.7763955,2.649,13632810.973,24925040.498,2.649,0.000,0.000,0.000,0.000,0.000,0.000,0.000,16,16,4*54
$GPGGA,074241.00,3135.3809217,N,12046.5835715,E,4,16,1.4,2.6502,M,8.311,M,01,0004*69
$GPHPD,0,0.000,233.72,-0.20,-12.86,31.5896820,120.7763929,2.650,13632812.028,24925039.166,2.650,0.000,0.000,0.000,0.000,0.000,0.000,0.000,16,16,4*7C
$GPGGA,074241.20,3135.3808241,N,12046.5834156,E,4,16,1.4,2.6519,M,8.311,M,01,0004*63
$GPHPD,0,0.000,233.38,-0.37,-12.84,31.5896804,120.7763903,2.652,13632813.102,24925037.854,2.652,0.000,0.000,0.000,0.000,0.000,0.000,0.000,16,16,4*76
$GPGGA,074241.40,3135.3807245,N,12046.5832619,E,4,16,1.6,2.6540,M,8.311,M,01,0004*6A
$GPHPD,0,0.000,233.18,-0.67,-12.85,31.5896787,120.7763877,2.654,13632814.208,24925036.580,2.654,0.000,0.000,0.000,0.000,0.000,0.000,0.000,16,16,4*7D
$GPGGA,074241.60,3135.3806260,N,12046.5831084,E,4,16,1.4,2.6576,M,8.311,M,00,0004*69
$GPHPD,0,0.000,232.89,-0.25,-12.84,31.5896771,120.7763851,2.658,13632815.299,24925035.302,2.658,0.000,0.000,0.000,0.000,0.000,0.000,0.000,16,16,4*78
$GPGGA,074241.80,3135.3805234,N,12046.5829529,E,4,16,1.4,2.6621,M,8.311,M,00,0004*6F
$GPHPD,0,0.000,232.47,-0.23,-12.83,31.5896754,120.7763825,2.662,13632816.444,24925034.024,2.662,0.000,0.000,0.000,0.000,0.000,0.000,0.000,16,15,4*7F
$GPGGA,074242.00,3135.3804241,N,12046.5827979,E,4,16,1.4,2.6559,M,8.311,M,01,0004*6D
$GPHPD,0,0.000,232.64,-0.18,-12.83,31.5896737,120.7763800,2.656,13632817.544,24925032.733,2.656,0.000,0.000,0.000,0.000,0.000,0.000,0.000,16,16,4*70
$GPGGA,074242.20,3135.3803215,N,12046.5826416,E,4,16,1.4,2.6567,M,8.311,M,01,0004*61
$GPHPD,0,0.000,232.41,-0.44,-12.80,31.5896720,120.7763774,2.657,13632818.687,24925031.445,2.657,0.000,0.000,0.000,0.000,0.000,0.000,0.000,16,16,4*75
$GPGGA,074242.40,3135.3802229,N,12046.5824870,E,4,16,1.4,2.6615,M,8.311,M,01,0004*61
$GPHPD,0,0.000,232.44,-0.61,-12.80,31.5896704,120.7763748,2.662,13632819.778,24925030.155,2.662,0.000,0.000,0.000,0.000,0.000,0.000,0.000,16,16,4*7B
$GPGGA,074242.60,3135.3801217,N,12046.5823289,E,4,16,1.4,2.6750,M,8.311,M,00,0004*67
$GPHPD,0,0.000,232.40,-0.83,-12.81,31.5896687,120.7763721,2.675,13632820.898,24925028.837,2.675,0.000,0.000,0.000,0.000,0.000,0.000,0.000,16,16,4*78
$GPGGA,074242.80,3135.3800223,N,12046.5821744,E,4,16,1.4,2.6750,M,8.311,M,00,0004*69
$GPHPD,0,0.000,232.19,-0.56,-12.82,31.5896670,120.7763696,2.675,13632822.000,24925027.552,2.675,0.000,0.000,0.000,0.000,0.000,0.000,0.000,16,15,4*73
$GPGGA,074243.00,3135.3799208,N,12046.5820212,E,4,16,1.4,2.6601,M,8.311,M,01,0004*65
$GPHPD,0,0.000,231.96,-0.49,-12.83,31.5896653,120.7763670,2.660,13632823.134,24925026.296,2.660,0.000,0.000,0.000,0.000,0.000,0.000,0.000,16,15,4*78
$GPGGA,074243.20,3135.3798191,N,12046.5818679,E,4,16,1.4,2.6594,M,8.311,M,01,0004*68
$GPHPD,0,0.000,232.21,0.18,-12.84,31.5896637,120.7763645,2.659,13632824.271,24925025.039,2.659,0.000,0.000,0.000,0.000,0.000,0.000,0.000,16,15,4*5C
$GPGGA,074243.40,3135.3797165,N,12046.5817102,E,4,16,1.4,2.6454,M,8.311,M,01,0004*63
$GPHPD,0,0.000,231.92,-0.25,-12.87,31.5896619,120.7763618,2.645,13632825.412,24925023.734,2.645,0.000,0.000,0.000,0.000,0.000,0.000,0.000,16,15,4*7D
$GPGGA,074243.60,3135.3796140,N,12046.5815587,E,4,16,1.5,2.6333,M,8.311,M,00,0004*6A
$GPHPD,0,0.000,231.96,-0.07,-12.88,31.5896602,120.7763593,2.633,13632826.564,24925022.504,2.633,0.000,0.000,0.000,0.000,0.000,0.000,0.000,16,15,4*7F
$GPGGA,074243.80,3135.3795108,N,12046.5814047,E,4,16,1.5,2.6365,M,8.311,M,00,0004*60
$GPHPD,0,0.000,232.15,-0.36,-12.87,31.5896585,120.7763567,2.637,13632827.720,24925021.247,2.637,0.000,0.000,0.000,0.000,0.000,0.000,0.000,16,15,4*7D
$GPGGA,074244.00,3135.3794095,N,12046.5812517,E,4,16,1.5,2.6373,M,8.311,M,01,0004*6B
$GPHPD,0,0.000,232.09,-0.42,-12.87,31.5896568,120.7763542,2.637,13632828.852,24925019.992,2.637,0.000,0.000,0.000,0.000,0.000,0.000,0.000,16,15,4*7A
