$GPGGA,074333.20,3135.3578767,N,12046.5393748,E,4,16,1.5,2.7103,M,8.308,M,01,0004*64
$GPHPD,0,0.000,239.08,-0.82,-10.02,31.5892979,120.7756562,2.710,13633050.600,24924640.297,2.710,0.000,0.000,0.000,0.000,0.000,0.000,0.000,16,15,4*75
$GPGGA,074333.40,3135.3578708,N,12046.5393623,E,4,16,1.5,2.7074,M,8.308,M,01,0004*66
$GPHPD,0,0.000,239.10,-0.74,-10.16,31.5892978,120.7756560,2.707,13633050.659,24924640.180,2.707,0.000,0.000,0.000,0.000,0.000,0.000,0.000,16,16,4*79
$GPGGA,074333.60,3135.3578643,N,12046.5393464,E,4,16,1.4,2.6992,M,8.308,M,00,0004*6B
$GPHPD,0,0.000,239.04,-0.57,-10.34,31.5892977,120.7756558,2.699,13633050.719,24924640.027,2.699,0.000,0.000,0.000,0.000,0.000,0.000,0.000,16,16,4*70
$GPGGA,074333.80,3135.3578540,N,12046.5393246,E,4,16,1.4,2.7029,M,8.308,M,00,0004*6B
$GPHPD,0,0.000,239.13,-0.35,-10.53,31.5892976,120.7756554,2.703,13633050.822,24924639.824,2.703,0.000,0.000,0.000,0.000,0.000,0.000,0.000,16,16,4*7C
$GPGGA,074334.00,3135.3578385,N,12046.5392960,E,4,16,1.4,2.7093,M,8.308,M,01,0004*65
$GPHPD,0,0.000,239.09,-0.48,-10.73,31.5892973,120.7756549,2.709,13633050.984,24924639.569,2.709,0.000,0.000,0.000,0.000,0.000,0.000,0.000,16,16,4*7F
$GPGGA,074334.20,3135.3578194,N,12046.5392546,E,4,16,1.4,2.7070,M,8.308,M,01,0004*60
$GPHPD,0,0.000,239.12,-0.49,-10.91,31.5892970,120.7756542,2.707,13633051.173,24924639.181,2.707,0.000,0.000,0.000,0.000,0.000,0.000,0.000,16,16,4*73
$GPGGA,074334.40,3135.3577956,N,12046.5392101,E,4,16,1.4,2.7127,M,8.308,M,01,0004*6B
$GPHPD,0,0.000,239.11,-0.67,-11.11,31.5892966,120.7756535,2.713,13633051.421,24924638.783,2.713,0.000,0.000,0.000,0.000,0.000,0.000,0.000,16,16,4*75
$GPGGA,074334.60,3135.3577646,N,12046.5391502,E,4,16,1.4,2.7147,M,8.308,M,00,0004*64
$GPHPD,0,0.000,239.26,-0.60,-11.32,31.5892961,120.7756525,2.715,13633051.741,24924638.241,2.715,0.000,0.000,0.000,0.000,0.000,0.000,0.000,16,16,4*7F
$GPGGA,074334.80,3135.3577299,N,12046.5390803,E,4,16,1.4,2.7229,M,8.308,M,00,0004*6A
$GPHPD,0,0.000,239.28,-0.70,-11.51,31.5892955,120.7756513,2.723,13633052.094,24924637.600,2.723,0.000,0.000,0.000,0.000,0.000,0.000,0.000,16,16,4*75
$GPGGA,074335.00,3135.3576883,N,12046.5389972,E,4,16,1.4,2.7082,M,8.308,M,01,0004*6E
$GPHPD,0,0.000,239.33,-0.76,-11.72,31.5892948,120.7756500,2.708,13633052.518,24924636.840,2.708,0.000,0.000,0.000,0.000,0.000,0.000,0.000,16,16,4*7C
$GPGGA,074335.20,3135.3576437,N,12046.5389001,E,4,16,1.4,2.7086,M,8.308,M,01,0004*66
$GPHPD,0,0.000,239.25,-0.45,-11.87,31.5892941,120.7756483,2.709,13633052.956,24924635.928,2.709,0.000,0.000,0.000,0.000,0.000,0.000,0.000,16,16,4*78
$GPGGA,074335.40,3135.3575893,N,12046.5387941,E,4,16,1.4,2.7055,M,8.308,M,01,0004*6C
$GPHPD,0,0.000,239.22,-0.79,-12.01,31.5892932,120.7756466,2.706,13633053.516,24924634.967,2.706,0.000,0.000,0.000,0.000,0.000,0.000,0.000,16,16,4*71
$GPGGA,074335.60,3135.3575301,N,12046.5386785,E,4,16,1.4,2.7170,M,8.308,M,00,0004*6E
$GPHPD,0,0.000,239.17,-0.51,-12.15,31.5892922,120.7756446,2.717,13633054.125,24924633.917,2.717,0.000,0.000,0.000,0.000,0.000,0.000,0.000,16,16,4*78
$GPGGA,074335.80,3135.3574664,N,12046.5385510,E,4,16,1.4,2.7094,M,8.308,M,00,0004*61
$GPHPD,0,0.000,239.31,-0.53,-12.27,31.5892911,120.7756425,2.709,13633054.773,24924632.750,2.709,0.000,0.000,0.000,0.000,0.000,0.000,0.000,16,16,4*73
$GPGGA,074336.00,3135.3573993,N,12046.5384193,E,4,16,1.4,2.7179,M,8.308,M,01,0004*67
$GPHPD,0,0.000,239.51,-0.41,-12.37,31.5892900,120.7756403,2.718,13633055.462,24924631.552,2.718,0.000,0.000,0.000,0.000,0.000,0.000,0.000,16,16,4*72
$GPGGA,074336.20,3135.3573320,N,12046.5382718,E,4,16,1.4,2.7002,M,8.308,M,01,0004*69
$GPHPD,0,0.000,239.55,-0.34,-12.44,31.5892889,120.7756379,2.700,13633056.121,24924630.165,2.700,0.000,0.000,0.000,0.000,0.000,0.000,0.000,16,16,4*7A
$GPGGA,074336.40,3135.3572578,N,12046.5381275,E,4,16,1.4,2.7179,M,8.308,M,01,0004*65
$GPHPD,0,0.000,239.37,0.24,-12.50,31.5892876,120.7756355,2.718,13633056.886,24924628.857,2.718,0.000,0.000,0.000,0.000,0.000,0.000,0.000,16,16,4*5C
$GPGGA,074336.60,3135.3571836,N,12046.5379771,E,4,16,1.4,2.7062,M,8.308,M,00,0004*6F
$GPHPD,0,0.000,239.66,-0.53,-12.53,31.5892864,120.7756330,2.706,13633057.637,24924627.475,2.706,0.000,0.000,0.000,0.000,0.000,0.000,0.000,16,16,4*70
$GPGGA,074336.80,3135.3571070,N,12046.5378224,E,4,16,1.4,2.7197,M,8.308,M,00,0004*64
$GPHPD,0,0.000,239.49,0.00,-12.56,31.5892851,120.7756304,2.720,13633058.415,24924626.055,2.720,0.000,0.000,0.000,0.000,0.000,0.000,0.000,16,16,4*58
$GPGGA,074337.00,3135.3570323,N,12046.5376650,E,4,16,1.4,2.7178,M,8.308,M,01,0004*60
$GPHPD,0,0.000,239.31,-0.13,-12.59,31.5892839,120.7756278,2.718,13633059.159,24924624.592,2.718,0.000,0.000,0.000,0.000,0.000,0.000,0.000,16,16,4*73
$GPGGA,074337.20,3135.3569508,N,12046.5375079,E,4,16,1.4,2.7063,M,8.308,M,01,0004*60
$GPHPD,0,0.000,239.08,-0.94,-12.62,31.5892825,120.7756251,2.706,13633060.002,24924623.172,2.706,0.000,0.000,0.000,0.000,0.000,0.000,0.000,16,16,4*70
$GPGGA,074337.40,3135.3568799,N,12046.5373487,E,4,16,1.4,2.7117,M,8.308,M,01,0004*6C
$GPHPD,0,0.000,239.42,-0.55,-12.62,31.5892813,120.7756225,2.712,13633060.689,24924621.664,2.712,0.000,0.000,0.000,0.000,0.000,0.000,0.000,16,16,4*72
$GPGGA,074337.60,3135.3567994,N,12046.5371912,E,4,16,1.4,2.7006,M,8.308,M,00,0004*61
$GPHPD,0,0.000,239.20,-0.89,-12.61,31.5892800,120.7756199,2.701,13633061.516,24924620.233,2.701,0.000,0.000,0.000,0.000,0.000,0.000,0.000,16,16,4*71
$GPGGA,074337.80,3135.3567252,N,12046.5370382,E,4,16,1.4,2.7059,M,8.308,M,00,0004*66
$GPHPD,0,0.000,239.52,-0.87,-12.63,31.5892788,120.7756173,2.706,13633062.262,24924618.820,2.706,0.000,0.000,0.000,0.000,0.000,0.000,0.000,16,16,4*77
$GPGGA,074338.00,3135.3566480,N,12046.5368852,E,4,16,1.4,2.7078,M,8.308,M,01,0004*64
$GPHPD,0,0.000,239.66,-0.65,-12.61,31.5892775,120.7756148,2.708,13633063.052,24924617.424,2.708,0.000,0.000,0.000,0.000,0.000,0.000,0.000,16,16,4*73
$GPGGA,074338.20,3135.3565711,N,12046.5367312,E,4,16,1.4,2.7066,M,8.308,M,01,0004*61
$GPHPD,0,0.000,239.93,-0.69,-12.62,31.5892762,120.7756122,2.707,13633063.835,24924616.015,2.707,0.000,0.000,0.000,0.000,0.000,0.000,0.000,16,16,4*72
$GPGGA,074338.40,3135.3564936,N,12046.5365736,E,4,16,1.4,2.7002,M,8.308,M,01,0004*6F
$GPHPD,0,0.000,239.94,-0.41,-12.63,31.5892749,120.7756096,2.700,13633064.619,24924614.565,2.700,0.000,0.000,0.000,0.000,0.000,0.000,0.000,16,16,4*7E
$GPGGA,074338.60,3135.3564210,N,12046.5364203,E,4,16,1.4,2.6998,M,8.308,M,00,0004*6A
$GPHPD,0,0.000,239.73,-0.64,-12.65,31.5892737,120.7756070,2.700,13633065.342,24924613.139,2.700,0.000,0.000,0.000,0.000,0.000,0.000,0.000,16,16,4*77
$GPGGA,074338.80,3135.3563450,N,12046.5362668,E,4,16,1.4,2.7129,M,8.308,M,00,0004*6D
$GPHPD,0,0.000,239.42,-0.56,-12.64,31.5892724,120.7756044,2.713,13633066.113,24924611.730,2.713,0.000,0.000,0.000,0.000,0.000,0.000,0.000,16,16,4*78
$GPGGA,074339.00,3135.3562691,N,12046.5361122,E,4,16,1.4,2.7095,M,8.308,M,01,0004*67
$GPHPD,0,0.000,239.45,-0.56,-12.63,31.5892712,120.7756019,2.710,13633066.881,24924610.307,2.710,0.000,0.000,0.000,0.000,0.000,0.000,0.000,16,16,4*76
$GPGGA,074339.20,3135.3561898,N,12046.5359596,E,4,16,1.4,2.7102,M,8.308,M,01,0004*6E
$GPHPD,0,0.000,239.27,-0.72,-12.64,31.5892698,120.7755993,2.710,13633067.701,24924608.929,2.710,0.000,0.000,0.000,0.000,0.000,0.000,0.000,16,16,4*71
$GPGGA,074339.40,3135.3561110,N,12046.5358035,E,4,16,1.4,2.7143,M,8.308,M,01,0004*69
$GPHPD,0,0.000,239.34,-0.29,-12.64,31.5892685,120.7755967,2.714,13633068.506,24924607.505,2.714,0.000,0.000,0.000,0.000,0.000,0.000,0.000,16,16,4*7D
$GPGGA,074339.60,3135.3560364,N,12046.5356510,E,4,16,1.4,2.7075,M,8.308,M,00,0004*62
$GPHPD,0,0.000,239.20,-0.38,-12.67,31.5892673,120.7755942,2.708,13633069.260,24924606.100,2.708,0.000,0.000,0.000,0.000,0.000,0.000,0.000,16,16,4*73
$GPGGA,074339.80,3135.3559580,N,12046.5354962,E,4,16,1.4,2.7068,M,8.308,M,00,0004*6D
$GPHPD,0,0.000,239.05,-0.82,-12.68,31.5892660,120.7755916,2.707,13633070.062,24924604.689,2.707,0.000,0.000,0.000,0.000,0.000,0.000,0.000,16,16,4*75
$GPGGA,074340.00,3135.3558805,N,12046.5353390,E,4,16,1.4,2.7196,M,8.308,M,01,0004*6B
$GPHPD,0,0.000,238.96,-0.21,-12.69,31.5892647,120.7755890,2.720,13633070.847,24924603.245,2.720,0.000,0.000,0.000,0.000,0.000,0.000,0.000,16,16,4*70
$GPGGA,074340.20,3135.3558020,N,12046.5351833,E,4,16,1.4,2.7190,M,8.308,M,01,0004*60
$GPHPD,0,0.000,238.68,-0.66,-12.70,31.5892634,120.7755864,2.719,13633071.650,24924601.824,2.719,0.000,0.000,0.000,0.000,0.000,0.000,0.000,16,16,4*73
$GPGGA,074340.40,3135.3557222,N,12046.5350244,E,4,16,1.4,2.7290,M,8.308,M,01,0004*61
$GPHPD,0,0.000,238.63,-0.46,-12.70,31.5892620,120.7755837,2.729,13633072.464,24924600.372,2.729,0.000,0.000,0.000,0.000,0.000,0.000,0.000,16,16,4*76
$GPGGA,074340.60,3135.3556382,N,12046.5348676,E,4,16,1.4,2.7118,M,8.308,M,00,0004*67
$GPHPD,0,0.000,238.56,-1.19,-12.72,31.5892606,120.7755811,2.712,13633073.342,24924598.970,2.712,0.000,0.000,0.000,0.000,0.000,0.000,0.000,16,16,4*71
$GPGGA,074340.80,3135.3555595,N,12046.5347107,E,4,16,1.4,2.7180,M,8.308,M,00,0004*65
$GPHPD,0,0.000,238.50,-0.87,-12.73,31.5892593,120.7755785,2.718,13633074.145,24924597.536,2.718,0.000,0.000,0.000,0.000,0.000,0.000,0.000,16,16,4*7E
$GPGGA,074341.00,3135.3554762,N,12046.5345499,E,4,16,1.4,2.7235,M,8.308,M,01,0004*6B
$GPHPD,0,0.000,238.43,-0.92,-12.72,31.5892579,120.7755758,2.724,13633075.005,24924596.081,2.724,0.000,0.000,0.000,0.000,0.000,0.000,0.000,16,16,4*71
$GPGGA,074341.20,3135.3553944,N,12046.5343921,E,4,16,1.4,2.7164,M,8.308,M,01,0004*6B
$GPHPD,0,0.000,238.27,-1.20,-12.72,31.5892566,120.7755732,2.716,13633075.850,24924594.654,2.716,0.000,0.000,0.000,0.000,0.000,0.000,0.000,16,16,4*7D
$GPGGA,074341.40,3135.3553096,N,12046.5342305,E,4,16,1.4,2.7249,M,8.308,M,01,0004*6A
$GPHPD,0,0.000,238.18,-0.73,-12.72,31.5892552,120.7755705,2.725,13633076.730,24924593.199,2.725,0.000,0.000,0.000,0.000,0.000,0.000,0.000,16,16,4*7E
$GPGGA,074341.60,3135.3552266,N,12046.5340705,E,4,16,1.4,2.7191,M,8.308,M,00,0004*65
$GPHPD,0,0.000,238.32,-1.41,-12.72,31.5892538,120.7755678,2.719,13633077.588,24924591.753,2.719,0.000,0.000,0.000,0.000,0.000,0.000,0.000,16,16,4*73
$GPGGA,074341.80,3135.3551425,N,12046.5339044,E,4,16,1.4,2.7319,M,8.308,M,00,0004*67
$GPHPD,0,0.000,238.22,-1.16,-12.72,31.5892524,120.7755651,2.732,13633078.449,24924590.239,2.732,0.000,0.000,0.000,0.000,0.000,0.000,0.000,16,16,4*7D
$GPGGA,074342.00,3135.3550576,N,12046.5337462,E,4,16,1.4,2.7206,M,8.308,M,01,0004*6A
$GPHPD,0,0.000,238.06,-1.15,-12.72,31.5892510,120.7755624,2.721,13633079.337,24924588.825,2.721,0.000,0.000,0.000,0.000,0.000,0.000,0.000,16,16,4*7C
$GPGGA,074342.20,3135.3549737,N,12046.5335816,E,4,16,1.4,2.7239,M,8.308,M,01,0004*66
$GPHPD,0,0.000,238.34,-1.01,-12.73,31.5892496,120.7755597,2.724,13633080.198,24924587.329,2.724,0.000,0.000,0.000,0.000,0.000,0.000,0.000,16,16,4*74
$GPGGA,074342.40,3135.3548874,N,12046.5334189,E,4,16,1.4,2.7150,M,8.308,M,01,0004*6B
$GPHPD,0,0.000,238.18,-1.31,-12.72,31.5892481,120.7755570,2.715,13633081.097,24924585.869,2.715,0.000,0.000,0.000,0.000,0.000,0.000,0.000,16,16,4*75
$GPGGA,074342.60,3135.3548029,N,12046.5332560,E,4,16,1.4,2.7149,M,8.308,M,00,0004*65
$GPHPD,0,0.000,238.28,-0.67,-12.70,31.5892467,120.7755543,2.715,13633081.970,24924584.396,2.715,0.000,0.000,0.000,0.000,0.000,0.000,0.000,16,16,4*74
$GPGGA,074342.80,3135.3547196,N,12046.5330871,E,4,16,1.4,2.7090,M,8.308,M,00,0004*6B
$GPHPD,0,0.000,238.35,-1.15,-12.70,31.5892453,120.7755515,2.709,13633082.814,24924582.844,2.709,0.000,0.000,0.000,0.000,0.000,0.000,0.000,16,16,4*7A
$GPGGA,074343.00,3135.3546341,N,12046.5329273,E,4,16,1.4,2.7021,M,8.308,M,01,0004*60
$GPHPD,0,0.000,238.40,-0.92,-12.71,31.5892439,120.7755488,2.702,13633083.707,24924581.414,2.702,0.000,0.000,0.000,0.000,0.000,0.000,0.000,16,16,4*78
$GPGGA,074343.20,3135.3545489,N,12046.5327642,E,4,16,1.4,2.7060,M,8.308,M,01,0004*6F
$GPHPD,0,0.000,238.46,-0.71,-12.69,31.5892425,120.7755461,2.706,13633084.590,24924579.943,2.706,0.000,0.000,0.000,0.000,0.000,0.000,0.000,16,16,4*73
$GPGGA,074343.40,3135.3544646,N,12046.5325987,E,4,16,1.4,2.7018,M,8.308,M,01,0004*62
$GPHPD,0,0.000,238.59,-0.46,-12.68,31.5892411,120.7755433,2.702,13633085.455,24924578.438,2.702,0.000,0.000,0.000,0.000,0.000,0.000,0.000,16,16,4*71
$GPGGA,074343.60,3135.3543793,N,12046.5324336,E,4,16,1.4,2.7053,M,8.308,M,00,0004*61
$GPHPD,0,0.000,238.64,-0.58,-12.68,31.5892397,120.7755406,2.705,13633086.335,24924576.943,2.705,0.000,0.000,0.000,0.000,0.000,0.000,0.000,16,16,4*72
$GPGGA,074343.80,3135.3542982,N,12046.5322693,E,4,16,1.4,2.6943,M,8.308,M,00,0004*65
$GPHPD,0,0.000,238.95,-0.83,-12.67,31.5892383,120.7755378,2.694,13633087.157,24924575.434,2.694,0.000,0.000,0.000,0.000,0.000,0.000,0.000,16,16,4*77
$GPGGA,074344.00,3135.3542129,N,12046.5321017,E,4,16,1.4,2.7033,M,8.308,M,01,0004*64
$GPHPD,0,0.000,238.90,-0.23,-12.64,31.5892369,120.7755350,2.703,13633088.032,24924573.909,2.703,0.000,0.000,0.000,0.000,0.000,0.000,0.000,16,16,4*7D
$GPGGA,074344.20,3135.3541295,N,12046.5319378,E,4,16,1.4,2.7036,M,8.308,M,01,0004*65
$GPHPD,0,0.000,238.95,-0.54,-12.62,31.5892355,120.7755323,2.704,13633088.887,24924572.418,2.704,0.000,0.000,0.000,0.000,0.000,0.000,0.000,16,16,4*7F
$GPGGA,074344.40,3135.3540431,N,12046.5317693,E,4,16,1.4,2.7145,M,8.308,M,01,0004*61
$GPHPD,0,0.000,239.04,-1.16,-12.61,31.5892341,120.7755295,2.715,13633089.776,24924570.889,2.715,0.000,0.000,0.000,0.000,0.000,0.000,0.000,16,16,4*7D
$GPGGA,074344.60,3135.3539595,N,12046.5316000,E,4,16,1.4,2.7065,M,8.308,M,00,0004*6D
$GPHPD,0,0.000,239.00,-1.16,-12.58,31.5892327,120.7755267,2.707,13633090.623,24924569.334,2.707,0.000,0.000,0.000,0.000,0.000,0.000,0.000,16,16,4*72
$GPGGA,074344.80,3135.3538739,N,12046.5314303,E,4,16,1.4,2.7075,M,8.308,M,00,0004*65
$GPHPD,0,0.000,238.97,-0.79,-12.57,31.5892312,120.7755238,2.708,13633091.498,24924567.785,2.708,0.000,0.000,0.000,0.000,0.000,0.000,0.000,16,16,4*75
$GPGGA,074345.00,3135.3537898,N,12046.5312659,E,4,16,1.4,2.7062,M,8.308,M,01,0004*6C
$GPHPD,0,0.000,238.85,-1.50,-12.56,31.5892298,120.7755211,2.706,13633092.363,24924566.292,2.706,0.000,0.000,0.000,0.000,0.000,0.000,0.000,16,16,4*77
$GPGGA,074345.20,3135.3537037,N,12046.5310992,E,4,16,1.4,2.7069,M,8.308,M,01,0004*62
$GPHPD,0,0.000,238.82,-1.43,-12.56,31.5892284,120.7755183,2.707,13633093.251,24924564.783,2.707,0.000,0.000,0.000,0.000,0.000,0.000,0.000,16,16,4*71
$GPGGA,074345.40,3135.3536218,N,12046.5309290,E,4,16,1.4,2.6967,M,8.308,M,01,0004*6D
$GPHPD,0,0.000,238.89,-1.30,-12.54,31.5892270,120.7755155,2.697,13633094.072,24924563.207,2.697,0.000,0.000,0.000,0.000,0.000,0.000,0.000,16,16,4*76
$GPGGA,074345.60,3135.3535373,N,12046.5307631,E,4,16,1.4,2.6995,M,8.308,M,00,0004*6D
$GPHPD,0,0.000,238.97,-0.99,-12.54,31.5892256,120.7755127,2.700,13633094.939,24924561.698,2.700,0.000,0.000,0.000,0.000,0.000,0.000,0.000,16,16,4*7C
$GPGGA,074345.80,3135.3534529,N,12046.5305963,E,4,16,1.4,2.6958,M,8.308,M,00,0004*60
$GPHPD,0,0.000,239.03,-1.44,-12.54,31.5892242,120.7755099,2.696,13633095.803,24924560.178,2.696,0.000,0.000,0.000,0.000,0.000,0.000,0.000,16,16,4*71
$GPGGA,074346.00,3135.3533705,N,12046.5304272,E,4,16,1.4,2.6956,M,8.308,M,01,0004*65
$GPHPD,0,0.000,239.35,-0.91,-12.54,31.5892228,120.7755071,2.696,13633096.634,24924558.618,2.696,0.000,0.000,0.000,0.000,0.000,0.000,0.000,16,16,4*74
$GPGGA,074346.20,3135.3532839,N,12046.5302578,E,4,16,1.4,2.6967,M,8.308,M,01,0004*6F
$GPHPD,0,0.000,239.08,-1.37,-12.54,31.5892214,120.7755043,2.697,13633097.524,24924557.079,2.697,0.000,0.000,0.000,0.000,0.000,0.000,0.000,16,16,4*74
$GPGGA,074346.40,3135.3532009,N,12046.5300901,E,4,16,1.4,2.7012,M,8.308,M,01,0004*68
$GPHPD,0,0.000,239.02,-1.58,-12.56,31.5892200,120.7755015,2.701,13633098.366,24924555.540,2.701,0.000,0.000,0.000,0.000,0.000,0.000,0.000,16,16,4*71
$GPGGA,074346.60,3135.3531195,N,12046.5299230,E,4,16,1.4,2.6776,M,8.308,M,00,0004*60
$GPHPD,0,0.000,238.84,-1.62,-12.56,31.5892187,120.7754987,2.678,13633099.186,24924553.999,2.678,0.000,0.000,0.000,0.000,0.000,0.000,0.000,16,16,4*7B
$GPGGA,074346.80,3135.3530344,N,12046.5297531,E,4,16,1.4,2.6831,M,8.308,M,00,0004*65
$GPHPD,0,0.000,238.92,-1.41,-12.56,31.5892172,120.7754959,2.683,13633100.054,24924552.445,2.683,0.000,0.000,0.000,0.000,0.000,0.000,0.000,16,16,4*76
$GPGGA,074347.00,3135.3529503,N,12046.5295867,E,4,16,1.4,2.6805,M,8.308,M,01,0004*6B
$GPHPD,0,0.000,238.88,-1.55,-12.57,31.5892158,120.7754931,2.681,13633100.914,24924550.928,2.681,0.000,0.000,0.000,0.000,0.000,0.000,0.000,16,16,4*76
$GPGGA,074347.20,3135.3528673,N,12046.5294196,E,4,16,1.4,2.6719,M,8.308,M,01,0004*68
$GPHPD,0,0.000,238.89,-1.23,-12.57,31.5892145,120.7754903,2.672,13633101.757,24924549.396,2.672,0.000,0.000,0.000,0.000,0.000,0.000,0.000,16,16,4*74
$GPGGA,074347.40,3135.3527826,N,12046.5292518,E,4,16,1.4,2.6785,M,8.308,M,01,0004*6E
$GPHPD,0,0.000,239.08,-1.05,-12.57,31.5892130,120.7754875,2.679,13633102.623,24924547.865,2.679,0.000,0.000,0.000,0.000,0.000,0.000,0.000,16,16,4*72
$GPGGA,074347.60,3135.3526988,N,12046.5290830,E,4,16,1.4,2.6710,M,8.308,M,00,0004*60
$GPHPD,0,0.000,239.29,-0.89,-12.57,31.5892116,120.7754847,2.671,13633103.475,24924546.317,2.671,0.000,0.000,0.000,0.000,0.000,0.000,0.000,16,16,4*7E
$GPGGA,074347.80,3135.3526180,N,12046.5289165,E,4,16,1.4,2.6646,M,8.308,M,00,0004*6D
$GPHPD,0,0.000,239.12,-0.92,-12.57,31.5892103,120.7754819,2.665,13633104.288,24924544.779,2.665,0.000,0.000,0.000,0.000,0.000,0.000,0.000,16,16,4*7E
$GPGGA,074348.00,3135.3525338,N,12046.5287491,E,4,16,1.4,2.6676,M,8.308,M,01,0004*6A
$GPHPD,0,0.000,239.30,-0.58,-12.58,31.5892089,120.7754792,2.668,13633105.147,24924543.250,2.668,0.000,0.000,0.000,0.000,0.000,0.000,0.000,16,16,4*70
$GPGGA,074348.20,3135.3524510,N,12046.5285808,E,4,16,1.4,2.6747,M,8.308,M,01,0004*68
$GPHPD,0,0.000,239.40,-0.51,-12.59,31.5892075,120.7754763,2.675,13633105.986,24924541.703,2.675,0.000,0.000,0.000,0.000,0.000,0.000,0.000,16,16,4*76
$GPGGA,074348.40,3135.3523697,N,12046.5284124,E,4,16,1.4,2.6707,M,8.308,M,01,0004*67
$GPHPD,0,0.000,239.37,-0.68,-12.59,31.5892062,120.7754735,2.671,13633106.802,24924540.145,2.671,0.000,0.000,0.000,0.000,0.000,0.000,0.000,16,16,4*72
$GPGGA,074348.60,3135.3522867,N,12046.5282452,E,4,16,1.4,2.6711,M,8.308,M,00,0004*61
$GPHPD,0,0.000,239.06,-0.90,-12.60,31.5892048,120.7754708,2.671,13633107.645,24924538.612,2.671,0.000,0.000,0.000,0.000,0.000,0.000,0.000,16,16,4*7D
$GPGGA,074348.80,3135.3522031,N,12046.5280798,E,4,16,1.4,2.6755,M,8.308,M,00,0004*63
$GPHPD,0,0.000,239.11,-0.97,-12.60,31.5892034,120.7754680,2.676,13633108.500,24924537.104,2.676,0.000,0.000,0.000,0.000,0.000,0.000,0.000,16,16,4*74
$GPGGA,074349.00,3135.3521211,N,12046.5279146,E,4,16,1.4,2.6739,M,8.308,M,01,0004*61
$GPHPD,0,0.000,238.98,-1.39,-12.61,31.5892020,120.7754652,2.674,13633109.333,24924535.589,2.674,0.000,0.000,0.000,0.000,0.000,0.000,0.000,16,16,4*7E
$GPGGA,074349.20,3135.3520364,N,12046.5277532,E,4,16,1.6,2.6711,M,8.308,M,01,0004*60
$GPHPD,0,0.000,238.90,-0.81,-12.62,31.5892006,120.7754626,2.671,13633110.212,24924534.135,2.671,0.000,0.000,0.000,0.000,0.000,0.000,0.000,16,16,4*78
$GPGGA,074349.40,3135.3519553,N,12046.5275875,E,4,17,1.4,2.6613,M,8.308,M,01,0004*62
$GPHPD,0,0.000,238.89,-1.43,-12.63,31.5891993,120.7754598,2.661,13633111.031,24924532.609,2.661,0.000,0.000,0.000,0.000,0.000,0.000,0.000,17,17,4*72
$GPGGA,074349.60,3135.3518703,N,12046.5274270,E,4,17,1.4,2.6661,M,8.308,M,01,0004*6D
$GPHPD,0,0.000,238.76,-1.20,-12.65,31.5891978,120.7754571,2.666,13633111.916,24924531.168,2.666,0.000,0.000,0.000,0.000,0.000,0.000,0.000,17,17,4*7C
$GPGGA,074349.80,3135.3517904,N,12046.5272648,E,4,17,1.4,2.6601,M,8.307,M,00,0004*64
$GPHPD,0,0.000,238.86,-1.23,-12.67,31.5891965,120.7754544,2.660,13633112.725,24924529.677,2.660,0.000,0.000,0.000,0.000,0.000,0.000,0.000,17,17,4*75
$GPGGA,074350.00,3135.3517101,N,12046.5271076,E,4,17,1.4,2.6624,M,8.307,M,01,0004*67
$GPHPD,0,0.000,238.78,-1.13,-12.68,31.5891952,120.7754518,2.662,13633113.550,24924528.248,2.662,0.000,0.000,0.000,0.000,0.000,0.000,0.000,17,17,4*7D
$GPGGA,074350.20,3135.3516283,N,12046.5269503,E,4,17,1.4,2.6662,M,8.307,M,01,0004*61
$GPHPD,0,0.000,238.73,-1.52,-12.70,31.5891938,120.7754492,2.666,13633114.396,24924526.828,2.666,0.000,0.000,0.000,0.000,0.000,0.000,0.000,17,17,4*7C
$GPGGA,074350.40,3135.3515518,N,12046.5267910,E,4,17,1.4,2.6584,M,8.307,M,01,0004*6A
$GPHPD,0,0.000,238.73,-1.23,-12.73,31.5891925,120.7754465,2.658,13633115.163,24924525.352,2.658,0.000,0.000,0.000,0.000,0.000,0.000,0.000,17,17,4*71
$GPGGA,074350.60,3135.3514676,N,12046.5266299,E,4,17,1.4,2.6624,M,8.307,M,00,0004*61
$GPHPD,0,0.000,238.53,-0.90,-12.75,31.5891911,120.7754438,2.662,13633116.035,24924523.899,2.662,0.000,0.000,0.000,0.000,0.000,0.000,0.000,17,17,4*78
$GPGGA,074350.80,3135.3513875,N,12046.5264731,E,4,17,1.4,2.6647,M,8.307,M,00,0004*65
$GPHPD,0,0.000,238.49,-1.12,-12.78,31.5891898,120.7754412,2.665,13633116.858,24924522.474,2.665,0.000,0.000,0.000,0.000,0.000,0.000,0.000,17,17,4*70
$GPGGA,074351.00,3135.3513070,N,12046.5263176,E,4,17,1.4,2.6563,M,8.307,M,01,0004*67
$GPHPD,0,0.000,238.36,-1.24,-12.76,31.5891885,120.7754386,2.656,13633117.689,24924521.067,2.656,0.000,0.000,0.000,0.000,0.000,0.000,0.000,17,17,4*73
$GPGGA,074351.20,3135.3512277,N,12046.5261583,E,4,17,1.4,2.6600,M,8.307,M,01,0004*6B
$GPHPD,0,0.000,238.33,-0.78,-12.75,31.5891871,120.7754360,2.660,13633118.495,24924519.608,2.660,0.000,0.000,0.000,0.000,0.000,0.000,0.000,17,17,4*7A
$GPGGA,074351.40,3135.3511446,N,12046.5260029,E,4,17,1.4,2.6620,M,8.307,M,01,0004*6C
$GPHPD,0,0.000,238.16,-0.91,-12.75,31.5891857,120.7754334,2.662,13633119.364,24924518.217,2.662,0.000,0.000,0.000,0.000,0.000,0.000,0.000,17,17,4*7C
$GPGGA,074351.60,3135.3510654,N,12046.5258499,E,4,17,1.4,2.6652,M,8.307,M,00,0004*6E
$GPHPD,0,0.000,238.25,-1.08,-12.74,31.5891844,120.7754308,2.665,13633120.181,24924516.833,2.665,0.000,0.000,0.000,0.000,0.000,0.000,0.000,17,17,4*70
$GPGGA,074351.80,3135.3509833,N,12046.5256925,E,4,17,1.4,2.6656,M,8.307,M,00,0004*67
$GPHPD,0,0.000,238.15,-0.89,-12.74,31.5891831,120.7754282,2.666,13633121.031,24924515.413,2.666,0.000,0.000,0.000,0.000,0.000,0.000,0.000,17,17,4*7C
$GPGGA,074352.00,3135.3509053,N,12046.5255393,E,4,17,1.3,2.6690,M,8.307,M,01,0004*6A
$GPHPD,0,0.000,237.98,-0.98,-12.73,31.5891818,120.7754257,2.669,13633121.831,24924514.019,2.669,0.000,0.000,0.000,0.000,0.000,0.000,0.000,17,17,4*75
$GPGGA,074352.20,3135.3508220,N,12046.5253817,E,4,17,1.3,2.6641,M,8.307,M,01,0004*62
$GPHPD,0,0.000,238.04,-1.07,-12.72,31.5891804,120.7754230,2.664,13633122.698,24924512.603,2.664,0.000,0.000,0.000,0.000,0.000,0.000,0.000,17,17,4*70
$GPGGA,074352.40,3135.3507395,N,12046.5252288,E,4,17,1.3,2.6624,M,8.307,M,01,0004*6A
$GPHPD,0,0.000,238.17,-0.90,-12.70,31.5891790,120.7754205,2.662,13633123.563,24924511.240,2.662,0.000,0.000,0.000,0.000,0.000,0.000,0.000,17,17,4*7D
$GPGGA,074352.60,3135.3506600,N,12046.5250729,E,4,17,1.3,2.6768,M,8.307,M,00,0004*64
$GPHPD,0,0.000,238.34,-1.08,-12.70,31.5891777,120.7754179,2.677,13633124.379,24924509.822,2.677,0.000,0.000,0.000,0.000,0.000,0.000,0.000,17,17,4*70
$GPGGA,074352.80,3135.3505768,N,12046.5249152,E,4,17,1.3,2.6592,M,8.307,M,00,0004*63
$GPHPD,0,0.000,238.28,-0.84,-12.70,31.5891763,120.7754153,2.659,13633125.244,24924508.405,2.659,0.000,0.000,0.000,0.000,0.000,0.000,0.000,17,17,4*73
$GPGGA,074353.00,3135.3504964,N,12046.5247587,E,4,17,1.3,2.6684,M,8.307,M,01,0004*6E
$GPHPD,0,0.000,238.41,-0.61,-12.72,31.5891749,120.7754126,2.668,13633126.072,24924506.985,2.668,0.000,0.000,0.000,0.000,0.000,0.000,0.000,17,17,4*70
$GPGGA,074353.20,3135.3504161,N,12046.5245982,E,4,17,1.3,2.6564,M,8.307,M,01,0004*67
$GPHPD,0,0.000,238.47,-0.59,-12.72,31.5891736,120.7754100,2.656,13633126.890,24924505.517,2.656,0.000,0.000,0.000,0.000,0.000,0.000,0.000,17,17,4*71
$GPGGA,074353.40,3135.3503344,N,12046.5244393,E,4,17,1.3,2.6648,M,8.307,M,01,0004*65
$GPHPD,0,0.000,238.31,-0.64,-12.72,31.5891722,120.7754073,2.665,13633127.731,24924504.076,2.665,0.000,0.000,0.000,0.000,0.000,0.000,0.000,17,17,4*78
$GPGGA,074353.60,3135.3502506,N,12046.5242816,E,4,17,1.3,2.6631,M,8.307,M,00,0004*69
$GPHPD,0,0.000,238.50,-0.91,-12.72,31.5891708,120.7754047,2.663,13633128.605,24924502.662,2.663,0.000,0.000,0.000,0.000,0.000,0.000,0.000,17,17,4*76
$GPGGA,074353.80,3135.3501676,N,12046.5241186,E,4,17,1.3,2.6643,M,8.307,M,00,0004*66
$GPHPD,0,0.000,238.66,-1.18,-12.72,31.5891695,120.7754020,2.664,13633129.456,24924501.179,2.664,0.000,0.000,0.000,0.000,0.000,0.000,0.000,17,17,4*7C
$GPGGA,074354.00,3135.3500879,N,12046.5239599,E,4,17,1.3,2.6562,M,8.307,M,01,0004*6D
$GPHPD,0,0.000,238.66,-1.26,-12.71,31.5891681,120.7753993,2.656,13633130.269,24924499.729,2.656,0.000,0.000,0.000,0.000,0.000,0.000,0.000,17,17,4*70
$GPGGA,074354.20,3135.3500031,N,12046.5237951,E,4,17,1.3,2.6603,M,8.307,M,01,0004*69
$GPHPD,0,0.000,238.44,-0.83,-12.69,31.5891667,120.7753966,2.660,13633131.143,24924498.235,2.660,0.000,0.000,0.000,0.000,0.000,0.000,0.000,17,17,4*76
$GPGGA,074354.40,3135.3499206,N,12046.5236345,E,4,17,1.3,2.6622,M,8.307,M,01,0004*65
$GPHPD,0,0.000,238.27,-1.13,-12.69,31.5891653,120.7753939,2.662,13633131.992,24924496.779,2.662,0.000,0.000,0.000,0.000,0.000,0.000,0.000,17,17,4*71
$GPGGA,074354.60,3135.3498373,N,12046.5234718,E,4,17,1.3,2.6572,M,8.307,M,01,0004*6D
$GPHPD,0,0.000,238.44,-1.19,-12.70,31.5891640,120.7753912,2.657,13633132.849,24924495.302,2.657,0.000,0.000,0.000,0.000,0.000,0.000,0.000,17,17,4*72
$GPGGA,074354.80,3135.3497532,N,12046.5233090,E,4,17,1.3,2.6607,M,8.307,M,01,0004*6E
$GPHPD,0,0.000,238.61,-0.68,-12.69,31.5891626,120.7753885,2.661,13633133.716,24924493.828,2.661,0.000,0.000,0.000,0.000,0.000,0.000,0.000,17,17,4*74
$GPGGA,074355.00,3135.3496684,N,12046.5231451,E,4,17,1.3,2.6584,M,8.307,M,02,0004*68
$GPHPD,0,0.000,238.68,-1.15,-12.70,31.5891611,120.7753858,2.658,13633134.591,24924492.345,2.658,0.000,0.000,0.000,0.000,0.000,0.000,0.000,17,17,4*71
$GPGGA,074355.20,3135.3495845,N,12046.5229847,E,4,17,1.3,2.6557,M,8.307,M,02,0004*66
$GPHPD,0,0.000,238.65,-0.82,-12.71,31.5891597,120.7753831,2.656,13633135.461,24924490.899,2.656,0.000,0.000,0.000,0.000,0.000,0.000,0.000,17,17,4*77
$GPGGA,074355.40,3135.3495035,N,12046.5228203,E,4,17,1.3,2.6611,M,8.307,M,02,0004*65
$GPHPD,0,0.000,238.63,-0.94,-12.72,31.5891584,120.7753803,2.661,13633136.281,24924489.387,2.661,0.000,0.000,0.000,0.000,0.000,0.000,0.000,17,17,4*71
$GPGGA,074355.60,3135.3494204,N,12046.5226499,E,4,17,1.3,2.6618,M,8.307,M,02,0004*64
$GPHPD,0,0.000,238.67,-1.17,-12.73,31.5891570,120.7753775,2.662,13633137.119,24924487.816,2.662,0.000,0.000,0.000,0.000,0.000,0.000,0.000,17,17,4*75
$GPGGA,074355.80,3135.3493367,N,12046.5224903,E,4,17,1.3,2.6611,M,8.307,M,00,0004*6E
$GPHPD,0,0.000,238.50,-0.66,-12.74,31.5891556,120.7753748,2.661,13633137.988,24924486.378,2.661,0.000,0.000,0.000,0.000,0.000,0.000,0.000,17,17,4*79
$GPGGA,074356.00,3135.3492548,N,12046.5223235,E,4,17,1.3,2.6662,M,8.307,M,01,0004*63
$GPHPD,0,0.000,238.59,-1.00,-12.73,31.5891542,120.7753721,2.666,13633138.816,24924484.844,2.666,0.000,0.000,0.000,0.000,0.000,0.000,0.000,17,17,4*73
$GPGGA,074356.20,3135.3491681,N,12046.5221588,E,4,17,1.3,2.6655,M,8.307,M,01,0004*63
$GPHPD,0,0.000,238.70,-0.62,-12.73,31.5891528,120.7753693,2.666,13633139.717,24924483.362,2.666,0.000,0.000,0.000,0.000,0.000,0.000,0.000,17,17,4*7E
$GPGGA,074356.40,3135.3490830,N,12046.5219919,E,4,17,1.3,2.6615,M,8.307,M,01,0004*6B
$GPHPD,0,0.000,238.69,-0.55,-12.71,31.5891514,120.7753665,2.662,13633140.590,24924481.844,2.662,0.000,0.000,0.000,0.000,0.000,0.000,0.000,17,17,4*78
$GPGGA,074356.60,3135.3490013,N,12046.5218257,E,4,17,1.3,2.6549,M,8.307,M,00,0004*6B
$GPHPD,0,0.000,238.56,-0.57,-12.68,31.5891500,120.7753638,2.655,13633141.417,24924480.316,2.655,0.000,0.000,0.000,0.000,0.000,0.000,0.000,17,17,4*71
$GPGGA,074356.80,3135.3489154,N,12046.5216576,E,4,17,1.3,2.6518,M,8.307,M,00,0004*61
$GPHPD,0,0.000,238.50,-0.55,-12.65,31.5891486,120.7753610,2.652,13633142.299,24924478.788,2.652,0.000,0.000,0.000,0.000,0.000,0.000,0.000,17,17,4*7A
$GPGGA,074357.00,3135.3488326,N,12046.5214907,E,4,17,1.3,2.6500,M,8.307,M,01,0004*6E
$GPHPD,0,0.000,238.50,-1.11,-12.58,31.5891472,120.7753582,2.650,13633143.140,24924477.257,2.650,0.000,0.000,0.000,0.000,0.000,0.000,0.000,17,17,4*78
$GPGGA,074357.20,3135.3487482,N,12046.5213231,E,4,17,1.3,2.6482,M,8.307,M,01,0004*68
$GPHPD,0,0.000,238.49,-1.89,-12.56,31.5891458,120.7753554,2.648,13633144.002,24924475.727,2.648,0.000,0.000,0.000,0.000,0.000,0.000,0.000,17,17,4*7C
$GPGGA,074357.40,3135.3486630,N,12046.5211552,E,4,17,1.3,2.6471,M,8.307,M,01,0004*68
$GPHPD,0,0.000,238.62,-1.99,-12.51,31.5891444,120.7753526,2.647,13633144.875,24924474.198,2.647,0.000,0.000,0.000,0.000,0.000,0.000,0.000,17,17,4*70
$GPGGA,074357.60,3135.3485760,N,12046.5209859,E,4,17,1.3,2.6427,M,8.307,M,00,0004*60
$GPHPD,0,0.000,238.76,-2.31,-12.50,31.5891429,120.7753498,2.643,13633145.771,24924472.663,2.643,0.000,0.000,0.000,0.000,0.000,0.000,0.000,17,17,4*75
$GPGGA,074357.80,3135.3484904,N,12046.5208178,E,4,17,1.3,2.6417,M,8.307,M,00,0004*6B
$GPHPD,0,0.000,238.87,-2.32,-12.48,31.5891415,120.7753470,2.642,13633146.649,24924471.134,2.642,0.000,0.000,0.000,0.000,0.000,0.000,0.000,17,17,4*77
$GPGGA,074358.00,3135.3484062,N,12046.5206475,E,4,17,1.3,2.6318,M,8.307,M,01,0004*6A
$GPHPD,0,0.000,238.86,-2.64,-12.47,31.5891401,120.7753441,2.632,13633147.503,24924469.570,2.632,0.000,0.000,0.000,0.000,0.000,0.000,0.000,17,17,4*7C
$GPGGA,074358.20,3135.3483219,N,12046.5204798,E,4,17,1.3,2.6226,M,8.307,M,01,0004*6F
$GPHPD,0,0.000,238.79,-1.88,-12.47,31.5891387,120.7753413,2.623,13633148.363,24924468.039,2.623,0.000,0.000,0.000,0.000,0.000,0.000,0.000,17,17,4*75
$GPGGA,074358.40,3135.3482337,N,12046.5203123,E,4,17,1.3,2.6213,M,8.307,M,01,0004*62
$GPHPD,0,0.000,238.58,-1.32,-12.47,31.5891372,120.7753385,2.621,13633149.280,24924466.532,2.621,0.000,0.000,0.000,0.000,0.000,0.000,0.000,17,17,4*78
$GPGGA,074358.60,3135.3481470,N,12046.5201423,E,4,17,1.3,2.6221,M,8.307,M,00,0004*60
$GPHPD,0,0.000,238.48,-0.33,-12.46,31.5891358,120.7753357,2.622,13633150.170,24924464.986,2.622,0.000,0.000,0.000,0.000,0.000,0.000,0.000,17,17,4*7A
$GPGGA,074358.80,3135.3480619,N,12046.5199717,E,4,17,1.3,2.6207,M,8.307,M,00,0004*60
$GPHPD,0,0.000,238.72,-0.90,-12.46,31.5891344,120.7753329,2.621,13633151.036,24924463.424,2.621,0.000,0.000,0.000,0.000,0.000,0.000,0.000,17,17,4*7E
$GPGGA,074359.00,3135.3479737,N,12046.5198033,E,4,17,1.3,2.6231,M,8.307,M,01,0004*66
$GPHPD,0,0.000,238.56,-1.36,-12.45,31.5891329,120.7753301,2.623,13633151.950,24924461.907,2.623,0.000,0.000,0.000,0.000,0.000,0.000,0.000,17,17,4*70
$GPGGA,074359.20,3135.3478879,N,12046.5196314,E,4,17,1.3,2.6220,M,8.307,M,01,0004*68
$GPHPD,0,0.000,238.30,-1.13,-12.45,31.5891315,120.7753272,2.622,13633152.824,24924460.333,2.622,0.000,0.000,0.000,0.000,0.000,0.000,0.000,17,17,4*70
$GPGGA,074359.40,3135.3477990,N,12046.5194619,E,4,17,1.3,2.6339,M,8.307,M,01,0004*64
$GPHPD,0,0.000,238.36,-1.10,-12.44,31.5891300,120.7753244,2.634,13633153.746,24924458.806,2.634,0.000,0.000,0.000,0.000,0.000,0.000,0.000,17,17,4*79
$GPGGA,074359.60,3135.3477117,N,12046.5192875,E,4,17,1.3,2.6083,M,8.307,M,00,0004*60
$GPHPD,0,0.000,238.56,-2.11,-12.40,31.5891285,120.7753215,2.608,13633154.636,24924457.211,2.608,0.000,0.000,0.000,0.000,0.000,0.000,0.000,17,17,4*73
$GPGGA,074359.80,3135.3476249,N,12046.5191175,E,4,17,1.3,2.5952,M,8.307,M,00,0004*6B
$GPHPD,0,0.000,238.50,-1.23,-12.39,31.5891271,120.7753186,2.595,13633155.527,24924455.666,2.595,0.000,0.000,0.000,0.000,0.000,0.000,0.000,17,17,4*7F
$GPGGA,074400.00,3135.3475343,N,12046.5189482,E,4,17,1.3,2.6082,M,8.307,M,01,0004*62
$GPHPD,0,0.000,237.97,-0.73,-12.39,31.5891256,120.7753158,2.608,13633156.474,24924454.152,2.608,0.000,0.000,0.000,0.000,0.000,0.000,0.000,17,17,4*7C
$GPGGA,074400.20,3135.3474476,N,12046.5187788,E,4,17,1.3,2.6178,M,8.307,M,01,0004*63
$GPHPD,0,0.000,238.77,-0.41,-12.41,31.5891241,120.7753130,2.618,13633157.365,24924452.613,2.618,0.000,0.000,0.000,0.000,0.000,0.000,0.000,17,17,4*79
$GPGGA,074400.40,3135.3473623,N,12046.5186054,E,4,17,1.3,2.6009,M,8.307,M,01,0004*60
$GPHPD,0,0.000,238.38,-0.55,-12.42,31.5891227,120.7753101,2.601,13633158.229,24924451.019,2.601,0.000,0.000,0.000,0.000,0.000,0.000,0.000,17,16,4*7E
$GPGGA,074400.60,3135.3472760,N,12046.5184364,E,4,17,1.3,2.5989,M,8.307,M,00,0004*64
$GPHPD,0,0.000,238.25,-1.32,-12.42,31.5891213,120.7753073,2.599,13633159.115,24924449.483,2.599,0.000,0.000,0.000,0.000,0.000,0.000,0.000,17,16,4*72
$GPGGA,074400.80,3135.3471808,N,12046.5182705,E,4,17,1.4,2.6065,M,8.307,M,00,0004*62
$GPHPD,0,0.000,238.02,-1.24,-12.43,31.5891197,120.7753045,2.607,13633160.134,24924448.036,2.607,0.000,0.000,0.000,0.000,0.000,0.000,0.000,17,16,4*79
$GPGGA,074401.00,3135.3471011,N,12046.5180902,E,4,17,1.3,2.5965,M,8.307,M,01,0004*6C
$GPHPD,0,0.000,238.66,-1.75,-12.45,31.5891184,120.7753015,2.597,13633160.904,24924446.326,2.597,0.000,0.000,0.000,0.000,0.000,0.000,0.000,17,16,4*79
$GPGGA,074401.20,3135.3470085,N,12046.5179211,E,4,17,1.3,2.6123,M,8.307,M,01,0004*64
$GPHPD,0,0.000,238.28,-1.18,-12.46,31.5891168,120.7752987,2.612,13633161.879,24924444.825,2.612,0.000,0.000,0.000,0.000,0.000,0.000,0.000,17,16,4*7A
$GPGGA,074401.40,3135.3469212,N,12046.5177471,E,4,17,1.4,2.5927,M,8.307,M,01,0004*60
$GPHPD,0,0.000,238.63,-1.61,-12.49,31.5891154,120.7752958,2.593,13633162.770,24924443.235,2.593,0.000,0.000,0.000,0.000,0.000,0.000,0.000,17,16,4*70
$GPGGA,074401.60,3135.3468321,N,12046.5175792,E,4,16,1.4,2.5873,M,8.307,M,00,0004*6E
$GPHPD,0,0.000,238.21,-1.23,-12.48,31.5891139,120.7752930,2.587,13633163.698,24924441.729,2.587,0.000,0.000,0.000,0.000,0.000,0.000,0.000,16,16,4*79
$GPGGA,074401.80,3135.3467444,N,12046.5174050,E,4,16,1.4,2.5856,M,8.307,M,00,0004*64
$GPHPD,0,0.000,238.57,-0.98,-12.47,31.5891124,120.7752901,2.586,13633164.594,24924440.138,2.586,0.000,0.000,0.000,0.000,0.000,0.000,0.000,16,16,4*77
$GPGGA,074402.00,3135.3466590,N,12046.5172355,E,4,16,1.4,2.5805,M,8.307,M,01,0004*61
$GPHPD,0,0.000,238.47,-1.36,-12.46,31.5891110,120.7752873,2.581,13633165.467,24924438.591,2.581,0.000,0.000,0.000,0.000,0.000,0.000,0.000,16,16,4*75
$GPGGA,074402.20,3135.3465712,N,12046.5170618,E,4,16,1.4,2.5730,M,8.307,M,01,0004*6F
$GPHPD,0,0.000,238.26,-1.02,-12.48,31.5891095,120.7752844,2.573,13633166.365,24924437.008,2.573,0.000,0.000,0.000,0.000,0.000,0.000,0.000,16,16,4*7F
$GPGGA,074402.40,3135.3464824,N,12046.5168917,E,4,16,1.4,2.5754,M,8.307,M,01,0004*69
$GPHPD,0,0.000,238.18,-0.94,-12.47,31.5891080,120.7752815,2.575,13633167.284,24924435.473,2.575,0.000,0.000,0.000,0.000,0.000,0.000,0.000,16,16,4*76
$GPGGA,074402.60,3135.3463928,N,12046.5167229,E,4,16,1.4,2.5760,M,8.307,M,01,0004*6F
$GPHPD,0,0.000,238.36,-0.94,-12.45,31.5891065,120.7752787,2.576,13633168.218,24924433.959,2.576,0.000,0.000,0.000,0.000,0.000,0.000,0.000,16,16,4*7E
$GPGGA,074402.80,3135.3463047,N,12046.5165532,E,4,16,1.4,2.5764,M,8.307,M,01,0004*6A
$GPHPD,0,0.000,238.52,-1.34,-12.44,31.5891051,120.7752759,2.576,13633169.129,24924432.425,2.576,0.000,0.000,0.000,0.000,0.000,0.000,0.000,16,16,4*75
$GPGGA,074403.00,3135.3462179,N,12046.5163803,E,4,16,1.4,2.5734,M,8.307,M,02,0004*61
$GPHPD,0,0.000,238.71,-1.66,-12.47,31.5891036,120.7752730,2.573,13633170.014,24924430.845,2.573,0.000,0.000,0.000,0.000,0.000,0.000,0.000,16,16,4*71
$GPGGA,074403.20,3135.3461290,N,12046.5162086,E,4,16,1.4,2.5639,M,8.307,M,02,0004*6C
$GPHPD,0,0.000,238.59,-1.28,-12.48,31.5891022,120.7752701,2.564,13633170.932,24924429.292,2.564,0.000,0.000,0.000,0.000,0.000,0.000,0.000,16,16,4*7C
$GPGGA,074403.40,3135.3460434,N,12046.5160360,E,4,16,1.6,2.5670,M,8.307,M,02,0004*65
$GPHPD,0,0.000,238.71,-1.22,-12.48,31.5891007,120.7752673,2.567,13633171.801,24924427.708,2.567,0.000,0.000,0.000,0.000,0.000,0.000,0.000,16,16,4*77
$GPGGA,074403.60,3135.3459563,N,12046.5158638,E,4,16,1.4,2.5533,M,8.307,M,02,0004*6B
$GPHPD,0,0.000,238.77,-1.46,-12.50,31.5890993,120.7752644,2.553,13633172.692,24924426.139,2.553,0.000,0.000,0.000,0.000,0.000,0.000,0.000,16,16,4*79
$GPGGA,074403.80,3135.3458701,N,12046.5156933,E,4,16,1.4,2.5503,M,8.307,M,00,0004*69
$GPHPD,0,0.000,238.74,-1.06,-12.50,31.5890978,120.7752616,2.550,13633173.574,24924424.584,2.550,0.000,0.000,0.000,0.000,0.000,0.000,0.000,16,16,4*76
$GPGGA,074404.00,3135.3457864,N,12046.5155249,E,4,16,1.4,2.5505,M,8.307,M,01,0004*67
$GPHPD,0,0.000,238.48,-0.92,-12.41,31.5890964,120.7752587,2.551,13633174.425,24924423.040,2.551,0.000,0.000,0.000,0.000,0.000,0.000,0.000,16,16,4*7B
$GPGGA,074404.20,3135.3457030,N,12046.5153667,E,4,16,1.4,2.5458,M,8.307,M,01,0004*6B
$GPHPD,0,0.000,238.57,-1.15,-12.29,31.5890951,120.7752561,2.546,13633175.292,24924421.618,2.546,0.000,0.000,0.000,0.000,0.000,0.000,0.000,16,16,4*79
$GPGGA,074404.40,3135.3456280,N,12046.5152256,E,4,16,1.4,2.5504,M,8.307,M,01,0004*6A
$GPHPD,0,0.000,238.55,-1.09,-12.17,31.5890938,120.7752538,2.550,13633176.074,24924420.353,2.550,0.000,0.000,0.000,0.000,0.000,0.000,0.000,16,16,4*7A
$GPGGA,074404.60,3135.3455610,N,12046.5150904,E,4,16,1.4,2.5493,M,8.307,M,00,0004*66
$GPHPD,0,0.000,238.71,-1.28,-12.06,31.5890927,120.7752515,2.549,13633176.754,24924419.112,2.549,0.000,0.000,0.000,0.000,0.000,0.000,0.000,16,16,4*76
$GPGGA,074404.80,3135.3455006,N,12046.5149708,E,4,16,1.4,2.5538,M,8.307,M,00,0004*63
$GPHPD,0,0.000,238.67,-1.32,-11.92,31.5890917,120.7752495,2.554,13633177.371,24924418.021,2.554,0.000,0.000,0.000,0.000,0.000,0.000,0.000,16,16,4*7C
$GPGGA,074405.00,3135.3454457,N,12046.5148641,E,4,16,1.4,2.5440,M,8.307,M,01,0004*69
$GPHPD,0,0.000,238.69,-1.53,-11.77,31.5890908,120.7752477,2.544,13633177.937,24924417.054,2.544,0.000,0.000,0.000,0.000,0.000,0.000,0.000,16,16,4*79
$GPGGA,074405.20,3135.3454020,N,12046.5147738,E,4,16,1.4,2.5392,M,8.307,M,01,0004*67
$GPHPD,0,0.000,238.73,-1.33,-11.64,31.5890900,120.7752462,2.539,13633178.376,24924416.220,2.539,0.000,0.000,0.000,0.000,0.000,0.000,0.000,16,16,4*7A
$GPGGA,074405.40,3135.3453634,N,12046.5146990,E,4,16,1.4,2.5420,M,8.307,M,01,0004*66
$GPHPD,0,0.000,238.60,-0.93,-11.51,31.5890894,120.7752450,2.542,13633178.774,24924415.542,2.542,0.000,0.000,0.000,0.000,0.000,0.000,0.000,16,16,4*7E
$GPGGA,074405.60,3135.3453344,N,12046.5146396,E,4,16,1.4,2.5375,M,8.307,M,00,0004*6C
$GPHPD,0,0.000,238.64,-0.92,-11.39,31.5890889,120.7752440,2.538,13633179.067,24924414.995,2.538,0.000,0.000,0.000,0.000,0.000,0.000,0.000,16,16,4*7B
$GPGGA,074405.80,3135.3453098,N,12046.5145940,E,4,16,1.4,2.5422,M,8.307,M,00,0004*67
$GPHPD,0,0.000,238.59,-1.24,-11.27,31.5890885,120.7752432,2.542,13633179.325,24924414.588,2.542,0.000,0.000,0.000,0.000,0.000,0.000,0.000,16,16,4*7A
$GPGGA,074406.00,3135.3452950,N,12046.5145624,E,4,16,1.4,2.5432,M,8.307,M,01,0004*6D
$GPHPD,0,0.000,238.63,-1.15,-11.15,31.5890883,120.7752427,2.543,13633179.471,24924414.293,2.543,0.000,0.000,0.000,0.000,0.000,0.000,0.000,16,16,4*79
$GPGGA,074406.20,3135.3452849,N,12046.5145446,E,4,16,1.4,2.5446,M,8.307,M,01,0004*63
$GPHPD,0,0.000,238.61,-1.22,-11.05,31.5890881,120.7752424,2.545,13633179.579,24924414.137,2.545,0.000,0.000,0.000,0.000,0.000,0.000,0.000,16,16,4*7B
$GPGGA,074406.40,3135.3452832,N,12046.5145401,E,4,16,1.4,2.5433,M,8.307,M,01,0004*68
$GPHPD,0,0.000,238.66,-1.43,-10.97,31.5890881,120.7752423,2.543,13633179.594,24924414.093,2.543,0.000,0.000,0.000,0.000,0.000,0.000,0.000,16,16,4*7A
$GPGGA,074406.60,3135.3452850,N,12046.5145429,E,4,16,1.4,2.5435,M,8.307,M,00,0004*63
$GPHPD,0,0.000,238.61,-1.26,-11.02,31.5890881,120.7752424,2.544,13633179.574,24924414.116,2.544,0.000,0.000,0.000,0.000,0.000,0.000,0.000,16,16,4*76
$GPGGA,074406.80,3135.3452845,N,12046.5145412,E,4,16,1.4,2.5474,M,8.307,M,00,0004*64
$GPHPD,0,0.000,238.66,-1.37,-11.10,31.5890881,120.7752424,2.547,13633179.578,24924414.098,2.547,0.000,0.000,0.000,0.000,0.000,0.000,0.000,16,16,4*79
$GPGGA,074407.00,3135.3452849,N,12046.5145414,E,4,16,1.4,2.5438,M,8.307,M,01,0004*6E
$GPHPD,0,0.000,238.51,-1.27,-11.13,31.5890881,120.7752424,2.544,13633179.573,24924414.098,2.544,0.000,0.000,0.000,0.000,0.000,0.000,0.000,16,16,4*74
$GPGGA,074407.20,3135.3452840,N,12046.5145411,E,4,16,1.4,2.5487,M,8.307,M,01,0004*64
$GPHPD,0,0.000,238.54,-0.96,-11.15,31.5890881,120.7752424,2.549,13633179.585,24924414.100,2.549,0.000,0.000,0.000,0.000,0.000,0.000,0.000,16,16,4*75
$GPGGA,074407.40,3135.3452848,N,12046.5145421,E,4,17,1.4,2.5478,M,8.307,M,01,0004*68
$GPHPD,0,0.000,238.57,-1.57,-11.20,31.5890881,120.7752424,2.548,13633179.576,24924414.107,2.548,0.000,0.000,0.000,0.000,0.000,0.000,0.000,17,17,4*77
$GPGGA,074407.60,3135.3452839,N,12046.5145431,E,4,17,1.4,2.5360,M,8.307,M,00,0004*62
$GPHPD,0,0.000,238.53,-1.26,-11.24,31.5890881,120.7752424,2.536,13633179.590,24924414.125,2.536,0.000,0.000,0.000,0.000,0.000,0.000,0.000,17,17,4*79
$GPGGA,074407.80,3135.3452846,N,12046.5145410,E,4,17,1.4,2.5385,M,8.307,M,00,0004*6C
$GPHPD,0,0.000,238.66,-0.86,-11.27,31.5890881,120.7752424,2.539,13633179.576,24924414.095,2.539,0.000,0.000,0.000,0.000,0.000,0.000,0.000,17,17,4*75
$GPGGA,074408.00,3135.3452845,N,12046.5145410,E,4,17,1.4,2.5381,M,8.307,M,01,0004*6D
$GPHPD,0,0.000,238.53,-0.77,-11.32,31.5890881,120.7752424,2.538,13633179.578,24924414.096,2.538,0.000,0.000,0.000,0.000,0.000,0.000,0.000,17,17,4*74
$GPGGA,074408.20,3135.3452862,N,12046.5145421,E,4,17,1.4,2.5356,M,8.307,M,01,0004*62
$GPHPD,0,0.000,238.53,-1.13,-11.35,31.5890881,120.7752424,2.536,13633179.556,24924414.099,2.536,0.000,0.000,0.000,0.000,0.000,0.000,0.000,17,17,4*73
$GPGGA,074408.40,3135.3452859,N,12046.5145424,E,4,17,1.4,2.5293,M,8.307,M,01,0004*61
$GPHPD,0,0.000,238.66,-1.21,-11.39,31.5890881,120.7752424,2.529,13633179.561,24924414.105,2.529,0.000,0.000,0.000,0.000,0.000,0.000,0.000,17,17,4*78
$GPGGA,074408.60,3135.3452824,N,12046.5145422,E,4,17,1.4,2.5376,M,8.307,M,00,0004*64
$GPHPD,0,0.000,238.65,-0.96,-11.42,31.5890880,120.7752424,2.538,13633179.610,24924414.123,2.538,0.000,0.000,0.000,0.000,0.000,0.000,0.000,17,17,4*7A
$GPGGA,074408.80,3135.3452836,N,12046.5145444,E,4,17,1.4,2.5439,M,8.307,M,00,0004*65
$GPHPD,0,0.000,238.86,-1.11,-11.45,31.5890881,120.7752424,2.544,13633179.597,24924414.142,2.544,0.000,0.000,0.000,0.000,0.000,0.000,0.000,17,17,4*74
$GPGGA,074409.00,3135.3452849,N,12046.5145414,E,4,17,1.4,2.5359,M,8.307,M,01,0004*61
$GPHPD,0,0.000,238.68,-1.23,-11.49,31.5890881,120.7752424,2.536,13633179.573,24924414.098,2.536,0.000,0.000,0.000,0.000,0.000,0.000,0.000,17,17,4*75
$GPGGA,074409.20,3135.3452842,N,12046.5145401,E,4,17,1.4,2.5395,M,8.307,M,01,0004*6C
$GPHPD,0,0.000,238.47,-1.05,-11.52,31.5890881,120.7752423,2.540,13633179.580,24924414.087,2.540,0.000,0.000,0.000,0.000,0.000,0.000,0.000,17,17,4*73
$GPGGA,074409.40,3135.3452848,N,12046.5145416,E,4,17,1.4,2.5388,M,8.307,M,01,0004*6A
$GPHPD,0,0.000,238.57,-1.14,-11.55,31.5890881,120.7752424,2.539,13633179.575,24924414.101,2.539,0.000,0.000,0.000,0.000,0.000,0.000,0.000,17,17,4*77
$GPGGA,074409.60,3135.3452855,N,12046.5145421,E,4,17,1.4,2.5404,M,8.307,M,00,0004*62
$GPHPD,0,0.000,238.48,-0.98,-11.59,31.5890881,120.7752424,2.540,13633179.566,24924414.103,2.540,0.000,0.000,0.000,0.000,0.000,0.000,0.000,17,17,4*70
$GPGGA,074409.80,3135.3452852,N,12046.5145431,E,4,17,1.4,2.5421,M,8.307,M,00,0004*6D
$GPHPD,0,0.000,238.47,-1.17,-11.63,31.5890881,120.7752424,2.542,13633179.572,24924414.117,2.542,0.000,0.000,0.000,0.000,0.000,0.000,0.000,17,17,4*70
$GPGGA,074410.00,3135.3452848,N,12046.5145422,E,4,17,1.3,2.5440,M,8.307,M,01,0004*65
$GPHPD,0,0.000,238.55,-1.21,-11.65,31.5890881,120.7752424,2.544,13633179.576,24924414.109,2.544,0.000,0.000,0.000,0.000,0.000,0.000,0.000,17,17,4*7B
$GPGGA,074410.20,3135.3452860,N,12046.5145422,E,4,17,1.3,2.5420,M,8.307,M,01,0004*6B
$GPHPD,0,0.000,238.49,-1.47,-11.68,31.5890881,120.7752424,2.542,13633179.559,24924414.102,2.542,0.000,0.000,0.000,0.000,0.000,0.000,0.000,17,17,4*7D
$GPGGA,074410.40,3135.3452861,N,12046.5145421,E,4,17,1.3,2.5432,M,8.307,M,01,0004*6C
$GPHPD,0,0.000,238.47,-1.00,-11.72,31.5890881,120.7752424,2.543,13633179.557,24924414.100,2.543,0.000,0.000,0.000,0.000,0.000,0.000,0.000,17,17,4*77
$GPGGA,074410.60,3135.3452859,N,12046.5145417,E,4,17,1.3,2.5406,M,8.307,M,00,0004*66
$GPHPD,0,0.000,238.43,-1.03,-11.74,31.5890881,120.7752424,2.541,13633179.559,24924414.096,2.541,0.000,0.000,0.000,0.000,0.000,0.000,0.000,17,17,4*76
$GPGGA,074410.80,3135.3452855,N,12046.5145415,E,4,17,1.3,2.5405,M,8.307,M,00,0004*65
$GPHPD,0,0.000,238.45,-1.10,-11.77,31.5890881,120.7752424,2.541,13633179.564,24924414.096,2.541,0.000,0.000,0.000,0.000,0.000,0.000,0.000,17,17,4*7F
$GPGGA,074411.00,3135.3452846,N,12046.5145411,E,4,17,1.3,2.5415,M,8.307,M,01,0004*6A
$GPHPD,0,0.000,238.48,-1.27,-11.79,31.5890881,120.7752424,2.542,13633179.576,24924414.097,2.542,0.000,0.000,0.000,0.000,0.000,0.000,0.000,17,17,4*7A
$GPGGA,074411.20,3135.3452847,N,12046.5145408,E,4,17,1.3,2.5407,M,8.307,M,01,0004*62
$GPHPD,0,0.000,238.46,-1.04,-11.80,31.5890881,120.7752423,2.541,13633179.574,24924414.092,2.541,0.000,0.000,0.000,0.000,0.000,0.000,0.000,17,17,4*73
$GPGGA,074411.40,3135.3452848,N,12046.5145411,E,4,17,1.3,2.5384,M,8.307,M,01,0004*6F
$GPHPD,0,0.000,238.43,-1.10,-11.82,31.5890881,120.7752424,2.538,13633179.574,24924414.095,2.538,0.000,0.000,0.000,0.000,0.000,0.000,0.000,17,17,4*71
$GPGGA,074411.60,3135.3452841,N,12046.5145414,E,4,17,1.3,2.5390,M,8.307,M,00,0004*65
$GPHPD,0,0.000,238.40,-0.80,-11.84,31.5890881,120.7752424,2.539,13633179.584,24924414.103,2.539,0.000,0.000,0.000,0.000,0.000,0.000,0.000,17,17,4*7D
$GPGGA,074411.80,3135.3452837,N,12046.5145428,E,4,17,1.3,2.5460,M,8.307,M,00,0004*6D
$GPHPD,0,0.000,238.60,-0.78,-11.86,31.5890881,120.7752424,2.546,13633179.593,24924414.122,2.546,0.000,0.000,0.000,0.000,0.000,0.000,0.000,17,17,4*7F
$GPGGA,074412.00,3135.3452848,N,12046.5145413,E,4,17,1.3,2.5446,M,8.307,M,01,0004*63
$GPHPD,0,0.000,238.60,-1.34,-11.88,31.5890881,120.7752424,2.545,13633179.574,24924414.098,2.545,0.000,0.000,0.000,0.000,0.000,0.000,0.000,17,17,4*71
$GPGGA,074412.20,3135.3452848,N,12046.5145427,E,4,17,1.3,2.5428,M,8.307,M,01,0004*6E
$GPHPD,0,0.000,238.44,-1.16,-11.89,31.5890881,120.7752424,2.543,13633179.577,24924414.115,2.543,0.000,0.000,0.000,0.000,0.000,0.000,0.000,17,17,4*71
$GPGGA,074412.40,3135.3452848,N,12046.5145424,E,4,17,1.3,2.5407,M,8.307,M,01,0004*66
$GPHPD,0,0.000,238.50,-1.30,-11.91,31.5890881,120.7752424,2.541,13633179.576,24924414.111,2.541,0.000,0.000,0.000,0.000,0.000,0.000,0.000,17,17,4*7C
$GPGGA,074412.60,3135.3452850,N,12046.5145418,E,4,17,1.3,2.5442,M,8.307,M,00,0004*62
$GPHPD,0,0.000,238.52,-1.33,-11.94,31.5890881,120.7752424,2.544,13633179.572,24924414.103,2.544,0.000,0.000,0.000,0.000,0.000,0.000,0.000,17,17,4*7F
$GPGGA,074412.80,3135.3452832,N,12046.5145409,E,4,17,1.3,2.5488,M,8.307,M,00,0004*6E
$GPHPD,0,0.000,238.54,-1.27,-11.97,31.5890881,120.7752423,2.549,13633179.596,24924414.102,2.549,0.000,0.000,0.000,0.000,0.000,0.000,0.000,17,17,4*73
$GPGGA,074413.00,3135.3452832,N,12046.5145393,E,4,17,1.3,2.5441,M,8.307,M,01,0004*67
$GPHPD,0,0.000,238.57,-1.33,-12.00,31.5890881,120.7752423,2.544,13633179.593,24924414.083,2.544,0.000,0.000,0.000,0.000,0.000,0.000,0.000,17,17,4*75
$GPGGA,074413.20,3135.3452829,N,12046.5145390,E,4,17,1.3,2.5462,M,8.307,M,01,0004*6D
$GPHPD,0,0.000,238.45,-1.10,-12.03,31.5890880,120.7752423,2.546,13633179.596,24924414.081,2.546,0.000,0.000,0.000,0.000,0.000,0.000,0.000,17,17,4*72
$GPGGA,074413.40,3135.3452820,N,12046.5145344,E,4,17,1.3,2.5421,M,8.307,M,01,0004*6C
$GPHPD,0,0.000,238.48,-1.31,-12.08,31.5890880,120.7752422,2.542,13633179.600,24924414.031,2.542,0.000,0.000,0.000,0.000,0.000,0.000,0.000,17,17,4*71
$GPGGA,074413.60,3135.3452777,N,12046.5145304,E,4,17,1.3,2.5457,M,8.307,M,00,0004*67
$GPHPD,0,0.000,238.62,-1.11,-12.16,31.5890880,120.7752422,2.546,13633179.653,24924414.008,2.546,0.000,0.000,0.000,0.000,0.000,0.000,0.000,17,17,4*78
