$GPGGA,073837.20,3135.4335611,N,12046.4282226,E,4,17,1.4,2.3930,M,8.301,M,01,0004*6C
$GPHPD,0,0.000,54.09,0.18,-11.97,31.5905594,120.7738037,2.393,13631751.105,24922859.569,2.393,0.000,0.000,0.000,0.000,0.000,0.000,0.000,17,17,4*60
$GPGGA,073837.40,3135.4334964,N,12046.4281156,E,4,17,1.4,2.4013,M,8.300,M,01,0004*6F
$GPHPD,0,0.000,54.23,0.41,-11.99,31.5905583,120.7738019,2.401,13631751.809,24922858.655,2.401,0.000,0.000,0.000,0.000,0.000,0.000,0.000,17,17,4*68
$GPGGA,073837.60,3135.4334284,N,12046.4280081,E,4,17,1.4,2.3964,M,8.300,M,00,0004*6D
$GPHPD,0,0.000,54.17,-0.17,-12.06,31.5905571,120.7738001,2.396,13631752.559,24922857.754,2.396,0.000,0.000,0.000,0.000,0.000,0.000,0.000,17,17,4*44
$GPGGA,073837.80,3135.4333654,N,12046.4278999,E,4,17,1.4,2.3918,M,8.300,M,00,0004*61
$GPHPD,0,0.000,54.54,-0.01,-12.12,31.5905561,120.7737983,2.392,13631753.236,24922856.816,2.392,0.000,0.000,0.000,0.000,0.000,0.000,0.000,17,17,4*4B
$GPGGA,073838.00,3135.4333016,N,12046.4277933,E,4,17,1.4,2.3871,M,8.300,M,01,0004*66
$GPHPD,0,0.000,54.70,0.15,-12.24,31.5905550,120.7737966,2.387,13631753.929,24922855.902,2.387,0.000,0.000,0.000,0.000,0.000,0.000,0.000,17,17,4*6B
$GPGGA,073838.20,3135.4332454,N,12046.4276944,E,4,17,1.4,2.3856,M,8.300,M,01,0004*63
$GPHPD,0,0.000,54.48,0.27,-12.41,31.5905541,120.7737949,2.386,13631754.528,24922855.037,2.386,0.000,0.000,0.000,0.000,0.000,0.000,0.000,17,17,4*6A
$GPGGA,073838.40,3135.4331934,N,12046.4276071,E,4,17,1.4,2.3837,M,8.300,M,01,0004*65
$GPHPD,0,0.000,54.71,0.33,-12.61,31.5905532,120.7737935,2.384,13631755.092,24922854.287,2.384,0.000,0.000,0.000,0.000,0.000,0.000,0.000,17,17,4*65
$GPGGA,073838.60,3135.4331488,N,12046.4275359,E,4,17,1.4,2.3841,M,8.300,M,00,0004*67
$GPHPD,0,0.000,54.86,0.54,-12.79,31.5905525,120.7737923,2.384,13631755.582,24922853.688,2.384,0.000,0.000,0.000,0.000,0.000,0.000,0.000,17,17,4*6C
$GPGGA,073838.80,3135.4331162,N,12046.4274776,E,4,17,1.4,2.3841,M,8.300,M,00,0004*60
$GPHPD,0,0.000,54.49,0.36,-12.97,31.5905519,120.7737913,2.384,13631755.928,24922853.175,2.384,0.000,0.000,0.000,0.000,0.000,0.000,0.000,17,17,4*6E
$GPGGA,073839.00,3135.4330903,N,12046.4274365,E,4,17,1.4,2.3835,M,8.300,M,01,0004*63
$GPHPD,0,0.000,54.78,0.45,-13.16,31.5905515,120.7737906,2.384,13631756.213,24922852.830,2.384,0.000,0.000,0.000,0.000,0.000,0.000,0.000,17,17,4*61
$GPGGA,073839.20,3135.4330743,N,12046.4274078,E,4,17,1.4,2.3835,M,8.300,M,01,0004*64
$GPHPD,0,0.000,54.70,0.29,-13.29,31.5905512,120.7737901,2.384,13631756.383,24922852.577,2.384,0.000,0.000,0.000,0.000,0.000,0.000,0.000,17,17,4*69
$GPGGA,073839.40,3135.4330644,N,12046.4273916,E,4,17,1.4,2.3805,M,8.300,M,01,0004*61
$GPHPD,0,0.000,54.73,0.40,-13.41,31.5905511,120.7737899,2.381,13631756.491,24922852.439,2.381,0.000,0.000,0.000,0.000,0.000,0.000,0.000,17,17,4*67
$GPGGA,073839.60,3135.4330615,N,12046.4273865,E,4,17,1.4,2.3822,M,8.300,M,00,0004*66
$GPHPD,0,0.000,54.84,0.62,-13.52,31.5905510,120.7737898,2.382,13631756.522,24922852.394,2.382,0.000,0.000,0.000,0.000,0.000,0.000,0.000,17,17,4*64
$GPGGA,073839.80,3135.4330629,N,12046.4273889,E,4,17,1.4,2.3868,M,8.300,M,00,0004*6B
$GPHPD,0,0.000,54.74,0.36,-13.53,31.5905510,120.7737898,2.387,13631756.507,24922852.415,2.387,0.000,0.000,0.000,0.000,0.000,0.000,0.000,17,17,4*62
$GPGGA,073840.00,3135.4330617,N,12046.4273877,E,4,17,1.4,2.3837,M,8.300,M,01,0004*6A
$GPHPD,0,0.000,54.72,0.03,-13.49,31.5905510,120.7737898,2.384,13631756.522,24922852.408,2.384,0.000,0.000,0.000,0.000,0.000,0.000,0.000,17,17,4*62
$GPGGA,073840.20,3135.4330637,N,12046.4273903,E,4,17,1.4,2.3825,M,8.300,M,01,0004*6B
$GPHPD,0,0.000,54.74,0.52,-13.48,31.5905511,120.7737898,2.383,13631756.498,24922852.427,2.383,0.000,0.000,0.000,0.000,0.000,0.000,0.000,17,17,4*6D
$GPGGA,073840.40,3135.4330652,N,12046.4273904,E,4,17,1.4,2.3888,M,8.300,M,01,0004*6E
$GPHPD,0,0.000,54.83,0.45,-13.48,31.5905511,120.7737898,2.389,13631756.477,24922852.420,2.389,0.000,0.000,0.000,0.000,0.000,0.000,0.000,17,17,4*65
$GPGGA,073840.60,3135.4330647,N,12046.4273934,E,4,17,1.4,2.3898,M,8.300,M,00,0004*6B
$GPHPD,0,0.000,54.81,0.14,-13.48,31.5905511,120.7737899,2.390,13631756.490,24922852.459,2.390,0.000,0.000,0.000,0.000,0.000,0.000,0.000,17,17,4*65
$GPGGA,073840.80,3135.4330695,N,12046.4273974,E,4,17,1.4,2.3823,M,8.300,M,00,0004*6E
$GPHPD,0,0.000,54.71,0.10,-13.49,31.5905512,120.7737900,2.382,13631756.430,24922852.479,2.382,0.000,0.000,0.000,0.000,0.000,0.000,0.000,17,17,4*65
$GPGGA,073841.00,3135.4330729,N,12046.4274019,E,4,17,1.4,2.3836,M,8.300,M,01,0004*61
$GPHPD,0,0.000,54.75,0.22,-13.52,31.5905512,120.7737900,2.384,13631756.391,24922852.514,2.384,0.000,0.000,0.000,0.000,0.000,0.000,0.000,17,17,4*6C
$GPGGA,073841.20,3135.4330816,N,12046.4274195,E,4,17,1.4,2.3864,M,8.300,M,01,0004*62
$GPHPD,0,0.000,54.71,0.14,-13.55,31.5905514,120.7737903,2.386,13631756.303,24922852.675,2.386,0.000,0.000,0.000,0.000,0.000,0.000,0.000,17,17,4*60
$GPGGA,073841.40,3135.4330915,N,12046.4274379,E,4,17,1.4,2.3852,M,8.300,M,01,0004*63
$GPHPD,0,0.000,54.72,0.40,-13.59,31.5905515,120.7737906,2.385,13631756.199,24922852.840,2.385,0.000,0.000,0.000,0.000,0.000,0.000,0.000,17,17,4*63
$GPGGA,073841.60,3135.4331063,N,12046.4274617,E,4,17,1.4,2.3824,M,8.300,M,00,0004*65
$GPHPD,0,0.000,54.69,0.19,-13.65,31.5905518,120.7737910,2.382,13631756.037,24922853.040,2.382,0.000,0.000,0.000,0.000,0.000,0.000,0.000,17,17,4*6C
$GPGGA,073841.80,3135.4331257,N,12046.4274965,E,4,17,1.4,2.3868,M,8.300,M,00,0004*6C
$GPHPD,0,0.000,54.76,0.39,-13.72,31.5905521,120.7737916,2.387,13631755.831,24922853.347,2.387,0.000,0.000,0.000,0.000,0.000,0.000,0.000,17,17,4*63
$GPGGA,073842.00,3135.4331482,N,12046.4275362,E,4,17,1.4,2.3806,M,8.300,M,01,0004*6C
$GPHPD,0,0.000,54.93,0.64,-13.79,31.5905525,120.7737923,2.381,13631755.591,24922853.695,2.381,0.000,0.000,0.000,0.000,0.000,0.000,0.000,17,17,4*64
$GPGGA,073842.20,3135.4331789,N,12046.4275848,E,4,17,1.4,2.3837,M,8.300,M,01,0004*67
$GPHPD,0,0.000,54.77,0.50,-13.84,31.5905530,120.7737931,2.384,13631755.253,24922854.102,2.384,0.000,0.000,0.000,0.000,0.000,0.000,0.000,17,17,4*6B
$GPGGA,073842.40,3135.4332121,N,12046.4276448,E,4,17,1.4,2.3859,M,8.300,M,01,0004*61
$GPHPD,0,0.000,55.08,0.56,-13.91,31.5905535,120.7737941,2.386,13631754.902,24922854.633,2.386,0.000,0.000,0.000,0.000,0.000,0.000,0.000,17,17,4*69
$GPGGA,073842.60,3135.4332517,N,12046.4277118,E,4,17,1.4,2.3848,M,8.300,M,00,0004*62
$GPHPD,0,0.000,54.97,0.45,-13.99,31.5905542,120.7737952,2.385,13631754.474,24922855.210,2.385,0.000,0.000,0.000,0.000,0.000,0.000,0.000,17,17,4*6E
$GPGGA,073842.80,3135.4332943,N,12046.4277860,E,4,17,1.4,2.3818,M,8.300,M,00,0004*62
$GPHPD,0,0.000,55.07,0.17,-14.07,31.5905549,120.7737964,2.382,13631754.018,24922855.857,2.382,0.000,0.000,0.000,0.000,0.000,0.000,0.000,17,17,4*68
$GPGGA,073843.00,3135.4333436,N,12046.4278737,E,4,17,1.4,2.3815,M,8.300,M,01,0004*6B
$GPHPD,0,0.000,55.03,0.39,-14.12,31.5905557,120.7737979,2.382,13631753.493,24922856.627,2.382,0.000,0.000,0.000,0.000,0.000,0.000,0.000,17,17,4*6D
$GPGGA,073843.20,3135.4333997,N,12046.4279700,E,4,17,1.4,2.3887,M,8.300,M,01,0004*61
$GPHPD,0,0.000,55.26,0.60,-14.15,31.5905567,120.7737995,2.389,13631752.890,24922857.462,2.389,0.000,0.000,0.000,0.000,0.000,0.000,0.000,17,17,4*6C
$GPGGA,073843.40,3135.4334619,N,12046.4280743,E,4,17,1.4,2.3844,M,8.300,M,01,0004*67
$GPHPD,0,0.000,55.13,0.17,-14.16,31.5905577,120.7738012,2.384,13631752.216,24922858.358,2.384,0.000,0.000,0.000,0.000,0.000,0.000,0.000,17,17,4*64
$GPGGA,073843.60,3135.4335232,N,12046.4281874,E,4,17,1.4,2.3897,M,8.300,M,00,0004*6C
$GPHPD,0,0.000,55.57,0.40,-14.15,31.5905587,120.7738031,2.390,13631751.572,24922859.365,2.390,0.000,0.000,0.000,0.000,0.000,0.000,0.000,17,17,4*62
$GPGGA,073843.80,3135.4335890,N,12046.4283047,E,4,17,1.4,2.3964,M,8.301,M,00,0004*66
$GPHPD,0,0.000,55.48,0.64,-14.16,31.5905598,120.7738051,2.396,13631750.873,24922860.396,2.396,0.000,0.000,0.000,0.000,0.000,0.000,0.000,17,17,4*6A
$GPGGA,073844.00,3135.4336586,N,12046.4284222,E,4,17,1.4,2.3986,M,8.301,M,01,0004*6B
$GPHPD,0,0.000,55.42,0.28,-14.12,31.5905610,120.7738070,2.399,13631750.121,24922861.408,2.399,0.000,0.000,0.000,0.000,0.000,0.000,0.000,17,17,4*63
$GPGGA,073844.20,3135.4337246,N,12046.4285436,E,4,17,1.4,2.3866,M,8.301,M,01,0004*6E
$GPHPD,0,0.000,55.63,0.30,-14.06,31.5905621,120.7738091,2.387,13631749.427,24922862.488,2.387,0.000,0.000,0.000,0.000,0.000,0.000,0.000,17,17,4*61
$GPGGA,073844.40,3135.4337958,N,12046.4286628,E,4,17,1.4,2.3916,M,8.301,M,01,0004*64
$GPHPD,0,0.000,55.76,0.34,-13.97,31.5905633,120.7738110,2.392,13631748.655,24922863.511,2.392,0.000,0.000,0.000,0.000,0.000,0.000,0.000,17,17,4*63
$GPGGA,073844.60,3135.4338595,N,12046.4287800,E,4,17,1.4,2.3940,M,8.301,M,00,0004*63
$GPHPD,0,0.000,55.62,0.35,-13.90,31.5905643,120.7738130,2.394,13631747.986,24922864.553,2.394,0.000,0.000,0.000,0.000,0.000,0.000,0.000,17,17,4*6A
$GPGGA,073844.80,3135.4339200,N,12046.4288980,E,4,17,1.4,2.3940,M,8.301,M,00,0004*61
$GPHPD,0,0.000,56.14,0.53,-13.86,31.5905653,120.7738150,2.394,13631747.363,24922865.624,2.394,0.000,0.000,0.000,0.000,0.000,0.000,0.000,17,17,4*6B
$GPGGA,073845.00,3135.4339869,N,12046.4290106,E,4,17,1.4,2.3946,M,8.301,M,01,0004*65
$GPHPD,0,0.000,55.94,0.68,-13.81,31.5905664,120.7738168,2.395,13631746.639,24922866.592,2.395,0.000,0.000,0.000,0.000,0.000,0.000,0.000,17,17,4*66
$GPGGA,073845.20,3135.4340489,N,12046.4291232,E,4,17,1.4,2.3976,M,8.301,M,01,0004*6D
$GPHPD,0,0.000,56.34,0.43,-13.74,31.5905675,120.7738187,2.398,13631745.985,24922867.589,2.398,0.000,0.000,0.000,0.000,0.000,0.000,0.000,17,17,4*6D
$GPGGA,073845.40,3135.4341081,N,12046.4292333,E,4,17,1.4,2.4010,M,8.301,M,01,0004*6B
$GPHPD,0,0.000,56.40,0.34,-13.66,31.5905685,120.7738206,2.401,13631745.365,24922868.572,2.401,0.000,0.000,0.000,0.000,0.000,0.000,0.000,17,17,4*67
$GPGGA,073845.60,3135.4341705,N,12046.4293417,E,4,17,1.4,2.3969,M,8.301,M,00,0004*63
$GPHPD,0,0.000,56.53,0.24,-13.60,31.5905695,120.7738224,2.397,13631744.696,24922869.516,2.397,0.000,0.000,0.000,0.000,0.000,0.000,0.000,17,17,4*68
$GPGGA,073845.80,3135.4342280,N,12046.4294526,E,4,17,1.4,2.3940,M,8.301,M,00,0004*69
$GPHPD,0,0.000,56.71,0.54,-13.57,31.5905705,120.7738242,2.394,13631744.102,24922870.519,2.394,0.000,0.000,0.000,0.000,0.000,0.000,0.000,17,17,4*6E
$GPGGA,073846.00,3135.4342850,N,12046.4295594,E,4,17,1.4,2.4001,M,8.301,M,01,0004*67
$GPHPD,0,0.000,57.08,0.57,-13.55,31.5905714,120.7738260,2.400,13631743.507,24922871.475,2.400,0.000,0.000,0.000,0.000,0.000,0.000,0.000,17,17,4*6C
$GPGGA,073846.20,3135.4343438,N,12046.4296689,E,4,17,1.4,2.3943,M,8.301,M,01,0004*62
$GPHPD,0,0.000,57.21,0.45,-13.53,31.5905724,120.7738278,2.394,13631742.892,24922872.453,2.394,0.000,0.000,0.000,0.000,0.000,0.000,0.000,17,17,4*6F
$GPGGA,073846.40,3135.4343982,N,12046.4297784,E,4,17,1.4,2.4091,M,8.301,M,01,0004*64
$GPHPD,0,0.000,57.78,0.46,-13.49,31.5905733,120.7738296,2.409,13631742.339,24922873.457,2.409,0.000,0.000,0.000,0.000,0.000,0.000,0.000,17,17,4*62
$GPGGA,073846.60,3135.4344566,N,12046.4298906,E,4,17,1.4,2.4062,M,8.301,M,00,0004*61
$GPHPD,0,0.000,57.86,0.26,-13.50,31.5905743,120.7738315,2.406,13631741.735,24922874.470,2.406,0.000,0.000,0.000,0.000,0.000,0.000,0.000,17,17,4*69
$GPGGA,073846.80,3135.4345153,N,12046.4300023,E,4,17,1.4,2.4037,M,8.301,M,00,0004*62
$GPHPD,0,0.000,57.71,0.44,-13.53,31.5905753,120.7738334,2.404,13631741.125,24922875.475,2.404,0.000,0.000,0.000,0.000,0.000,0.000,0.000,17,17,4*67
$GPGGA,073847.00,3135.4345753,N,12046.4301148,E,4,17,1.4,2.3961,M,8.301,M,01,0004*6C
$GPHPD,0,0.000,57.91,-0.12,-13.58,31.5905763,120.7738352,2.396,13631740.499,24922876.483,2.396,0.000,0.000,0.000,0.000,0.000,0.000,0.000,17,17,4*46
$GPGGA,073847.20,3135.4346352,N,12046.4302345,E,4,17,1.4,2.4043,M,8.301,M,01,0004*6A
$GPHPD,0,0.000,58.48,0.85,-13.60,31.5905773,120.7738372,2.404,13631739.889,24922877.577,2.404,0.000,0.000,0.000,0.000,0.000,0.000,0.000,17,17,4*6E
$GPGGA,073847.40,3135.4346989,N,12046.4303573,E,4,17,1.4,2.4041,M,8.301,M,01,0004*60
$GPHPD,0,0.000,58.40,0.29,-13.62,31.5905783,120.7738393,2.404,13631739.231,24922878.688,2.404,0.000,0.000,0.000,0.000,0.000,0.000,0.000,17,17,4*67
$GPGGA,073847.60,3135.4347638,N,12046.4304837,E,4,17,1.4,2.4015,M,8.301,M,00,0004*6C
$GPHPD,0,0.000,58.56,0.44,-13.64,31.5905794,120.7738414,2.402,13631738.563,24922879.834,2.402,0.000,0.000,0.000,0.000,0.000,0.000,0.000,17,17,4*6A
$GPGGA,073847.80,3135.4348278,N,12046.4306105,E,4,17,1.4,2.4089,M,8.301,M,00,0004*62
$GPHPD,0,0.000,58.32,0.51,-13.68,31.5905805,120.7738435,2.409,13631737.908,24922880.990,2.409,0.000,0.000,0.000,0.000,0.000,0.000,0.000,17,17,4*63
$GPGGA,073848.00,3135.4348984,N,12046.4307440,E,4,17,1.4,2.4153,M,8.301,M,01,0004*6F
$GPHPD,0,0.000,58.35,0.04,-13.73,31.5905816,120.7738457,2.415,13631737.174,24922882.189,2.415,0.000,0.000,0.000,0.000,0.000,0.000,0.000,17,17,4*69
$GPGGA,073848.20,3135.4349678,N,12046.4308781,E,4,17,1.4,2.3983,M,8.301,M,01,0004*63
$GPHPD,0,0.000,58.69,0.25,-13.80,31.5905828,120.7738480,2.398,13631736.457,24922883.402,2.398,0.000,0.000,0.000,0.000,0.000,0.000,0.000,17,17,4*6A
$GPGGA,073848.40,3135.4350358,N,12046.4310195,E,4,17,1.4,2.4139,M,8.301,M,01,0004*6E
$GPHPD,0,0.000,58.64,0.95,-13.87,31.5905839,120.7738503,2.414,13631735.775,24922884.712,2.414,0.000,0.000,0.000,0.000,0.000,0.000,0.000,17,17,4*64
$GPGGA,073848.60,3135.4351080,N,12046.4311602,E,4,17,1.4,2.3992,M,8.301,M,00,0004*6C
$GPHPD,0,0.000,58.27,0.35,-13.92,31.5905851,120.7738527,2.399,13631735.033,24922885.988,2.399,0.000,0.000,0.000,0.000,0.000,0.000,0.000,17,17,4*6C
$GPGGA,073848.80,3135.4351785,N,12046.4313008,E,4,17,1.4,2.4093,M,8.301,M,00,0004*61
$GPHPD,0,0.000,58.47,1.46,-13.96,31.5905863,120.7738550,2.409,13631734.314,24922887.273,2.409,0.000,0.000,0.000,0.000,0.000,0.000,0.000,17,17,4*60
$GPGGA,073849.00,3135.4352520,N,12046.4314436,E,4,17,1.4,2.3976,M,8.301,M,01,0004*6C
$GPHPD,0,0.000,58.34,0.86,-13.96,31.5905875,120.7738574,2.398,13631733.556,24922888.567,2.398,0.000,0.000,0.000,0.000,0.000,0.000,0.000,17,17,4*62
$GPGGA,073849.20,3135.4353232,N,12046.4315866,E,4,17,1.4,2.4027,M,8.301,M,01,0004*69
$GPHPD,0,0.000,58.55,1.38,-13.92,31.5905887,120.7738598,2.403,13631732.832,24922889.877,2.403,0.000,0.000,0.000,0.000,0.000,0.000,0.000,17,17,4*69
$GPGGA,073849.40,3135.4353916,N,12046.4317246,E,4,17,1.4,2.4109,M,8.301,M,01,0004*65
$GPHPD,0,0.000,58.46,1.74,-13.89,31.5905899,120.7738621,2.411,13631732.138,24922891.143,2.411,0.000,0.000,0.000,0.000,0.000,0.000,0.000,17,17,4*63
$GPGGA,073849.60,3135.4354632,N,12046.4318636,E,4,17,1.4,2.3944,M,8.301,M,00,0004*62
$GPHPD,0,0.000,58.85,0.54,-13.84,31.5905911,120.7738644,2.394,13631731.400,24922892.403,2.394,0.000,0.000,0.000,0.000,0.000,0.000,0.000,17,17,4*6F
$GPGGA,073849.80,3135.4355321,N,12046.4320039,E,4,17,1.4,2.4109,M,8.301,M,00,0004*6E
$GPHPD,0,0.000,59.46,0.65,-13.84,31.5905922,120.7738667,2.411,13631730.703,24922893.693,2.411,0.000,0.000,0.000,0.000,0.000,0.000,0.000,17,17,4*69
$GPGGA,073850.00,3135.4355988,N,12046.4321449,E,4,17,1.4,2.4097,M,8.301,M,01,0004*62
$GPHPD,0,0.000,59.85,0.00,-13.81,31.5905933,120.7738691,2.410,13631730.039,24922895.005,2.410,0.000,0.000,0.000,0.000,0.000,0.000,0.000,17,17,4*68
$GPGGA,073850.20,3135.4356656,N,12046.4322841,E,4,17,1.4,2.4136,M,8.301,M,01,0004*62
$GPHPD,0,0.000,59.77,-0.11,-13.78,31.5905944,120.7738714,2.414,13631729.370,24922896.295,2.414,0.000,0.000,0.000,0.000,0.000,0.000,0.000,17,17,4*4C
$GPGGA,073850.40,3135.4357333,N,12046.4324230,E,4,17,1.4,2.4102,M,8.301,M,01,0004*6E
$GPHPD,0,0.000,59.92,-0.47,-13.72,31.5905956,120.7738737,2.410,13631728.687,24922897.576,2.410,0.000,0.000,0.000,0.000,0.000,0.000,0.000,17,17,4*4B
$GPGGA,073850.60,3135.4357972,N,12046.4325684,E,4,17,1.4,2.4099,M,8.301,M,00,0004*6B
$GPHPD,0,0.000,60.07,-0.71,-13.66,31.5905966,120.7738761,2.410,13631728.072,24922898.957,2.410,0.000,0.000,0.000,0.000,0.000,0.000,0.000,17,17,4*41
$GPGGA,073850.80,3135.4358630,N,12046.4327077,E,4,17,1.4,2.4137,M,8.301,M,00,0004*6E
$GPHPD,0,0.000,60.25,-0.20,-13.59,31.5905977,120.7738785,2.414,13631727.417,24922900.254,2.414,0.000,0.000,0.000,0.000,0.000,0.000,0.000,17,17,4*43
$GPGGA,073851.00,3135.4359299,N,12046.4328504,E,4,17,1.4,2.4111,M,8.301,M,01,0004*6A
$GPHPD,0,0.000,60.38,-0.24,-13.51,31.5905988,120.7738808,2.411,13631726.754,24922901.585,2.411,0.000,0.000,0.000,0.000,0.000,0.000,0.000,17,17,4*46
$GPGGA,073851.20,3135.4359976,N,12046.4329940,E,4,17,1.4,2.4201,M,8.301,M,01,0004*6D
$GPHPD,0,0.000,60.42,0.36,-13.47,31.5906000,120.7738832,2.420,13631726.080,24922902.923,2.420,0.000,0.000,0.000,0.000,0.000,0.000,0.000,17,17,4*6C
$GPGGA,073851.40,3135.4360635,N,12046.4331377,E,4,17,1.4,2.4193,M,8.301,M,01,0004*66
$GPHPD,0,0.000,60.52,0.12,-13.46,31.5906011,120.7738856,2.419,13631725.433,24922904.272,2.419,0.000,0.000,0.000,0.000,0.000,0.000,0.000,17,17,4*6E
$GPGGA,073851.60,3135.4361321,N,12046.4332819,E,4,17,1.4,2.4123,M,8.301,M,00,0004*6F
$GPHPD,0,0.000,60.62,-0.16,-13.48,31.5906022,120.7738880,2.412,13631724.748,24922905.612,2.412,0.000,0.000,0.000,0.000,0.000,0.000,0.000,17,16,4*4D
$GPGGA,073851.80,3135.4362002,N,12046.4334269,E,4,17,1.4,2.4254,M,8.301,M,00,0004*68
$GPHPD,0,0.000,60.42,-0.26,-13.49,31.5906033,120.7738904,2.425,13631724.072,24922906.964,2.425,0.000,0.000,0.000,0.000,0.000,0.000,0.000,17,16,4*43
$GPGGA,073852.00,3135.4362694,N,12046.4335708,E,4,17,1.4,2.4215,M,8.301,M,01,0004*6D
$GPHPD,0,0.000,60.29,-0.23,-13.47,31.5906045,120.7738928,2.422,13631723.379,24922908.296,2.422,0.000,0.000,0.000,0.000,0.000,0.000,0.000,17,16,4*4D
$GPGGA,073852.20,3135.4363406,N,12046.4337214,E,4,17,1.4,2.4271,M,8.301,M,01,0004*6F
$GPHPD,0,0.000,60.26,-0.30,-13.46,31.5906057,120.7738954,2.427,13631722.670,24922909.698,2.427,0.000,0.000,0.000,0.000,0.000,0.000,0.000,17,16,4*4F
$GPGGA,073852.40,3135.4364118,N,12046.4338706,E,4,16,1.4,2.4288,M,8.301,M,01,0004*6A
$GPHPD,0,0.000,60.26,-0.64,-13.46,31.5906069,120.7738978,2.429,13631721.958,24922911.083,2.429,0.000,0.000,0.000,0.000,0.000,0.000,0.000,16,16,4*4F
$GPGGA,073852.60,3135.4364833,N,12046.4340212,E,4,17,1.4,2.4313,M,8.301,M,00,0004*64
$GPHPD,0,0.000,59.88,-0.16,-13.46,31.5906081,120.7739004,2.431,13631721.245,24922912.482,2.431,0.000,0.000,0.000,0.000,0.000,0.000,0.000,17,16,4*41
$GPGGA,073852.80,3135.4365565,N,12046.4341723,E,4,17,1.4,2.4269,M,8.301,M,00,0004*6F
$GPHPD,0,0.000,59.87,-0.21,-13.44,31.5906093,120.7739029,2.427,13631720.509,24922913.878,2.427,0.000,0.000,0.000,0.000,0.000,0.000,0.000,17,16,4*42
$GPGGA,073853.00,3135.4366329,N,12046.4343231,E,4,17,1.4,2.4291,M,8.301,M,01,0004*69
$GPHPD,0,0.000,59.89,-0.18,-13.43,31.5906105,120.7739054,2.429,13631719.727,24922915.252,2.429,0.000,0.000,0.000,0.000,0.000,0.000,0.000,17,16,4*45
$GPGGA,073853.20,3135.4367065,N,12046.4344783,E,4,17,1.4,2.4269,M,8.301,M,01,0004*6D
$GPHPD,0,0.000,59.51,-0.38,-13.42,31.5906118,120.7739080,2.427,13631718.993,24922916.695,2.427,0.000,0.000,0.000,0.000,0.000,0.000,0.000,17,16,4*4A
$GPGGA,073853.40,3135.4367834,N,12046.4346351,E,4,17,1.4,2.4422,M,8.301,M,01,0004*67
$GPHPD,0,0.000,59.39,-0.08,-13.41,31.5906131,120.7739106,2.442,13631718.216,24922918.138,2.442,0.000,0.000,0.000,0.000,0.000,0.000,0.000,17,16,4*48
$GPGGA,073853.60,3135.4368585,N,12046.4347872,E,4,17,1.4,2.4359,M,8.301,M,00,0004*6C
$GPHPD,0,0.000,59.28,-0.20,-13.37,31.5906143,120.7739131,2.436,13631717.455,24922919.535,2.436,0.000,0.000,0.000,0.000,0.000,0.000,0.000,17,16,4*44
$GPGGA,073853.80,3135.4369360,N,12046.4349402,E,4,17,1.4,2.4308,M,8.301,M,00,0004*6F
$GPHPD,0,0.000,59.08,0.14,-13.35,31.5906156,120.7739157,2.431,13631716.661,24922920.929,2.431,0.000,0.000,0.000,0.000,0.000,0.000,0.000,17,16,4*65
$GPGGA,073854.00,3135.4370116,N,12046.4350898,E,4,17,1.4,2.4378,M,8.301,M,01,0004*6A
$GPHPD,0,0.000,58.98,0.07,-13.39,31.5906169,120.7739182,2.438,13631715.888,24922922.293,2.438,0.000,0.000,0.000,0.000,0.000,0.000,0.000,17,16,4*65
$GPGGA,073854.20,3135.4370911,N,12046.4352446,E,4,17,1.4,2.4428,M,8.301,M,01,0004*68
$GPHPD,0,0.000,58.82,0.54,-13.37,31.5906182,120.7739207,2.443,13631715.069,24922923.697,2.443,0.000,0.000,0.000,0.000,0.000,0.000,0.000,17,16,4*6B
$GPGGA,073854.40,3135.4371676,N,12046.4353953,E,4,17,1.4,2.4450,M,8.301,M,01,0004*66
$GPHPD,0,0.000,58.48,0.15,-13.36,31.5906195,120.7739233,2.445,13631714.286,24922925.069,2.445,0.000,0.000,0.000,0.000,0.000,0.000,0.000,17,16,4*6B
$GPGGA,073854.60,3135.4372471,N,12046.4355449,E,4,17,1.4,2.4465,M,8.301,M,00,0004*65
$GPHPD,0,0.000,58.66,0.02,-13.35,31.5906208,120.7739257,2.447,13631713.457,24922926.410,2.447,0.000,0.000,0.000,0.000,0.000,0.000,0.000,17,16,4*63
$GPGGA,073854.80,3135.4373238,N,12046.4356964,E,4,17,1.4,2.4495,M,8.301,M,00,0004*6F
$GPHPD,0,0.000,58.88,0.13,-13.37,31.5906221,120.7739283,2.450,13631712.672,24922927.791,2.450,0.000,0.000,0.000,0.000,0.000,0.000,0.000,17,17,4*6D
$GPGGA,073855.00,3135.4373987,N,12046.4358488,E,4,17,1.4,2.4468,M,8.301,M,01,0004*6B
$GPHPD,0,0.000,58.64,-0.28,-13.39,31.5906233,120.7739308,2.447,13631711.914,24922929.192,2.447,0.000,0.000,0.000,0.000,0.000,0.000,0.000,17,17,4*42
$GPGGA,073855.20,3135.4374761,N,12046.4359999,E,4,17,1.4,2.4555,M,8.301,M,01,0004*6B
$GPHPD,0,0.000,58.59,-0.16,-13.39,31.5906246,120.7739333,2.456,13631711.118,24922930.564,2.456,0.000,0.000,0.000,0.000,0.000,0.000,0.000,17,17,4*4A
$GPGGA,073855.40,3135.4375537,N,12046.4361565,E,4,17,1.4,2.4450,M,8.301,M,01,0004*6D
$GPHPD,0,0.000,58.82,-0.52,-13.38,31.5906259,120.7739359,2.445,13631710.330,24922932.001,2.445,0.000,0.000,0.000,0.000,0.000,0.000,0.000,17,17,4*42
$GPGGA,073855.60,3135.4376321,N,12046.4363109,E,4,17,1.4,2.4449,M,8.301,M,00,0004*68
$GPHPD,0,0.000,58.57,0.19,-13.38,31.5906272,120.7739385,2.445,13631709.527,24922933.406,2.445,0.000,0.000,0.000,0.000,0.000,0.000,0.000,17,17,4*6A
$GPGGA,073855.80,3135.4377106,N,12046.4364614,E,4,17,1.4,2.4408,M,8.301,M,00,0004*69
$GPHPD,0,0.000,58.50,0.13,-13.38,31.5906285,120.7739410,2.441,13631708.714,24922934.764,2.441,0.000,0.000,0.000,0.000,0.000,0.000,0.000,17,17,4*67
$GPGGA,073856.00,3135.4377871,N,12046.4366153,E,4,18,1.4,2.4390,M,8.301,M,01,0004*65
$GPHPD,0,0.000,58.64,0.09,-13.34,31.5906298,120.7739436,2.439,13631707.937,24922936.175,2.439,0.000,0.000,0.000,0.000,0.000,0.000,0.000,18,18,4*6B
$GPGGA,073856.20,3135.4378604,N,12046.4367650,E,4,18,1.4,2.4469,M,8.301,M,01,0004*60
$GPHPD,0,0.000,58.76,0.50,-13.33,31.5906310,120.7739461,2.447,13631707.196,24922937.553,2.447,0.000,0.000,0.000,0.000,0.000,0.000,0.000,18,17,4*6D
$GPGGA,073856.40,3135.4379415,N,12046.4369150,E,4,18,1.4,2.4373,M,8.301,M,01,0004*60
$GPHPD,0,0.000,58.68,0.36,-13.34,31.5906324,120.7739486,2.437,13631706.346,24922938.890,2.437,0.000,0.000,0.000,0.000,0.000,0.000,0.000,18,17,4*68
$GPGGA,073856.60,3135.4380178,N,12046.4370642,E,4,18,1.4,2.4481,M,8.301,M,00,0004*6D
$GPHPD,0,0.000,58.50,0.78,-13.33,31.5906336,120.7739511,2.448,13631705.561,24922940.245,2.448,0.000,0.000,0.000,0.000,0.000,0.000,0.000,18,17,4*6F
$GPGGA,073856.80,3135.4380920,N,12046.4372159,E,4,18,1.4,2.4592,M,8.301,M,00,0004*6A
$GPHPD,0,0.000,58.46,0.29,-13.34,31.5906349,120.7739536,2.459,13631704.812,24922941.642,2.459,0.000,0.000,0.000,0.000,0.000,0.000,0.000,18,17,4*6C
$GPGGA,073857.00,3135.4381700,N,12046.4373646,E,4,18,1.4,2.4583,M,8.301,M,01,0004*67
$GPHPD,0,0.000,58.32,0.45,-13.34,31.5906362,120.7739561,2.458,13631704.003,24922942.981,2.458,0.000,0.000,0.000,0.000,0.000,0.000,0.000,18,17,4*65
$GPGGA,073857.20,3135.4382474,N,12046.4375144,E,4,17,1.4,2.4575,M,8.301,M,01,0004*63
$GPHPD,0,0.000,58.64,0.78,-13.34,31.5906375,120.7739586,2.458,13631703.204,24922944.337,2.458,0.000,0.000,0.000,0.000,0.000,0.000,0.000,17,17,4*6B
$GPGGA,073857.40,3135.4383241,N,12046.4376641,E,4,17,1.4,2.4575,M,8.301,M,01,0004*65
$GPHPD,0,0.000,58.45,0.57,-13.34,31.5906387,120.7739611,2.458,13631702.416,24922945.696,2.458,0.000,0.000,0.000,0.000,0.000,0.000,0.000,17,17,4*6E
$GPGGA,073857.60,3135.4383981,N,12046.4378118,E,4,17,1.4,2.4500,M,8.301,M,00,0004*66
$GPHPD,0,0.000,58.59,0.92,-13.35,31.5906400,120.7739635,2.450,13631701.661,24922947.046,2.450,0.000,0.000,0.000,0.000,0.000,0.000,0.000,17,17,4*6D
$GPGGA,073857.80,3135.4384751,N,12046.4379595,E,4,17,1.4,2.4568,M,8.301,M,00,0004*62
$GPHPD,0,0.000,58.53,1.24,-13.35,31.5906413,120.7739660,2.457,13631700.864,24922948.379,2.457,0.000,0.000,0.000,0.000,0.000,0.000,0.000,17,17,4*63
$GPGGA,073858.00,3135.4385467,N,12046.4381045,E,4,17,1.4,2.4576,M,8.301,M,01,0004*63
$GPHPD,0,0.000,58.80,0.82,-13.36,31.5906424,120.7739684,2.458,13631700.138,24922949.711,2.458,0.000,0.000,0.000,0.000,0.000,0.000,0.000,17,17,4*66
$GPGGA,073858.20,3135.4386191,N,12046.4382553,E,4,17,1.4,2.4800,M,8.301,M,01,0004*63
$GPHPD,0,0.000,58.88,1.09,-13.36,31.5906437,120.7739709,2.480,13631699.413,24922951.108,2.480,0.000,0.000,0.000,0.000,0.000,0.000,0.000,17,17,4*60
$GPGGA,073858.40,3135.4386949,N,12046.4383989,E,4,18,1.4,2.4847,M,8.301,M,01,0004*6E
$GPHPD,0,0.000,58.76,0.15,-13.37,31.5906449,120.7739733,2.485,13631698.625,24922952.398,2.485,0.000,0.000,0.000,0.000,0.000,0.000,0.000,18,17,4*6D
$GPGGA,073858.60,3135.4387678,N,12046.4385479,E,4,18,1.4,2.4687,M,8.301,M,00,0004*67
$GPHPD,0,0.000,58.93,0.09,-13.39,31.5906461,120.7739758,2.469,13631697.889,24922953.771,2.469,0.000,0.000,0.000,0.000,0.000,0.000,0.000,18,17,4*67
$GPGGA,073858.80,3135.4388436,N,12046.4386910,E,4,18,1.4,2.4653,M,8.301,M,00,0004*66
$GPHPD,0,0.000,59.07,-0.40,-13.40,31.5906474,120.7739782,2.465,13631697.099,24922955.055,2.465,0.000,0.000,0.000,0.000,0.000,0.000,0.000,18,17,4*48
$GPGGA,073859.00,3135.4389149,N,12046.4388398,E,4,16,1.4,2.4667,M,8.301,M,01,0004*6F
$GPHPD,0,0.000,59.51,-0.72,-13.41,31.5906486,120.7739807,2.467,13631696.386,24922956.434,2.467,0.000,0.000,0.000,0.000,0.000,0.000,0.000,16,16,4*47
$GPGGA,073859.20,3135.4389838,N,12046.4389903,E,4,16,1.4,2.4750,M,8.301,M,01,0004*6E
$GPHPD,0,0.000,59.19,0.85,-13.40,31.5906497,120.7739832,2.475,13631695.709,24922957.848,2.475,0.000,0.000,0.000,0.000,0.000,0.000,0.000,16,16,4*6F
$GPGGA,073859.40,3135.4390602,N,12046.4391338,E,4,16,1.4,2.4727,M,8.301,M,01,0004*6C
$GPHPD,0,0.000,58.91,0.74,-13.39,31.5906510,120.7739856,2.473,13631694.912,24922959.134,2.473,0.000,0.000,0.000,0.000,0.000,0.000,0.000,16,16,4*6B
$GPGGA,073859.60,3135.4391329,N,12046.4392834,E,4,16,1.4,2.4735,M,8.301,M,00,0004*65
$GPHPD,0,0.000,59.23,0.88,-13.39,31.5906522,120.7739881,2.474,13631694.180,24922960.515,2.474,0.000,0.000,0.000,0.000,0.000,0.000,0.000,16,16,4*65
$GPGGA,073859.80,3135.4392049,N,12046.4394283,E,4,16,1.4,2.4758,M,8.301,M,00,0004*66
$GPHPD,0,0.000,59.15,1.22,-13.38,31.5906534,120.7739905,2.476,13631693.449,24922961.843,2.476,0.000,0.000,0.000,0.000,0.000,0.000,0.000,16,16,4*62
$GPGGA,073900.00,3135.4392803,N,12046.4395778,E,4,16,1.4,2.4826,M,8.301,M,01,0004*62
$GPHPD,0,0.000,59.35,1.10,-13.35,31.5906547,120.7739930,2.483,13631692.678,24922963.207,2.483,0.000,0.000,0.000,0.000,0.000,0.000,0.000,16,16,4*67
$GPGGA,073900.20,3135.4393528,N,12046.4397253,E,4,17,1.4,2.4929,M,8.301,M,01,0004*64
$GPHPD,0,0.000,59.36,0.44,-13.34,31.5906559,120.7739954,2.493,13631691.944,24922964.563,2.493,0.000,0.000,0.000,0.000,0.000,0.000,0.000,17,17,4*69
$GPGGA,073900.40,3135.4394277,N,12046.4398725,E,4,17,1.4,2.4981,M,8.301,M,01,0004*61
$GPHPD,0,0.000,59.37,0.01,-13.34,31.5906571,120.7739979,2.498,13631691.176,24922965.902,2.498,0.000,0.000,0.000,0.000,0.000,0.000,0.000,17,17,4*6F
$GPGGA,073900.60,3135.4394992,N,12046.4400243,E,4,17,1.4,2.4950,M,8.301,M,00,0004*6D
$GPHPD,0,0.000,59.37,0.19,-13.33,31.5906583,120.7740004,2.495,13631690.465,24922967.317,2.495,0.000,0.000,0.000,0.000,0.000,0.000,0.000,17,17,4*6B
$GPGGA,073900.80,3135.4395735,N,12046.4401712,E,4,17,1.4,2.4945,M,8.301,M,00,0004*65
$GPHPD,0,0.000,59.30,0.35,-13.31,31.5906596,120.7740029,2.495,13631689.705,24922968.656,2.495,0.000,0.000,0.000,0.000,0.000,0.000,0.000,17,17,4*69
$GPGGA,073901.00,3135.4396451,N,12046.4403224,E,4,17,1.4,2.5009,M,8.301,M,01,0004*6D
$GPHPD,0,0.000,59.42,0.37,-13.30,31.5906608,120.7740054,2.501,13631688.992,24922970.062,2.501,0.000,0.000,0.000,0.000,0.000,0.000,0.000,17,17,4*68
$GPGGA,073901.20,3135.4397203,N,12046.4404732,E,4,17,1.4,2.4919,M,8.301,M,01,0004*63
$GPHPD,0,0.000,59.15,0.22,-13.31,31.5906620,120.7740079,2.492,13631688.227,24922971.443,2.492,0.000,0.000,0.000,0.000,0.000,0.000,0.000,17,17,4*69
$GPGGA,073901.40,3135.4397916,N,12046.4406237,E,4,17,1.4,2.4953,M,8.301,M,01,0004*66
$GPHPD,0,0.000,59.27,0.73,-13.32,31.5906632,120.7740104,2.495,13631687.516,24922972.843,2.495,0.000,0.000,0.000,0.000,0.000,0.000,0.000,17,17,4*62
$GPGGA,073901.60,3135.4398671,N,12046.4407739,E,4,17,1.4,2.4914,M,8.301,M,00,0004*6D
$GPHPD,0,0.000,59.21,0.88,-13.32,31.5906645,120.7740129,2.491,13631686.746,24922974.214,2.491,0.000,0.000,0.000,0.000,0.000,0.000,0.000,17,17,4*67
$GPGGA,073901.80,3135.4399418,N,12046.4409234,E,4,17,1.4,2.4956,M,8.301,M,00,0004*6F
$GPHPD,0,0.000,59.36,1.01,-13.33,31.5906657,120.7740154,2.496,13631685.985,24922975.582,2.496,0.000,0.000,0.000,0.000,0.000,0.000,0.000,17,17,4*62
$GPGGA,073902.00,3135.4400166,N,12046.4410735,E,4,17,1.4,2.5085,M,8.301,M,01,0004*64
$GPHPD,0,0.000,59.49,0.63,-13.34,31.5906669,120.7740179,2.509,13631685.224,24922976.957,2.509,0.000,0.000,0.000,0.000,0.000,0.000,0.000,17,17,4*6D
$GPGGA,073902.20,3135.4400927,N,12046.4412239,E,4,17,1.4,2.5008,M,8.301,M,01,0004*65
$GPHPD,0,0.000,59.29,0.41,-13.36,31.5906682,120.7740204,2.501,13631684.445,24922978.327,2.501,0.000,0.000,0.000,0.000,0.000,0.000,0.000,17,17,4*66
$GPGGA,073902.40,3135.4401665,N,12046.4413758,E,4,16,1.4,2.5077,M,8.301,M,01,0004*61
$GPHPD,0,0.000,59.61,0.95,-13.37,31.5906694,120.7740229,2.508,13631683.702,24922979.730,2.508,0.000,0.000,0.000,0.000,0.000,0.000,0.000,16,17,4*6F
$GPGGA,073902.60,3135.4402390,N,12046.4415284,E,4,17,1.4,2.5094,M,8.301,M,00,0004*60
$GPHPD,0,0.000,59.42,0.44,-13.39,31.5906707,120.7740255,2.509,13631682.979,24922981.148,2.509,0.000,0.000,0.000,0.000,0.000,0.000,0.000,17,17,4*60
$GPGGA,073902.80,3135.4403130,N,12046.4416804,E,4,17,1.4,2.5145,M,8.301,M,00,0004*6B
$GPHPD,0,0.000,59.20,0.72,-13.40,31.5906719,120.7740280,2.515,13631682.233,24922982.550,2.515,0.000,0.000,0.000,0.000,0.000,0.000,0.000,17,17,4*63
$GPGGA,073903.00,3135.4403903,N,12046.4418281,E,4,17,1.4,2.5299,M,8.301,M,01,0004*60
$GPHPD,0,0.000,59.08,0.81,-13.43,31.5906732,120.7740305,2.530,13631681.432,24922983.881,2.530,0.000,0.000,0.000,0.000,0.000,0.000,0.000,17,17,4*67
$GPGGA,073903.20,3135.4404646,N,12046.4419819,E,4,17,1.4,2.5246,M,8.301,M,01,0004*63
$GPHPD,0,0.000,59.18,0.57,-13.43,31.5906744,120.7740330,2.525,13631680.685,24922985.303,2.525,0.000,0.000,0.000,0.000,0.000,0.000,0.000,17,17,4*62
$GPGGA,073903.40,3135.4405378,N,12046.4421349,E,4,17,1.4,2.5252,M,8.301,M,01,0004*6C
$GPHPD,0,0.000,59.24,0.64,-13.42,31.5906756,120.7740356,2.525,13631679.953,24922986.722,2.525,0.000,0.000,0.000,0.000,0.000,0.000,0.000,17,17,4*69
$GPGGA,073903.60,3135.4406143,N,12046.4422868,E,4,17,1.4,2.5238,M,8.301,M,00,0004*61
$GPHPD,0,0.000,59.27,0.55,-13.43,31.5906769,120.7740381,2.524,13631679.171,24922988.108,2.524,0.000,0.000,0.000,0.000,0.000,0.000,0.000,17,17,4*67
$GPGGA,073903.80,3135.4406897,N,12046.4424407,E,4,17,1.4,2.5184,M,8.301,M,00,0004*68
$GPHPD,0,0.000,59.50,0.06,-13.42,31.5906782,120.7740407,2.518,13631678.409,24922989.525,2.518,0.000,0.000,0.000,0.000,0.000,0.000,0.000,17,17,4*6D
$GPGGA,073904.00,3135.4407634,N,12046.4425940,E,4,17,1.4,2.5315,M,8.301,M,01,0004*65
$GPHPD,0,0.000,59.49,0.75,-13.39,31.5906794,120.7740432,2.532,13631677.671,24922990.945,2.532,0.000,0.000,0.000,0.000,0.000,0.000,0.000,17,17,4*6C
$GPGGA,073904.20,3135.4408405,N,12046.4427489,E,4,17,1.3,2.5261,M,8.301,M,01,0004*67
$GPHPD,0,0.000,59.52,0.91,-13.38,31.5906807,120.7740458,2.526,13631676.887,24922992.364,2.526,0.000,0.000,0.000,0.000,0.000,0.000,0.000,17,17,4*69
$GPGGA,073904.40,3135.4409151,N,12046.4429056,E,4,17,1.3,2.5291,M,8.301,M,01,0004*63
$GPHPD,0,0.000,59.43,0.30,-13.35,31.5906819,120.7740484,2.529,13631676.142,24922993.819,2.529,0.000,0.000,0.000,0.000,0.000,0.000,0.000,17,17,4*61
$GPGGA,073904.60,3135.4409947,N,12046.4430599,E,4,17,1.3,2.5347,M,8.301,M,00,0004*6B
$GPHPD,0,0.000,59.33,0.19,-13.35,31.5906832,120.7740510,2.535,13631675.321,24922995.217,2.535,0.000,0.000,0.000,0.000,0.000,0.000,0.000,17,17,4*6E
$GPGGA,073904.80,3135.4410695,N,12046.4432133,E,4,17,1.3,2.5460,M,8.301,M,00,0004*69
$GPHPD,0,0.000,59.35,-0.36,-13.34,31.5906845,120.7740536,2.546,13631674.567,24922996.631,2.546,0.000,0.000,0.000,0.000,0.000,0.000,0.000,17,17,4*4B
$GPGGA,073905.00,3135.4411451,N,12046.4433677,E,4,17,1.3,2.5422,M,8.301,M,01,0004*6A
$GPHPD,0,0.000,59.32,-0.95,-13.32,31.5906858,120.7740561,2.542,13631673.803,24922998.053,2.542,0.000,0.000,0.000,0.000,0.000,0.000,0.000,17,17,4*49
$GPGGA,073905.20,3135.4412247,N,12046.4435214,E,4,17,1.3,2.5473,M,8.301,M,01,0004*69
$GPHPD,0,0.000,59.26,-0.37,-13.30,31.5906871,120.7740587,2.547,13631672.981,24922999.443,2.547,0.000,0.000,0.000,0.000,0.000,0.000,0.000,17,17,4*4B
$GPGGA,073905.40,3135.4412993,N,12046.4436767,E,4,17,1.3,2.5485,M,8.301,M,01,0004*66
$GPHPD,0,0.000,59.34,0.00,-13.30,31.5906883,120.7740613,2.549,13631672.233,24923000.881,2.549,0.000,0.000,0.000,0.000,0.000,0.000,0.000,17,17,4*6A
$GPGGA,073905.60,3135.4413762,N,12046.4438326,E,4,17,1.3,2.5361,M,8.301,M,00,0004*66
$GPHPD,0,0.000,59.27,0.07,-13.28,31.5906896,120.7740639,2.536,13631671.454,24923002.314,2.536,0.000,0.000,0.000,0.000,0.000,0.000,0.000,17,17,4*6B
$GPGGA,073905.80,3135.4414516,N,12046.4439856,E,4,17,1.3,2.5493,M,8.301,M,00,0004*69
$GPHPD,0,0.000,59.26,0.22,-13.27,31.5906909,120.7740664,2.549,13631670.691,24923003.720,2.549,0.000,0.000,0.000,0.000,0.000,0.000,0.000,17,17,4*65
$GPGGA,073906.00,3135.4415309,N,12046.4441414,E,4,17,1.3,2.5467,M,8.301,M,01,0004*64
$GPHPD,0,0.000,59.01,-0.12,-13.26,31.5906922,120.7740690,2.547,13631669.877,24923005.137,2.547,0.000,0.000,0.000,0.000,0.000,0.000,0.000,17,17,4*45
$GPGGA,073906.20,3135.4416089,N,12046.4442965,E,4,17,1.3,2.5509,M,8.301,M,01,0004*6F
$GPHPD,0,0.000,59.09,0.40,-13.25,31.5906935,120.7740716,2.551,13631669.081,24923006.553,2.551,0.000,0.000,0.000,0.000,0.000,0.000,0.000,17,17,4*69
$GPGGA,073906.40,3135.4416830,N,12046.4444502,E,4,17,1.3,2.5541,M,8.301,M,01,0004*64
$GPHPD,0,0.000,59.10,0.16,-13.24,31.5906947,120.7740742,2.554,13631668.337,24923007.975,2.554,0.000,0.000,0.000,0.000,0.000,0.000,0.000,17,17,4*61
$GPGGA,073906.60,3135.4417613,N,12046.4446093,E,4,17,1.4,2.5463,M,8.301,M,00,0004*60
$GPHPD,0,0.000,58.96,0.06,-13.22,31.5906960,120.7740768,2.546,13631667.545,24923009.438,2.546,0.000,0.000,0.000,0.000,0.000,0.000,0.000,17,17,4*62
$GPGGA,073906.80,3135.4418376,N,12046.4447634,E,4,16,1.4,2.5553,M,8.301,M,00,0004*6E
$GPHPD,0,0.000,59.02,0.37,-13.19,31.5906973,120.7740794,2.555,13631666.770,24923010.852,2.555,0.000,0.000,0.000,0.000,0.000,0.000,0.000,16,16,4*68
$GPGGA,073907.00,3135.4419157,N,12046.4449191,E,4,16,1.4,2.5516,M,8.301,M,01,0004*61
$GPHPD,0,0.000,58.89,0.32,-13.17,31.5906986,120.7740820,2.552,13631665.974,24923012.275,2.552,0.000,0.000,0.000,0.000,0.000,0.000,0.000,16,16,4*6F
$GPGGA,073907.20,3135.4419950,N,12046.4450739,E,4,16,1.4,2.5547,M,8.301,M,01,0004*64
$GPHPD,0,0.000,59.08,0.05,-13.15,31.5906999,120.7740846,2.555,13631665.158,24923013.680,2.555,0.000,0.000,0.000,0.000,0.000,0.000,0.000,16,16,4*66
$GPGGA,073907.40,3135.4420749,N,12046.4452263,E,4,17,1.4,2.5775,M,8.302,M,01,0004*67
$GPHPD,0,0.000,58.96,0.32,-13.13,31.5907012,120.7740871,2.578,13631664.329,24923015.053,2.578,0.000,0.000,0.000,0.000,0.000,0.000,0.000,17,17,4*66
$GPGGA,073907.60,3135.4421513,N,12046.4453837,E,4,17,1.4,2.5706,M,8.302,M,00,0004*66
$GPHPD,0,0.000,59.15,-0.24,-13.11,31.5907025,120.7740897,2.571,13631663.560,24923016.506,2.571,0.000,0.000,0.000,0.000,0.000,0.000,0.000,17,17,4*42
$GPGGA,073907.80,3135.4422289,N,12046.4455401,E,4,17,1.4,2.5659,M,8.302,M,00,0004*6B
$GPHPD,0,0.000,58.98,0.07,-13.11,31.5907038,120.7740923,2.566,13631662.772,24923017.940,2.566,0.000,0.000,0.000,0.000,0.000,0.000,0.000,17,17,4*67
$GPGGA,073908.00,3135.4423058,N,12046.4456963,E,4,17,1.4,2.5638,M,8.302,M,01,0004*6F
$GPHPD,0,0.000,58.94,0.40,-13.10,31.5907051,120.7740949,2.564,13631661.994,24923019.376,2.564,0.000,0.000,0.000,0.000,0.000,0.000,0.000,17,17,4*6E
$GPGGA,073908.20,3135.4423849,N,12046.4458527,E,4,17,1.4,2.5690,M,8.302,M,01,0004*65
$GPHPD,0,0.000,58.91,0.40,-13.09,31.5907064,120.7740975,2.569,13631661.184,24923020.802,2.569,0.000,0.000,0.000,0.000,0.000,0.000,0.000,17,17,4*61
$GPGGA,073908.40,3135.4424658,N,12046.4460064,E,4,17,1.4,2.5745,M,8.302,M,01,0004*6A
$GPHPD,0,0.000,58.97,0.29,-13.06,31.5907078,120.7741001,2.575,13631660.344,24923022.184,2.575,0.000,0.000,0.000,0.000,0.000,0.000,0.000,17,17,4*6B
$GPGGA,073908.60,3135.4425429,N,12046.4461638,E,4,17,1.4,2.5730,M,8.302,M,00,0004*60
$GPHPD,0,0.000,59.13,0.35,-13.04,31.5907090,120.7741027,2.573,13631659.565,24923023.634,2.573,0.000,0.000,0.000,0.000,0.000,0.000,0.000,17,16,4*68
$GPGGA,073908.80,3135.4426191,N,12046.4463219,E,4,17,1.4,2.5679,M,8.302,M,00,0004*62
$GPHPD,0,0.000,59.12,0.41,-13.04,31.5907103,120.7741054,2.568,13631658.800,24923025.096,2.568,0.000,0.000,0.000,0.000,0.000,0.000,0.000,17,16,4*62
$GPGGA,073909.00,3135.4426978,N,12046.4464800,E,4,17,1.4,2.5687,M,8.302,M,01,0004*61
$GPHPD,0,0.000,59.07,0.51,-13.03,31.5907116,120.7741080,2.569,13631658.000,24923026.545,2.569,0.000,0.000,0.000,0.000,0.000,0.000,0.000,17,16,4*6D
$GPGGA,073909.20,3135.4427760,N,12046.4466384,E,4,16,1.4,2.5794,M,8.302,M,01,0004*62
$GPHPD,0,0.000,59.16,0.49,-13.02,31.5907129,120.7741106,2.579,13631657.207,24923028.000,2.579,0.000,0.000,0.000,0.000,0.000,0.000,0.000,16,16,4*67
$GPGGA,073909.40,3135.4428547,N,12046.4467909,E,4,16,1.4,2.5883,M,8.302,M,01,0004*6B
$GPHPD,0,0.000,58.90,-0.14,-13.01,31.5907142,120.7741132,2.588,13631656.396,24923029.381,2.588,0.000,0.000,0.000,0.000,0.000,0.000,0.000,16,16,4*47
$GPGGA,073909.60,3135.4429319,N,12046.4469483,E,4,16,1.4,2.5868,M,8.302,M,00,0004*60
$GPHPD,0,0.000,58.99,-0.23,-13.02,31.5907155,120.7741158,2.587,13631655.615,24923030.829,2.587,0.000,0.000,0.000,0.000,0.000,0.000,0.000,16,16,4*4F
$GPGGA,073909.80,3135.4430097,N,12046.4471036,E,4,16,1.4,2.5886,M,8.302,M,00,0004*60
$GPHPD,0,0.000,59.01,-0.52,-13.03,31.5907168,120.7741184,2.589,13631654.822,24923032.249,2.589,0.000,0.000,0.000,0.000,0.000,0.000,0.000,16,16,4*42
$GPGGA,073910.00,3135.4430859,N,12046.4472587,E,4,16,1.4,2.5905,M,8.302,M,01,0004*6D
$GPHPD,0,0.000,59.24,-0.23,-13.03,31.5907181,120.7741210,2.591,13631654.052,24923033.676,2.591,0.000,0.000,0.000,0.000,0.000,0.000,0.000,16,16,4*4C
$GPGGA,073910.20,3135.4431630,N,12046.4474143,E,4,16,1.4,2.5936,M,8.302,M,01,0004*65
$GPHPD,0,0.000,58.95,0.16,-13.05,31.5907194,120.7741236,2.594,13631653.269,24923035.103,2.594,0.000,0.000,0.000,0.000,0.000,0.000,0.000,16,16,4*64
$GPGGA,073910.40,3135.4432393,N,12046.4475680,E,4,16,1.4,2.5857,M,8.302,M,01,0004*63
$GPHPD,0,0.000,59.08,0.10,-13.05,31.5907207,120.7741261,2.586,13631652.494,24923036.513,2.586,0.000,0.000,0.000,0.000,0.000,0.000,0.000,16,16,4*6F
$GPGGA,073910.60,3135.4433142,N,12046.4477235,E,4,16,1.4,2.5859,M,8.302,M,00,0004*69
$GPHPD,0,0.000,59.12,0.45,-13.04,31.5907219,120.7741287,2.586,13631651.742,24923037.952,2.586,0.000,0.000,0.000,0.000,0.000,0.000,0.000,16,16,4*61
$GPGGA,073910.80,3135.4433938,N,12046.4478765,E,4,16,1.4,2.5673,M,8.302,M,00,0004*6B
$GPHPD,0,0.000,59.13,0.11,-13.04,31.5907232,120.7741313,2.567,13631650.919,24923039.333,2.567,0.000,0.000,0.000,0.000,0.000,0.000,0.000,16,16,4*66
$GPGGA,073911.00,3135.4434704,N,12046.4480292,E,4,16,1.4,2.5867,M,8.302,M,01,0004*64
$GPHPD,0,0.000,59.39,0.88,-13.04,31.5907245,120.7741338,2.587,13631650.138,24923040.729,2.587,0.000,0.000,0.000,0.000,0.000,0.000,0.000,16,16,4*6D
$GPGGA,073911.20,3135.4435451,N,12046.4481831,E,4,16,1.4,2.5870,M,8.302,M,01,0004*60
$GPHPD,0,0.000,59.32,0.25,-13.05,31.5907258,120.7741364,2.587,13631649.386,24923042.150,2.587,0.000,0.000,0.000,0.000,0.000,0.000,0.000,16,16,4*60
$GPGGA,073911.40,3135.4436213,N,12046.4483344,E,4,16,1.4,2.5858,M,8.302,M,01,0004*64
$GPHPD,0,0.000,59.30,0.10,-13.06,31.5907270,120.7741389,2.586,13631648.607,24923043.531,2.586,0.000,0.000,0.000,0.000,0.000,0.000,0.000,16,16,4*61
$GPGGA,073911.60,3135.4436959,N,12046.4484893,E,4,16,1.4,2.5819,M,8.302,M,00,0004*61
$GPHPD,0,0.000,59.47,0.39,-13.07,31.5907283,120.7741415,2.582,13631647.859,24923044.964,2.582,0.000,0.000,0.000,0.000,0.000,0.000,0.000,16,16,4*64
$GPGGA,073911.80,3135.4437721,N,12046.4486428,E,4,16,1.4,2.5862,M,8.302,M,00,0004*6D
$GPHPD,0,0.000,59.39,0.27,-13.05,31.5907295,120.7741440,2.586,13631647.085,24923046.372,2.586,0.000,0.000,0.000,0.000,0.000,0.000,0.000,16,16,4*61
$GPGGA,073912.00,3135.4438472,N,12046.4487992,E,4,16,1.4,2.5857,M,8.302,M,01,0004*66
$GPHPD,0,0.000,59.44,0.17,-13.06,31.5907308,120.7741467,2.586,13631646.332,24923047.821,2.586,0.000,0.000,0.000,0.000,0.000,0.000,0.000,16,16,4*69
$GPGGA,073912.20,3135.4439225,N,12046.4489457,E,4,16,1.4,2.5907,M,8.302,M,01,0004*6F
$GPHPD,0,0.000,59.32,0.35,-13.07,31.5907320,120.7741491,2.591,13631645.557,24923049.149,2.591,0.000,0.000,0.000,0.000,0.000,0.000,0.000,16,16,4*65
$GPGGA,073912.40,3135.4439986,N,12046.4490994,E,4,16,1.4,2.5942,M,8.302,M,01,0004*60
$GPHPD,0,0.000,59.14,0.25,-13.09,31.5907333,120.7741517,2.594,13631644.785,24923050.559,2.594,0.000,0.000,0.000,0.000,0.000,0.000,0.000,16,16,4*62
$GPGGA,073912.60,3135.4440703,N,12046.4492488,E,4,16,1.4,2.5840,M,8.302,M,00,0004*6F
$GPHPD,0,0.000,59.21,0.18,-13.09,31.5907345,120.7741541,2.584,13631644.067,24923051.944,2.584,0.000,0.000,0.000,0.000,0.000,0.000,0.000,16,16,4*62
$GPGGA,073912.80,3135.4441467,N,12046.4493995,E,4,17,1.4,2.5909,M,8.302,M,00,0004*6C
$GPHPD,0,0.000,59.11,0.40,-13.11,31.5907358,120.7741567,2.591,13631643.284,24923053.316,2.591,0.000,0.000,0.000,0.000,0.000,0.000,0.000,17,17,4*6A
$GPGGA,073913.00,3135.4442175,N,12046.4495534,E,4,17,1.4,2.5978,M,8.302,M,01,0004*66
$GPHPD,0,0.000,59.17,0.73,-13.11,31.5907370,120.7741592,2.598,13631642.588,24923054.760,2.598,0.000,0.000,0.000,0.000,0.000,0.000,0.000,17,17,4*64
$GPGGA,073913.20,3135.4442954,N,12046.4496999,E,4,17,1.3,2.5954,M,8.302,M,01,0004*6E
$GPHPD,0,0.000,58.93,0.34,-13.12,31.5907383,120.7741617,2.595,13631641.775,24923056.073,2.595,0.000,0.000,0.000,0.000,0.000,0.000,0.000,17,17,4*6F
$GPGGA,073913.40,3135.4443725,N,12046.4498515,E,4,17,1.3,2.5958,M,8.302,M,01,0004*6B
$GPHPD,0,0.000,59.14,0.52,-13.13,31.5907395,120.7741642,2.596,13631640.985,24923057.452,2.596,0.000,0.000,0.000,0.000,0.000,0.000,0.000,17,17,4*61
$GPGGA,073913.60,3135.4444445,N,12046.4500054,E,4,17,1.3,2.5978,M,8.302,M,00,0004*68
$GPHPD,0,0.000,59.24,0.08,-13.13,31.5907407,120.7741668,2.598,13631640.271,24923058.889,2.598,0.000,0.000,0.000,0.000,0.000,0.000,0.000,17,17,4*6C
$GPGGA,073913.80,3135.4445202,N,12046.4501534,E,4,17,1.3,2.6005,M,8.302,M,00,0004*60
$GPHPD,0,0.000,59.10,0.23,-13.14,31.5907420,120.7741692,2.601,13631639.493,24923060.233,2.601,0.000,0.000,0.000,0.000,0.000,0.000,0.000,17,17,4*61
$GPGGA,073914.00,3135.4445984,N,12046.4503059,E,4,17,1.3,2.6128,M,8.302,M,01,0004*69
$GPHPD,0,0.000,59.06,-0.40,-13.13,31.5907433,120.7741718,2.613,13631638.689,24923061.617,2.613,0.000,0.000,0.000,0.000,0.000,0.000,0.000,17,17,4*43
$GPGGA,073914.20,3135.4446740,N,12046.4504574,E,4,17,1.3,2.6132,M,8.302,M,01,0004*68
$GPHPD,0,0.000,59.34,-0.51,-13.14,31.5907446,120.7741743,2.613,13631637.919,24923063.003,2.613,0.000,0.000,0.000,0.000,0.000,0.000,0.000,17,17,4*41
$GPGGA,073914.40,3135.4447473,N,12046.4506076,E,4,17,1.4,2.6151,M,8.302,M,01,0004*6B
$GPHPD,0,0.000,58.88,-0.71,-13.14,31.5907458,120.7741768,2.615,13631637.180,24923064.388,2.615,0.000,0.000,0.000,0.000,0.000,0.000,0.000,17,17,4*4C
$GPGGA,073914.60,3135.4448242,N,12046.4507582,E,4,17,1.4,2.6074,M,8.302,M,00,0004*6A
$GPHPD,0,0.000,58.92,-0.06,-13.14,31.5907471,120.7741793,2.607,13631636.390,24923065.756,2.607,0.000,0.000,0.000,0.000,0.000,0.000,0.000,17,17,4*4C
$GPGGA,073914.80,3135.4449001,N,12046.4509084,E,4,17,1.4,2.6114,M,8.302,M,00,0004*6A
$GPHPD,0,0.000,58.82,0.69,-13.14,31.5907483,120.7741818,2.611,13631635.614,24923067.126,2.611,0.000,0.000,0.000,0.000,0.000,0.000,0.000,17,17,4*61
$GPGGA,073915.00,3135.4449798,N,12046.4510590,E,4,17,1.4,2.5983,M,8.302,M,01,0004*68
$GPHPD,0,0.000,58.31,-0.07,-13.14,31.5907497,120.7741843,2.598,13631634.784,24923068.478,2.598,0.000,0.000,0.000,0.000,0.000,0.000,0.000,17,17,4*4F
$GPGGA,073915.20,3135.4450588,N,12046.4512097,E,4,17,1.4,2.6292,M,8.302,M,01,0004*69
$GPHPD,0,0.000,58.55,0.27,-13.15,31.5907510,120.7741868,2.629,13631633.964,24923069.835,2.629,0.000,0.000,0.000,0.000,0.000,0.000,0.000,17,17,4*67
$GPGGA,073915.40,3135.4451379,N,12046.4513557,E,4,17,1.4,2.6535,M,8.302,M,01,0004*64
$GPHPD,0,0.000,58.46,-0.68,-13.15,31.5907523,120.7741893,2.654,13631633.134,24923071.135,2.654,0.000,0.000,0.000,0.000,0.000,0.000,0.000,17,17,4*4A
$GPGGA,073915.60,3135.4452106,N,12046.4515056,E,4,17,1.4,2.6549,M,8.302,M,00,0004*67
$GPHPD,0,0.000,58.88,-1.23,-13.15,31.5907535,120.7741918,2.655,13631632.403,24923072.520,2.655,0.000,0.000,0.000,0.000,0.000,0.000,0.000,17,17,4*40
$GPGGA,073915.80,3135.4452889,N,12046.4516673,E,4,16,1.4,2.6034,M,8.302,M,00,0004*6B
$GPHPD,0,0.000,58.47,-1.32,-13.14,31.5907548,120.7741945,2.603,13631631.615,24923074.014,2.603,0.000,0.000,0.000,0.000,0.000,0.000,0.000,16,16,4*42
$GPGGA,073916.00,3135.4453708,N,12046.4518157,E,4,16,1.4,2.6024,M,8.302,M,01,0004*68
$GPHPD,0,0.000,57.87,0.07,-13.16,31.5907562,120.7741969,2.602,13631630.750,24923075.327,2.602,0.000,0.000,0.000,0.000,0.000,0.000,0.000,16,16,4*6C
$GPGGA,073916.20,3135.4454490,N,12046.4519685,E,4,16,1.4,2.6152,M,8.302,M,01,0004*66
$GPHPD,0,0.000,57.92,0.99,-13.15,31.5907575,120.7741995,2.615,13631629.946,24923076.714,2.615,0.000,0.000,0.000,0.000,0.000,0.000,0.000,16,16,4*6F
$GPGGA,073916.40,3135.4455302,N,12046.4521188,E,4,16,1.4,2.6162,M,8.302,M,01,0004*6F
$GPHPD,0,0.000,57.82,0.34,-13.13,31.5907588,120.7742020,2.616,13631629.095,24923078.054,2.616,0.000,0.000,0.000,0.000,0.000,0.000,0.000,16,16,4*63
$GPGGA,073916.60,3135.4456091,N,12046.4522718,E,4,16,1.4,2.6196,M,8.302,M,00,0004*61
$GPHPD,0,0.000,57.76,-0.14,-13.13,31.5907602,120.7742045,2.620,13631628.281,24923079.440,2.620,0.000,0.000,0.000,0.000,0.000,0.000,0.000,16,16,4*43
$GPGGA,073916.80,3135.4456875,N,12046.4524214,E,4,17,1.4,2.6228,M,8.302,M,00,0004*65
$GPHPD,0,0.000,57.31,-0.38,-13.12,31.5907615,120.7742070,2.623,13631627.468,24923080.787,2.623,0.000,0.000,0.000,0.000,0.000,0.000,0.000,17,17,4*4F
$GPGGA,073917.00,3135.4457696,N,12046.4525730,E,4,17,1.4,2.6204,M,8.302,M,01,0004*63
$GPHPD,0,0.000,57.07,-0.73,-13.10,31.5907628,120.7742096,2.620,13631626.606,24923082.137,2.620,0.000,0.000,0.000,0.000,0.000,0.000,0.000,17,17,4*45
$GPGGA,073917.20,3135.4458503,N,12046.4527251,E,4,17,1.4,2.6257,M,8.302,M,01,0004*67
$GPHPD,0,0.000,57.16,-0.19,-13.08,31.5907642,120.7742121,2.626,13631625.766,24923083.502,2.626,0.000,0.000,0.000,0.000,0.000,0.000,0.000,17,17,4*46
$GPGGA,073917.40,3135.4459334,N,12046.4528742,E,4,17,1.4,2.6259,M,8.302,M,01,0004*64
$GPHPD,0,0.000,57.16,-0.88,-13.07,31.5907656,120.7742146,2.626,13631624.885,24923084.816,2.626,0.000,0.000,0.000,0.000,0.000,0.000,0.000,17,17,4*49
$GPGGA,073917.60,3135.4460169,N,12046.4530269,E,4,17,1.4,2.6227,M,8.302,M,00,0004*6B
$GPHPD,0,0.000,57.22,-0.56,-13.06,31.5907669,120.7742171,2.623,13631624.005,24923086.171,2.623,0.000,0.000,0.000,0.000,0.000,0.000,0.000,17,17,4*4E
$GPGGA,073917.80,3135.4460992,N,12046.4531766,E,4,17,1.4,2.6196,M,8.302,M,00,0004*6B
$GPHPD,0,0.000,56.99,-0.04,-13.06,31.5907683,120.7742196,2.620,13631623.137,24923087.497,2.620,0.000,0.000,0.000,0.000,0.000,0.000,0.000,17,17,4*4E
$GPGGA,073918.00,3135.4461807,N,12046.4533290,E,4,17,1.4,2.6262,M,8.302,M,01,0004*67
$GPHPD,0,0.000,57.20,0.17,-13.06,31.5907697,120.7742222,2.626,13631622.285,24923088.861,2.626,0.000,0.000,0.000,0.000,0.000,0.000,0.000,17,17,4*6A
$GPGGA,073918.20,3135.4462643,N,12046.4534792,E,4,17,1.4,2.6289,M,8.302,M,01,0004*6D
$GPHPD,0,0.000,57.01,0.56,-13.06,31.5907711,120.7742247,2.629,13631621.399,24923090.185,2.629,0.000,0.000,0.000,0.000,0.000,0.000,0.000,17,17,4*65
$GPGGA,073918.40,3135.4463440,N,12046.4536305,E,4,17,1.4,2.6244,M,8.302,M,01,0004*62
$GPHPD,0,0.000,56.79,0.16,-13.07,31.5907724,120.7742272,2.624,13631620.571,24923091.546,2.624,0.000,0.000,0.000,0.000,0.000,0.000,0.000,17,17,4*65
$GPGGA,073918.60,3135.4464260,N,12046.4537803,E,4,17,1.4,2.6211,M,8.302,M,00,0004*6E
$GPHPD,0,0.000,56.40,0.06,-13.07,31.5907738,120.7742297,2.621,13631619.707,24923092.875,2.621,0.000,0.000,0.000,0.000,0.000,0.000,0.000,17,17,4*6F
$GPGGA,073918.80,3135.4465125,N,12046.4539280,E,4,17,1.4,2.6261,M,8.302,M,00,0004*6B
$GPHPD,0,0.000,56.42,0.10,-13.07,31.5907752,120.7742321,2.626,13631618.775,24923094.153,2.626,0.000,0.000,0.000,0.000,0.000,0.000,0.000,17,17,4*65
$GPGGA,073919.00,3135.4465936,N,12046.4540772,E,4,17,1.4,2.6280,M,8.302,M,01,0004*60
$GPHPD,0,0.000,56.35,-0.18,-13.11,31.5907766,120.7742346,2.628,13631617.923,24923095.480,2.628,0.000,0.000,0.000,0.000,0.000,0.000,0.000,17,17,4*49
$GPGGA,073919.20,3135.4466735,N,12046.4542265,E,4,17,1.4,2.6364,M,8.302,M,01,0004*66
$GPHPD,0,0.000,56.39,-0.06,-13.12,31.5907779,120.7742371,2.636,13631617.088,24923096.815,2.636,0.000,0.000,0.000,0.000,0.000,0.000,0.000,17,17,4*48
$GPGGA,073919.40,3135.4467615,N,12046.4543707,E,4,17,1.4,2.6267,M,8.302,M,01,0004*60
$GPHPD,0,0.000,56.10,0.08,-13.13,31.5907794,120.7742395,2.627,13631616.127,24923098.041,2.627,0.000,0.000,0.000,0.000,0.000,0.000,0.000,17,17,4*6A
$GPGGA,073919.60,3135.4468436,N,12046.4545200,E,4,17,1.4,2.6325,M,8.302,M,00,0004*6C
$GPHPD,0,0.000,56.29,0.48,-13.13,31.5907807,120.7742420,2.633,13631615.261,24923099.364,2.633,0.000,0.000,0.000,0.000,0.000,0.000,0.000,17,17,4*6F
$GPGGA,073919.80,3135.4469271,N,12046.4546663,E,4,17,1.4,2.6306,M,8.302,M,00,0004*65
$GPHPD,0,0.000,55.97,0.15,-13.12,31.5907821,120.7742444,2.631,13631614.369,24923100.642,2.631,0.000,0.000,0.000,0.000,0.000,0.000,0.000,17,17,4*6E
$GPGGA,073920.00,3135.4470117,N,12046.4548125,E,4,17,1.4,2.6233,M,8.302,M,01,0004*61
$GPHPD,0,0.000,55.91,0.54,-13.11,31.5907835,120.7742469,2.623,13631613.461,24923101.913,2.623,0.000,0.000,0.000,0.000,0.000,0.000,0.000,17,17,4*66
$GPGGA,073920.20,3135.4470955,N,12046.4549577,E,4,17,1.4,2.6295,M,8.302,M,01,0004*63
$GPHPD,0,0.000,55.82,0.44,-13.10,31.5907849,120.7742493,2.630,13631612.562,24923103.176,2.630,0.000,0.000,0.000,0.000,0.000,0.000,0.000,17,17,4*60
$GPGGA,073920.40,3135.4471808,N,12046.4551041,E,4,17,1.4,2.6382,M,8.302,M,01,0004*63
$GPHPD,0,0.000,55.69,0.28,-13.08,31.5907863,120.7742517,2.638,13631611.644,24923104.445,2.638,0.000,0.000,0.000,0.000,0.000,0.000,0.000,17,17,4*65
$GPGGA,073920.60,3135.4472619,N,12046.4552517,E,4,17,1.4,2.6371,M,8.302,M,00,0004*64
$GPHPD,0,0.000,55.75,0.21,-13.10,31.5907877,120.7742542,2.637,13631610.789,24923105.752,2.637,0.000,0.000,0.000,0.000,0.000,0.000,0.000,17,17,4*68
$GPGGA,073920.80,3135.4473468,N,12046.4553964,E,4,17,1.4,2.6283,M,8.302,M,00,0004*6A
$GPHPD,0,0.000,55.01,0.40,-13.13,31.5907891,120.7742566,2.628,13631609.873,24923107.003,2.628,0.000,0.000,0.000,0.000,0.000,0.000,0.000,17,17,4*62
$GPGGA,073921.00,3135.4474341,N,12046.4555396,E,4,18,1.4,2.6318,M,8.302,M,01,0004*64
$GPHPD,0,0.000,55.08,0.81,-13.11,31.5907906,120.7742590,2.632,13631608.921,24923108.222,2.632,0.000,0.000,0.000,0.000,0.000,0.000,0.000,18,18,4*6B
$GPGGA,073921.20,3135.4475190,N,12046.4556863,E,4,18,1.4,2.6374,M,8.302,M,01,0004*61
$GPHPD,0,0.000,55.03,0.48,-13.10,31.5907920,120.7742614,2.637,13631608.009,24923109.497,2.637,0.000,0.000,0.000,0.000,0.000,0.000,0.000,18,18,4*65
$GPGGA,073921.40,3135.4476052,N,12046.4558296,E,4,17,1.4,2.6480,M,8.302,M,01,0004*66
$GPHPD,0,0.000,54.69,0.36,-13.08,31.5907934,120.7742638,2.648,13631607.073,24923110.723,2.648,0.000,0.000,0.000,0.000,0.000,0.000,0.000,17,17,4*65
$GPGGA,073921.60,3135.4476932,N,12046.4559731,E,4,17,1.3,2.6462,M,8.302,M,00,0004*68
$GPHPD,0,0.000,54.56,0.11,-13.08,31.5907949,120.7742662,2.646,13631606.111,24923111.941,2.646,0.000,0.000,0.000,0.000,0.000,0.000,0.000,17,17,4*66
$GPGGA,073921.80,3135.4477810,N,12046.4561183,E,4,17,1.3,2.6451,M,8.302,M,00,0004*62
$GPHPD,0,0.000,54.57,0.80,-13.08,31.5907964,120.7742686,2.645,13631605.155,24923113.181,2.645,0.000,0.000,0.000,0.000,0.000,0.000,0.000,17,17,4*6F
$GPGGA,073922.00,3135.4478683,N,12046.4562662,E,4,17,1.3,2.6483,M,8.302,M,01,0004*67
$GPHPD,0,0.000,54.45,0.92,-13.09,31.5907978,120.7742711,2.648,13631604.212,24923114.456,2.648,0.000,0.000,0.000,0.000,0.000,0.000,0.000,17,17,4*65
$GPGGA,073922.20,3135.4479589,N,12046.4564102,E,4,17,1.3,2.6534,M,8.302,M,01,0004*67
$GPHPD,0,0.000,54.12,-0.18,-13.10,31.5907993,120.7742735,2.653,13631603.214,24923115.665,2.653,0.000,0.000,0.000,0.000,0.000,0.000,0.000,17,16,4*40
$GPGGA,073922.40,3135.4480449,N,12046.4565552,E,4,17,1.3,2.6579,M,8.302,M,01,0004*63
$GPHPD,0,0.000,54.12,0.04,-13.07,31.5908007,120.7742759,2.658,13631602.284,24923116.913,2.658,0.000,0.000,0.000,0.000,0.000,0.000,0.000,17,16,4*62
$GPGGA,073922.60,3135.4481344,N,12046.4567011,E,4,17,1.3,2.6635,M,8.302,M,01,0004*61
$GPHPD,0,0.000,53.89,-0.01,-13.05,31.5908022,120.7742784,2.664,13631601.306,24923118.152,2.664,0.000,0.000,0.000,0.000,0.000,0.000,0.000,17,16,4*41
$GPGGA,073922.80,3135.4482234,N,12046.4568485,E,4,17,1.3,2.6723,M,8.302,M,00,0004*6B
$GPHPD,0,0.000,53.74,-0.12,-13.01,31.5908037,120.7742808,2.672,13631600.337,24923119.411,2.672,0.000,0.000,0.000,0.000,0.000,0.000,0.000,17,16,4*4A
$GPGGA,073923.00,3135.4483179,N,12046.4569908,E,4,17,1.3,2.6602,M,8.302,M,01,0004*63
$GPHPD,0,0.000,53.46,-0.87,-12.99,31.5908053,120.7742832,2.660,13631599.281,24923120.577,2.660,0.000,0.000,0.000,0.000,0.000,0.000,0.000,17,16,4*48
$GPGGA,073923.20,3135.4484089,N,12046.4571382,E,4,17,1.3,2.6671,M,8.302,M,01,0004*6D
$GPHPD,0,0.000,53.63,-0.37,-12.98,31.5908068,120.7742856,2.667,13631598.284,24923121.825,2.667,0.000,0.000,0.000,0.000,0.000,0.000,0.000,17,16,4*40
$GPGGA,073923.40,3135.4484989,N,12046.4572854,E,4,17,1.3,2.6638,M,8.302,M,01,0004*6C
$GPHPD,0,0.000,53.52,-0.52,-12.96,31.5908083,120.7742881,2.664,13631597.301,24923123.076,2.664,0.000,0.000,0.000,0.000,0.000,0.000,0.000,17,16,4*4F
$GPGGA,073923.60,3135.4485937,N,12046.4574341,E,4,17,1.3,2.6697,M,8.302,M,00,0004*67
$GPHPD,0,0.000,53.31,-0.08,-12.96,31.5908099,120.7742906,2.670,13631596.253,24923124.317,2.670,0.000,0.000,0.000,0.000,0.000,0.000,0.000,17,16,4*44
$GPGGA,073923.80,3135.4486845,N,12046.4575801,E,4,17,1.3,2.6768,M,8.302,M,00,0004*61
$GPHPD,0,0.000,53.25,-0.22,-12.92,31.5908114,120.7742930,2.677,13631595.257,24923125.549,2.677,0.000,0.000,0.000,0.000,0.000,0.000,0.000,17,16,4*47
$GPGGA,073924.00,3135.4487800,N,12046.4577292,E,4,17,1.3,2.6712,M,8.302,M,01,0004*60
$GPHPD,0,0.000,53.19,-0.44,-12.89,31.5908130,120.7742955,2.671,13631594.199,24923126.791,2.671,0.000,0.000,0.000,0.000,0.000,0.000,0.000,17,16,4*43
$GPGGA,073924.20,3135.4488736,N,12046.4578764,E,4,17,1.3,2.6701,M,8.302,M,01,0004*66
$GPHPD,0,0.000,53.20,0.15,-12.87,31.5908146,120.7742979,2.670,13631593.165,24923128.021,2.670,0.000,0.000,0.000,0.000,0.000,0.000,0.000,17,16,4*67
$GPGGA,073924.40,3135.4489669,N,12046.4580238,E,4,17,1.3,2.6665,M,8.302,M,01,0004*62
$GPHPD,0,0.000,53.29,0.42,-12.88,31.5908161,120.7743004,2.667,13631592.136,24923129.256,2.667,0.000,0.000,0.000,0.000,0.000,0.000,0.000,17,16,4*60
$GPGGA,073924.60,3135.4490596,N,12046.4581717,E,4,17,1.3,2.6620,M,8.302,M,00,0004*62
$GPHPD,0,0.000,53.07,0.24,-12.86,31.5908177,120.7743029,2.662,13631591.116,24923130.500,2.662,0.000,0.000,0.000,0.000,0.000,0.000,0.000,17,16,4*67
$GPGGA,073924.80,3135.4491502,N,12046.4583194,E,4,17,1.3,2.6619,M,8.302,M,00,0004*65
$GPHPD,0,0.000,53.09,0.19,-12.87,31.5908192,120.7743053,2.662,13631590.126,24923131.753,2.662,0.000,0.000,0.000,0.000,0.000,0.000,0.000,17,16,4*67
$GPGGA,073925.00,3135.4492445,N,12046.4584654,E,4,17,1.3,2.6642,M,8.302,M,01,0004*6E
$GPHPD,0,0.000,53.05,0.75,-12.89,31.5908207,120.7743078,2.664,13631589.080,24923132.965,2.664,0.000,0.000,0.000,0.000,0.000,0.000,0.000,17,16,4*64
$GPGGA,073925.20,3135.4493369,N,12046.4586158,E,4,17,1.3,2.6625,M,8.302,M,01,0004*6C
$GPHPD,0,0.000,53.03,0.60,-12.90,31.5908223,120.7743103,2.663,13631588.069,24923134.241,2.663,0.000,0.000,0.000,0.000,0.000,0.000,0.000,17,16,4*68
$GPGGA,073925.40,3135.4494322,N,12046.4587650,E,4,17,1.3,2.6762,M,8.302,M,01,0004*6E
$GPHPD,0,0.000,53.10,0.63,-12.91,31.5908239,120.7743128,2.676,13631587.015,24923135.485,2.676,0.000,0.000,0.000,0.000,0.000,0.000,0.000,17,16,4*61
$GPGGA,073925.60,3135.4495220,N,12046.4589102,E,4,17,1.3,2.6639,M,8.302,M,00,0004*6E
$GPHPD,0,0.000,53.36,0.52,-12.91,31.5908254,120.7743152,2.664,13631586.031,24923136.713,2.664,0.000,0.000,0.000,0.000,0.000,0.000,0.000,17,16,4*69
$GPGGA,073925.80,3135.4496166,N,12046.4590599,E,4,17,1.3,2.6746,M,8.302,M,00,0004*65
$GPHPD,0,0.000,53.38,0.66,-12.92,31.5908269,120.7743177,2.675,13631584.988,24923137.968,2.675,0.000,0.000,0.000,0.000,0.000,0.000,0.000,17,16,4*60
$GPGGA,073926.00,3135.4497084,N,12046.4592083,E,4,17,1.3,2.6760,M,8.302,M,01,0004*6B
$GPHPD,0,0.000,53.39,0.20,-12.94,31.5908285,120.7743201,2.676,13631583.982,24923139.223,2.676,0.000,0.000,0.000,0.000,0.000,0.000,0.000,17,16,4*62
$GPGGA,073926.20,3135.4497978,N,12046.4593552,E,4,17,1.3,2.6820,M,8.302,M,01,0004*60
$GPHPD,0,0.000,53.57,-0.14,-12.94,31.5908300,120.7743226,2.682,13631583.007,24923140.474,2.682,0.000,0.000,0.000,0.000,0.000,0.000,0.000,17,16,4*47
$GPGGA,073926.40,3135.4498903,N,12046.4595027,E,4,17,1.3,2.6813,M,8.302,M,01,0004*64
$GPHPD,0,0.000,53.53,-0.32,-12.95,31.5908315,120.7743250,2.681,13631581.989,24923141.714,2.681,0.000,0.000,0.000,0.000,0.000,0.000,0.000,17,16,4*4A
$GPGGA,073926.60,3135.4499780,N,12046.4596517,E,4,17,1.3,2.6823,M,8.302,M,00,0004*65
$GPHPD,0,0.000,53.94,-0.21,-12.94,31.5908330,120.7743275,2.682,13631581.042,24923143.001,2.682,0.000,0.000,0.000,0.000,0.000,0.000,0.000,17,16,4*4D
$GPGGA,073926.80,3135.4500685,N,12046.4597972,E,4,17,1.3,2.6759,M,8.302,M,00,0004*62
$GPHPD,0,0.000,54.11,-0.01,-12.93,31.5908345,120.7743300,2.676,13631580.049,24923144.228,2.676,0.000,0.000,0.000,0.000,0.000,0.000,0.000,17,16,4*47
$GPGGA,073927.00,3135.4501559,N,12046.4599434,E,4,17,1.3,2.6790,M,8.302,M,01,0004*6D
$GPHPD,0,0.000,54.33,0.35,-12.94,31.5908359,120.7743324,2.679,13631579.101,24923145.483,2.679,0.000,0.000,0.000,0.000,0.000,0.000,0.000,17,16,4*6C
$GPGGA,073927.20,3135.4502450,N,12046.4600902,E,4,17,1.3,2.6793,M,8.302,M,01,0004*6C
$GPHPD,0,0.000,54.28,0.20,-12.92,31.5908374,120.7743348,2.679,13631578.130,24923146.734,2.679,0.000,0.000,0.000,0.000,0.000,0.000,0.000,17,16,4*6E
$GPGGA,073927.40,3135.4503286,N,12046.4602403,E,4,17,1.3,2.6851,M,8.302,M,01,0004*69
$GPHPD,0,0.000,54.57,0.31,-12.91,31.5908388,120.7743373,2.685,13631577.244,24923148.058,2.685,0.000,0.000,0.000,0.000,0.000,0.000,0.000,17,16,4*62
$GPGGA,073927.60,3135.4504180,N,12046.4603867,E,4,17,1.3,2.6844,M,8.302,M,00,0004*63
$GPHPD,0,0.000,54.45,-0.35,-12.89,31.5908403,120.7743398,2.684,13631576.268,24923149.303,2.684,0.000,0.000,0.000,0.000,0.000,0.000,0.000,17,16,4*43
$GPGGA,073927.80,3135.4505044,N,12046.4605338,E,4,17,1.3,2.6803,M,8.302,M,00,0004*61
$GPHPD,0,0.000,54.56,-0.47,-12.89,31.5908417,120.7743422,2.680,13631575.336,24923150.574,2.680,0.000,0.000,0.000,0.000,0.000,0.000,0.000,17,16,4*40
$GPGGA,073928.00,3135.4505922,N,12046.4606814,E,4,17,1.3,2.6822,M,8.302,M,01,0004*6B
$GPHPD,0,0.000,54.98,-0.08,-12.88,31.5908432,120.7743447,2.682,13631574.386,24923151.842,2.682,0.000,0.000,0.000,0.000,0.000,0.000,0.000,17,16,4*4F
$GPGGA,073928.20,3135.4506785,N,12046.4608288,E,4,17,1.3,2.6753,M,8.302,M,01,0004*61
$GPHPD,0,0.000,55.13,-0.23,-12.85,31.5908446,120.7743471,2.675,13631573.456,24923153.117,2.675,0.000,0.000,0.000,0.000,0.000,0.000,0.000,17,16,4*49
