$GPGGA,074018.20,3135.4716702,N,12046.5025417,E,4,17,1.3,2.6128,M,8.305,M,01,0004*65
$GPHPD,0,0.000,58.58,-0.27,-10.21,31.5911945,120.7750424,2.613,13631359.065,24923533.920,2.613,0.000,0.000,0.000,0.000,0.000,0.000,0.000,17,16,4*43
$GPGGA,074018.40,3135.4717531,N,12046.5027107,E,4,17,1.3,2.6025,M,8.305,M,01,0004*6A
$GPHPD,0,0.000,58.91,-0.01,-10.16,31.5911959,120.7750452,2.603,13631358.227,24923535.476,2.603,0.000,0.000,0.000,0.000,0.000,0.000,0.000,17,15,4*44
$GPGGA,074018.60,3135.4718302,N,12046.5028639,E,4,17,1.3,2.6022,M,8.305,M,00,0004*62
$GPHPD,0,0.000,58.99,0.27,-10.12,31.5911972,120.7750477,2.602,13631357.439,24923536.874,2.602,0.000,0.000,0.000,0.000,0.000,0.000,0.000,17,16,4*67
$GPGGA,074018.80,3135.4718992,N,12046.5030045,E,4,17,1.3,2.6087,M,8.305,M,00,0004*64
$GPHPD,0,0.000,58.96,0.21,-10.06,31.5911983,120.7750501,2.609,13631356.742,24923538.168,2.609,0.000,0.000,0.000,0.000,0.000,0.000,0.000,17,16,4*61
$GPGGA,074019.00,3135.4719643,N,12046.5031289,E,4,17,1.3,2.6107,M,8.305,M,01,0004*64
$GPHPD,0,0.000,59.04,-0.15,-10.02,31.5911994,120.7750521,2.611,13631356.067,24923539.289,2.611,0.000,0.000,0.000,0.000,0.000,0.000,0.000,17,16,4*4C
$GPGGA,074019.20,3135.4720201,N,12046.5032420,E,4,17,1.3,2.6082,M,8.305,M,01,0004*64
$GPHPD,0,0.000,59.34,-0.24,-10.03,31.5912003,120.7750540,2.608,13631355.501,24923540.328,2.608,0.000,0.000,0.000,0.000,0.000,0.000,0.000,17,16,4*4D
$GPGGA,074019.40,3135.4720723,N,12046.5033467,E,4,17,1.3,2.6010,M,8.305,M,01,0004*6E
$GPHPD,0,0.000,59.31,-0.45,-10.09,31.5912012,120.7750558,2.601,13631354.970,24923541.287,2.601,0.000,0.000,0.000,0.000,0.000,0.000,0.000,17,16,4*42
$GPGGA,074019.60,3135.4721259,N,12046.5034481,E,4,17,1.3,2.6125,M,8.305,M,00,0004*6C
$GPHPD,0,0.000,59.43,0.13,-10.14,31.5912021,120.7750575,2.613,13631354.412,24923542.198,2.613,0.000,0.000,0.000,0.000,0.000,0.000,0.000,17,16,4*6D
$GPGGA,074019.80,3135.4721722,N,12046.5035452,E,4,17,1.3,2.6118,M,8.305,M,00,0004*6A
$GPHPD,0,0.000,59.56,-0.20,-10.20,31.5912029,120.7750591,2.612,13631353.950,24923543.099,2.612,0.000,0.000,0.000,0.000,0.000,0.000,0.000,17,16,4*4C
$GPGGA,074020.00,3135.4722164,N,12046.5036339,E,4,17,1.3,2.6228,M,8.305,M,01,0004*67
$GPHPD,0,0.000,59.27,-0.27,-10.26,31.5912036,120.7750606,2.623,13631353.500,24923543.911,2.623,0.000,0.000,0.000,0.000,0.000,0.000,0.000,17,16,4*48
$GPGGA,074020.20,3135.4722584,N,12046.5037139,E,4,17,1.3,2.6255,M,8.305,M,01,0004*66
$GPHPD,0,0.000,59.18,-0.29,-10.29,31.5912043,120.7750619,2.626,13631353.064,24923544.631,2.626,0.000,0.000,0.000,0.000,0.000,0.000,0.000,17,16,4*44
$GPGGA,074020.40,3135.4722954,N,12046.5037919,E,4,17,1.3,2.6277,M,8.305,M,01,0004*6B
$GPHPD,0,0.000,59.48,-0.59,-10.34,31.5912049,120.7750632,2.628,13631352.695,24923545.357,2.628,0.000,0.000,0.000,0.000,0.000,0.000,0.000,17,16,4*44
$GPGGA,074020.60,3135.4723292,N,12046.5038683,E,4,17,1.4,2.6127,M,8.305,M,00,0004*6A
$GPHPD,0,0.000,59.28,-0.74,-10.39,31.5912055,120.7750645,2.613,13631352.369,24923546.081,2.613,0.000,0.000,0.000,0.000,0.000,0.000,0.000,17,16,4*40
$GPGGA,074020.80,3135.4723638,N,12046.5039346,E,4,17,1.3,2.6399,M,8.305,M,00,0004*6D
$GPHPD,0,0.000,59.25,-0.21,-10.46,31.5912061,120.7750656,2.640,13631352.010,24923546.679,2.640,0.000,0.000,0.000,0.000,0.000,0.000,0.000,17,16,4*4C
$GPGGA,074021.00,3135.4723984,N,12046.5040054,E,4,16,1.4,2.6042,M,8.305,M,01,0004*60
$GPHPD,0,0.000,59.06,-0.29,-10.53,31.5912066,120.7750668,2.604,13631351.661,24923547.331,2.604,0.000,0.000,0.000,0.000,0.000,0.000,0.000,16,16,4*41
$GPGGA,074021.20,3135.4724312,N,12046.5040712,E,4,16,1.4,2.6065,M,8.305,M,01,0004*60
$GPHPD,0,0.000,59.15,0.17,-10.59,31.5912072,120.7750679,2.607,13631351.327,24923547.934,2.607,0.000,0.000,0.000,0.000,0.000,0.000,0.000,16,15,4*67
$GPGGA,074021.40,3135.4724607,N,12046.5041338,E,4,16,1.4,2.5964,M,8.305,M,01,0004*61
$GPHPD,0,0.000,59.16,0.16,-10.67,31.5912077,120.7750689,2.596,13631351.034,24923548.517,2.596,0.000,0.000,0.000,0.000,0.000,0.000,0.000,16,15,4*61
$GPGGA,074021.60,3135.4724912,N,12046.5041957,E,4,16,1.4,2.6065,M,8.305,M,00,0004*61
$GPHPD,0,0.000,59.16,0.67,-10.76,31.5912082,120.7750699,2.607,13631350.725,24923549.086,2.607,0.000,0.000,0.000,0.000,0.000,0.000,0.000,16,15,4*66
$GPGGA,074021.80,3135.4725222,N,12046.5042540,E,4,16,1.4,2.5985,M,8.305,M,00,0004*6B
$GPHPD,0,0.000,59.05,0.21,-10.85,31.5912087,120.7750709,2.599,13631350.402,24923549.609,2.599,0.000,0.000,0.000,0.000,0.000,0.000,0.000,16,15,4*60
$GPGGA,074022.00,3135.4725534,N,12046.5043171,E,4,16,1.4,2.5946,M,8.305,M,01,0004*69
$GPHPD,0,0.000,59.14,0.09,-10.98,31.5912092,120.7750720,2.595,13631350.085,24923550.188,2.595,0.000,0.000,0.000,0.000,0.000,0.000,0.000,16,15,4*64
$GPGGA,074022.20,3135.4725876,N,12046.5043833,E,4,17,1.4,2.5931,M,8.305,M,01,0004*6E
$GPHPD,0,0.000,59.30,0.49,-11.09,31.5912098,120.7750731,2.593,13631349.733,24923550.787,2.593,0.000,0.000,0.000,0.000,0.000,0.000,0.000,17,16,4*6C
$GPGGA,074022.40,3135.4726234,N,12046.5044530,E,4,16,1.4,2.5964,M,8.305,M,01,0004*6F
$GPHPD,0,0.000,59.28,0.29,-11.24,31.5912104,120.7750742,2.596,13631349.364,24923551.419,2.596,0.000,0.000,0.000,0.000,0.000,0.000,0.000,16,16,4*6E
$GPGGA,074022.60,3135.4726594,N,12046.5045275,E,4,17,1.4,2.5996,M,8.305,M,00,0004*6A
$GPHPD,0,0.000,59.01,0.02,-11.38,31.5912110,120.7750755,2.600,13631349.002,24923552.108,2.600,0.000,0.000,0.000,0.000,0.000,0.000,0.000,17,16,4*66
$GPGGA,074022.80,3135.4727004,N,12046.5046134,E,4,17,1.4,2.6029,M,8.305,M,00,0004*62
$GPHPD,0,0.000,59.25,0.22,-11.51,31.5912117,120.7750769,2.603,13631348.592,24923552.905,2.603,0.000,0.000,0.000,0.000,0.000,0.000,0.000,17,16,4*6D
$GPGGA,074023.00,3135.4727444,N,12046.5047020,E,4,17,1.4,2.5995,M,8.305,M,01,0004*62
$GPHPD,0,0.000,59.09,0.65,-11.66,31.5912124,120.7750784,2.600,13631348.145,24923553.717,2.600,0.000,0.000,0.000,0.000,0.000,0.000,0.000,17,16,4*65
$GPGGA,074023.20,3135.4727928,N,12046.5047952,E,4,17,1.4,2.6038,M,8.305,M,01,0004*66
$GPHPD,0,0.000,59.31,0.29,-11.78,31.5912132,120.7750799,2.604,13631347.645,24923554.559,2.604,0.000,0.000,0.000,0.000,0.000,0.000,0.000,17,16,4*65
$GPGGA,074023.40,3135.4728435,N,12046.5048992,E,4,17,1.4,2.6103,M,8.305,M,01,0004*64
$GPHPD,0,0.000,59.08,0.15,-11.89,31.5912141,120.7750817,2.610,13631347.134,24923555.518,2.610,0.000,0.000,0.000,0.000,0.000,0.000,0.000,17,16,4*66
$GPGGA,074023.60,3135.4728993,N,12046.5050098,E,4,17,1.4,2.6175,M,8.305,M,00,0004*6D
$GPHPD,0,0.000,59.31,0.17,-11.98,31.5912150,120.7750835,2.618,13631346.563,24923556.527,2.618,0.000,0.000,0.000,0.000,0.000,0.000,0.000,17,16,4*66
$GPGGA,074023.80,3135.4729567,N,12046.5051260,E,4,17,1.4,2.6068,M,8.305,M,00,0004*6C
$GPHPD,0,0.000,59.28,-0.03,-12.04,31.5912159,120.7750854,2.607,13631345.981,24923557.594,2.607,0.000,0.000,0.000,0.000,0.000,0.000,0.000,17,16,4*44
$GPGGA,074024.00,3135.4730150,N,12046.5052399,E,4,17,1.3,2.6054,M,8.305,M,01,0004*66
$GPHPD,0,0.000,59.18,0.38,-12.10,31.5912169,120.7750873,2.605,13631345.382,24923558.628,2.605,0.000,0.000,0.000,0.000,0.000,0.000,0.000,17,16,4*63
$GPGGA,074024.20,3135.4730753,N,12046.5053585,E,4,17,1.3,2.6116,M,8.305,M,01,0004*6C
$GPHPD,0,0.000,58.66,0.19,-12.14,31.5912179,120.7750893,2.612,13631344.764,24923559.708,2.612,0.000,0.000,0.000,0.000,0.000,0.000,0.000,17,16,4*6C
$GPGGA,074024.40,3135.4731368,N,12046.5054768,E,4,17,1.3,2.6159,M,8.305,M,01,0004*6A
$GPHPD,0,0.000,58.74,0.42,-12.16,31.5912189,120.7750913,2.616,13631344.128,24923560.776,2.616,0.000,0.000,0.000,0.000,0.000,0.000,0.000,17,16,4*68
$GPGGA,074024.60,3135.4731959,N,12046.5055945,E,4,17,1.3,2.6149,M,8.305,M,00,0004*60
$GPHPD,0,0.000,58.78,-0.25,-12.17,31.5912199,120.7750932,2.615,13631343.525,24923561.851,2.615,0.000,0.000,0.000,0.000,0.000,0.000,0.000,17,16,4*4E
$GPGGA,074024.80,3135.4732528,N,12046.5057073,E,4,17,1.3,2.6175,M,8.305,M,00,0004*66
$GPHPD,0,0.000,58.96,0.06,-12.18,31.5912209,120.7750951,2.618,13631342.943,24923562.880,2.618,0.000,0.000,0.000,0.000,0.000,0.000,0.000,17,16,4*60
$GPGGA,074025.00,3135.4733078,N,12046.5058193,E,4,17,1.3,2.6189,M,8.305,M,01,0004*6C
$GPHPD,0,0.000,59.22,0.08,-12.18,31.5912218,120.7750970,2.619,13631342.387,24923563.911,2.619,0.000,0.000,0.000,0.000,0.000,0.000,0.000,17,16,4*69
$GPGGA,074025.20,3135.4733583,N,12046.5059325,E,4,17,1.3,2.6171,M,8.305,M,01,0004*66
$GPHPD,0,0.000,59.11,0.12,-12.19,31.5912226,120.7750989,2.617,13631341.897,24923564.982,2.617,0.000,0.000,0.000,0.000,0.000,0.000,0.000,17,17,4*6D
$GPGGA,074025.40,3135.4734178,N,12046.5060362,E,4,17,1.4,2.6117,M,8.305,M,01,0004*69
$GPHPD,0,0.000,58.76,-0.22,-12.19,31.5912236,120.7751006,2.612,13631341.260,24923565.886,2.612,0.000,0.000,0.000,0.000,0.000,0.000,0.000,17,17,4*4B
$GPGGA,074025.60,3135.4734698,N,12046.5061408,E,4,17,1.4,2.6190,M,8.305,M,00,0004*66
$GPHPD,0,0.000,59.53,0.64,-12.18,31.5912245,120.7751023,2.619,13631340.731,24923566.844,2.619,0.000,0.000,0.000,0.000,0.000,0.000,0.000,17,17,4*6D
$GPGGA,074025.80,3135.4735145,N,12046.5062440,E,4,17,1.4,2.6251,M,8.305,M,00,0004*6F
$GPHPD,0,0.000,59.25,0.05,-12.16,31.5912252,120.7751041,2.625,13631340.304,24923567.829,2.625,0.000,0.000,0.000,0.000,0.000,0.000,0.000,17,17,4*6F
$GPGGA,074026.00,3135.4735674,N,12046.5063407,E,4,17,1.4,2.6161,M,8.305,M,01,0004*62
$GPHPD,0,0.000,58.90,0.17,-12.16,31.5912261,120.7751057,2.616,13631339.746,24923568.687,2.616,0.000,0.000,0.000,0.000,0.000,0.000,0.000,17,17,4*6D
$GPGGA,074026.20,3135.4736129,N,12046.5064369,E,4,17,1.4,2.6248,M,8.305,M,01,0004*6C
$GPHPD,0,0.000,58.71,0.32,-12.18,31.5912269,120.7751073,2.625,13631339.293,24923569.582,2.625,0.000,0.000,0.000,0.000,0.000,0.000,0.000,17,17,4*6F
$GPGGA,074026.40,3135.4736644,N,12046.5065294,E,4,18,1.4,2.6281,M,8.305,M,01,0004*6E
$GPHPD,0,0.000,58.28,0.10,-12.19,31.5912277,120.7751088,2.628,13631338.748,24923570.398,2.628,0.000,0.000,0.000,0.000,0.000,0.000,0.000,18,18,4*6E
$GPGGA,074026.60,3135.4737158,N,12046.5066256,E,4,18,1.4,2.6410,M,8.305,M,01,0004*64
$GPHPD,0,0.000,57.98,-0.28,-12.22,31.5912286,120.7751104,2.641,13631338.211,24923571.258,2.641,0.000,0.000,0.000,0.000,0.000,0.000,0.000,18,18,4*4A
$GPGGA,074026.80,3135.4737699,N,12046.5067213,E,4,18,1.4,2.6195,M,8.305,M,00,0004*69
$GPHPD,0,0.000,57.78,-0.18,-12.24,31.5912295,120.7751120,2.620,13631337.634,24923572.097,2.620,0.000,0.000,0.000,0.000,0.000,0.000,0.000,18,18,4*4B
$GPGGA,074027.00,3135.4738198,N,12046.5068195,E,4,18,1.4,2.6211,M,8.305,M,01,0004*65
$GPHPD,0,0.000,57.60,0.15,-12.30,31.5912303,120.7751137,2.621,13631337.123,24923572.991,2.621,0.000,0.000,0.000,0.000,0.000,0.000,0.000,18,18,4*61
$GPGGA,074027.20,3135.4738777,N,12046.5069180,E,4,18,1.4,2.6125,M,8.305,M,01,0004*61
$GPHPD,0,0.000,57.28,0.37,-12.36,31.5912313,120.7751153,2.613,13631336.498,24923573.842,2.613,0.000,0.000,0.000,0.000,0.000,0.000,0.000,18,18,4*62
$GPGGA,074027.40,3135.4739344,N,12046.5070198,E,4,18,1.4,2.6211,M,8.305,M,01,0004*67
$GPHPD,0,0.000,57.15,0.58,-12.41,31.5912322,120.7751170,2.621,13631335.897,24923574.739,2.621,0.000,0.000,0.000,0.000,0.000,0.000,0.000,18,18,4*62
$GPGGA,074027.60,3135.4739939,N,12046.5071290,E,4,18,1.4,2.6177,M,8.305,M,00,0004*6D
$GPHPD,0,0.000,56.91,0.76,-12.46,31.5912332,120.7751188,2.618,13631335.271,24923575.710,2.618,0.000,0.000,0.000,0.000,0.000,0.000,0.000,18,18,4*6A
$GPGGA,074027.80,3135.4740559,N,12046.5072390,E,4,18,1.4,2.6223,M,8.305,M,00,0004*67
$GPHPD,0,0.000,56.67,0.39,-12.51,31.5912343,120.7751207,2.622,13631334.611,24923576.675,2.622,0.000,0.000,0.000,0.000,0.000,0.000,0.000,18,18,4*6E
$GPGGA,074028.00,3135.4741230,N,12046.5073538,E,4,18,1.3,2.6226,M,8.305,M,01,0004*6F
$GPHPD,0,0.000,56.05,0.74,-12.56,31.5912354,120.7751226,2.623,13631333.889,24923577.669,2.623,0.000,0.000,0.000,0.000,0.000,0.000,0.000,18,17,4*6A
$GPGGA,074028.20,3135.4741962,N,12046.5074725,E,4,18,1.3,2.6222,M,8.305,M,01,0004*6C
$GPHPD,0,0.000,55.58,0.66,-12.61,31.5912366,120.7751245,2.622,13631333.087,24923578.674,2.622,0.000,0.000,0.000,0.000,0.000,0.000,0.000,18,17,4*67
$GPGGA,074028.40,3135.4742668,N,12046.5075953,E,4,18,1.3,2.6132,M,8.305,M,01,0004*60
$GPHPD,0,0.000,55.06,0.16,-12.68,31.5912378,120.7751266,2.613,13631332.331,24923579.744,2.613,0.000,0.000,0.000,0.000,0.000,0.000,0.000,18,17,4*60
$GPGGA,074028.60,3135.4743410,N,12046.5077239,E,4,18,1.3,2.6240,M,8.305,M,00,0004*6C
$GPHPD,0,0.000,54.83,0.58,-12.72,31.5912390,120.7751287,2.624,13631331.535,24923580.863,2.624,0.000,0.000,0.000,0.000,0.000,0.000,0.000,18,17,4*69
$GPGGA,074028.80,3135.4744188,N,12046.5078562,E,4,18,1.3,2.6226,M,8.305,M,00,0004*67
$GPHPD,0,0.000,54.46,-0.15,-12.75,31.5912403,120.7751309,2.623,13631330.696,24923582.005,2.623,0.000,0.000,0.000,0.000,0.000,0.000,0.000,18,17,4*48
$GPGGA,074029.00,3135.4744991,N,12046.5079892,E,4,18,1.3,2.6230,M,8.305,M,01,0004*6B
$GPHPD,0,0.000,54.23,0.26,-12.79,31.5912417,120.7751332,2.623,13631329.822,24923583.142,2.623,0.000,0.000,0.000,0.000,0.000,0.000,0.000,18,17,4*6D
$GPGGA,074029.20,3135.4745854,N,12046.5081247,E,4,18,1.3,2.6315,M,8.305,M,01,0004*63
$GPHPD,0,0.000,53.77,-0.17,-12.79,31.5912431,120.7751354,2.632,13631328.868,24923584.273,2.632,0.000,0.000,0.000,0.000,0.000,0.000,0.000,18,17,4*49
$GPGGA,074029.40,3135.4746711,N,12046.5082594,E,4,18,1.6,2.6183,M,8.305,M,01,0004*6A
$GPHPD,0,0.000,53.87,-0.61,-12.80,31.5912445,120.7751377,2.618,13631327.921,24923585.399,2.618,0.000,0.000,0.000,0.000,0.000,0.000,0.000,18,17,4*44
$GPGGA,074029.60,3135.4747535,N,12046.5083986,E,4,18,1.3,2.6362,M,8.305,M,00,0004*6A
$GPHPD,0,0.000,53.90,-0.06,-12.79,31.5912459,120.7751400,2.636,13631327.030,24923586.598,2.636,0.000,0.000,0.000,0.000,0.000,0.000,0.000,18,17,4*42
$GPGGA,074029.80,3135.4748354,N,12046.5085363,E,4,18,1.3,2.6333,M,8.305,M,00,0004*69
$GPHPD,0,0.000,53.40,-0.33,-12.77,31.5912473,120.7751423,2.633,13631326.144,24923587.781,2.633,0.000,0.000,0.000,0.000,0.000,0.000,0.000,18,17,4*46
$GPGGA,074030.00,3135.4749194,N,12046.5086708,E,4,18,1.3,2.6391,M,8.305,M,01,0004*65
$GPHPD,0,0.000,53.44,0.21,-12.76,31.5912487,120.7751445,2.639,13631325.220,24923588.914,2.639,0.000,0.000,0.000,0.000,0.000,0.000,0.000,18,17,4*69
$GPGGA,074030.20,3135.4750049,N,12046.5088007,E,4,18,1.3,2.6208,M,8.305,M,01,0004*69
$GPHPD,0,0.000,53.37,-0.23,-12.75,31.5912501,120.7751467,2.621,13631324.267,24923589.983,2.621,0.000,0.000,0.000,0.000,0.000,0.000,0.000,18,17,4*43
$GPGGA,074030.40,3135.4750865,N,12046.5089343,E,4,17,1.3,2.6251,M,8.305,M,01,0004*68
$GPHPD,0,0.000,53.34,0.21,-12.74,31.5912514,120.7751489,2.625,13631323.376,24923591.119,2.625,0.000,0.000,0.000,0.000,0.000,0.000,0.000,17,17,4*61
$GPGGA,074030.60,3135.4751705,N,12046.5090692,E,4,18,1.3,2.6342,M,8.305,M,00,0004*6E
$GPHPD,0,0.000,53.17,-0.06,-12.73,31.5912528,120.7751512,2.634,13631322.453,24923592.257,2.634,0.000,0.000,0.000,0.000,0.000,0.000,0.000,18,17,4*47
$GPGGA,074030.80,3135.4752575,N,12046.5092031,E,4,17,1.3,2.6198,M,8.305,M,00,0004*61
$GPHPD,0,0.000,53.20,-0.01,-12.73,31.5912543,120.7751534,2.620,13631321.486,24923593.365,2.620,0.000,0.000,0.000,0.000,0.000,0.000,0.000,17,16,4*49
$GPGGA,074031.00,3135.4753373,N,12046.5093372,E,4,17,1.3,2.6323,M,8.305,M,01,0004*6F
$GPHPD,0,0.000,53.54,0.94,-12.74,31.5912556,120.7751556,2.632,13631320.622,24923594.517,2.632,0.000,0.000,0.000,0.000,0.000,0.000,0.000,17,16,4*65
$GPGGA,074031.20,3135.4754203,N,12046.5094708,E,4,17,1.3,2.6366,M,8.305,M,01,0004*63
$GPHPD,0,0.000,53.28,0.23,-12.73,31.5912570,120.7751578,2.637,13631319.711,24923595.645,2.637,0.000,0.000,0.000,0.000,0.000,0.000,0.000,17,16,4*63
$GPGGA,074031.40,3135.4755066,N,12046.5096037,E,4,17,1.3,2.6378,M,8.305,M,01,0004*63
$GPHPD,0,0.000,53.22,0.19,-12.75,31.5912584,120.7751601,2.638,13631318.752,24923596.745,2.638,0.000,0.000,0.000,0.000,0.000,0.000,0.000,17,16,4*64
$GPGGA,074031.60,3135.4755903,N,12046.5097361,E,4,17,1.3,2.6431,M,8.305,M,00,0004*61
$GPHPD,0,0.000,53.14,0.40,-12.74,31.5912598,120.7751623,2.643,13631317.829,24923597.855,2.643,0.000,0.000,0.000,0.000,0.000,0.000,0.000,17,16,4*62
$GPGGA,074031.80,3135.4756742,N,12046.5098722,E,4,17,1.3,2.6280,M,8.305,M,00,0004*67
$GPHPD,0,0.000,52.89,0.36,-12.75,31.5912612,120.7751645,2.628,13631316.911,24923599.008,2.628,0.000,0.000,0.000,0.000,0.000,0.000,0.000,17,16,4*63
$GPGGA,074032.00,3135.4757624,N,12046.5100083,E,4,17,1.3,2.6384,M,8.305,M,01,0004*64
$GPHPD,0,0.000,52.88,0.77,-12.76,31.5912627,120.7751668,2.638,13631315.931,24923600.135,2.638,0.000,0.000,0.000,0.000,0.000,0.000,0.000,17,16,4*60
$GPGGA,074032.20,3135.4758487,N,12046.5101385,E,4,17,1.3,2.6355,M,8.305,M,01,0004*6A
$GPHPD,0,0.000,52.83,0.19,-12.77,31.5912641,120.7751690,2.636,13631314.966,24923601.203,2.636,0.000,0.000,0.000,0.000,0.000,0.000,0.000,17,16,4*61
$GPGGA,074032.40,3135.4759361,N,12046.5102779,E,4,17,1.3,2.6283,M,8.305,M,01,0004*6C
$GPHPD,0,0.000,53.09,0.25,-12.80,31.5912656,120.7751713,2.628,13631314.005,24923602.375,2.628,0.000,0.000,0.000,0.000,0.000,0.000,0.000,17,16,4*66
$GPGGA,074032.60,3135.4760184,N,12046.5104177,E,4,17,1.3,2.6447,M,8.305,M,00,0004*6C
$GPHPD,0,0.000,52.85,0.10,-12.82,31.5912670,120.7751736,2.645,13631313.116,24923603.582,2.645,0.000,0.000,0.000,0.000,0.000,0.000,0.000,17,16,4*6F
$GPGGA,074032.80,3135.4761050,N,12046.5105536,E,4,17,1.3,2.6373,M,8.305,M,00,0004*6B
$GPHPD,0,0.000,52.86,-0.28,-12.83,31.5912684,120.7751759,2.637,13631312.159,24923604.717,2.637,0.000,0.000,0.000,0.000,0.000,0.000,0.000,17,16,4*4A
$GPGGA,074033.00,3135.4761908,N,12046.5106924,E,4,17,1.3,2.6350,M,8.305,M,01,0004*6A
$GPHPD,0,0.000,53.13,-0.19,-12.84,31.5912698,120.7751782,2.635,13631311.219,24923605.891,2.635,0.000,0.000,0.000,0.000,0.000,0.000,0.000,17,16,4*4D
$GPGGA,074033.20,3135.4762786,N,12046.5108298,E,4,17,1.3,2.6329,M,8.305,M,01,0004*6F
$GPHPD,0,0.000,53.18,-0.16,-12.84,31.5912713,120.7751805,2.633,13631310.248,24923607.037,2.633,0.000,0.000,0.000,0.000,0.000,0.000,0.000,17,16,4*48
$GPGGA,074033.40,3135.4763653,N,12046.5109703,E,4,17,1.3,2.6234,M,8.305,M,01,0004*6A
$GPHPD,0,0.000,53.71,-0.01,-12.86,31.5912728,120.7751828,2.623,13631309.298,24923608.226,2.623,0.000,0.000,0.000,0.000,0.000,0.000,0.000,17,16,4*4C
$GPGGA,074033.60,3135.4764490,N,12046.5111110,E,4,17,1.3,2.6251,M,8.305,M,00,0004*6D
$GPHPD,0,0.000,53.88,0.24,-12.86,31.5912742,120.7751852,2.625,13631308.392,24923609.435,2.625,0.000,0.000,0.000,0.000,0.000,0.000,0.000,17,16,4*6E
$GPGGA,074033.80,3135.4765321,N,12046.5112496,E,4,17,1.3,2.6204,M,8.305,M,00,0004*67
$GPHPD,0,0.000,54.39,0.34,-12.87,31.5912755,120.7751875,2.620,13631307.490,24923610.623,2.620,0.000,0.000,0.000,0.000,0.000,0.000,0.000,17,16,4*67
$GPGGA,074034.00,3135.4766133,N,12046.5113897,E,4,17,1.3,2.6332,M,8.305,M,01,0004*63
$GPHPD,0,0.000,54.75,0.36,-12.89,31.5912769,120.7751898,2.633,13631306.617,24923611.840,2.633,0.000,0.000,0.000,0.000,0.000,0.000,0.000,17,16,4*69
$GPGGA,074034.20,3135.4766968,N,12046.5115319,E,4,17,1.3,2.6261,M,8.305,M,01,0004*6B
$GPHPD,0,0.000,55.16,0.02,-12.92,31.5912783,120.7751922,2.626,13631305.717,24923613.068,2.626,0.000,0.000,0.000,0.000,0.000,0.000,0.000,17,16,4*66
$GPGGA,074034.40,3135.4767793,N,12046.5116764,E,4,17,1.3,2.6287,M,8.305,M,01,0004*63
$GPHPD,0,0.000,55.67,1.19,-12.94,31.5912797,120.7751946,2.629,13631304.835,24923614.331,2.629,0.000,0.000,0.000,0.000,0.000,0.000,0.000,17,16,4*6C
$GPGGA,074034.60,3135.4768590,N,12046.5118215,E,4,17,1.3,2.6349,M,8.305,M,00,0004*60
$GPHPD,0,0.000,55.77,0.85,-12.95,31.5912810,120.7751970,2.635,13631303.994,24923615.616,2.635,0.000,0.000,0.000,0.000,0.000,0.000,0.000,17,16,4*61
$GPGGA,074034.80,3135.4769420,N,12046.5119667,E,4,17,1.3,2.6281,M,8.305,M,00,0004*60
$GPHPD,0,0.000,56.16,1.07,-12.96,31.5912824,120.7751994,2.628,13631303.107,24923616.884,2.628,0.000,0.000,0.000,0.000,0.000,0.000,0.000,17,16,4*64
$GPGGA,074035.00,3135.4770194,N,12046.5121121,E,4,17,1.3,2.6376,M,8.305,M,01,0004*6D
$GPHPD,0,0.000,56.32,0.83,-12.97,31.5912837,120.7752019,2.638,13631302.300,24923618.187,2.638,0.000,0.000,0.000,0.000,0.000,0.000,0.000,17,16,4*63
$GPGGA,074035.20,3135.4771005,N,12046.5122554,E,4,17,1.3,2.6432,M,8.305,M,01,0004*65
$GPHPD,0,0.000,56.41,0.63,-12.98,31.5912850,120.7752043,2.643,13631301.435,24923619.443,2.643,0.000,0.000,0.000,0.000,0.000,0.000,0.000,17,16,4*66
$GPGGA,074035.40,3135.4771785,N,12046.5124021,E,4,17,1.4,2.6475,M,8.305,M,01,0004*69
$GPHPD,0,0.000,56.58,0.19,-12.97,31.5912863,120.7752067,2.648,13631300.622,24923620.758,2.648,0.000,0.000,0.000,0.000,0.000,0.000,0.000,17,16,4*6C
$GPGGA,074035.60,3135.4772566,N,12046.5125476,E,4,17,1.3,2.6461,M,8.305,M,00,0004*63
$GPHPD,0,0.000,56.81,0.53,-12.97,31.5912876,120.7752091,2.646,13631299.805,24923622.058,2.646,0.000,0.000,0.000,0.000,0.000,0.000,0.000,17,16,4*64
$GPGGA,074035.80,3135.4773404,N,12046.5126930,E,4,17,1.4,2.6556,M,8.305,M,00,0004*67
$GPHPD,0,0.000,56.73,-0.29,-12.97,31.5912890,120.7752116,2.656,13631298.906,24923623.323,2.656,0.000,0.000,0.000,0.000,0.000,0.000,0.000,17,16,4*42
$GPGGA,074036.00,3135.4774201,N,12046.5128430,E,4,16,1.4,2.6465,M,8.305,M,01,0004*6A
$GPHPD,0,0.000,56.90,-1.38,-12.99,31.5912903,120.7752141,2.647,13631298.075,24923624.668,2.647,0.000,0.000,0.000,0.000,0.000,0.000,0.000,16,16,4*48
$GPGGA,074036.20,3135.4774990,N,12046.5129909,E,4,16,1.4,2.6515,M,8.305,M,01,0004*6B
$GPHPD,0,0.000,57.08,-1.16,-12.98,31.5912917,120.7752165,2.652,13631297.252,24923625.992,2.652,0.000,0.000,0.000,0.000,0.000,0.000,0.000,16,15,4*46
$GPGGA,074036.40,3135.4775790,N,12046.5131365,E,4,16,1.4,2.6480,M,8.306,M,01,0004*65
$GPHPD,0,0.000,57.07,-0.27,-12.99,31.5912930,120.7752189,2.648,13631296.408,24923627.282,2.648,0.000,0.000,0.000,0.000,0.000,0.000,0.000,16,15,4*4C
$GPGGA,074036.60,3135.4776610,N,12046.5132861,E,4,16,1.4,2.6407,M,8.306,M,00,0004*6F
$GPHPD,0,0.000,57.31,-0.02,-13.00,31.5912944,120.7752214,2.641,13631295.543,24923628.609,2.641,0.000,0.000,0.000,0.000,0.000,0.000,0.000,16,15,4*4E
$GPGGA,074036.80,3135.4777377,N,12046.5134363,E,4,16,1.4,2.6385,M,8.306,M,00,0004*66
$GPHPD,0,0.000,57.29,0.05,-13.00,31.5912956,120.7752239,2.639,13631294.756,24923629.973,2.639,0.000,0.000,0.000,0.000,0.000,0.000,0.000,16,15,4*65
$GPGGA,074037.00,3135.4778173,N,12046.5135855,E,4,16,1.4,2.6372,M,8.306,M,01,0004*60
$GPHPD,0,0.000,57.18,0.73,-13.02,31.5912970,120.7752264,2.637,13631293.925,24923631.309,2.637,0.000,0.000,0.000,0.000,0.000,0.000,0.000,16,15,4*6B
$GPGGA,074037.20,3135.4778993,N,12046.5137359,E,4,16,1.4,2.6397,M,8.306,M,01,0004*6A
$GPHPD,0,0.000,57.19,0.72,-13.01,31.5912983,120.7752289,2.640,13631293.062,24923632.645,2.640,0.000,0.000,0.000,0.000,0.000,0.000,0.000,16,15,4*63
$GPGGA,074037.40,3135.4779803,N,12046.5138847,E,4,18,1.3,2.6398,M,8.306,M,01,0004*68
$GPHPD,0,0.000,57.28,0.62,-12.99,31.5912997,120.7752314,2.640,13631292.210,24923633.968,2.640,0.000,0.000,0.000,0.000,0.000,0.000,0.000,18,17,4*6B
$GPGGA,074037.60,3135.4780581,N,12046.5140333,E,4,18,1.3,2.6499,M,8.306,M,00,0004*6B
$GPHPD,0,0.000,57.41,0.79,-13.00,31.5913010,120.7752339,2.650,13631291.403,24923635.307,2.650,0.000,0.000,0.000,0.000,0.000,0.000,0.000,18,17,4*65
$GPGGA,074037.80,3135.4781382,N,12046.5141864,E,4,18,1.3,2.6455,M,8.306,M,00,0004*69
$GPHPD,0,0.000,57.33,1.02,-13.01,31.5913023,120.7752364,2.646,13631290.573,24923636.687,2.646,0.000,0.000,0.000,0.000,0.000,0.000,0.000,18,17,4*6D
$GPGGA,074038.00,3135.4782194,N,12046.5143353,E,4,18,1.3,2.6550,M,8.306,M,01,0004*60
$GPHPD,0,0.000,57.57,0.82,-13.01,31.5913037,120.7752389,2.655,13631289.719,24923638.010,2.655,0.000,0.000,0.000,0.000,0.000,0.000,0.000,18,17,4*60
$GPGGA,074038.20,3135.4782970,N,12046.5144877,E,4,18,1.3,2.6583,M,8.306,M,01,0004*64
$GPHPD,0,0.000,57.73,0.65,-13.02,31.5913050,120.7752415,2.658,13631288.922,24923639.396,2.658,0.000,0.000,0.000,0.000,0.000,0.000,0.000,18,17,4*64
$GPGGA,074038.40,3135.4783745,N,12046.5146395,E,4,18,1.3,2.6623,M,8.306,M,01,0004*67
$GPHPD,0,0.000,57.87,0.49,-13.02,31.5913062,120.7752440,2.662,13631288.126,24923640.775,2.662,0.000,0.000,0.000,0.000,0.000,0.000,0.000,18,17,4*6B
$GPGGA,074038.60,3135.4784523,N,12046.5147875,E,4,18,1.3,2.6673,M,8.306,M,00,0004*60
$GPHPD,0,0.000,57.85,0.14,-13.01,31.5913075,120.7752465,2.667,13631287.319,24923642.107,2.667,0.000,0.000,0.000,0.000,0.000,0.000,0.000,18,17,4*63
$GPGGA,074038.80,3135.4785331,N,12046.5149393,E,4,18,1.3,2.6549,M,8.306,M,00,0004*6D
$GPHPD,0,0.000,58.00,-0.20,-13.02,31.5913089,120.7752490,2.655,13631286.476,24923643.467,2.655,0.000,0.000,0.000,0.000,0.000,0.000,0.000,18,17,4*4C
$GPGGA,074039.00,3135.4786082,N,12046.5150921,E,4,18,1.3,2.6673,M,8.306,M,01,0004*6C
$GPHPD,0,0.000,58.40,0.10,-13.02,31.5913101,120.7752515,2.667,13631285.716,24923644.872,2.667,0.000,0.000,0.000,0.000,0.000,0.000,0.000,18,17,4*62
$GPGGA,074039.20,3135.4786873,N,12046.5152395,E,4,18,1.3,2.6582,M,8.306,M,01,0004*62
$GPHPD,0,0.000,58.31,-0.20,-13.02,31.5913115,120.7752540,2.658,13631284.888,24923646.189,2.658,0.000,0.000,0.000,0.000,0.000,0.000,0.000,18,17,4*49
$GPGGA,074039.40,3135.4787642,N,12046.5153920,E,4,18,1.3,2.6582,M,8.306,M,01,0004*6C
$GPHPD,0,0.000,58.63,0.49,-13.04,31.5913127,120.7752565,2.658,13631284.102,24923647.581,2.658,0.000,0.000,0.000,0.000,0.000,0.000,0.000,18,17,4*6A
$GPGGA,074039.60,3135.4788402,N,12046.5155428,E,4,18,1.3,2.6612,M,8.306,M,00,0004*6F
$GPHPD,0,0.000,58.80,0.31,-13.03,31.5913140,120.7752590,2.661,13631283.326,24923648.957,2.661,0.000,0.000,0.000,0.000,0.000,0.000,0.000,18,17,4*6F
$GPGGA,074039.80,3135.4789197,N,12046.5156945,E,4,18,1.3,2.6612,M,8.306,M,00,0004*6C
$GPHPD,0,0.000,58.81,0.77,-13.01,31.5913153,120.7752616,2.661,13631282.501,24923650.323,2.661,0.000,0.000,0.000,0.000,0.000,0.000,0.000,18,17,4*63
$GPGGA,074040.00,3135.4789924,N,12046.5158481,E,4,17,1.4,2.6605,M,8.306,M,01,0004*6E
$GPHPD,0,0.000,58.65,0.40,-13.00,31.5913165,120.7752641,2.661,13631281.777,24923651.752,2.661,0.000,0.000,0.000,0.000,0.000,0.000,0.000,17,17,4*67
$GPGGA,074040.20,3135.4790734,N,12046.5159988,E,4,17,1.4,2.6516,M,8.306,M,01,0004*6F
$GPHPD,0,0.000,58.49,0.39,-12.98,31.5913179,120.7752666,2.652,13631280.929,24923653.098,2.652,0.000,0.000,0.000,0.000,0.000,0.000,0.000,17,17,4*68
$GPGGA,074040.40,3135.4791482,N,12046.5161516,E,4,17,1.4,2.6519,M,8.306,M,01,0004*69
$GPHPD,0,0.000,58.71,0.48,-12.96,31.5913191,120.7752692,2.652,13631280.173,24923654.505,2.652,0.000,0.000,0.000,0.000,0.000,0.000,0.000,17,16,4*66
$GPGGA,074040.60,3135.4792265,N,12046.5163043,E,4,17,1.4,2.6560,M,8.306,M,00,0004*6F
$GPHPD,0,0.000,58.52,0.36,-12.95,31.5913204,120.7752717,2.656,13631279.368,24923655.890,2.656,0.000,0.000,0.000,0.000,0.000,0.000,0.000,17,16,4*60
$GPGGA,074040.80,3135.4793009,N,12046.5164566,E,4,17,1.4,2.6684,M,8.306,M,00,0004*64
$GPHPD,0,0.000,58.46,0.00,-12.93,31.5913217,120.7752743,2.668,13631278.617,24923657.294,2.668,0.000,0.000,0.000,0.000,0.000,0.000,0.000,17,16,4*65
$GPGGA,074041.00,3135.4793816,N,12046.5166052,E,4,17,1.4,2.6542,M,8.306,M,01,0004*63
$GPHPD,0,0.000,58.44,-0.41,-12.92,31.5913230,120.7752768,2.654,13631277.769,24923658.616,2.654,0.000,0.000,0.000,0.000,0.000,0.000,0.000,17,16,4*44
$GPGGA,074041.20,3135.4794593,N,12046.5167571,E,4,17,1.4,2.6502,M,8.306,M,01,0004*67
$GPHPD,0,0.000,58.85,0.40,-12.92,31.5913243,120.7752793,2.650,13631276.970,24923659.995,2.650,0.000,0.000,0.000,0.000,0.000,0.000,0.000,17,16,4*67
$GPGGA,074041.40,3135.4795349,N,12046.5169065,E,4,17,1.4,2.6691,M,8.306,M,01,0004*66
$GPHPD,0,0.000,58.87,0.79,-12.92,31.5913256,120.7752818,2.669,13631276.196,24923661.357,2.669,0.000,0.000,0.000,0.000,0.000,0.000,0.000,17,16,4*68
$GPGGA,074041.60,3135.4796099,N,12046.5170572,E,4,17,1.4,2.6654,M,8.306,M,00,0004*6A
$GPHPD,0,0.000,58.77,0.14,-12.93,31.5913268,120.7752843,2.665,13631275.434,24923662.737,2.665,0.000,0.000,0.000,0.000,0.000,0.000,0.000,17,16,4*61
$GPGGA,074041.80,3135.4796847,N,12046.5172095,E,4,17,1.4,2.6624,M,8.306,M,00,0004*66
$GPHPD,0,0.000,58.79,0.78,-12.94,31.5913281,120.7752868,2.662,13631274.677,24923664.139,2.662,0.000,0.000,0.000,0.000,0.000,0.000,0.000,17,16,4*66
$GPGGA,074042.00,3135.4797636,N,12046.5173622,E,4,17,1.3,2.6618,M,8.306,M,01,0004*66
$GPHPD,0,0.000,58.53,0.39,-12.96,31.5913294,120.7752894,2.662,13631273.863,24923665.521,2.662,0.000,0.000,0.000,0.000,0.000,0.000,0.000,17,16,4*6E
$GPGGA,074042.20,3135.4798386,N,12046.5175132,E,4,17,1.3,2.6562,M,8.306,M,01,0004*6B
$GPHPD,0,0.000,58.77,1.19,-12.98,31.5913306,120.7752919,2.656,13631273.101,24923666.905,2.656,0.000,0.000,0.000,0.000,0.000,0.000,0.000,17,16,4*6F
$GPGGA,074042.40,3135.4799186,N,12046.5176610,E,4,17,1.3,2.6667,M,8.306,M,01,0004*6C
$GPHPD,0,0.000,58.49,0.77,-12.97,31.5913320,120.7752944,2.667,13631272.262,24923668.221,2.667,0.000,0.000,0.000,0.000,0.000,0.000,0.000,17,16,4*6C
$GPGGA,074042.60,3135.4799956,N,12046.5178132,E,4,17,1.3,2.6644,M,8.306,M,00,0004*62
$GPHPD,0,0.000,58.53,0.50,-12.97,31.5913333,120.7752969,2.664,13631271.473,24923669.608,2.664,0.000,0.000,0.000,0.000,0.000,0.000,0.000,17,16,4*64
$GPGGA,074042.80,3135.4800748,N,12046.5179649,E,4,17,1.3,2.6673,M,8.306,M,00,0004*6C
$GPHPD,0,0.000,58.37,0.68,-12.98,31.5913346,120.7752994,2.667,13631270.653,24923670.977,2.667,0.000,0.000,0.000,0.000,0.000,0.000,0.000,17,16,4*6C
$GPGGA,074043.00,3135.4801499,N,12046.5181140,E,4,17,1.3,2.6803,M,8.306,M,01,0004*6A
$GPHPD,0,0.000,58.54,0.95,-12.98,31.5913358,120.7753019,2.680,13631269.886,24923672.337,2.680,0.000,0.000,0.000,0.000,0.000,0.000,0.000,17,16,4*6B
$GPGGA,074043.20,3135.4802267,N,12046.5182604,E,4,17,1.3,2.6841,M,8.306,M,01,0004*6E
$GPHPD,0,0.000,58.33,1.01,-12.99,31.5913371,120.7753043,2.684,13631269.089,24923673.656,2.684,0.000,0.000,0.000,0.000,0.000,0.000,0.000,17,16,4*67
$GPGGA,074043.40,3135.4803035,N,12046.5184117,E,4,18,1.3,2.6810,M,8.306,M,01,0004*64
$GPHPD,0,0.000,58.31,-0.26,-12.99,31.5913384,120.7753069,2.681,13631268.302,24923675.033,2.681,0.000,0.000,0.000,0.000,0.000,0.000,0.000,18,16,4*43
$GPGGA,074043.60,3135.4803801,N,12046.5185619,E,4,18,1.3,2.6861,M,8.306,M,00,0004*66
$GPHPD,0,0.000,58.52,0.73,-12.99,31.5913397,120.7753094,2.686,13631267.515,24923676.398,2.686,0.000,0.000,0.000,0.000,0.000,0.000,0.000,18,16,4*65
$GPGGA,074043.80,3135.4804591,N,12046.5187121,E,4,18,1.3,2.6844,M,8.306,M,00,0004*62
$GPHPD,0,0.000,58.27,0.91,-12.99,31.5913410,120.7753119,2.684,13631266.695,24923677.750,2.684,0.000,0.000,0.000,0.000,0.000,0.000,0.000,18,16,4*6C
$GPGGA,074044.00,3135.4805368,N,12046.5188599,E,4,18,1.3,2.6879,M,8.306,M,01,0004*6B
$GPHPD,0,0.000,58.34,0.59,-12.97,31.5913423,120.7753143,2.688,13631265.888,24923679.080,2.688,0.000,0.000,0.000,0.000,0.000,0.000,0.000,18,17,4*6F
$GPGGA,074044.20,3135.4806119,N,12046.5190109,E,4,18,1.3,2.6939,M,8.306,M,01,0004*6F
$GPHPD,0,0.000,58.44,0.14,-12.96,31.5913435,120.7753168,2.694,13631265.125,24923680.463,2.694,0.000,0.000,0.000,0.000,0.000,0.000,0.000,18,17,4*6F
$GPGGA,074044.40,3135.4806909,N,12046.5191639,E,4,18,1.3,2.6829,M,8.306,M,01,0004*65
$GPHPD,0,0.000,58.38,0.23,-12.96,31.5913448,120.7753194,2.683,13631264.310,24923681.848,2.683,0.000,0.000,0.000,0.000,0.000,0.000,0.000,18,17,4*68
$GPGGA,074044.60,3135.4807694,N,12046.5193096,E,4,18,1.3,2.6928,M,8.306,M,00,0004*6D
$GPHPD,0,0.000,58.20,0.11,-12.96,31.5913462,120.7753218,2.693,13631263.487,24923683.148,2.693,0.000,0.000,0.000,0.000,0.000,0.000,0.000,18,17,4*6A
$GPGGA,074044.80,3135.4808494,N,12046.5194615,E,4,18,1.3,2.6791,M,8.306,M,00,0004*68
$GPHPD,0,0.000,58.21,0.09,-12.96,31.5913475,120.7753244,2.679,13631262.656,24923684.514,2.679,0.000,0.000,0.000,0.000,0.000,0.000,0.000,18,17,4*68
$GPGGA,074045.00,3135.4809231,N,12046.5196122,E,4,18,1.3,2.6914,M,8.306,M,01,0004*6A
$GPHPD,0,0.000,58.11,0.44,-12.96,31.5913487,120.7753269,2.691,13631261.912,24923685.902,2.691,0.000,0.000,0.000,0.000,0.000,0.000,0.000,18,17,4*66
$GPGGA,074045.20,3135.4809982,N,12046.5197593,E,4,18,1.3,2.6838,M,8.306,M,01,0004*6B
$GPHPD,0,0.000,58.25,0.22,-12.97,31.5913500,120.7753293,2.684,13631261.140,24923687.239,2.684,0.000,0.000,0.000,0.000,0.000,0.000,0.000,18,17,4*65
$GPGGA,074045.40,3135.4810765,N,12046.5199066,E,4,18,1.3,2.6901,M,8.306,M,01,0004*68
$GPHPD,0,0.000,58.06,0.19,-12.97,31.5913513,120.7753318,2.690,13631260.324,24923688.559,2.690,0.000,0.000,0.000,0.000,0.000,0.000,0.000,18,17,4*63
$GPGGA,074045.60,3135.4811529,N,12046.5200598,E,4,18,1.4,2.6873,M,8.306,M,00,0004*64
$GPHPD,0,0.000,58.47,0.21,-12.97,31.5913525,120.7753343,2.687,13631259.546,24923689.962,2.687,0.000,0.000,0.000,0.000,0.000,0.000,0.000,18,17,4*6B
$GPGGA,074045.80,3135.4812308,N,12046.5202127,E,4,18,1.3,2.6848,M,8.306,M,00,0004*61
$GPHPD,0,0.000,58.43,0.29,-12.97,31.5913538,120.7753369,2.685,13631258.747,24923691.352,2.685,0.000,0.000,0.000,0.000,0.000,0.000,0.000,18,17,4*61
$GPGGA,074046.00,3135.4813094,N,12046.5203599,E,4,18,1.3,2.6872,M,8.306,M,01,0004*65
$GPHPD,0,0.000,58.43,0.22,-12.97,31.5913552,120.7753393,2.687,13631257.926,24923692.670,2.687,0.000,0.000,0.000,0.000,0.000,0.000,0.000,18,17,4*63
$GPGGA,074046.20,3135.4813856,N,12046.5205112,E,4,18,1.3,2.6892,M,8.306,M,01,0004*6E
$GPHPD,0,0.000,58.92,0.48,-12.97,31.5913564,120.7753419,2.689,13631257.148,24923694.051,2.689,0.000,0.000,0.000,0.000,0.000,0.000,0.000,18,17,4*60
$GPGGA,074046.40,3135.4814620,N,12046.5206630,E,4,18,1.3,2.6835,M,8.306,M,01,0004*69
$GPHPD,0,0.000,58.57,0.32,-12.97,31.5913577,120.7753444,2.684,13631256.367,24923695.436,2.684,0.000,0.000,0.000,0.000,0.000,0.000,0.000,18,17,4*64
$GPGGA,074046.60,3135.4815353,N,12046.5208175,E,4,18,1.3,2.6923,M,8.306,M,00,0004*64
$GPHPD,0,0.000,58.58,0.51,-12.97,31.5913589,120.7753470,2.692,13631255.636,24923696.873,2.692,0.000,0.000,0.000,0.000,0.000,0.000,0.000,18,16,4*65
$GPGGA,074046.80,3135.4816134,N,12046.5209685,E,4,18,1.3,2.6856,M,8.306,M,00,0004*60
$GPHPD,0,0.000,58.59,0.60,-12.98,31.5913602,120.7753495,2.686,13631254.830,24923698.239,2.686,0.000,0.000,0.000,0.000,0.000,0.000,0.000,18,17,4*60
$GPGGA,074047.00,3135.4816880,N,12046.5211172,E,4,18,1.3,2.7047,M,8.306,M,01,0004*61
$GPHPD,0,0.000,59.03,0.91,-12.98,31.5913615,120.7753520,2.705,13631254.069,24923699.598,2.705,0.000,0.000,0.000,0.000,0.000,0.000,0.000,18,16,4*61
$GPGGA,074047.20,3135.4817628,N,12046.5212669,E,4,18,1.3,2.7170,M,8.306,M,01,0004*65
$GPHPD,0,0.000,58.88,0.52,-12.98,31.5913627,120.7753544,2.717,13631253.307,24923700.967,2.717,0.000,0.000,0.000,0.000,0.000,0.000,0.000,18,16,4*6E
$GPGGA,074047.40,3135.4818420,N,12046.5214185,E,4,18,1.3,2.7152,M,8.306,M,01,0004*65
$GPHPD,0,0.000,58.95,0.48,-12.98,31.5913640,120.7753570,2.715,13631252.487,24923702.334,2.715,0.000,0.000,0.000,0.000,0.000,0.000,0.000,18,16,4*6F
$GPGGA,074047.60,3135.4819193,N,12046.5215704,E,4,18,1.3,2.7023,M,8.306,M,01,0004*62
$GPHPD,0,0.000,59.07,0.63,-12.99,31.5913653,120.7753595,2.702,13631251.694,24923703.716,2.702,0.000,0.000,0.000,0.000,0.000,0.000,0.000,18,16,4*62
$GPGGA,074047.80,3135.4819909,N,12046.5217251,E,4,18,1.3,2.7157,M,8.306,M,01,0004*62
$GPHPD,0,0.000,58.94,0.69,-12.99,31.5913665,120.7753621,2.716,13631250.988,24923705.165,2.716,0.000,0.000,0.000,0.000,0.000,0.000,0.000,18,16,4*6D
$GPGGA,074048.00,3135.4820672,N,12046.5218755,E,4,18,1.3,2.7182,M,8.306,M,02,0004*69
$GPHPD,0,0.000,58.64,0.40,-13.00,31.5913678,120.7753646,2.718,13631250.206,24923706.534,2.718,0.000,0.000,0.000,0.000,0.000,0.000,0.000,18,17,4*6A
$GPGGA,074048.20,3135.4821457,N,12046.5220260,E,4,18,1.3,2.7137,M,8.306,M,02,0004*69
$GPHPD,0,0.000,58.90,0.38,-13.00,31.5913691,120.7753671,2.714,13631249.393,24923707.892,2.714,0.000,0.000,0.000,0.000,0.000,0.000,0.000,18,17,4*68
$GPGGA,074048.40,3135.4822190,N,12046.5221816,E,4,18,1.3,2.7172,M,8.306,M,02,0004*69
$GPHPD,0,0.000,59.12,0.64,-13.00,31.5913703,120.7753697,2.717,13631248.664,24923709.342,2.717,0.000,0.000,0.000,0.000,0.000,0.000,0.000,18,17,4*6C
$GPGGA,074048.60,3135.4822993,N,12046.5223352,E,4,18,1.3,2.7128,M,8.306,M,02,0004*66
$GPHPD,0,0.000,59.11,0.40,-13.01,31.5913717,120.7753723,2.713,13631247.832,24923710.726,2.713,0.000,0.000,0.000,0.000,0.000,0.000,0.000,18,17,4*6F
$GPGGA,074048.80,3135.4823783,N,12046.5224853,E,4,18,1.3,2.7004,M,8.306,M,00,0004*66
$GPHPD,0,0.000,59.42,0.37,-13.01,31.5913730,120.7753748,2.700,13631247.012,24923712.076,2.700,0.000,0.000,0.000,0.000,0.000,0.000,0.000,18,17,4*6B
$GPGGA,074049.00,3135.4824493,N,12046.5226388,E,4,18,1.3,2.7207,M,8.306,M,01,0004*65
$GPHPD,0,0.000,59.53,0.67,-13.01,31.5913742,120.7753773,2.721,13631246.311,24923713.514,2.721,0.000,0.000,0.000,0.000,0.000,0.000,0.000,18,17,4*62
$GPGGA,074049.20,3135.4825261,N,12046.5227927,E,4,18,1.3,2.7305,M,8.306,M,01,0004*60
$GPHPD,0,0.000,59.22,0.08,-13.04,31.5913754,120.7753799,2.731,13631245.530,24923714.923,2.731,0.000,0.000,0.000,0.000,0.000,0.000,0.000,18,17,4*62
$GPGGA,074049.40,3135.4826026,N,12046.5229500,E,4,17,1.4,2.7043,M,8.306,M,01,0004*6A
$GPHPD,0,0.000,59.13,-0.61,-13.06,31.5913767,120.7753825,2.704,13631244.759,24923716.374,2.704,0.000,0.000,0.000,0.000,0.000,0.000,0.000,17,16,4*40
$GPGGA,074049.60,3135.4826763,N,12046.5231025,E,4,17,1.4,2.7188,M,8.306,M,00,0004*62
$GPHPD,0,0.000,59.13,0.72,-13.08,31.5913779,120.7753850,2.719,13631244.018,24923717.784,2.719,0.000,0.000,0.000,0.000,0.000,0.000,0.000,17,16,4*64
$GPGGA,074049.80,3135.4827564,N,12046.5232554,E,4,17,1.4,2.7070,M,8.306,M,00,0004*6E
$GPHPD,0,0.000,59.14,0.76,-13.09,31.5913793,120.7753876,2.707,13631243.188,24923719.162,2.707,0.000,0.000,0.000,0.000,0.000,0.000,0.000,17,16,4*69
$GPGGA,074050.00,3135.4828320,N,12046.5234102,E,4,17,1.4,2.7049,M,8.306,M,01,0004*6D
$GPHPD,0,0.000,59.21,1.00,-13.10,31.5913805,120.7753902,2.705,13631242.425,24923720.588,2.705,0.000,0.000,0.000,0.000,0.000,0.000,0.000,17,16,4*6C
$GPGGA,074050.20,3135.4829084,N,12046.5235610,E,4,17,1.4,2.7034,M,8.306,M,01,0004*6C
$GPHPD,0,0.000,59.19,0.67,-13.11,31.5913818,120.7753927,2.703,13631241.642,24923721.962,2.703,0.000,0.000,0.000,0.000,0.000,0.000,0.000,17,16,4*64
$GPGGA,074050.40,3135.4829845,N,12046.5237157,E,4,17,1.4,2.7140,M,8.306,M,01,0004*6B
$GPHPD,0,0.000,59.57,1.48,-13.12,31.5913831,120.7753953,2.714,13631240.872,24923723.384,2.714,0.000,0.000,0.000,0.000,0.000,0.000,0.000,17,17,4*64
$GPGGA,074050.60,3135.4830594,N,12046.5238691,E,4,17,1.4,2.7260,M,8.306,M,00,0004*62
$GPHPD,0,0.000,59.40,0.58,-13.12,31.5913843,120.7753978,2.726,13631240.116,24923724.798,2.726,0.000,0.000,0.000,0.000,0.000,0.000,0.000,17,17,4*6B
$GPGGA,074050.80,3135.4831368,N,12046.5240243,E,4,17,1.4,2.7229,M,8.306,M,00,0004*61
$GPHPD,0,0.000,59.33,0.32,-13.10,31.5913856,120.7754004,2.723,13631239.328,24923726.219,2.723,0.000,0.000,0.000,0.000,0.000,0.000,0.000,17,17,4*6F
$GPGGA,074051.00,3135.4832117,N,12046.5241780,E,4,17,1.4,2.7243,M,8.306,M,01,0004*67
$GPHPD,0,0.000,59.42,0.82,-13.09,31.5913869,120.7754030,2.724,13631238.573,24923727.636,2.724,0.000,0.000,0.000,0.000,0.000,0.000,0.000,17,17,4*60
$GPGGA,074051.20,3135.4832884,N,12046.5243328,E,4,17,1.4,2.7254,M,8.306,M,01,0004*64
$GPHPD,0,0.000,59.42,0.92,-13.07,31.5913881,120.7754055,2.725,13631237.795,24923729.057,2.725,0.000,0.000,0.000,0.000,0.000,0.000,0.000,17,17,4*60
$GPGGA,074051.40,3135.4833626,N,12046.5244865,E,4,17,1.4,2.7334,M,8.306,M,01,0004*67
$GPHPD,0,0.000,59.52,1.03,-13.06,31.5913894,120.7754081,2.733,13631237.049,24923730.478,2.733,0.000,0.000,0.000,0.000,0.000,0.000,0.000,17,17,4*63
$GPGGA,074051.60,3135.4834399,N,12046.5246421,E,4,17,1.4,2.7358,M,8.306,M,00,0004*66
$GPHPD,0,0.000,59.62,0.59,-13.05,31.5913907,120.7754107,2.736,13631236.264,24923731.904,2.736,0.000,0.000,0.000,0.000,0.000,0.000,0.000,17,17,4*62
$GPGGA,074051.80,3135.4835112,N,12046.5247955,E,4,17,1.4,2.7420,M,8.306,M,00,0004*6F
$GPHPD,0,0.000,59.70,0.70,-13.07,31.5913919,120.7754133,2.742,13631235.559,24923733.339,2.742,0.000,0.000,0.000,0.000,0.000,0.000,0.000,17,17,4*6C
$GPGGA,074052.00,3135.4835892,N,12046.5249517,E,4,17,1.4,2.7457,M,8.306,M,01,0004*60
$GPHPD,0,0.000,59.59,0.07,-13.08,31.5913932,120.7754159,2.746,13631234.765,24923734.768,2.746,0.000,0.000,0.000,0.000,0.000,0.000,0.000,17,17,4*66
$GPGGA,074052.20,3135.4836622,N,12046.5251052,E,4,17,1.4,2.7518,M,8.306,M,01,0004*63
$GPHPD,0,0.000,59.79,-0.17,-13.08,31.5913944,120.7754184,2.752,13631234.036,24923736.194,2.752,0.000,0.000,0.000,0.000,0.000,0.000,0.000,17,17,4*4F
$GPGGA,074052.40,3135.4837430,N,12046.5252600,E,4,17,1.4,2.7417,M,8.306,M,01,0004*69
$GPHPD,0,0.000,59.75,-0.23,-13.07,31.5913957,120.7754210,2.742,13631233.200,24923737.591,2.742,0.000,0.000,0.000,0.000,0.000,0.000,0.000,17,17,4*47
$GPGGA,074052.60,3135.4838180,N,12046.5254153,E,4,17,1.4,2.7388,M,8.306,M,00,0004*6D
$GPHPD,0,0.000,59.73,-0.48,-13.05,31.5913970,120.7754236,2.739,13631232.446,24923739.027,2.739,0.000,0.000,0.000,0.000,0.000,0.000,0.000,17,17,4*4C
$GPGGA,074052.80,3135.4838904,N,12046.5255703,E,4,17,1.4,2.7358,M,8.306,M,00,0004*68
$GPHPD,0,0.000,59.61,-0.11,-13.03,31.5913982,120.7754262,2.736,13631231.729,24923740.474,2.736,0.000,0.000,0.000,0.000,0.000,0.000,0.000,17,17,4*4C
$GPGGA,074053.00,3135.4839726,N,12046.5257292,E,4,17,1.4,2.7343,M,8.306,M,01,0004*6A
$GPHPD,0,0.000,59.25,0.04,-13.02,31.5913995,120.7754288,2.734,13631230.881,24923741.912,2.734,0.000,0.000,0.000,0.000,0.000,0.000,0.000,17,17,4*66
$GPGGA,074053.20,3135.4840507,N,12046.5258862,E,4,17,1.4,2.7350,M,8.306,M,01,0004*6F
$GPHPD,0,0.000,59.32,0.31,-13.02,31.5914008,120.7754314,2.735,13631230.087,24923743.351,2.735,0.000,0.000,0.000,0.000,0.000,0.000,0.000,17,17,4*69
$GPGGA,074053.40,3135.4841253,N,12046.5260450,E,4,17,1.4,2.7379,M,8.306,M,01,0004*63
$GPHPD,0,0.000,59.03,0.37,-13.00,31.5914021,120.7754341,2.738,13631229.346,24923744.831,2.738,0.000,0.000,0.000,0.000,0.000,0.000,0.000,17,17,4*68
$GPGGA,074053.60,3135.4842076,N,12046.5261997,E,4,17,1.4,2.7305,M,8.306,M,00,0004*6A
$GPHPD,0,0.000,58.79,0.19,-12.99,31.5914035,120.7754367,2.731,13631228.487,24923746.218,2.731,0.000,0.000,0.000,0.000,0.000,0.000,0.000,17,17,4*60
$GPGGA,074053.80,3135.4842852,N,12046.5263571,E,4,17,1.4,2.7385,M,8.306,M,00,0004*64
$GPHPD,0,0.000,59.02,0.75,-12.97,31.5914048,120.7754393,2.739,13631227.701,24923747.664,2.739,0.000,0.000,0.000,0.000,0.000,0.000,0.000,17,17,4*64
$GPGGA,074054.00,3135.4843656,N,12046.5265128,E,4,17,1.4,2.7414,M,8.306,M,01,0004*60
$GPHPD,0,0.000,58.92,0.59,-12.96,31.5914061,120.7754419,2.741,13631226.872,24923749.073,2.741,0.000,0.000,0.000,0.000,0.000,0.000,0.000,17,17,4*69
$GPGGA,074054.20,3135.4844433,N,12046.5266695,E,4,17,1.4,2.7402,M,8.306,M,01,0004*61
$GPHPD,0,0.000,59.16,0.94,-12.96,31.5914074,120.7754445,2.740,13631226.083,24923750.510,2.740,0.000,0.000,0.000,0.000,0.000,0.000,0.000,17,17,4*66
$GPGGA,074054.40,3135.4845188,N,12046.5268265,E,4,17,1.4,2.7436,M,8.306,M,01,0004*61
$GPHPD,0,0.000,59.02,0.40,-12.96,31.5914086,120.7754471,2.744,13631225.326,24923751.964,2.744,0.000,0.000,0.000,0.000,0.000,0.000,0.000,17,17,4*61
$GPGGA,074054.60,3135.4846001,N,12046.5269794,E,4,17,1.4,2.7358,M,8.306,M,00,0004*64
$GPHPD,0,0.000,58.90,0.47,-12.96,31.5914100,120.7754497,2.736,13631224.478,24923753.335,2.736,0.000,0.000,0.000,0.000,0.000,0.000,0.000,17,17,4*6A
$GPGGA,074054.80,3135.4846766,N,12046.5271368,E,4,17,1.4,2.7453,M,8.306,M,00,0004*6E
$GPHPD,0,0.000,59.04,0.96,-12.95,31.5914113,120.7754523,2.745,13631223.708,24923754.787,2.745,0.000,0.000,0.000,0.000,0.000,0.000,0.000,17,17,4*6C
$GPGGA,074055.00,3135.4847555,N,12046.5272930,E,4,17,1.4,2.7526,M,8.306,M,01,0004*62
$GPHPD,0,0.000,58.95,0.77,-12.95,31.5914126,120.7754549,2.753,13631222.901,24923756.212,2.753,0.000,0.000,0.000,0.000,0.000,0.000,0.000,17,17,4*6D
$GPGGA,074055.20,3135.4848333,N,12046.5274509,E,4,17,1.4,2.7474,M,8.306,M,01,0004*6F
$GPHPD,0,0.000,59.24,1.27,-12.95,31.5914139,120.7754575,2.747,13631222.113,24923757.663,2.747,0.000,0.000,0.000,0.000,0.000,0.000,0.000,17,17,4*6B
$GPGGA,074055.40,3135.4849115,N,12046.5276055,E,4,18,1.3,2.7500,M,8.306,M,01,0004*6A
$GPHPD,0,0.000,59.12,1.04,-12.94,31.5914152,120.7754601,2.750,13631221.312,24923759.072,2.750,0.000,0.000,0.000,0.000,0.000,0.000,0.000,18,18,4*6B
$GPGGA,074055.60,3135.4849867,N,12046.5277662,E,4,18,1.3,2.7560,M,8.306,M,00,0004*60
$GPHPD,0,0.000,59.04,0.76,-12.92,31.5914164,120.7754628,2.756,13631220.567,24923760.572,2.756,0.000,0.000,0.000,0.000,0.000,0.000,0.000,18,18,4*6A
$GPGGA,074055.80,3135.4850686,N,12046.5279199,E,4,18,1.3,2.7562,M,8.306,M,00,0004*68
$GPHPD,0,0.000,59.15,0.03,-12.91,31.5914178,120.7754653,2.756,13631219.712,24923761.948,2.756,0.000,0.000,0.000,0.000,0.000,0.000,0.000,18,18,4*64
$GPGGA,074056.00,3135.4851487,N,12046.5280764,E,4,18,1.3,2.7715,M,8.306,M,01,0004*60
$GPHPD,0,0.000,59.35,0.02,-12.89,31.5914191,120.7754679,2.772,13631218.889,24923763.369,2.772,0.000,0.000,0.000,0.000,0.000,0.000,0.000,18,18,4*66
$GPGGA,074056.20,3135.4852231,N,12046.5282338,E,4,18,1.3,2.7754,M,8.306,M,01,0004*60
$GPHPD,0,0.000,59.34,-0.74,-12.87,31.5914204,120.7754706,2.775,13631218.148,24923764.834,2.775,0.000,0.000,0.000,0.000,0.000,0.000,0.000,18,18,4*43
$GPGGA,074056.40,3135.4853029,N,12046.5283884,E,4,18,1.3,2.7670,M,8.306,M,01,0004*66
$GPHPD,0,0.000,59.44,-0.44,-12.87,31.5914217,120.7754731,2.767,13631217.325,24923766.234,2.767,0.000,0.000,0.000,0.000,0.000,0.000,0.000,18,18,4*4F
$GPGGA,074056.60,3135.4853792,N,12046.5285465,E,4,18,1.3,2.7553,M,8.306,M,00,0004*65
$GPHPD,0,0.000,59.79,0.00,-12.87,31.5914230,120.7754758,2.755,13631216.559,24923767.696,2.755,0.000,0.000,0.000,0.000,0.000,0.000,0.000,18,18,4*67
$GPGGA,074056.80,3135.4854568,N,12046.5287014,E,4,18,1.3,2.7456,M,8.306,M,00,0004*6F
$GPHPD,0,0.000,59.42,0.39,-12.88,31.5914243,120.7754784,2.746,13631215.768,24923769.112,2.746,0.000,0.000,0.000,0.000,0.000,0.000,0.000,18,18,4*69
$GPGGA,074057.00,3135.4855317,N,12046.5288565,E,4,18,1.3,2.7571,M,8.306,M,01,0004*60
$GPHPD,0,0.000,59.48,0.44,-12.89,31.5914255,120.7754809,2.757,13631215.015,24923770.546,2.757,0.000,0.000,0.000,0.000,0.000,0.000,0.000,18,17,4*6A
$GPGGA,074057.20,3135.4856089,N,12046.5290157,E,4,18,1.3,2.7545,M,8.306,M,01,0004*6E
$GPHPD,0,0.000,59.13,0.21,-12.89,31.5914268,120.7754836,2.755,13631214.238,24923772.017,2.755,0.000,0.000,0.000,0.000,0.000,0.000,0.000,18,17,4*6A
$GPGGA,074057.40,3135.4856848,N,12046.5291744,E,4,18,1.3,2.7575,M,8.306,M,01,0004*6B
$GPHPD,0,0.000,58.73,-0.03,-12.90,31.5914281,120.7754862,2.758,13631213.479,24923773.489,2.758,0.000,0.000,0.000,0.000,0.000,0.000,0.000,18,17,4*48
$GPGGA,074057.60,3135.4857646,N,12046.5293280,E,4,18,1.3,2.7619,M,8.306,M,00,0004*6F
$GPHPD,0,0.000,58.70,0.39,-12.89,31.5914294,120.7754888,2.762,13631212.654,24923774.876,2.762,0.000,0.000,0.000,0.000,0.000,0.000,0.000,18,17,4*60
$GPGGA,074057.80,3135.4858431,N,12046.5294825,E,4,18,1.3,2.7570,M,8.306,M,00,0004*62
$GPHPD,0,0.000,58.91,0.41,-12.93,31.5914307,120.7754914,2.757,13631211.849,24923776.282,2.757,0.000,0.000,0.000,0.000,0.000,0.000,0.000,18,17,4*66
$GPGGA,074058.00,3135.4859201,N,12046.5296390,E,4,18,1.4,2.7543,M,8.306,M,01,0004*60
$GPHPD,0,0.000,58.92,0.64,-12.95,31.5914320,120.7754940,2.754,13631211.070,24923777.721,2.754,0.000,0.000,0.000,0.000,0.000,0.000,0.000,18,17,4*6F
$GPGGA,074058.20,3135.4859983,N,12046.5297931,E,4,17,1.4,2.7538,M,8.306,M,01,0004*60
$GPHPD,0,0.000,58.81,0.56,-12.96,31.5914333,120.7754966,2.754,13631210.268,24923779.124,2.754,0.000,0.000,0.000,0.000,0.000,0.000,0.000,17,17,4*61
$GPGGA,074058.40,3135.4860752,N,12046.5299447,E,4,17,1.4,2.7509,M,8.307,M,01,0004*6F
$GPHPD,0,0.000,59.22,1.29,-12.95,31.5914346,120.7754991,2.751,13631209.481,24923780.505,2.751,0.000,0.000,0.000,0.000,0.000,0.000,0.000,17,17,4*61
$GPGGA,074058.60,3135.4861546,N,12046.5301022,E,4,18,1.4,2.7593,M,8.307,M,00,0004*61
$GPHPD,0,0.000,59.22,1.23,-12.91,31.5914359,120.7755017,2.759,13631208.669,24923781.942,2.759,0.000,0.000,0.000,0.000,0.000,0.000,0.000,18,17,4*63
$GPGGA,074058.80,3135.4862335,N,12046.5302604,E,4,18,1.4,2.7632,M,8.307,M,00,0004*67
$GPHPD,0,0.000,59.22,0.80,-12.91,31.5914372,120.7755043,2.763,13631207.866,24923783.390,2.763,0.000,0.000,0.000,0.000,0.000,0.000,0.000,18,17,4*6A
$GPGGA,074059.00,3135.4863125,N,12046.5304162,E,4,18,1.3,2.7621,M,8.307,M,01,0004*69
$GPHPD,0,0.000,59.08,0.27,-12.91,31.5914385,120.7755069,2.762,13631207.057,24923784.809,2.762,0.000,0.000,0.000,0.000,0.000,0.000,0.000,18,17,4*69
$GPGGA,074059.20,3135.4863891,N,12046.5305723,E,4,18,1.3,2.7602,M,8.307,M,01,0004*6E
$GPHPD,0,0.000,59.04,-0.13,-12.96,31.5914398,120.7755095,2.760,13631206.282,24923786.245,2.760,0.000,0.000,0.000,0.000,0.000,0.000,0.000,18,17,4*4C
$GPGGA,074059.40,3135.4864676,N,12046.5307307,E,4,18,1.3,2.7627,M,8.307,M,01,0004*6F
$GPHPD,0,0.000,59.07,0.81,-12.96,31.5914411,120.7755122,2.763,13631205.485,24923787.698,2.763,0.000,0.000,0.000,0.000,0.000,0.000,0.000,18,17,4*65
$GPGGA,074059.60,3135.4865449,N,12046.5308854,E,4,18,1.3,2.7764,M,8.307,M,00,0004*67
$GPHPD,0,0.000,58.92,0.31,-12.98,31.5914424,120.7755148,2.776,13631204.698,24923789.114,2.776,0.000,0.000,0.000,0.000,0.000,0.000,0.000,18,17,4*65
$GPGGA,074059.80,3135.4866219,N,12046.5310408,E,4,18,1.3,2.7663,M,8.307,M,00,0004*63
$GPHPD,0,0.000,58.97,0.33,-12.99,31.5914437,120.7755173,2.766,13631203.916,24923790.539,2.766,0.000,0.000,0.000,0.000,0.000,0.000,0.000,18,17,4*64
$GPGGA,074100.00,3135.4866994,N,12046.5311965,E,4,18,1.3,2.7697,M,8.307,M,01,0004*65
$GPHPD,0,0.000,58.88,0.58,-12.99,31.5914450,120.7755199,2.770,13631203.128,24923791.966,2.770,0.000,0.000,0.000,0.000,0.000,0.000,0.000,18,17,4*60
$GPGGA,074100.20,3135.4867785,N,12046.5313512,E,4,18,1.3,2.7831,M,8.307,M,01,0004*64
$GPHPD,0,0.000,59.20,0.31,-12.99,31.5914463,120.7755225,2.783,13631202.315,24923793.371,2.783,0.000,0.000,0.000,0.000,0.000,0.000,0.000,18,17,4*6B
$GPGGA,074100.40,3135.4868553,N,12046.5315071,E,4,18,1.3,2.7783,M,8.307,M,01,0004*64
$GPHPD,0,0.000,59.40,0.03,-12.99,31.5914476,120.7755251,2.778,13631201.537,24923794.803,2.778,0.000,0.000,0.000,0.000,0.000,0.000,0.000,18,17,4*67
$GPGGA,074100.60,3135.4869280,N,12046.5316622,E,4,18,1.3,2.7747,M,8.307,M,00,0004*64
$GPHPD,0,0.000,59.63,0.36,-13.01,31.5914488,120.7755277,2.775,13631200.816,24923796.250,2.775,0.000,0.000,0.000,0.000,0.000,0.000,0.000,18,17,4*64
$GPGGA,074100.80,3135.4870111,N,12046.5318208,E,4,18,1.3,2.7709,M,8.307,M,00,0004*61
$GPHPD,0,0.000,59.79,-0.10,-13.04,31.5914502,120.7755303,2.771,13631199.954,24923797.679,2.771,0.000,0.000,0.000,0.000,0.000,0.000,0.000,18,17,4*48
$GPGGA,074101.00,3135.4870838,N,12046.5319768,E,4,18,1.3,2.8019,M,8.307,M,01,0004*60
$GPHPD,0,0.000,59.76,0.17,-13.04,31.5914514,120.7755329,2.802,13631199.235,24923799.137,2.802,0.000,0.000,0.000,0.000,0.000,0.000,0.000,18,17,4*6D
$GPGGA,074101.20,3135.4871590,N,12046.5321362,E,4,18,1.3,2.7762,M,8.307,M,01,0004*6D
$GPHPD,0,0.000,59.84,-0.62,-13.02,31.5914527,120.7755356,2.776,13631198.487,24923800.621,2.776,0.000,0.000,0.000,0.000,0.000,0.000,0.000,18,17,4*40
$GPGGA,074101.40,3135.4872339,N,12046.5322937,E,4,17,1.5,2.7784,M,8.307,M,01,0004*65
$GPHPD,0,0.000,59.51,-0.38,-13.03,31.5914539,120.7755382,2.778,13631197.740,24923802.085,2.778,0.000,0.000,0.000,0.000,0.000,0.000,0.000,17,16,4*43
$GPGGA,074101.60,3135.4873116,N,12046.5324575,E,4,17,1.3,2.7746,M,8.307,M,00,0004*6C
$GPHPD,0,0.000,59.25,0.30,-13.04,31.5914552,120.7755410,2.775,13631196.965,24923803.608,2.775,0.000,0.000,0.000,0.000,0.000,0.000,0.000,17,16,4*69
$GPGGA,074101.80,3135.4873873,N,12046.5326143,E,4,17,1.3,2.7724,M,8.307,M,00,0004*6F
$GPHPD,0,0.000,58.93,0.08,-13.07,31.5914565,120.7755436,2.772,13631196.204,24923805.058,2.772,0.000,0.000,0.000,0.000,0.000,0.000,0.000,17,16,4*64
$GPGGA,074102.00,3135.4874681,N,12046.5327733,E,4,17,1.3,2.7809,M,8.307,M,01,0004*61
$GPHPD,0,0.000,59.09,0.77,-13.05,31.5914578,120.7755462,2.781,13631195.376,24923806.505,2.781,0.000,0.000,0.000,0.000,0.000,0.000,0.000,17,16,4*68
$GPGGA,074102.20,3135.4875446,N,12046.5329289,E,4,17,1.3,2.7813,M,8.307,M,01,0004*6A
$GPHPD,0,0.000,59.05,0.18,-13.05,31.5914591,120.7755488,2.781,13631194.602,24923807.935,2.781,0.000,0.000,0.000,0.000,0.000,0.000,0.000,17,16,4*67
$GPGGA,074102.40,3135.4876234,N,12046.5330832,E,4,17,1.3,2.7779,M,8.307,M,01,0004*6D
$GPHPD,0,0.000,59.00,0.12,-13.05,31.5914604,120.7755514,2.778,13631193.793,24923809.337,2.778,0.000,0.000,0.000,0.000,0.000,0.000,0.000,17,16,4*6B
$GPGGA,074102.60,3135.4876997,N,12046.5332398,E,4,17,1.3,2.7832,M,8.307,M,00,0004*65
$GPHPD,0,0.000,59.20,0.35,-13.04,31.5914617,120.7755540,2.783,13631193.023,24923810.782,2.783,0.000,0.000,0.000,0.000,0.000,0.000,0.000,17,16,4*60
$GPGGA,074102.80,3135.4877854,N,12046.5333972,E,4,17,1.3,2.7783,M,8.307,M,00,0004*6E
$GPHPD,0,0.000,59.26,0.36,-13.03,31.5914631,120.7755566,2.778,13631192.122,24923812.181,2.778,0.000,0.000,0.000,0.000,0.000,0.000,0.000,17,16,4*64
$GPGGA,074103.00,3135.4878609,N,12046.5335564,E,4,17,1.3,2.7821,M,8.307,M,01,0004*65
$GPHPD,0,0.000,59.56,0.72,-13.04,31.5914643,120.7755593,2.782,13631191.369,24923813.661,2.782,0.000,0.000,0.000,0.000,0.000,0.000,0.000,17,16,4*6D
$GPGGA,074103.20,3135.4879364,N,12046.5337161,E,4,17,1.3,2.7948,M,8.307,M,01,0004*65
$GPHPD,0,0.000,59.44,0.78,-13.02,31.5914656,120.7755619,2.795,13631190.618,24923815.147,2.795,0.000,0.000,0.000,0.000,0.000,0.000,0.000,17,16,4*60
$GPGGA,074103.40,3135.4880138,N,12046.5338728,E,4,17,1.3,2.7834,M,8.307,M,01,0004*60
$GPHPD,0,0.000,59.06,0.52,-13.04,31.5914669,120.7755645,2.783,13631189.833,24923816.586,2.783,0.000,0.000,0.000,0.000,0.000,0.000,0.000,17,16,4*68
$GPGGA,074103.60,3135.4880943,N,12046.5340300,E,4,17,1.3,2.8012,M,8.307,M,00,0004*65
$GPHPD,0,0.000,58.77,0.65,-13.05,31.5914682,120.7755672,2.801,13631189.005,24923818.013,2.801,0.000,0.000,0.000,0.000,0.000,0.000,0.000,17,16,4*61
$GPGGA,074103.80,3135.4881754,N,12046.5341880,E,4,17,1.3,2.7992,M,8.307,M,00,0004*6E
$GPHPD,0,0.000,59.04,0.06,-13.03,31.5914696,120.7755698,2.799,13631188.170,24923819.446,2.799,0.000,0.000,0.000,0.000,0.000,0.000,0.000,17,16,4*61
$GPGGA,074104.00,3135.4882519,N,12046.5343445,E,4,17,1.3,2.7835,M,8.307,M,01,0004*63
$GPHPD,0,0.000,59.11,0.15,-13.02,31.5914709,120.7755724,2.784,13631187.398,24923820.888,2.784,0.000,0.000,0.000,0.000,0.000,0.000,0.000,17,16,4*68
$GPGGA,074104.20,3135.4883308,N,12046.5345002,E,4,17,1.3,2.7987,M,8.307,M,01,0004*6F
$GPHPD,0,0.000,59.23,1.08,-13.02,31.5914722,120.7755750,2.799,13631186.590,24923822.306,2.799,0.000,0.000,0.000,0.000,0.000,0.000,0.000,17,16,4*6E
$GPGGA,074104.40,3135.4884052,N,12046.5346485,E,4,17,1.3,2.8030,M,8.307,M,01,0004*60
$GPHPD,0,0.000,59.13,0.35,-13.00,31.5914734,120.7755775,2.803,13631185.831,24923823.661,2.803,0.000,0.000,0.000,0.000,0.000,0.000,0.000,17,16,4*60
$GPGGA,074104.60,3135.4884790,N,12046.5347996,E,4,17,1.3,2.8103,M,8.307,M,00,0004*65
$GPHPD,0,0.000,59.51,0.05,-12.97,31.5914747,120.7755800,2.810,13631185.086,24923825.054,2.810,0.000,0.000,0.000,0.000,0.000,0.000,0.000,17,16,4*61
$GPGGA,074104.80,3135.4885499,N,12046.5349404,E,4,17,1.3,2.8034,M,8.307,M,00,0004*6D
$GPHPD,0,0.000,59.24,0.35,-12.95,31.5914758,120.7755823,2.803,13631184.362,24923826.339,2.803,0.000,0.000,0.000,0.000,0.000,0.000,0.000,17,16,4*6E
$GPGGA,074105.00,3135.4886209,N,12046.5350829,E,4,17,1.3,2.8036,M,8.307,M,01,0004*60
$GPHPD,0,0.000,59.02,0.58,-12.92,31.5914770,120.7755847,2.804,13631183.640,24923827.644,2.804,0.000,0.000,0.000,0.000,0.000,0.000,0.000,17,16,4*62
$GPGGA,074105.20,3135.4886894,N,12046.5352190,E,4,17,1.3,2.8082,M,8.307,M,01,0004*6A
$GPHPD,0,0.000,58.93,0.79,-12.92,31.5914782,120.7755870,2.808,13631182.940,24923828.886,2.808,0.000,0.000,0.000,0.000,0.000,0.000,0.000,17,16,4*60
$GPGGA,074105.40,3135.4887569,N,12046.5353556,E,4,17,1.3,2.8025,M,8.307,M,01,0004*60
$GPHPD,0,0.000,58.91,0.37,-12.91,31.5914793,120.7755893,2.803,13631182.255,24923830.141,2.803,0.000,0.000,0.000,0.000,0.000,0.000,0.000,17,16,4*62
$GPGGA,074105.60,3135.4888210,N,12046.5354929,E,4,17,1.3,2.8009,M,8.307,M,00,0004*68
$GPHPD,0,0.000,58.57,0.20,-12.88,31.5914804,120.7755915,2.801,13631181.621,24923831.423,2.801,0.000,0.000,0.000,0.000,0.000,0.000,0.000,17,16,4*6C
$GPGGA,074105.80,3135.4888907,N,12046.5356226,E,4,17,1.3,2.7964,M,8.307,M,00,0004*60
$GPHPD,0,0.000,58.39,0.12,-12.86,31.5914815,120.7755937,2.796,13631180.891,24923832.581,2.796,0.000,0.000,0.000,0.000,0.000,0.000,0.000,17,16,4*65
$GPGGA,074106.00,3135.4889580,N,12046.5357483,E,4,17,1.3,2.8100,M,8.307,M,01,0004*65
$GPHPD,0,0.000,58.65,0.93,-12.86,31.5914826,120.7755958,2.810,13631180.188,24923833.705,2.810,0.000,0.000,0.000,0.000,0.000,0.000,0.000,17,16,4*62
$GPGGA,074106.20,3135.4890209,N,12046.5358768,E,4,17,1.3,2.8065,M,8.307,M,01,0004*62
$GPHPD,0,0.000,58.77,0.17,-12.86,31.5914837,120.7755979,2.807,13631179.552,24923834.889,2.807,0.000,0.000,0.000,0.000,0.000,0.000,0.000,17,16,4*67
$GPGGA,074106.40,3135.4890892,N,12046.5360044,E,4,17,1.3,2.8090,M,8.307,M,01,0004*64
$GPHPD,0,0.000,58.58,-0.31,-12.86,31.5914848,120.7756001,2.809,13631178.838,24923836.030,2.809,0.000,0.000,0.000,0.000,0.000,0.000,0.000,17,16,4*46
$GPGGA,074106.60,3135.4891494,N,12046.5361292,E,4,17,1.3,2.8055,M,8.307,M,00,0004*6D
$GPHPD,0,0.000,58.71,0.30,-12.87,31.5914858,120.7756022,2.806,13631178.234,24923837.184,2.806,0.000,0.000,0.000,0.000,0.000,0.000,0.000,17,16,4*69
$GPGGA,074106.80,3135.4892103,N,12046.5362548,E,4,17,1.3,2.8027,M,8.307,M,00,0004*6D
$GPHPD,0,0.000,58.53,-0.01,-12.89,31.5914868,120.7756042,2.803,13631177.621,24923838.344,2.803,0.000,0.000,0.000,0.000,0.000,0.000,0.000,17,16,4*43
$GPGGA,074107.00,3135.4892744,N,12046.5363784,E,4,17,1.3,2.8001,M,8.307,M,01,0004*67
$GPHPD,0,0.000,58.66,0.43,-12.93,31.5914879,120.7756063,2.800,13631176.959,24923839.461,2.800,0.000,0.000,0.000,0.000,0.000,0.000,0.000,17,16,4*66
$GPGGA,074107.20,3135.4893425,N,12046.5365030,E,4,17,1.3,2.8110,M,8.307,M,01,0004*6F
$GPHPD,0,0.000,59.09,1.10,-12.95,31.5914890,120.7756084,2.811,13631176.242,24923840.567,2.811,0.000,0.000,0.000,0.000,0.000,0.000,0.000,17,16,4*69
$GPGGA,074107.40,3135.4894001,N,12046.5366266,E,4,18,1.3,2.7990,M,8.307,M,01,0004*6E
$GPHPD,0,0.000,58.86,0.41,-12.99,31.5914900,120.7756104,2.799,13631175.672,24923841.722,2.799,0.000,0.000,0.000,0.000,0.000,0.000,0.000,18,16,4*6E
$GPGGA,074107.60,3135.4894645,N,12046.5367463,E,4,18,1.3,2.8020,M,8.307,M,00,0004*64
$GPHPD,0,0.000,58.89,0.75,-13.05,31.5914911,120.7756124,2.802,13631174.997,24923842.791,2.802,0.000,0.000,0.000,0.000,0.000,0.000,0.000,18,16,4*6E
$GPGGA,074107.80,3135.4895276,N,12046.5368735,E,4,18,1.4,2.8115,M,8.307,M,00,0004*60
$GPHPD,0,0.000,59.00,1.07,-13.10,31.5914921,120.7756146,2.812,13631174.356,24923843.958,2.812,0.000,0.000,0.000,0.000,0.000,0.000,0.000,18,16,4*64
$GPGGA,074108.00,3135.4895912,N,12046.5369980,E,4,18,1.3,2.8029,M,8.307,M,01,0004*67
$GPHPD,0,0.000,58.70,0.78,-13.16,31.5914932,120.7756166,2.803,13631173.703,24923845.089,2.803,0.000,0.000,0.000,0.000,0.000,0.000,0.000,18,16,4*6D
$GPGGA,074108.20,3135.4896517,N,12046.5371246,E,4,18,1.3,2.8057,M,8.307,M,01,0004*6E
$GPHPD,0,0.000,58.56,0.28,-13.24,31.5914942,120.7756187,2.806,13631173.098,24923846.263,2.806,0.000,0.000,0.000,0.000,0.000,0.000,0.000,18,16,4*65
$GPGGA,074108.40,3135.4897157,N,12046.5372498,E,4,18,1.3,2.8196,M,8.307,M,01,0004*63
$GPHPD,0,0.000,58.41,1.03,-13.31,31.5914953,120.7756208,2.820,13631172.440,24923847.400,2.820,0.000,0.000,0.000,0.000,0.000,0.000,0.000,18,16,4*69
$GPGGA,074108.60,3135.4897765,N,12046.5373741,E,4,18,1.3,2.8294,M,8.307,M,00,0004*60
$GPHPD,0,0.000,58.49,0.79,-13.27,31.5914963,120.7756229,2.829,13631171.826,24923848.545,2.829,0.000,0.000,0.000,0.000,0.000,0.000,0.000,18,16,4*6A
$GPGGA,074108.80,3135.4898415,N,12046.5374974,E,4,18,1.3,2.8175,M,8.307,M,00,0004*66
$GPHPD,0,0.000,58.51,0.58,-13.22,31.5914974,120.7756250,2.818,13631171.151,24923849.653,2.818,0.000,0.000,0.000,0.000,0.000,0.000,0.000,18,16,4*61
$GPGGA,074109.00,3135.4898983,N,12046.5376158,E,4,18,1.3,2.8251,M,8.307,M,01,0004*6D
$GPHPD,0,0.000,58.57,0.88,-13.13,31.5914983,120.7756269,2.825,13631170.582,24923850.751,2.825,0.000,0.000,0.000,0.000,0.000,0.000,0.000,18,16,4*6A
$GPGGA,074109.20,3135.4899574,N,12046.5377224,E,4,18,1.3,2.8215,M,8.307,M,01,0004*63
$GPHPD,0,0.000,58.31,0.90,-13.02,31.5914993,120.7756287,2.822,13631169.956,24923851.692,2.822,0.000,0.000,0.000,0.000,0.000,0.000,0.000,18,16,4*60
