$GPGGA,080607.20,3135.5478215,N,12046.8944760,E,4,17,1.4,2.8151,M,8.329,M,01,0004*66
$GPHPD,0,0.000,309.57,-0.10,-11.87,31.5924637,120.7815746,2.815,13631065.373,24927816.878,2.815,0.000,0.000,0.000,0.000,0.000,0.000,0.000,17,18,4*73
$GPGGA,080607.40,3135.5478487,N,12046.8944356,E,4,17,1.4,2.8133,M,8.329,M,01,0004*68
$GPHPD,0,0.000,309.12,-0.02,-11.90,31.5924641,120.7815739,2.813,13631064.905,24927816.232,2.813,0.000,0.000,0.000,0.000,0.000,0.000,0.000,17,18,4*70
$GPGGA,080607.60,3135.5478786,N,12046.8943935,E,4,17,1.4,2.8181,M,8.329,M,00,0004*68
$GPHPD,0,0.000,308.73,0.12,-11.93,31.5924646,120.7815732,2.818,13631064.395,24927815.550,2.818,0.000,0.000,0.000,0.000,0.000,0.000,0.000,17,18,4*56
$GPGGA,080607.80,3135.5479063,N,12046.8943468,E,4,17,1.4,2.8207,M,8.329,M,00,0004*63
$GPHPD,0,0.000,308.37,-0.05,-11.95,31.5924651,120.7815724,2.821,13631063.907,24927814.826,2.821,0.000,0.000,0.000,0.000,0.000,0.000,0.000,17,18,4*71
$GPGGA,080608.00,3135.5479370,N,12046.8943013,E,4,17,1.4,2.8224,M,8.329,M,01,0004*6D
$GPHPD,0,0.000,308.06,0.09,-11.96,31.5924656,120.7815717,2.822,13631063.379,24927814.098,2.822,0.000,0.000,0.000,0.000,0.000,0.000,0.000,17,18,4*58
$GPGGA,080608.20,3135.5479658,N,12046.8942574,E,4,17,1.4,2.8217,M,8.329,M,01,0004*65
$GPHPD,0,0.000,307.34,0.20,-11.95,31.5924661,120.7815710,2.822,13631062.882,24927813.401,2.822,0.000,0.000,0.000,0.000,0.000,0.000,0.000,17,18,4*50
$GPGGA,080608.40,3135.5479935,N,12046.8942118,E,4,17,1.4,2.8258,M,8.329,M,01,0004*62
$GPHPD,0,0.000,306.97,-0.14,-11.95,31.5924666,120.7815702,2.826,13631062.396,24927812.690,2.826,0.000,0.000,0.000,0.000,0.000,0.000,0.000,17,18,4*73
$GPGGA,080608.60,3135.5480260,N,12046.8941665,E,4,17,1.4,2.8225,M,8.329,M,00,0004*68
$GPHPD,0,0.000,306.92,-0.18,-11.99,31.5924671,120.7815694,2.823,13631061.843,24927811.954,2.823,0.000,0.000,0.000,0.000,0.000,0.000,0.000,17,18,4*7A
$GPGGA,080608.80,3135.5480553,N,12046.8941206,E,4,17,1.4,2.8247,M,8.329,M,00,0004*64
$GPHPD,0,0.000,306.75,-0.22,-12.03,31.5924676,120.7815687,2.825,13631061.334,24927811.230,2.825,0.000,0.000,0.000,0.000,0.000,0.000,0.000,17,18,4*7D
$GPGGA,080609.00,3135.5480866,N,12046.8940735,E,4,17,1.4,2.8171,M,8.329,M,01,0004*65
$GPHPD,0,0.000,306.77,0.09,-12.07,31.5924681,120.7815679,2.817,13631060.794,24927810.480,2.817,0.000,0.000,0.000,0.000,0.000,0.000,0.000,17,18,4*55
$GPGGA,080609.20,3135.5481193,N,12046.8940250,E,4,17,1.4,2.8148,M,8.329,M,01,0004*69
$GPHPD,0,0.000,306.85,0.31,-12.10,31.5924687,120.7815671,2.815,13631060.232,24927809.704,2.815,0.000,0.000,0.000,0.000,0.000,0.000,0.000,17,18,4*55
$GPGGA,080609.40,3135.5481489,N,12046.8939768,E,4,17,1.4,2.8197,M,8.329,M,01,0004*63
$GPHPD,0,0.000,307.18,0.29,-12.10,31.5924691,120.7815663,2.820,13631059.714,24927808.951,2.820,0.000,0.000,0.000,0.000,0.000,0.000,0.000,17,18,4*59
$GPGGA,080609.60,3135.5481811,N,12046.8939339,E,4,17,1.4,2.8191,M,8.329,M,00,0004*6B
$GPHPD,0,0.000,307.16,0.57,-12.09,31.5924697,120.7815656,2.819,13631059.170,24927808.246,2.819,0.000,0.000,0.000,0.000,0.000,0.000,0.000,17,18,4*5F
$GPGGA,080609.80,3135.5482111,N,12046.8938891,E,4,17,1.4,2.8172,M,8.329,M,00,0004*6A
$GPHPD,0,0.000,307.37,0.33,-12.09,31.5924702,120.7815648,2.817,13631058.653,24927807.531,2.817,0.000,0.000,0.000,0.000,0.000,0.000,0.000,17,18,4*53
$GPGGA,080610.00,3135.5482426,N,12046.8938462,E,4,17,1.4,2.8156,M,8.329,M,01,0004*6C
$GPHPD,0,0.000,307.39,0.33,-12.11,31.5924707,120.7815641,2.816,13631058.119,24927806.830,2.816,0.000,0.000,0.000,0.000,0.000,0.000,0.000,17,18,4*5C
$GPGGA,080610.20,3135.5482727,N,12046.8938017,E,4,17,1.4,2.8182,M,8.329,M,01,0004*63
$GPHPD,0,0.000,307.55,0.42,-12.12,31.5924712,120.7815634,2.818,13631057.602,24927806.118,2.818,0.000,0.000,0.000,0.000,0.000,0.000,0.000,17,18,4*54
$GPGGA,080610.40,3135.5483026,N,12046.8937580,E,4,17,1.4,2.8174,M,8.329,M,01,0004*6F
$GPHPD,0,0.000,307.65,0.23,-12.12,31.5924717,120.7815626,2.817,13631057.089,24927805.417,2.817,0.000,0.000,0.000,0.000,0.000,0.000,0.000,17,18,4*5A
$GPGGA,080610.60,3135.5483346,N,12046.8937142,E,4,17,1.4,2.8206,M,8.329,M,00,0004*65
$GPHPD,0,0.000,307.60,0.51,-12.11,31.5924722,120.7815619,2.821,13631056.546,24927804.702,2.821,0.000,0.000,0.000,0.000,0.000,0.000,0.000,17,18,4*52
$GPGGA,080610.80,3135.5483642,N,12046.8936678,E,4,17,1.4,2.8238,M,8.329,M,00,0004*68
$GPHPD,0,0.000,307.77,0.27,-12.10,31.5924727,120.7815611,2.824,13631056.032,24927803.970,2.824,0.000,0.000,0.000,0.000,0.000,0.000,0.000,17,18,4*53
$GPGGA,080611.00,3135.5483950,N,12046.8936260,E,4,17,1.4,2.8223,M,8.329,M,01,0004*6B
$GPHPD,0,0.000,308.05,0.34,-12.07,31.5924733,120.7815604,2.822,13631055.510,24927803.287,2.822,0.000,0.000,0.000,0.000,0.000,0.000,0.000,17,18,4*59
$GPGGA,080611.20,3135.5484225,N,12046.8935866,E,4,17,1.4,2.8297,M,8.329,M,01,0004*67
$GPHPD,0,0.000,308.02,0.20,-12.06,31.5924737,120.7815598,2.830,13631055.040,24927802.652,2.830,0.000,0.000,0.000,0.000,0.000,0.000,0.000,17,18,4*55
$GPGGA,080611.40,3135.5484482,N,12046.8935475,E,4,17,1.4,2.8326,M,8.329,M,01,0004*6F
$GPHPD,0,0.000,307.67,0.23,-12.06,31.5924741,120.7815591,2.833,13631054.596,24927802.030,2.833,0.000,0.000,0.000,0.000,0.000,0.000,0.000,17,18,4*5F
$GPGGA,080611.60,3135.5484749,N,12046.8935101,E,4,17,1.4,2.8290,M,8.329,M,00,0004*62
$GPHPD,0,0.000,308.07,0.16,-12.07,31.5924746,120.7815585,2.829,13631054.141,24927801.424,2.829,0.000,0.000,0.000,0.000,0.000,0.000,0.000,17,18,4*5F
$GPGGA,080611.80,3135.5485009,N,12046.8934712,E,4,17,1.4,2.8343,M,8.329,M,00,0004*64
$GPHPD,0,0.000,308.22,0.25,-12.09,31.5924750,120.7815579,2.834,13631053.693,24927800.803,2.834,0.000,0.000,0.000,0.000,0.000,0.000,0.000,17,18,4*55
$GPGGA,080612.00,3135.5485312,N,12046.8934318,E,4,17,1.4,2.8281,M,8.329,M,01,0004*66
$GPHPD,0,0.000,308.13,0.16,-12.15,31.5924755,120.7815572,2.828,13631053.183,24927800.152,2.828,0.000,0.000,0.000,0.000,0.000,0.000,0.000,17,18,4*5F
$GPGGA,080612.20,3135.5485608,N,12046.8933872,E,4,17,1.4,2.8260,M,8.329,M,01,0004*65
$GPHPD,0,0.000,308.27,-0.28,-12.20,31.5924760,120.7815565,2.826,13631052.673,24927799.441,2.826,0.000,0.000,0.000,0.000,0.000,0.000,0.000,17,18,4*7F
$GPGGA,080612.40,3135.5485967,N,12046.8933367,E,4,17,1.4,2.8237,M,8.329,M,01,0004*68
$GPHPD,0,0.000,308.24,0.06,-12.26,31.5924766,120.7815556,2.824,13631052.061,24927798.623,2.824,0.000,0.000,0.000,0.000,0.000,0.000,0.000,17,18,4*5F
$GPGGA,080612.60,3135.5486328,N,12046.8932880,E,4,17,1.4,2.8256,M,8.329,M,00,0004*6D
$GPHPD,0,0.000,308.57,0.05,-12.29,31.5924772,120.7815548,2.826,13631051.449,24927797.826,2.826,0.000,0.000,0.000,0.000,0.000,0.000,0.000,17,18,4*54
$GPGGA,080612.80,3135.5486704,N,12046.8932327,E,4,17,1.4,2.8345,M,8.329,M,00,0004*6C
$GPHPD,0,0.000,308.68,-0.58,-12.31,31.5924778,120.7815539,2.835,13631050.804,24927796.940,2.835,0.000,0.000,0.000,0.000,0.000,0.000,0.000,17,18,4*7C
$GPGGA,080613.00,3135.5487093,N,12046.8931739,E,4,17,1.4,2.8340,M,8.329,M,01,0004*61
$GPHPD,0,0.000,308.52,-1.22,-12.35,31.5924785,120.7815529,2.834,13631050.132,24927796.004,2.834,0.000,0.000,0.000,0.000,0.000,0.000,0.000,17,18,4*7B
$GPGGA,080613.20,3135.5487534,N,12046.8931133,E,4,17,1.4,2.8270,M,8.329,M,01,0004*65
$GPHPD,0,0.000,308.81,-1.45,-12.38,31.5924792,120.7815519,2.827,13631049.384,24927795.016,2.827,0.000,0.000,0.000,0.000,0.000,0.000,0.000,17,18,4*7B
$GPGGA,080613.40,3135.5487988,N,12046.8930498,E,4,17,1.4,2.8282,M,8.329,M,01,0004*60
$GPHPD,0,0.000,308.84,-1.42,-12.42,31.5924800,120.7815508,2.828,13631048.610,24927793.986,2.828,0.000,0.000,0.000,0.000,0.000,0.000,0.000,17,18,4*7F
$GPGGA,080613.60,3135.5488480,N,12046.8929851,E,4,17,1.4,2.8198,M,8.329,M,00,0004*60
$GPHPD,0,0.000,308.95,-1.49,-12.47,31.5924808,120.7815498,2.820,13631047.781,24927792.919,2.820,0.000,0.000,0.000,0.000,0.000,0.000,0.000,17,18,4*70
$GPGGA,080613.80,3135.5488985,N,12046.8929165,E,4,17,1.4,2.8293,M,8.329,M,00,0004*60
$GPHPD,0,0.000,308.96,-1.62,-12.52,31.5924816,120.7815486,2.829,13631046.925,24927791.798,2.829,0.000,0.000,0.000,0.000,0.000,0.000,0.000,17,18,4*7B
$GPGGA,080614.00,3135.5489535,N,12046.8928427,E,4,17,1.4,2.8191,M,8.329,M,01,0004*6B
$GPHPD,0,0.000,309.08,-1.23,-12.56,31.5924826,120.7815474,2.819,13631045.995,24927790.588,2.819,0.000,0.000,0.000,0.000,0.000,0.000,0.000,17,18,4*78
$GPGGA,080614.20,3135.5490134,N,12046.8927595,E,4,17,1.4,2.8200,M,8.329,M,01,0004*68
$GPHPD,0,0.000,308.98,-0.82,-12.61,31.5924836,120.7815460,2.820,13631044.976,24927789.235,2.820,0.000,0.000,0.000,0.000,0.000,0.000,0.000,17,18,4*7F
$GPGGA,080614.40,3135.5490746,N,12046.8926726,E,4,17,1.4,2.8228,M,8.329,M,01,0004*6C
$GPHPD,0,0.000,309.19,-1.40,-12.69,31.5924846,120.7815445,2.823,13631043.931,24927787.831,2.823,0.000,0.000,0.000,0.000,0.000,0.000,0.000,17,18,4*74
$GPGGA,080614.60,3135.5491412,N,12046.8925831,E,4,17,1.4,2.8171,M,8.329,M,00,0004*69
$GPHPD,0,0.000,309.31,-1.00,-12.74,31.5924857,120.7815431,2.817,13631042.804,24927786.364,2.817,0.000,0.000,0.000,0.000,0.000,0.000,0.000,17,18,4*79
$GPGGA,080614.80,3135.5492128,N,12046.8924851,E,4,17,1.4,2.8192,M,8.329,M,00,0004*62
$GPHPD,0,0.000,309.19,-1.01,-12.78,31.5924869,120.7815414,2.819,13631041.589,24927784.765,2.819,0.000,0.000,0.000,0.000,0.000,0.000,0.000,17,18,4*78
$GPGGA,080615.00,3135.5492919,N,12046.8923757,E,4,17,1.5,2.7915,M,8.329,M,01,0004*67
$GPHPD,0,0.000,309.40,-1.49,-12.91,31.5924882,120.7815396,2.792,13631040.245,24927782.985,2.792,0.000,0.000,0.000,0.000,0.000,0.000,0.000,17,18,4*77
$GPGGA,080615.20,3135.5493724,N,12046.8922638,E,4,17,1.5,2.7957,M,8.329,M,01,0004*6B
$GPHPD,0,0.000,309.34,-0.02,-12.98,31.5924895,120.7815377,2.796,13631038.875,24927781.167,2.796,0.000,0.000,0.000,0.000,0.000,0.000,0.000,17,18,4*7B
$GPGGA,080615.40,3135.5494587,N,12046.8921491,E,4,17,1.5,2.8047,M,8.329,M,01,0004*64
$GPHPD,0,0.000,309.58,0.01,-12.97,31.5924910,120.7815358,2.805,13631037.417,24927779.281,2.805,0.000,0.000,0.000,0.000,0.000,0.000,0.000,17,18,4*5A
$GPGGA,080615.60,3135.5495474,N,12046.8920252,E,4,17,1.5,2.8051,M,8.329,M,00,0004*64
$GPHPD,0,0.000,309.64,-0.09,-12.97,31.5924925,120.7815338,2.805,13631035.907,24927777.270,2.805,0.000,0.000,0.000,0.000,0.000,0.000,0.000,17,18,4*7E
$GPGGA,080615.80,3135.5496449,N,12046.8919002,E,4,17,1.5,2.7879,M,8.329,M,00,0004*67
$GPHPD,0,0.000,309.89,-1.14,-13.03,31.5924941,120.7815317,2.788,13631034.270,24927775.195,2.788,0.000,0.000,0.000,0.000,0.000,0.000,0.000,17,18,4*73
$GPGGA,080616.00,3135.5497383,N,12046.8917712,E,4,17,1.5,2.7861,M,8.329,M,01,0004*6C
$GPHPD,0,0.000,309.84,0.21,-13.04,31.5924956,120.7815295,2.786,13631032.683,24927773.095,2.786,0.000,0.000,0.000,0.000,0.000,0.000,0.000,17,18,4*57
$GPGGA,080616.20,3135.5498376,N,12046.8916395,E,4,17,1.5,2.7809,M,8.329,M,01,0004*6F
$GPHPD,0,0.000,310.14,0.16,-13.04,31.5924973,120.7815273,2.781,13631031.006,24927770.928,2.781,0.000,0.000,0.000,0.000,0.000,0.000,0.000,17,18,4*59
$GPGGA,080616.40,3135.5499351,N,12046.8915079,E,4,17,1.5,2.7870,M,8.329,M,01,0004*61
$GPHPD,0,0.000,310.32,0.23,-13.05,31.5924989,120.7815251,2.787,13631029.355,24927768.773,2.787,0.000,0.000,0.000,0.000,0.000,0.000,0.000,17,18,4*5A
$GPGGA,080616.60,3135.5500346,N,12046.8913780,E,4,17,1.5,2.7991,M,8.329,M,00,0004*6C
$GPHPD,0,0.000,310.63,-0.24,-13.05,31.5925006,120.7815230,2.799,13631027.679,24927766.627,2.799,0.000,0.000,0.000,0.000,0.000,0.000,0.000,17,18,4*77
$GPGGA,080616.80,3135.5501356,N,12046.8912451,E,4,17,1.5,2.7896,M,8.329,M,00,0004*6A
$GPHPD,0,0.000,310.63,-0.34,-13.02,31.5925023,120.7815208,2.790,13631025.976,24927764.436,2.790,0.000,0.000,0.000,0.000,0.000,0.000,0.000,17,18,4*7F
$GPGGA,080617.00,3135.5502349,N,12046.8911125,E,4,17,1.5,2.7886,M,8.329,M,01,0004*6B
$GPHPD,0,0.000,310.65,-0.29,-13.00,31.5925039,120.7815185,2.789,13631024.298,24927762.259,2.789,0.000,0.000,0.000,0.000,0.000,0.000,0.000,17,18,4*79
$GPGGA,080617.20,3135.5503357,N,12046.8909797,E,4,17,1.5,2.7843,M,8.329,M,01,0004*68
$GPHPD,0,0.000,310.78,0.02,-13.00,31.5925056,120.7815163,2.784,13631022.598,24927760.070,2.784,0.000,0.000,0.000,0.000,0.000,0.000,0.000,17,18,4*5A
$GPGGA,080617.40,3135.5504366,N,12046.8908465,E,4,17,1.4,2.7851,M,8.329,M,01,0004*66
$GPHPD,0,0.000,310.65,-0.32,-13.00,31.5925073,120.7815141,2.785,13631020.895,24927757.876,2.785,0.000,0.000,0.000,0.000,0.000,0.000,0.000,17,17,4*78
$GPGGA,080617.60,3135.5505401,N,12046.8907137,E,4,17,1.4,2.7822,M,8.329,M,00,0004*6B
$GPHPD,0,0.000,310.52,-0.44,-13.01,31.5925090,120.7815119,2.782,13631019.157,24927755.672,2.782,0.000,0.000,0.000,0.000,0.000,0.000,0.000,17,18,4*76
$GPGGA,080617.80,3135.5506390,N,12046.8905791,E,4,17,1.4,2.7939,M,8.329,M,00,0004*6A
$GPHPD,0,0.000,310.34,-0.52,-12.99,31.5925107,120.7815097,2.794,13631017.480,24927753.473,2.794,0.000,0.000,0.000,0.000,0.000,0.000,0.000,17,18,4*7D
$GPGGA,080618.00,3135.5507410,N,12046.8904400,E,4,17,1.4,2.7894,M,8.329,M,01,0004*6E
$GPHPD,0,0.000,310.15,-0.93,-13.02,31.5925124,120.7815073,2.789,13631015.750,24927751.201,2.789,0.000,0.000,0.000,0.000,0.000,0.000,0.000,17,18,4*76
$GPGGA,080618.20,3135.5508434,N,12046.8903053,E,4,17,1.4,2.7950,M,8.329,M,01,0004*69
$GPHPD,0,0.000,309.96,-0.80,-13.00,31.5925141,120.7815051,2.795,13631014.024,24927748.980,2.795,0.000,0.000,0.000,0.000,0.000,0.000,0.000,17,18,4*79
$GPGGA,080618.40,3135.5509477,N,12046.8901619,E,4,17,1.4,2.7711,M,8.329,M,01,0004*68
$GPHPD,0,0.000,309.50,-1.10,-13.01,31.5925158,120.7815027,2.771,13631012.253,24927746.643,2.771,0.000,0.000,0.000,0.000,0.000,0.000,0.000,17,18,4*79
$GPGGA,080618.60,3135.5510506,N,12046.8900172,E,4,17,1.4,2.7713,M,8.329,M,00,0004*6D
$GPHPD,0,0.000,309.25,-0.06,-12.99,31.5925175,120.7815003,2.771,13631010.499,24927744.299,2.771,0.000,0.000,0.000,0.000,0.000,0.000,0.000,17,18,4*77
$GPGGA,080618.80,3135.5511525,N,12046.8898808,E,4,17,1.4,2.7828,M,8.329,M,00,0004*60
$GPHPD,0,0.000,309.37,-0.38,-12.98,31.5925192,120.7814980,2.783,13631008.776,24927742.061,2.783,0.000,0.000,0.000,0.000,0.000,0.000,0.000,17,18,4*7A
$GPGGA,080619.00,3135.5512564,N,12046.8897337,E,4,17,1.5,2.7680,M,8.329,M,01,0004*6B
$GPHPD,0,0.000,309.17,-1.16,-12.98,31.5925209,120.7814956,2.768,13631007.003,24927739.681,2.768,0.000,0.000,0.000,0.000,0.000,0.000,0.000,17,18,4*71
$GPGGA,080619.20,3135.5513573,N,12046.8895939,E,4,17,1.5,2.7718,M,8.329,M,01,0004*68
$GPHPD,0,0.000,309.23,-0.61,-12.97,31.5925226,120.7814932,2.772,13631005.287,24927737.408,2.772,0.000,0.000,0.000,0.000,0.000,0.000,0.000,17,18,4*76
$GPGGA,080619.40,3135.5514625,N,12046.8894516,E,4,17,1.5,2.7660,M,8.329,M,01,0004*67
$GPHPD,0,0.000,309.33,-0.36,-12.95,31.5925244,120.7814909,2.766,13631003.505,24927735.079,2.766,0.000,0.000,0.000,0.000,0.000,0.000,0.000,17,18,4*70
$GPGGA,080619.60,3135.5515641,N,12046.8893073,E,4,17,1.5,2.7700,M,8.329,M,00,0004*61
$GPHPD,0,0.000,309.48,-0.29,-12.95,31.5925261,120.7814885,2.770,13631001.771,24927732.747,2.770,0.000,0.000,0.000,0.000,0.000,0.000,0.000,17,18,4*7E
$GPGGA,080619.80,3135.5516705,N,12046.8891662,E,4,17,1.5,2.7660,M,8.329,M,00,0004*6E
$GPHPD,0,0.000,309.71,-0.42,-12.93,31.5925278,120.7814861,2.766,13630999.974,24927730.426,2.766,0.000,0.000,0.000,0.000,0.000,0.000,0.000,17,18,4*79
$GPGGA,080620.00,3135.5517755,N,12046.8890233,E,4,17,1.5,2.7543,M,8.329,M,01,0004*6A
$GPHPD,0,0.000,309.64,-0.08,-12.92,31.5925296,120.7814837,2.754,13630998.194,24927728.091,2.754,0.000,0.000,0.000,0.000,0.000,0.000,0.000,17,18,4*77
$GPGGA,080620.20,3135.5518803,N,12046.8888809,E,4,17,1.5,2.7664,M,8.329,M,01,0004*67
$GPHPD,0,0.000,309.66,0.53,-12.93,31.5925313,120.7814813,2.766,13630996.418,24927725.763,2.766,0.000,0.000,0.000,0.000,0.000,0.000,0.000,17,18,4*55
$GPGGA,080620.40,3135.5519859,N,12046.8887416,E,4,17,1.5,2.7596,M,8.329,M,01,0004*6C
$GPHPD,0,0.000,309.94,-0.16,-12.92,31.5925331,120.7814790,2.760,13630994.637,24927723.468,2.760,0.000,0.000,0.000,0.000,0.000,0.000,0.000,17,18,4*72
$GPGGA,080620.60,3135.5520900,N,12046.8885990,E,4,17,1.5,2.7652,M,8.329,M,00,0004*62
$GPHPD,0,0.000,309.86,0.30,-12.89,31.5925348,120.7814767,2.765,13630992.870,24927721.142,2.765,0.000,0.000,0.000,0.000,0.000,0.000,0.000,17,18,4*50
$GPGGA,080620.80,3135.5521963,N,12046.8884566,E,4,17,1.5,2.7660,M,8.329,M,00,0004*6D
$GPHPD,0,0.000,310.10,-0.20,-12.88,31.5925366,120.7814743,2.766,13630991.072,24927718.806,2.766,0.000,0.000,0.000,0.000,0.000,0.000,0.000,17,18,4*7A
$GPGGA,080621.00,3135.5523009,N,12046.8883133,E,4,17,1.5,2.7739,M,8.329,M,01,0004*6C
$GPHPD,0,0.000,310.12,-0.74,-12.85,31.5925383,120.7814719,2.774,13630989.297,24927716.468,2.774,0.000,0.000,0.000,0.000,0.000,0.000,0.000,17,18,4*7A
$GPGGA,080621.20,3135.5524066,N,12046.8881739,E,4,17,1.5,2.7764,M,8.329,M,01,0004*66
$GPHPD,0,0.000,310.30,-1.44,-12.87,31.5925401,120.7814696,2.776,13630987.514,24927714.172,2.776,0.000,0.000,0.000,0.000,0.000,0.000,0.000,17,18,4*7F
$GPGGA,080621.40,3135.5525148,N,12046.8880304,E,4,17,1.5,2.7564,M,8.329,M,01,0004*65
$GPHPD,0,0.000,310.36,-1.44,-12.86,31.5925419,120.7814672,2.756,13630985.687,24927711.811,2.756,0.000,0.000,0.000,0.000,0.000,0.000,0.000,17,18,4*79
$GPGGA,080621.60,3135.5526216,N,12046.8878892,E,4,17,1.5,2.7527,M,8.329,M,00,0004*69
$GPHPD,0,0.000,310.25,-0.95,-12.87,31.5925437,120.7814648,2.753,13630983.885,24927709.486,2.753,0.000,0.000,0.000,0.000,0.000,0.000,0.000,17,18,4*73
$GPGGA,080621.80,3135.5527286,N,12046.8877500,E,4,17,1.5,2.7544,M,8.329,M,00,0004*63
$GPHPD,0,0.000,310.24,-0.37,-12.87,31.5925455,120.7814625,2.754,13630982.084,24927707.184,2.754,0.000,0.000,0.000,0.000,0.000,0.000,0.000,17,18,4*74
$GPGGA,080622.00,3135.5528350,N,12046.8876067,E,4,17,2.0,2.7434,M,8.329,M,01,0004*69
$GPHPD,0,0.000,310.16,-0.47,-12.87,31.5925473,120.7814601,2.743,13630980.283,24927704.836,2.743,0.000,0.000,0.000,0.000,0.000,0.000,0.000,17,18,4*74
$GPGGA,080622.20,3135.5529395,N,12046.8874677,E,4,17,1.5,2.7409,M,8.329,M,01,0004*6E
$GPHPD,0,0.000,310.13,-1.02,-12.86,31.5925490,120.7814578,2.741,13630978.518,24927702.552,2.741,0.000,0.000,0.000,0.000,0.000,0.000,0.000,17,18,4*7B
$GPGGA,080622.40,3135.5530518,N,12046.8873239,E,4,16,2.0,2.7348,M,8.329,M,01,0004*6F
$GPHPD,0,0.000,310.17,-0.67,-12.87,31.5925509,120.7814554,2.735,13630976.632,24927700.163,2.735,0.000,0.000,0.000,0.000,0.000,0.000,0.000,16,17,4*7C
$GPGGA,080622.60,3135.5531541,N,12046.8871848,E,4,16,2.0,2.7427,M,8.329,M,00,0004*61
$GPHPD,0,0.000,310.22,0.15,-12.89,31.5925526,120.7814531,2.743,13630974.898,24927697.890,2.743,0.000,0.000,0.000,0.000,0.000,0.000,0.000,16,17,4*54
$GPGGA,080622.80,3135.5532607,N,12046.8870413,E,4,16,2.0,2.7368,M,8.329,M,00,0004*62
$GPHPD,0,0.000,310.36,-0.13,-12.89,31.5925543,120.7814507,2.737,13630973.094,24927695.539,2.737,0.000,0.000,0.000,0.000,0.000,0.000,0.000,16,17,4*73
$GPGGA,080623.00,3135.5533665,N,12046.8869008,E,4,16,2.0,2.7369,M,8.329,M,01,0004*68
$GPHPD,0,0.000,310.54,-0.21,-12.89,31.5925561,120.7814483,2.737,13630971.307,24927693.228,2.737,0.000,0.000,0.000,0.000,0.000,0.000,0.000,16,17,4*71
$GPGGA,080623.20,3135.5534732,N,12046.8867644,E,4,16,2.0,2.7461,M,8.329,M,01,0004*61
$GPHPD,0,0.000,310.53,0.53,-12.91,31.5925579,120.7814461,2.746,13630969.516,24927690.962,2.746,0.000,0.000,0.000,0.000,0.000,0.000,0.000,16,17,4*5B
$GPGGA,080623.40,3135.5535796,N,12046.8866209,E,4,16,2.0,2.7364,M,8.329,M,01,0004*66
$GPHPD,0,0.000,310.67,0.09,-12.92,31.5925597,120.7814437,2.736,13630967.715,24927688.611,2.736,0.000,0.000,0.000,0.000,0.000,0.000,0.000,16,17,4*5E
$GPGGA,080623.60,3135.5536843,N,12046.8864812,E,4,16,2.2,2.7366,M,8.329,M,00,0004*63
$GPHPD,0,0.000,310.84,0.01,-12.92,31.5925614,120.7814414,2.737,13630965.946,24927686.317,2.737,0.000,0.000,0.000,0.000,0.000,0.000,0.000,16,17,4*55
$GPGGA,080623.80,3135.5537898,N,12046.8863404,E,4,16,2.2,2.7433,M,8.329,M,00,0004*61
$GPHPD,0,0.000,310.95,-0.19,-12.90,31.5925632,120.7814390,2.743,13630964.163,24927684.004,2.743,0.000,0.000,0.000,0.000,0.000,0.000,0.000,16,17,4*71
$GPGGA,080624.00,3135.5538976,N,12046.8861990,E,4,16,2.2,2.7393,M,8.329,M,01,0004*6E
$GPHPD,0,0.000,310.88,-0.14,-12.89,31.5925650,120.7814367,2.739,13630962.346,24927681.671,2.739,0.000,0.000,0.000,0.000,0.000,0.000,0.000,16,17,4*76
$GPGGA,080624.20,3135.5540046,N,12046.8860632,E,4,16,2.2,2.7375,M,8.329,M,01,0004*67
$GPHPD,0,0.000,310.79,-0.11,-12.90,31.5925667,120.7814344,2.738,13630960.551,24927679.410,2.738,0.000,0.000,0.000,0.000,0.000,0.000,0.000,16,17,4*70
$GPGGA,080624.40,3135.5541113,N,12046.8859252,E,4,16,2.2,2.7440,M,8.329,M,01,0004*68
$GPHPD,0,0.000,310.57,-0.05,-12.90,31.5925685,120.7814321,2.744,13630958.757,24927677.125,2.744,0.000,0.000,0.000,0.000,0.000,0.000,0.000,16,17,4*74
$GPGGA,080624.60,3135.5542162,N,12046.8857846,E,4,16,2.2,2.7437,M,8.328,M,00,0004*6E
$GPHPD,0,0.000,310.43,-0.05,-12.87,31.5925703,120.7814297,2.744,13630956.983,24927674.818,2.744,0.000,0.000,0.000,0.000,0.000,0.000,0.000,16,17,4*79
$GPGGA,080624.80,3135.5543262,N,12046.8856432,E,4,16,2.2,2.7404,M,8.328,M,00,0004*6C
$GPHPD,0,0.000,310.47,-0.07,-12.86,31.5925721,120.7814274,2.740,13630955.135,24927672.472,2.740,0.000,0.000,0.000,0.000,0.000,0.000,0.000,16,17,4*73
$GPGGA,080625.00,3135.5544286,N,12046.8855043,E,4,16,2.2,2.7415,M,8.328,M,01,0004*68
$GPHPD,0,0.000,310.27,-0.19,-12.86,31.5925738,120.7814251,2.742,13630953.400,24927670.201,2.742,0.000,0.000,0.000,0.000,0.000,0.000,0.000,16,17,4*70
$GPGGA,080625.20,3135.5545353,N,12046.8853622,E,4,16,2.2,2.7445,M,8.328,M,01,0004*60
$GPHPD,0,0.000,310.19,0.26,-12.84,31.5925756,120.7814227,2.745,13630951.597,24927667.866,2.745,0.000,0.000,0.000,0.000,0.000,0.000,0.000,16,17,4*57
$GPGGA,080625.40,3135.5546425,N,12046.8852236,E,4,17,2.2,2.7388,M,8.328,M,01,0004*64
$GPHPD,0,0.000,310.27,-0.60,-12.83,31.5925774,120.7814204,2.739,13630949.794,24927665.570,2.739,0.000,0.000,0.000,0.000,0.000,0.000,0.000,17,18,4*7D
$GPGGA,080625.60,3135.5547457,N,12046.8850802,E,4,17,2.2,2.7428,M,8.328,M,00,0004*61
$GPHPD,0,0.000,310.16,-0.19,-12.82,31.5925791,120.7814180,2.743,13630948.039,24927663.239,2.743,0.000,0.000,0.000,0.000,0.000,0.000,0.000,17,18,4*79
$GPGGA,080625.80,3135.5548519,N,12046.8849390,E,4,17,2.2,2.7430,M,8.328,M,00,0004*6A
$GPHPD,0,0.000,310.27,-0.42,-12.83,31.5925809,120.7814157,2.743,13630946.245,24927660.918,2.743,0.000,0.000,0.000,0.000,0.000,0.000,0.000,17,18,4*7C
$GPGGA,080626.00,3135.5549601,N,12046.8847943,E,4,17,1.6,2.7446,M,8.328,M,01,0004*67
$GPHPD,0,0.000,310.26,-0.49,-12.81,31.5925827,120.7814132,2.745,13630944.416,24927658.543,2.745,0.000,0.000,0.000,0.000,0.000,0.000,0.000,17,18,4*70
$GPGGA,080626.20,3135.5550688,N,12046.8846513,E,4,17,1.6,2.7400,M,8.328,M,01,0004*66
$GPHPD,0,0.000,310.33,-0.57,-12.77,31.5925845,120.7814109,2.740,13630942.583,24927656.185,2.740,0.000,0.000,0.000,0.000,0.000,0.000,0.000,17,18,4*75
$GPGGA,080626.40,3135.5551758,N,12046.8845066,E,4,17,1.6,2.7347,M,8.328,M,01,0004*6D
$GPHPD,0,0.000,310.27,-0.12,-12.77,31.5925863,120.7814084,2.735,13630940.771,24927653.817,2.735,0.000,0.000,0.000,0.000,0.000,0.000,0.000,17,18,4*7B
$GPGGA,080626.60,3135.5552833,N,12046.8843649,E,4,17,1.6,2.7239,M,8.328,M,00,0004*6A
$GPHPD,0,0.000,310.48,-0.10,-12.77,31.5925881,120.7814061,2.724,13630938.957,24927651.482,2.724,0.000,0.000,0.000,0.000,0.000,0.000,0.000,17,18,4*70
$GPGGA,080626.80,3135.5553906,N,12046.8842171,E,4,17,1.6,2.7106,M,8.328,M,00,0004*60
$GPHPD,0,0.000,310.26,0.19,-12.75,31.5925898,120.7814036,2.711,13630937.135,24927649.075,2.711,0.000,0.000,0.000,0.000,0.000,0.000,0.000,17,18,4*52
$GPGGA,080627.00,3135.5554988,N,12046.8840717,E,4,17,1.6,2.7044,M,8.328,M,01,0004*6A
$GPHPD,0,0.000,310.25,0.85,-12.69,31.5925916,120.7814012,2.704,13630935.304,24927646.691,2.704,0.000,0.000,0.000,0.000,0.000,0.000,0.000,17,17,4*56
$GPGGA,080627.20,3135.5556060,N,12046.8839289,E,4,17,1.6,2.7205,M,8.328,M,01,0004*6E
$GPHPD,0,0.000,310.17,0.33,-12.66,31.5925934,120.7813988,2.721,13630933.493,24927644.345,2.721,0.000,0.000,0.000,0.000,0.000,0.000,0.000,17,17,4*59
$GPGGA,080627.40,3135.5557155,N,12046.8837830,E,4,17,1.6,2.7266,M,8.328,M,01,0004*6D
$GPHPD,0,0.000,310.23,-0.13,-12.63,31.5925953,120.7813964,2.727,13630931.643,24927641.947,2.727,0.000,0.000,0.000,0.000,0.000,0.000,0.000,17,18,4*78
$GPGGA,080627.60,3135.5558250,N,12046.8836372,E,4,17,1.6,2.7183,M,8.328,M,00,0004*63
$GPHPD,0,0.000,310.09,-0.07,-12.62,31.5925971,120.7813940,2.718,13630929.793,24927639.551,2.718,0.000,0.000,0.000,0.000,0.000,0.000,0.000,17,18,4*73
$GPGGA,080627.80,3135.5559329,N,12046.8834899,E,4,17,1.6,2.7298,M,8.328,M,00,0004*66
$GPHPD,0,0.000,310.21,-0.09,-12.63,31.5925989,120.7813915,2.730,13630927.963,24927637.146,2.730,0.000,0.000,0.000,0.000,0.000,0.000,0.000,17,18,4*72
$GPGGA,080628.00,3135.5560410,N,12046.8833441,E,4,17,1.6,2.7298,M,8.328,M,01,0004*69
$GPHPD,0,0.000,310.27,-0.65,-12.63,31.5926007,120.7813891,2.730,13630926.133,24927634.759,2.730,0.000,0.000,0.000,0.000,0.000,0.000,0.000,17,18,4*78
$GPGGA,080628.20,3135.5561515,N,12046.8831981,E,4,17,1.6,2.7312,M,8.328,M,01,0004*6E
$GPHPD,0,0.000,310.31,-0.61,-12.66,31.5926025,120.7813866,2.731,13630924.268,24927632.354,2.731,0.000,0.000,0.000,0.000,0.000,0.000,0.000,17,18,4*76
$GPGGA,080628.40,3135.5562598,N,12046.8830530,E,4,17,1.6,2.7234,M,8.328,M,01,0004*6C
$GPHPD,0,0.000,309.99,-0.46,-12.67,31.5926043,120.7813842,2.723,13630922.437,24927629.974,2.723,0.000,0.000,0.000,0.000,0.000,0.000,0.000,17,18,4*76
$GPGGA,080628.60,3135.5563694,N,12046.8829093,E,4,17,1.6,2.7252,M,8.328,M,00,0004*65
$GPHPD,0,0.000,309.85,-0.15,-12.67,31.5926062,120.7813818,2.725,13630920.590,24927627.602,2.725,0.000,0.000,0.000,0.000,0.000,0.000,0.000,17,18,4*7F
$GPGGA,080628.80,3135.5564766,N,12046.8827598,E,4,17,2.2,2.7065,M,8.328,M,00,0004*61
$GPHPD,0,0.000,309.67,-0.31,-12.71,31.5926079,120.7813793,2.707,13630918.765,24927625.175,2.707,0.000,0.000,0.000,0.000,0.000,0.000,0.000,17,17,4*7D
$GPGGA,080629.00,3135.5565856,N,12046.8826108,E,4,16,2.2,2.6917,M,8.328,M,01,0004*64
$GPHPD,0,0.000,309.61,-0.47,-12.79,31.5926098,120.7813768,2.692,13630916.916,24927622.743,2.692,0.000,0.000,0.000,0.000,0.000,0.000,0.000,16,17,4*78
$GPGGA,080629.20,3135.5566925,N,12046.8824640,E,4,16,2.2,2.6897,M,8.328,M,01,0004*60
$GPHPD,0,0.000,309.63,0.10,-12.81,31.5926115,120.7813744,2.690,13630915.101,24927620.350,2.690,0.000,0.000,0.000,0.000,0.000,0.000,0.000,16,17,4*51
$GPGGA,080629.40,3135.5567998,N,12046.8823166,E,4,16,2.2,2.6898,M,8.328,M,01,0004*6A
$GPHPD,0,0.000,309.51,0.07,-12.83,31.5926133,120.7813719,2.690,13630913.279,24927617.948,2.690,0.000,0.000,0.000,0.000,0.000,0.000,0.000,16,17,4*55
$GPGGA,080629.60,3135.5569051,N,12046.8821722,E,4,16,2.2,2.6937,M,8.328,M,00,0004*6B
$GPHPD,0,0.000,309.60,0.48,-12.82,31.5926151,120.7813695,2.694,13630911.492,24927615.593,2.694,0.000,0.000,0.000,0.000,0.000,0.000,0.000,16,17,4*55
$GPGGA,080629.80,3135.5570128,N,12046.8820248,E,4,16,2.2,2.6867,M,8.328,M,00,0004*6E
$GPHPD,0,0.000,309.63,0.01,-12.83,31.5926169,120.7813671,2.687,13630909.664,24927613.188,2.687,0.000,0.000,0.000,0.000,0.000,0.000,0.000,16,17,4*51
$GPGGA,080630.00,3135.5571188,N,12046.8818814,E,4,16,2.2,2.6987,M,8.328,M,01,0004*63
$GPHPD,0,0.000,309.69,0.22,-12.81,31.5926186,120.7813647,2.699,13630907.869,24927610.842,2.699,0.000,0.000,0.000,0.000,0.000,0.000,0.000,16,17,4*5D
$GPGGA,080630.20,3135.5572287,N,12046.8817358,E,4,16,2.2,2.6864,M,8.328,M,01,0004*6E
$GPHPD,0,0.000,309.76,0.11,-12.77,31.5926205,120.7813623,2.686,13630906.013,24927608.446,2.686,0.000,0.000,0.000,0.000,0.000,0.000,0.000,16,17,4*55
$GPGGA,080630.40,3135.5573343,N,12046.8815923,E,4,16,2.2,2.6949,M,8.328,M,01,0004*6A
$GPHPD,0,0.000,309.90,0.60,-12.73,31.5926222,120.7813599,2.695,13630904.224,24927606.100,2.695,0.000,0.000,0.000,0.000,0.000,0.000,0.000,16,17,4*55
$GPGGA,080630.60,3135.5574399,N,12046.8814508,E,4,16,2.2,2.7053,M,8.328,M,00,0004*6E
$GPHPD,0,0.000,310.06,0.11,-12.72,31.5926240,120.7813575,2.705,13630902.438,24927603.779,2.705,0.000,0.000,0.000,0.000,0.000,0.000,0.000,16,16,4*52
$GPGGA,080630.80,3135.5575476,N,12046.8813029,E,4,16,2.2,2.6886,M,8.328,M,00,0004*67
$GPHPD,0,0.000,309.91,-0.05,-12.69,31.5926258,120.7813550,2.689,13630900.609,24927601.368,2.689,0.000,0.000,0.000,0.000,0.000,0.000,0.000,16,17,4*7D
$GPGGA,080631.00,3135.5576508,N,12046.8811598,E,4,16,2.2,2.7042,M,8.328,M,01,0004*68
$GPHPD,0,0.000,309.93,0.28,-12.67,31.5926275,120.7813527,2.704,13630898.854,24927599.041,2.704,0.000,0.000,0.000,0.000,0.000,0.000,0.000,16,16,4*51
$GPGGA,080631.20,3135.5577564,N,12046.8810171,E,4,16,2.2,2.7049,M,8.328,M,01,0004*68
$GPHPD,0,0.000,310.10,-0.44,-12.67,31.5926293,120.7813503,2.705,13630897.066,24927596.705,2.705,0.000,0.000,0.000,0.000,0.000,0.000,0.000,16,16,4*75
$GPGGA,080631.40,3135.5578626,N,12046.8808769,E,4,17,1.6,2.7051,M,8.328,M,01,0004*6D
$GPHPD,0,0.000,310.10,-0.47,-12.68,31.5926310,120.7813479,2.705,13630895.274,24927594.396,2.705,0.000,0.000,0.000,0.000,0.000,0.000,0.000,17,17,4*70
$GPGGA,080631.60,3135.5579671,N,12046.8807357,E,4,17,1.6,2.7114,M,8.328,M,00,0004*6B
$GPHPD,0,0.000,309.91,0.10,-12.66,31.5926328,120.7813456,2.711,13630893.505,24927592.084,2.711,0.000,0.000,0.000,0.000,0.000,0.000,0.000,17,17,4*57
$GPGGA,080631.80,3135.5580731,N,12046.8805883,E,4,17,1.6,2.6973,M,8.328,M,00,0004*6E
$GPHPD,0,0.000,309.89,-0.23,-12.65,31.5926346,120.7813431,2.697,13630891.701,24927589.689,2.697,0.000,0.000,0.000,0.000,0.000,0.000,0.000,17,17,4*7C
$GPGGA,080632.00,3135.5581788,N,12046.8804522,E,4,17,1.6,2.7106,M,8.328,M,01,0004*6B
$GPHPD,0,0.000,309.87,0.05,-12.64,31.5926363,120.7813409,2.711,13630889.925,24927587.432,2.711,0.000,0.000,0.000,0.000,0.000,0.000,0.000,17,18,4*54
$GPGGA,080632.20,3135.5582846,N,12046.8803103,E,4,17,1.6,2.7052,M,8.328,M,01,0004*67
$GPHPD,0,0.000,309.98,-0.63,-12.65,31.5926381,120.7813385,2.705,13630888.136,24927585.105,2.705,0.000,0.000,0.000,0.000,0.000,0.000,0.000,17,18,4*71
$GPGGA,080632.40,3135.5583931,N,12046.8801674,E,4,17,1.6,2.6936,M,8.328,M,01,0004*6E
$GPHPD,0,0.000,310.08,-0.53,-12.65,31.5926399,120.7813361,2.694,13630886.306,24927582.750,2.694,0.000,0.000,0.000,0.000,0.000,0.000,0.000,17,18,4*7E
$GPGGA,080632.60,3135.5585002,N,12046.8800269,E,4,17,1.6,2.6984,M,8.328,M,00,0004*62
$GPHPD,0,0.000,309.91,-0.09,-12.65,31.5926417,120.7813338,2.698,13630884.501,24927580.431,2.698,0.000,0.000,0.000,0.000,0.000,0.000,0.000,17,18,4*71
$GPGGA,080632.80,3135.5586067,N,12046.8798838,E,4,17,2.2,2.6861,M,8.328,M,00,0004*61
$GPHPD,0,0.000,309.94,-0.32,-12.66,31.5926434,120.7813314,2.686,13630882.699,24927578.085,2.686,0.000,0.000,0.000,0.000,0.000,0.000,0.000,17,18,4*78
$GPGGA,080633.00,3135.5587120,N,12046.8797409,E,4,16,2.2,2.6950,M,8.328,M,01,0004*69
$GPHPD,0,0.000,309.92,-0.44,-12.64,31.5926452,120.7813290,2.695,13630880.914,24927575.749,2.695,0.000,0.000,0.000,0.000,0.000,0.000,0.000,16,18,4*73
$GPGGA,080633.20,3135.5588176,N,12046.8795948,E,4,17,2.2,2.6915,M,8.328,M,01,0004*6D
$GPHPD,0,0.000,310.03,-0.76,-12.64,31.5926470,120.7813266,2.692,13630879.119,24927573.372,2.692,0.000,0.000,0.000,0.000,0.000,0.000,0.000,17,18,4*73
$GPGGA,080633.40,3135.5589253,N,12046.8794525,E,4,17,2.2,2.6869,M,8.328,M,01,0004*62
$GPHPD,0,0.000,310.39,-0.78,-12.61,31.5926488,120.7813242,2.687,13630877.302,24927571.029,2.687,0.000,0.000,0.000,0.000,0.000,0.000,0.000,17,18,4*79
$GPGGA,080633.60,3135.5590333,N,12046.8793094,E,4,17,2.0,2.6882,M,8.328,M,00,0004*61
$GPHPD,0,0.000,310.14,-0.77,-12.61,31.5926506,120.7813218,2.688,13630875.479,24927568.674,2.688,0.000,0.000,0.000,0.000,0.000,0.000,0.000,17,18,4*7E
$GPGGA,080633.80,3135.5591408,N,12046.8791644,E,4,17,2.0,2.6776,M,8.328,M,00,0004*6C
$GPHPD,0,0.000,310.31,-0.65,-12.64,31.5926523,120.7813194,2.678,13630873.659,24927566.299,2.678,0.000,0.000,0.000,0.000,0.000,0.000,0.000,17,18,4*70
$GPGGA,080634.00,3135.5592478,N,12046.8790234,E,4,17,2.1,2.6722,M,8.328,M,01,0004*64
$GPHPD,0,0.000,310.26,-0.12,-12.65,31.5926541,120.7813171,2.672,13630871.854,24927563.976,2.672,0.000,0.000,0.000,0.000,0.000,0.000,0.000,17,17,4*79
$GPGGA,080634.20,3135.5593549,N,12046.8788778,E,4,17,2.1,2.6669,M,8.328,M,01,0004*6E
$GPHPD,0,0.000,310.21,-0.26,-12.66,31.5926559,120.7813146,2.667,13630870.039,24927561.596,2.667,0.000,0.000,0.000,0.000,0.000,0.000,0.000,17,17,4*75
$GPGGA,080634.40,3135.5594617,N,12046.8787370,E,4,17,2.0,2.6754,M,8.328,M,01,0004*6A
$GPHPD,0,0.000,310.23,0.06,-12.67,31.5926577,120.7813123,2.675,13630868.238,24927559.276,2.675,0.000,0.000,0.000,0.000,0.000,0.000,0.000,17,17,4*5E
$GPGGA,080634.60,3135.5595674,N,12046.8785948,E,4,17,2.1,2.6696,M,8.328,M,00,0004*60
$GPHPD,0,0.000,310.17,-0.20,-12.69,31.5926595,120.7813099,2.670,13630866.449,24927556.945,2.670,0.000,0.000,0.000,0.000,0.000,0.000,0.000,17,17,4*78
$GPGGA,080634.80,3135.5596732,N,12046.8784522,E,4,17,2.1,2.6727,M,8.328,M,00,0004*64
$GPHPD,0,0.000,310.15,0.24,-12.70,31.5926612,120.7813075,2.673,13630864.658,24927554.609,2.673,0.000,0.000,0.000,0.000,0.000,0.000,0.000,17,17,4*50
$GPGGA,080635.00,3135.5597809,N,12046.8783112,E,4,17,2.1,2.6582,M,8.328,M,01,0004*67
$GPHPD,0,0.000,310.31,0.16,-12.75,31.5926630,120.7813052,2.658,13630862.843,24927552.282,2.658,0.000,0.000,0.000,0.000,0.000,0.000,0.000,17,17,4*54
$GPGGA,080635.20,3135.5598828,N,12046.8781689,E,4,17,1.6,2.6721,M,8.328,M,01,0004*61
$GPHPD,0,0.000,310.22,0.49,-12.77,31.5926647,120.7813028,2.672,13630861.109,24927549.972,2.672,0.000,0.000,0.000,0.000,0.000,0.000,0.000,17,17,4*59
$GPGGA,080635.40,3135.5599889,N,12046.8780246,E,4,17,1.6,2.6585,M,8.328,M,01,0004*67
$GPHPD,0,0.000,310.46,0.13,-12.77,31.5926665,120.7813004,2.659,13630859.310,24927547.614,2.659,0.000,0.000,0.000,0.000,0.000,0.000,0.000,17,17,4*5A
$GPGGA,080635.60,3135.5600995,N,12046.8778864,E,4,17,1.6,2.6679,M,8.328,M,00,0004*66
$GPHPD,0,0.000,310.49,0.71,-12.76,31.5926683,120.7812981,2.668,13630857.460,24927545.303,2.668,0.000,0.000,0.000,0.000,0.000,0.000,0.000,17,17,4*52
$GPGGA,080635.80,3135.5602033,N,12046.8777407,E,4,17,1.6,2.6773,M,8.328,M,00,0004*62
$GPHPD,0,0.000,310.19,0.00,-12.73,31.5926701,120.7812957,2.677,13630855.691,24927542.942,2.677,0.000,0.000,0.000,0.000,0.000,0.000,0.000,17,16,4*53
$GPGGA,080636.00,3135.5603123,N,12046.8776021,E,4,17,1.6,2.6788,M,8.328,M,01,0004*6C
$GPHPD,0,0.000,310.48,-0.37,-12.72,31.5926719,120.7812934,2.679,13630853.863,24927540.635,2.679,0.000,0.000,0.000,0.000,0.000,0.000,0.000,17,17,4*7A
$GPGGA,080636.20,3135.5604180,N,12046.8774591,E,4,17,1.6,2.6802,M,8.328,M,01,0004*61
$GPHPD,0,0.000,310.27,-0.57,-12.72,31.5926736,120.7812910,2.680,13630852.072,24927538.295,2.680,0.000,0.000,0.000,0.000,0.000,0.000,0.000,17,16,4*77
$GPGGA,080636.40,3135.5605264,N,12046.8773180,E,4,17,1.6,2.6761,M,8.328,M,01,0004*66
$GPHPD,0,0.000,310.00,-0.56,-12.72,31.5926754,120.7812886,2.676,13630850.248,24927535.962,2.676,0.000,0.000,0.000,0.000,0.000,0.000,0.000,17,16,4*7E
$GPGGA,080636.60,3135.5606318,N,12046.8771747,E,4,17,1.6,2.6800,M,8.328,M,01,0004*6A
$GPHPD,0,0.000,309.86,-0.08,-12.69,31.5926772,120.7812862,2.680,13630848.461,24927533.620,2.680,0.000,0.000,0.000,0.000,0.000,0.000,0.000,17,16,4*7C
$GPGGA,080636.80,3135.5607398,N,12046.8770320,E,4,16,2.1,2.6714,M,8.328,M,01,0004*66
$GPHPD,0,0.000,309.71,-0.36,-12.67,31.5926790,120.7812839,2.671,13630846.639,24927531.270,2.671,0.000,0.000,0.000,0.000,0.000,0.000,0.000,16,16,4*76
$GPGGA,080637.00,3135.5608428,N,12046.8768850,E,4,16,2.1,2.6718,M,8.328,M,02,0004*66
$GPHPD,0,0.000,309.44,-0.25,-12.66,31.5926807,120.7812814,2.672,13630844.879,24927528.898,2.672,0.000,0.000,0.000,0.000,0.000,0.000,0.000,16,15,4*72
$GPGGA,080637.20,3135.5609489,N,12046.8767410,E,4,16,2.1,2.6702,M,8.328,M,02,0004*62
$GPHPD,0,0.000,309.28,0.32,-12.66,31.5926825,120.7812790,2.670,13630843.081,24927526.543,2.670,0.000,0.000,0.000,0.000,0.000,0.000,0.000,16,15,4*5D
$GPGGA,080637.40,3135.5610537,N,12046.8765959,E,4,16,2.1,2.6689,M,8.328,M,02,0004*68
$GPHPD,0,0.000,309.03,-0.11,-12.68,31.5926842,120.7812766,2.669,13630841.299,24927524.183,2.669,0.000,0.000,0.000,0.000,0.000,0.000,0.000,16,15,4*7D
$GPGGA,080637.60,3135.5611557,N,12046.8764501,E,4,16,2.1,2.6715,M,8.328,M,02,0004*69
$GPHPD,0,0.000,309.15,-0.48,-12.68,31.5926859,120.7812742,2.672,13630839.556,24927521.831,2.672,0.000,0.000,0.000,0.000,0.000,0.000,0.000,16,15,4*74
$GPGGA,080637.80,3135.5612639,N,12046.8763005,E,4,16,2.1,2.6538,M,8.328,M,00,0004*66
$GPHPD,0,0.000,309.18,-0.25,-12.71,31.5926877,120.7812717,2.654,13630837.717,24927519.396,2.654,0.000,0.000,0.000,0.000,0.000,0.000,0.000,16,15,4*72
$GPGGA,080638.00,3135.5613631,N,12046.8761591,E,4,15,2.1,2.6741,M,8.328,M,01,0004*6C
$GPHPD,0,0.000,309.25,0.24,-12.70,31.5926894,120.7812693,2.674,13630836.022,24927517.113,2.674,0.000,0.000,0.000,0.000,0.000,0.000,0.000,15,15,4*53
$GPGGA,080638.20,3135.5614667,N,12046.8760127,E,4,15,2.1,2.6615,M,8.328,M,01,0004*62
$GPHPD,0,0.000,309.31,-0.37,-12.70,31.5926911,120.7812669,2.662,13630834.255,24927514.744,2.662,0.000,0.000,0.000,0.000,0.000,0.000,0.000,15,15,4*77
$GPGGA,080638.40,3135.5615728,N,12046.8758693,E,4,15,2.1,2.6618,M,8.328,M,01,0004*61
$GPHPD,0,0.000,309.39,0.14,-12.70,31.5926929,120.7812645,2.662,13630832.458,24927512.397,2.662,0.000,0.000,0.000,0.000,0.000,0.000,0.000,15,15,4*57
$GPGGA,080638.60,3135.5616804,N,12046.8757242,E,4,15,2.1,2.6623,M,8.328,M,00,0004*6F
$GPHPD,0,0.000,309.46,0.03,-12.71,31.5926947,120.7812621,2.662,13630830.637,24927510.021,2.662,0.000,0.000,0.000,0.000,0.000,0.000,0.000,15,15,4*57
$GPGGA,080638.80,3135.5617855,N,12046.8755807,E,4,15,2.1,2.6615,M,8.328,M,00,0004*68
$GPHPD,0,0.000,309.59,-0.13,-12.73,31.5926964,120.7812597,2.662,13630828.854,24927507.678,2.662,0.000,0.000,0.000,0.000,0.000,0.000,0.000,15,15,4*76
$GPGGA,080639.00,3135.5618902,N,12046.8754360,E,4,16,2.1,2.6629,M,8.328,M,01,0004*6B
$GPHPD,0,0.000,309.61,-0.65,-12.74,31.5926982,120.7812573,2.663,13630827.075,24927505.323,2.663,0.000,0.000,0.000,0.000,0.000,0.000,0.000,16,16,4*74
$GPGGA,080639.20,3135.5619945,N,12046.8752893,E,4,16,2.1,2.6486,M,8.328,M,01,0004*6D
$GPHPD,0,0.000,309.74,-0.79,-12.76,31.5926999,120.7812548,2.649,13630825.297,24927502.946,2.649,0.000,0.000,0.000,0.000,0.000,0.000,0.000,16,16,4*7F
$GPGGA,080639.40,3135.5620991,N,12046.8751483,E,4,16,2.1,2.6648,M,8.328,M,01,0004*66
$GPHPD,0,0.000,309.76,0.12,-12.76,31.5927017,120.7812525,2.665,13630823.526,24927500.637,2.665,0.000,0.000,0.000,0.000,0.000,0.000,0.000,16,17,4*59
$GPGGA,080639.60,3135.5622060,N,12046.8750103,E,4,16,2.0,2.6613,M,8.328,M,00,0004*63
$GPHPD,0,0.000,309.91,0.13,-12.75,31.5927034,120.7812502,2.661,13630821.729,24927498.350,2.661,0.000,0.000,0.000,0.000,0.000,0.000,0.000,16,17,4*5D
$GPGGA,080639.80,3135.5623106,N,12046.8748655,E,4,16,2.0,2.6614,M,8.328,M,00,0004*67
$GPHPD,0,0.000,309.60,0.36,-12.76,31.5927052,120.7812478,2.661,13630819.951,24927495.995,2.661,0.000,0.000,0.000,0.000,0.000,0.000,0.000,16,17,4*5F
$GPGGA,080640.00,3135.5624207,N,12046.8747252,E,4,16,2.0,2.6517,M,8.328,M,01,0004*69
$GPHPD,0,0.000,309.77,-0.13,-12.77,31.5927070,120.7812454,2.652,13630818.103,24927493.661,2.652,0.000,0.000,0.000,0.000,0.000,0.000,0.000,16,17,4*70
$GPGGA,080640.20,3135.5625214,N,12046.8745824,E,4,16,2.0,2.6501,M,8.328,M,01,0004*66
$GPHPD,0,0.000,309.47,0.06,-12.78,31.5927087,120.7812430,2.650,13630816.385,24927491.353,2.650,0.000,0.000,0.000,0.000,0.000,0.000,0.000,16,17,4*5B
$GPGGA,080640.40,3135.5626228,N,12046.8744401,E,4,16,2.0,2.6665,M,8.328,M,01,0004*67
$GPHPD,0,0.000,309.70,-0.46,-12.78,31.5927104,120.7812407,2.667,13630814.657,24927489.046,2.667,0.000,0.000,0.000,0.000,0.000,0.000,0.000,16,17,4*7E
$GPGGA,080640.60,3135.5627272,N,12046.8743011,E,4,16,1.5,2.6645,M,8.328,M,00,0004*6C
$GPHPD,0,0.000,309.90,-0.57,-12.78,31.5927121,120.7812384,2.665,13630812.893,24927486.762,2.665,0.000,0.000,0.000,0.000,0.000,0.000,0.000,16,17,4*75
$GPGGA,080640.80,3135.5628349,N,12046.8741584,E,4,16,1.5,2.6535,M,8.328,M,00,0004*6B
$GPHPD,0,0.000,309.99,-0.49,-12.78,31.5927139,120.7812360,2.654,13630811.075,24927484.414,2.654,0.000,0.000,0.000,0.000,0.000,0.000,0.000,16,17,4*73
$GPGGA,080641.00,3135.5629398,N,12046.8740172,E,4,16,1.5,2.6566,M,8.328,M,01,0004*64
$GPHPD,0,0.000,310.01,0.11,-12.78,31.5927157,120.7812336,2.657,13630809.300,24927482.100,2.657,0.000,0.000,0.000,0.000,0.000,0.000,0.000,16,17,4*5F
$GPGGA,080641.20,3135.5630462,N,12046.8738795,E,4,16,1.5,2.6474,M,8.328,M,01,0004*6E
$GPHPD,0,0.000,310.15,-0.11,-12.76,31.5927174,120.7812313,2.647,13630807.510,24927479.820,2.647,0.000,0.000,0.000,0.000,0.000,0.000,0.000,16,17,4*79
$GPGGA,080641.40,3135.5631480,N,12046.8737406,E,4,16,1.5,2.6555,M,8.328,M,01,0004*61
$GPHPD,0,0.000,310.04,0.25,-12.71,31.5927191,120.7812290,2.656,13630805.784,24927477.552,2.656,0.000,0.000,0.000,0.000,0.000,0.000,0.000,16,17,4*5E
$GPGGA,080641.60,3135.5632468,N,12046.8736086,E,4,16,1.5,2.6611,M,8.328,M,00,0004*69
$GPHPD,0,0.000,310.28,0.25,-12.63,31.5927208,120.7812268,2.661,13630804.114,24927475.384,2.661,0.000,0.000,0.000,0.000,0.000,0.000,0.000,16,17,4*56
$GPGGA,080641.80,3135.5633419,N,12046.8734805,E,4,16,1.5,2.6568,M,8.328,M,00,0004*6C
$GPHPD,0,0.000,310.54,0.20,-12.58,31.5927224,120.7812247,2.657,13630802.504,24927473.286,2.657,0.000,0.000,0.000,0.000,0.000,0.000,0.000,16,17,4*55
$GPGGA,080642.00,3135.5634327,N,12046.8733615,E,4,16,1.5,2.6574,M,8.328,M,01,0004*6E
$GPHPD,0,0.000,310.55,-0.58,-12.49,31.5927239,120.7812227,2.657,13630800.974,24927471.322,2.657,0.000,0.000,0.000,0.000,0.000,0.000,0.000,16,17,4*78
$GPGGA,080642.20,3135.5635158,N,12046.8732515,E,4,16,1.5,2.6619,M,8.328,M,01,0004*6D
$GPHPD,0,0.000,310.56,-0.10,-12.40,31.5927253,120.7812209,2.662,13630799.571,24927469.511,2.662,0.000,0.000,0.000,0.000,0.000,0.000,0.000,16,17,4*77
$GPGGA,080642.40,3135.5635902,N,12046.8731474,E,4,16,1.5,2.6625,M,8.328,M,01,0004*66
$GPHPD,0,0.000,310.50,0.16,-12.26,31.5927265,120.7812191,2.663,13630798.304,24927467.822,2.663,0.000,0.000,0.000,0.000,0.000,0.000,0.000,16,17,4*5B
$GPGGA,080642.60,3135.5636598,N,12046.8730563,E,4,16,2.0,2.6472,M,8.328,M,00,0004*69
$GPHPD,0,0.000,310.84,-0.44,-12.17,31.5927277,120.7812176,2.647,13630797.132,24927466.318,2.647,0.000,0.000,0.000,0.000,0.000,0.000,0.000,16,17,4*7B
$GPGGA,080642.80,3135.5637223,N,12046.8729763,E,4,16,2.0,2.6500,M,8.328,M,00,0004*6F
$GPHPD,0,0.000,310.73,0.07,-12.07,31.5927287,120.7812163,2.650,13630796.082,24927464.990,2.650,0.000,0.000,0.000,0.000,0.000,0.000,0.000,16,17,4*50
$GPGGA,080643.00,3135.5637753,N,12046.8729058,E,4,16,2.0,2.6449,M,8.328,M,01,0004*66
$GPHPD,0,0.000,310.74,-0.16,-11.94,31.5927296,120.7812151,2.645,13630795.187,24927463.831,2.645,0.000,0.000,0.000,0.000,0.000,0.000,0.000,16,17,4*78
$GPGGA,080643.20,3135.5638182,N,12046.8728478,E,4,16,2.0,2.6544,M,8.328,M,01,0004*6A
$GPHPD,0,0.000,310.60,0.04,-11.86,31.5927303,120.7812141,2.654,13630794.461,24927462.881,2.654,0.000,0.000,0.000,0.000,0.000,0.000,0.000,16,17,4*5A
$GPGGA,080643.40,3135.5638555,N,12046.8727985,E,4,16,2.0,2.6553,M,8.328,M,01,0004*64
$GPHPD,0,0.000,310.70,-0.04,-11.78,31.5927309,120.7812133,2.655,13630793.831,24927462.070,2.655,0.000,0.000,0.000,0.000,0.000,0.000,0.000,16,17,4*70
$GPGGA,080643.60,3135.5638860,N,12046.8727586,E,4,16,2.0,2.6525,M,8.328,M,00,0004*62
$GPHPD,0,0.000,310.71,-0.35,-11.71,31.5927314,120.7812126,2.653,13630793.317,24927461.411,2.653,0.000,0.000,0.000,0.000,0.000,0.000,0.000,16,17,4*7D
$GPGGA,080643.80,3135.5639099,N,12046.8727287,E,4,16,2.0,2.6452,M,8.328,M,00,0004*64
$GPHPD,0,0.000,310.76,0.25,-11.65,31.5927318,120.7812121,2.645,13630792.917,24927460.911,2.645,0.000,0.000,0.000,0.000,0.000,0.000,0.000,16,17,4*5F
$GPGGA,080644.00,3135.5639266,N,12046.8727056,E,4,16,2.0,2.6508,M,8.328,M,01,0004*68
$GPHPD,0,0.000,310.68,0.11,-11.60,31.5927321,120.7812118,2.651,13630792.634,24927460.535,2.651,0.000,0.000,0.000,0.000,0.000,0.000,0.000,16,17,4*56
$GPGGA,080644.20,3135.5639383,N,12046.8726907,E,4,16,2.0,2.6531,M,8.328,M,01,0004*66
$GPHPD,0,0.000,310.66,-0.35,-11.58,31.5927323,120.7812115,2.653,13630792.437,24927460.287,2.653,0.000,0.000,0.000,0.000,0.000,0.000,0.000,16,17,4*78
$GPGGA,080644.40,3135.5639448,N,12046.8726824,E,4,16,2.0,2.6518,M,8.328,M,01,0004*6B
$GPHPD,0,0.000,310.58,-0.22,-11.54,31.5927324,120.7812114,2.652,13630792.328,24927460.149,2.652,0.000,0.000,0.000,0.000,0.000,0.000,0.000,16,17,4*71
$GPGGA,080644.60,3135.5639459,N,12046.8726808,E,4,16,2.0,2.6491,M,8.328,M,00,0004*66
$GPHPD,0,0.000,310.66,-0.29,-11.51,31.5927324,120.7812113,2.649,13630792.309,24927460.124,2.649,0.000,0.000,0.000,0.000,0.000,0.000,0.000,16,17,4*7D
$GPGGA,080644.80,3135.5639450,N,12046.8726820,E,4,16,1.5,2.6459,M,8.328,M,00,0004*69
$GPHPD,0,0.000,310.55,-0.07,-11.56,31.5927324,120.7812114,2.646,13630792.325,24927460.143,2.646,0.000,0.000,0.000,0.000,0.000,0.000,0.000,16,17,4*7E
$GPGGA,080645.00,3135.5639473,N,12046.8726830,E,4,16,1.5,2.6398,M,8.328,M,01,0004*6B
$GPHPD,0,0.000,310.70,0.04,-11.64,31.5927325,120.7812114,2.640,13630792.294,24927460.142,2.640,0.000,0.000,0.000,0.000,0.000,0.000,0.000,16,17,4*5D
$GPGGA,080645.20,3135.5639466,N,12046.8726821,E,4,16,1.5,2.6443,M,8.328,M,01,0004*6C
$GPHPD,0,0.000,310.54,0.01,-11.68,31.5927324,120.7812114,2.644,13630792.302,24927460.135,2.644,0.000,0.000,0.000,0.000,0.000,0.000,0.000,16,17,4*5D
$GPGGA,080645.40,3135.5639449,N,12046.8726819,E,4,16,1.5,2.6450,M,8.328,M,01,0004*6E
$GPHPD,0,0.000,310.89,-0.33,-11.72,31.5927324,120.7812114,2.645,13630792.326,24927460.143,2.645,0.000,0.000,0.000,0.000,0.000,0.000,0.000,16,17,4*7D
$GPGGA,080645.60,3135.5639443,N,12046.8726801,E,4,16,1.5,2.6486,M,8.328,M,00,0004*65
$GPHPD,0,0.000,310.81,-0.34,-11.77,31.5927324,120.7812113,2.649,13630792.331,24927460.125,2.649,0.000,0.000,0.000,0.000,0.000,0.000,0.000,16,17,4*76
$GPGGA,080645.80,3135.5639440,N,12046.8726791,E,4,16,1.5,2.6514,M,8.328,M,00,0004*64
$GPHPD,0,0.000,310.56,-0.10,-11.82,31.5927324,120.7812113,2.651,13630792.333,24927460.114,2.651,0.000,0.000,0.000,0.000,0.000,0.000,0.000,16,17,4*70
$GPGGA,080646.00,3135.5639457,N,12046.8726791,E,4,16,1.5,2.6426,M,8.328,M,01,0004*68
$GPHPD,0,0.000,310.80,-0.01,-11.86,31.5927324,120.7812113,2.643,13630792.309,24927460.104,2.643,0.000,0.000,0.000,0.000,0.000,0.000,0.000,16,17,4*77
$GPGGA,080646.20,3135.5639433,N,12046.8726804,E,4,16,1.5,2.6504,M,8.328,M,01,0004*6A
$GPHPD,0,0.000,310.62,-0.03,-11.89,31.5927324,120.7812113,2.650,13630792.346,24927460.134,2.650,0.000,0.000,0.000,0.000,0.000,0.000,0.000,16,17,4*7E
$GPGGA,080646.40,3135.5639431,N,12046.8726815,E,4,16,1.5,2.6508,M,8.328,M,01,0004*62
$GPHPD,0,0.000,310.76,-0.05,-11.93,31.5927324,120.7812114,2.651,13630792.351,24927460.149,2.651,0.000,0.000,0.000,0.000,0.000,0.000,0.000,16,17,4*7D
$GPGGA,080646.60,3135.5639445,N,12046.8726819,E,4,16,1.5,2.6489,M,8.328,M,00,0004*66
$GPHPD,0,0.000,310.59,-0.03,-11.97,31.5927324,120.7812114,2.649,13630792.331,24927460.145,2.649,0.000,0.000,0.000,0.000,0.000,0.000,0.000,16,17,4*78
$GPGGA,080646.80,3135.5639450,N,12046.8726831,E,4,16,1.5,2.6482,M,8.328,M,00,0004*6D
$GPHPD,0,0.000,310.63,-0.14,-12.00,31.5927324,120.7812114,2.648,13630792.327,24927460.157,2.648,0.000,0.000,0.000,0.000,0.000,0.000,0.000,16,17,4*7E
$GPGGA,080647.00,3135.5639431,N,12046.8726817,E,4,16,1.5,2.6506,M,8.328,M,01,0004*6B
$GPHPD,0,0.000,310.54,-0.04,-12.03,31.5927324,120.7812114,2.651,13630792.351,24927460.151,2.651,0.000,0.000,0.000,0.000,0.000,0.000,0.000,16,17,4*7F
$GPGGA,080647.20,3135.5639449,N,12046.8726820,E,4,16,1.5,2.6482,M,8.328,M,01,0004*6F
$GPHPD,0,0.000,310.67,-0.07,-12.06,31.5927324,120.7812114,2.648,13630792.326,24927460.144,2.648,0.000,0.000,0.000,0.000,0.000,0.000,0.000,16,17,4*7D
$GPGGA,080647.40,3135.5639438,N,12046.8726832,E,4,16,1.5,2.6516,M,8.328,M,01,0004*60
$GPHPD,0,0.000,310.57,0.11,-12.09,31.5927324,120.7812114,2.652,13630792.344,24927460.165,2.652,0.000,0.000,0.000,0.000,0.000,0.000,0.000,16,17,4*5C
$GPGGA,080647.60,3135.5639451,N,12046.8726803,E,4,16,1.5,2.6541,M,8.328,M,00,0004*6C
$GPHPD,0,0.000,310.57,-0.14,-12.12,31.5927324,120.7812113,2.654,13630792.320,24927460.122,2.654,0.000,0.000,0.000,0.000,0.000,0.000,0.000,16,17,4*78
$GPGGA,080647.80,3135.5639437,N,12046.8726811,E,4,16,1.5,2.6506,M,8.328,M,00,0004*62
$GPHPD,0,0.000,310.66,-0.08,-12.15,31.5927324,120.7812114,2.651,13630792.341,24927460.140,2.651,0.000,0.000,0.000,0.000,0.000,0.000,0.000,16,17,4*74
$GPGGA,080648.00,3135.5639448,N,12046.8726815,E,4,17,1.5,2.6483,M,8.328,M,01,0004*65
$GPHPD,0,0.000,310.71,-0.07,-12.17,31.5927324,120.7812114,2.648,13630792.326,24927460.139,2.648,0.000,0.000,0.000,0.000,0.000,0.000,0.000,17,18,4*7E
$GPGGA,080648.20,3135.5639453,N,12046.8726812,E,4,17,1.5,2.6479,M,8.328,M,01,0004*6F
$GPHPD,0,0.000,310.59,0.02,-12.19,31.5927324,120.7812114,2.648,13630792.319,24927460.132,2.648,0.000,0.000,0.000,0.000,0.000,0.000,0.000,17,18,4*55
$GPGGA,080648.40,3135.5639460,N,12046.8726819,E,4,17,1.5,2.6479,M,8.328,M,01,0004*62
$GPHPD,0,0.000,310.57,0.19,-12.22,31.5927324,120.7812114,2.648,13630792.310,24927460.136,2.648,0.000,0.000,0.000,0.000,0.000,0.000,0.000,17,18,4*54
$GPGGA,080648.60,3135.5639463,N,12046.8726815,E,4,17,1.5,2.6483,M,8.328,M,00,0004*6B
$GPHPD,0,0.000,310.52,0.14,-12.25,31.5927324,120.7812114,2.648,13630792.305,24927460.130,2.648,0.000,0.000,0.000,0.000,0.000,0.000,0.000,17,18,4*59
$GPGGA,080648.80,3135.5639462,N,12046.8726815,E,4,17,1.5,2.6428,M,8.328,M,00,0004*65
$GPHPD,0,0.000,310.53,0.10,-12.27,31.5927324,120.7812114,2.643,13630792.307,24927460.130,2.643,0.000,0.000,0.000,0.000,0.000,0.000,0.000,17,18,4*5C
$GPGGA,080649.00,3135.5639453,N,12046.8726806,E,4,17,1.5,2.6505,M,8.328,M,01,0004*63
$GPHPD,0,0.000,310.48,0.58,-12.30,31.5927324,120.7812113,2.651,13630792.317,24927460.125,2.651,0.000,0.000,0.000,0.000,0.000,0.000,0.000,17,18,4*5E
$GPGGA,080649.20,3135.5639463,N,12046.8726817,E,4,17,1.5,2.6533,M,8.328,M,01,0004*67
$GPHPD,0,0.000,310.59,-0.02,-12.32,31.5927324,120.7812114,2.653,13630792.305,24927460.132,2.653,0.000,0.000,0.000,0.000,0.000,0.000,0.000,17,18,4*7C
$GPGGA,080649.40,3135.5639468,N,12046.8726815,E,4,17,1.5,2.6443,M,8.328,M,01,0004*6E
$GPHPD,0,0.000,310.63,-0.16,-12.34,31.5927324,120.7812114,2.644,13630792.298,24927460.127,2.644,0.000,0.000,0.000,0.000,0.000,0.000,0.000,17,18,4*77
$GPGGA,080649.60,3135.5639445,N,12046.8726824,E,4,17,1.5,2.6466,M,8.328,M,00,0004*67
$GPHPD,0,0.000,310.51,0.35,-12.35,31.5927324,120.7812114,2.647,13630792.332,24927460.151,2.647,0.000,0.000,0.000,0.000,0.000,0.000,0.000,17,18,4*5B
$GPGGA,080649.80,3135.5639446,N,12046.8726807,E,4,17,1.5,2.6506,M,8.328,M,00,0004*6C
$GPHPD,0,0.000,310.58,0.27,-12.37,31.5927324,120.7812113,2.651,13630792.328,24927460.130,2.651,0.000,0.000,0.000,0.000,0.000,0.000,0.000,17,18,4*58
$GPGGA,080650.00,3135.5639453,N,12046.8726815,E,4,17,1.5,2.6510,M,8.328,M,01,0004*6D
$GPHPD,0,0.000,310.72,-0.06,-12.39,31.5927324,120.7812114,2.651,13630792.319,24927460.136,2.651,0.000,0.000,0.000,0.000,0.000,0.000,0.000,17,18,4*73
$GPGGA,080650.20,3135.5639455,N,12046.8726831,E,4,17,1.5,2.6576,M,8.328,M,01,0004*6F
$GPHPD,0,0.000,310.55,0.16,-12.41,31.5927324,120.7812114,2.658,13630792.320,24927460.154,2.658,0.000,0.000,0.000,0.000,0.000,0.000,0.000,17,18,4*5B
$GPGGA,080650.40,3135.5639444,N,12046.8726821,E,4,17,1.5,2.6533,M,8.328,M,01,0004*69
$GPHPD,0,0.000,310.73,-0.13,-12.42,31.5927324,120.7812114,2.653,13630792.333,24927460.148,2.653,0.000,0.000,0.000,0.000,0.000,0.000,0.000,17,18,4*7B
$GPGGA,080650.60,3135.5639438,N,12046.8726820,E,4,17,1.5,2.6506,M,8.328,M,00,0004*66
$GPHPD,0,0.000,310.85,0.38,-12.42,31.5927324,120.7812114,2.651,13630792.342,24927460.150,2.651,0.000,0.000,0.000,0.000,0.000,0.000,0.000,17,18,4*59
$GPGGA,080650.80,3135.5639461,N,12046.8726815,E,4,17,1.5,2.6448,M,8.328,M,00,0004*69
$GPHPD,0,0.000,310.72,0.38,-12.44,31.5927324,120.7812114,2.645,13630792.308,24927460.131,2.645,0.000,0.000,0.000,0.000,0.000,0.000,0.000,17,18,4*5E
$GPGGA,080651.00,3135.5639475,N,12046.8726831,E,4,17,1.5,2.6440,M,8.328,M,01,0004*6A
$GPHPD,0,0.000,310.64,0.02,-12.45,31.5927325,120.7812114,2.644,13630792.291,24927460.142,2.644,0.000,0.000,0.000,0.000,0.000,0.000,0.000,17,18,4*55
$GPGGA,080651.20,3135.5639453,N,12046.8726829,E,4,17,1.5,2.6488,M,8.328,M,01,0004*61
$GPHPD,0,0.000,310.51,0.04,-12.45,31.5927324,120.7812114,2.649,13630792.322,24927460.153,2.649,0.000,0.000,0.000,0.000,0.000,0.000,0.000,17,18,4*5D
$GPGGA,080651.40,3135.5639457,N,12046.8726819,E,4,17,1.5,2.6430,M,8.328,M,01,0004*63
$GPHPD,0,0.000,310.71,-0.18,-12.47,31.5927324,120.7812114,2.643,13630792.314,24927460.138,2.643,0.000,0.000,0.000,0.000,0.000,0.000,0.000,17,18,4*75
$GPGGA,080651.60,3135.5639441,N,12046.8726826,E,4,17,1.5,2.6475,M,8.328,M,00,0004*6A
$GPHPD,0,0.000,310.55,0.29,-12.48,31.5927324,120.7812114,2.648,13630792.339,24927460.156,2.648,0.000,0.000,0.000,0.000,0.000,0.000,0.000,17,18,4*54
$GPGGA,080651.80,3135.5639446,N,12046.8726812,E,4,17,1.5,2.6510,M,8.328,M,00,0004*66
$GPHPD,0,0.000,310.69,-0.24,-12.49,31.5927324,120.7812114,2.651,13630792.329,24927460.136,2.651,0.000,0.000,0.000,0.000,0.000,0.000,0.000,17,18,4*7D
$GPGGA,080652.00,3135.5639458,N,12046.8726812,E,4,17,1.5,2.6463,M,8.328,M,01,0004*66
$GPHPD,0,0.000,310.75,-0.10,-12.51,31.5927324,120.7812114,2.646,13630792.312,24927460.129,2.646,0.000,0.000,0.000,0.000,0.000,0.000,0.000,17,18,4*78
$GPGGA,080652.20,3135.5639427,N,12046.8726810,E,4,17,1.5,2.6532,M,8.328,M,01,0004*6B
$GPHPD,0,0.000,310.72,-0.05,-12.51,31.5927324,120.7812114,2.653,13630792.355,24927460.145,2.653,0.000,0.000,0.000,0.000,0.000,0.000,0.000,17,18,4*72
$GPGGA,080652.40,3135.5639449,N,12046.8726822,E,4,17,1.5,2.6517,M,8.328,M,01,0004*63
$GPHPD,0,0.000,310.66,0.04,-12.53,31.5927324,120.7812114,2.652,13630792.326,24927460.146,2.652,0.000,0.000,0.000,0.000,0.000,0.000,0.000,17,18,4*5E
$GPGGA,080652.60,3135.5639456,N,12046.8726805,E,4,17,1.5,2.6456,M,8.328,M,00,0004*6F
$GPHPD,0,0.000,310.49,0.29,-12.55,31.5927324,120.7812113,2.646,13630792.313,24927460.122,2.646,0.000,0.000,0.000,0.000,0.000,0.000,0.000,17,18,4*59
$GPGGA,080652.80,3135.5639455,N,12046.8726797,E,4,17,1.5,2.6472,M,8.328,M,00,0004*60
$GPHPD,0,0.000,310.62,0.45,-12.56,31.5927324,120.7812113,2.647,13630792.313,24927460.113,2.647,0.000,0.000,0.000,0.000,0.000,0.000,0.000,17,18,4*5B
$GPGGA,080653.00,3135.5639461,N,12046.8726805,E,4,17,1.5,2.6516,M,8.328,M,01,0004*68
$GPHPD,0,0.000,310.57,0.14,-12.62,31.5927324,120.7812113,2.652,13630792.306,24927460.119,2.652,0.000,0.000,0.000,0.000,0.000,0.000,0.000,17,18,4*50
