$GPGGA,091038.80,3135.5211751,N,12046.6939902,E,4,17,1.5,2.7106,M,8.317,M,00,0004*64
$GPHPD,1957,33056.600,319.74,0.47,14.39,31.5920196,120.7782332,2.711,13631040.724,24925554.311,2.711,0.610,0.006,0.534,0.680,1.278,0.725,0.000,17,16,4*43
$GPGGA,091039.00,3135.5212467,N,12046.6939315,E,4,17,1.5,2.7156,M,8.317,M,01,0004*60
$GPHPD,1957,33056.800,319.90,0.78,14.36,31.5920208,120.7782322,2.716,13631039.588,24925553.186,2.716,0.620,-0.029,0.539,0.687,1.288,0.728,0.000,17,16,4*6B
$GPGGA,091039.20,3135.5213159,N,12046.6938691,E,4,17,1.5,2.7157,M,8.317,M,01,0004*62
$GPHPD,1957,33057.000,319.86,0.76,14.33,31.5920219,120.7782312,2.716,13631038.479,24925552.031,2.716,0.598,-0.015,0.549,0.680,1.278,0.725,0.000,17,16,4*62
$GPGGA,091039.40,3135.5213819,N,12046.6937981,E,4,17,1.5,2.7155,M,8.317,M,01,0004*6A
$GPHPD,1957,33057.200,320.18,0.74,14.32,31.5920230,120.7782300,2.716,13631037.398,24925550.790,2.716,0.608,-0.002,0.535,0.680,1.278,0.725,0.000,17,16,4*68
$GPGGA,091039.60,3135.5214493,N,12046.6937377,E,4,17,1.5,2.7297,M,8.317,M,00,0004*6E
$GPHPD,1957,33057.400,320.14,0.86,14.29,31.5920242,120.7782290,2.730,13631036.318,24925549.669,2.730,0.584,0.007,0.562,0.680,1.278,0.725,0.000,17,16,4*43
$GPGGA,091039.80,3135.5215197,N,12046.6936709,E,4,17,1.5,2.7278,M,8.317,M,00,0004*6D
$GPHPD,1957,33057.600,320.17,0.96,14.27,31.5920253,120.7782278,2.728,13631035.183,24925548.454,2.728,0.557,0.039,0.560,0.725,1.310,0.769,0.000,17,16,4*4D
$GPGGA,091040.00,3135.5215881,N,12046.6936115,E,4,17,1.6,2.7310,M,8.317,M,01,0004*63
$GPHPD,1957,33057.800,320.45,0.85,14.28,31.5920265,120.7782269,2.731,13631034.091,24925547.339,2.731,0.622,-0.003,0.546,0.746,1.338,0.853,0.000,17,16,4*64
$GPGGA,091040.20,3135.5216592,N,12046.6935435,E,4,17,1.6,2.7265,M,8.317,M,01,0004*6A
$GPHPD,1957,33058.000,320.51,1.51,14.30,31.5920277,120.7782257,2.727,13631032.944,24925546.105,2.727,0.585,-0.021,0.549,0.725,1.310,0.769,0.000,17,16,4*6A
$GPGGA,091040.40,3135.5217285,N,12046.6934769,E,4,17,1.5,2.7365,M,8.317,M,01,0004*65
$GPHPD,1957,33058.200,320.46,1.30,14.31,31.5920288,120.7782246,2.737,13631031.825,24925544.899,2.737,0.623,-0.026,0.550,0.725,1.310,0.769,0.000,17,15,4*60
$GPGGA,091040.60,3135.5218025,N,12046.6934037,E,4,17,1.5,2.7327,M,8.317,M,00,0004*6B
$GPHPD,1957,33058.400,320.86,0.46,14.34,31.5920300,120.7782234,2.733,13631030.626,24925543.585,2.733,0.608,0.009,0.573,0.725,1.310,0.769,0.000,17,13,4*4E
$GPGGA,091040.80,3135.5218797,N,12046.6933354,E,4,17,1.5,2.7377,M,8.317,M,00,0004*6F
$GPHPD,1957,33058.600,321.13,0.39,14.36,31.5920313,120.7782223,2.738,13631029.391,24925542.312,2.738,0.648,-0.013,0.580,0.725,1.310,0.769,0.000,17,16,4*6C
$GPGGA,091041.00,3135.5219570,N,12046.6932641,E,4,17,1.5,2.7381,M,8.317,M,01,0004*64
$GPHPD,1957,33058.800,321.48,-0.51,14.37,31.5920326,120.7782211,2.738,13631028.149,24925541.002,2.738,0.676,-0.033,0.591,0.680,1.278,0.725,0.000,17,15,4*4B
$GPGGA,091041.20,3135.5220355,N,12046.6931895,E,4,17,1.5,2.7537,M,8.317,M,01,0004*62
$GPHPD,1957,33059.000,321.48,-0.03,14.40,31.5920339,120.7782198,2.754,13631026.883,24925539.646,2.754,0.688,-0.043,0.611,0.725,1.310,0.769,0.000,17,15,4*45
$GPGGA,091041.40,3135.5221154,N,12046.6931146,E,4,17,1.6,2.7502,M,8.317,M,01,0004*64
$GPHPD,1957,33059.200,321.82,-0.40,14.42,31.5920353,120.7782186,2.750,13631025.596,24925538.277,2.750,0.676,0.017,0.649,0.680,1.278,0.725,0.000,17,16,4*60
$GPGGA,091041.60,3135.5221969,N,12046.6930424,E,4,17,1.5,2.7680,M,8.317,M,00,0004*6B
$GPHPD,1957,33059.400,321.94,-0.80,14.41,31.5920366,120.7782174,2.768,13631024.293,24925536.932,2.768,0.715,-0.055,0.640,0.689,1.281,0.846,0.000,17,16,4*41
$GPGGA,091041.80,3135.5222801,N,12046.6929673,E,4,17,1.5,2.7666,M,8.317,M,00,0004*69
$GPHPD,1957,33059.600,322.04,-0.70,14.42,31.5920380,120.7782161,2.767,13631022.959,24925535.542,2.767,0.674,0.011,0.672,0.680,1.278,0.725,0.000,17,16,4*65
$GPGGA,091042.00,3135.5223638,N,12046.6928921,E,4,17,1.5,2.7593,M,8.317,M,01,0004*66
$GPHPD,1957,33059.800,322.31,-0.66,14.41,31.5920394,120.7782149,2.759,13631021.618,24925534.148,2.759,0.690,-0.040,0.661,0.800,1.342,1.133,0.000,17,16,4*4F
$GPGGA,091042.20,3135.5224490,N,12046.6928183,E,4,17,1.6,2.7575,M,8.317,M,01,0004*68
$GPHPD,1957,33060.000,322.34,-1.22,14.40,31.5920408,120.7782136,2.758,13631020.258,24925532.762,2.758,0.752,-0.093,0.635,0.752,1.310,0.938,0.000,17,16,4*46
$GPGGA,091042.40,3135.5225346,N,12046.6927445,E,4,17,1.6,2.7520,M,8.317,M,01,0004*63
$GPHPD,1957,33060.200,322.22,-0.75,14.38,31.5920422,120.7782124,2.752,13631018.893,24925531.374,2.752,0.729,-0.057,0.676,0.726,1.310,0.769,0.000,17,16,4*48
$GPGGA,091042.60,3135.5226234,N,12046.6926652,E,4,17,1.5,2.7525,M,8.317,M,00,0004*64
$GPHPD,1957,33060.400,322.09,-0.25,14.37,31.5920437,120.7782111,2.753,13631017.471,24925529.900,2.753,0.697,-0.038,0.680,0.746,1.338,0.853,0.000,17,15,4*4D
$GPGGA,091042.80,3135.5227112,N,12046.6925861,E,4,17,1.5,2.7521,M,8.317,M,00,0004*65
$GPHPD,1957,33060.600,322.26,-0.36,14.38,31.5920452,120.7782098,2.752,13631016.064,24925528.435,2.752,0.757,-0.078,0.660,0.685,1.288,0.773,0.000,17,15,4*49
$GPGGA,091043.00,3135.5228027,N,12046.6925051,E,4,17,1.5,2.7617,M,8.317,M,01,0004*68
$GPHPD,1957,33060.800,322.16,-0.23,14.36,31.5920467,120.7782084,2.762,13631014.601,24925526.926,2.762,0.756,-0.052,0.697,0.680,1.278,0.725,0.000,17,15,4*4B
$GPGGA,091043.20,3135.5228985,N,12046.6924222,E,4,17,1.5,2.7566,M,8.316,M,01,0004*68
$GPHPD,1957,33061.000,322.29,-0.40,14.35,31.5920483,120.7782070,2.757,13631013.072,24925525.368,2.757,0.737,0.011,0.756,0.726,1.310,0.769,0.000,17,15,4*64
$GPGGA,091043.40,3135.5229911,N,12046.6923341,E,4,17,1.5,2.7518,M,8.316,M,01,0004*68
$GPHPD,1957,33061.200,322.21,-0.01,14.37,31.5920499,120.7782056,2.752,13631011.579,24925523.767,2.752,0.802,-0.058,0.741,0.680,1.277,0.725,0.000,17,15,4*4D
$GPGGA,091043.60,3135.5230949,N,12046.6922508,E,4,17,1.6,2.7464,M,8.316,M,00,0004*6D
$GPHPD,1957,33061.400,322.32,-0.01,14.38,31.5920516,120.7782042,2.746,13631009.936,24925522.158,2.746,0.813,-0.040,0.744,0.680,1.277,0.725,0.000,17,15,4*4C
$GPGGA,091043.80,3135.5231961,N,12046.6921623,E,4,17,1.5,2.7426,M,8.316,M,00,0004*64
$GPHPD,1957,33061.600,322.22,0.25,14.38,31.5920533,120.7782027,2.743,13631008.319,24925520.502,2.743,0.868,-0.127,0.754,0.685,1.288,0.773,0.000,17,15,4*64
$GPGGA,091044.00,3135.5232986,N,12046.6920715,E,4,17,1.5,2.7530,M,8.316,M,01,0004*63
$GPHPD,1957,33061.800,322.27,0.27,14.37,31.5920550,120.7782012,2.753,13631006.679,24925518.810,2.753,0.902,-0.130,0.768,0.726,1.310,0.769,0.000,17,15,4*6E
$GPGGA,091044.20,3135.5234031,N,12046.6919767,E,4,17,1.5,2.7542,M,8.316,M,01,0004*68
$GPHPD,1957,33062.000,322.46,0.35,14.36,31.5920567,120.7781996,2.754,13631005.003,24925517.058,2.754,0.841,-0.009,0.824,0.726,1.310,0.769,0.000,17,15,4*6B
$GPGGA,091044.40,3135.5235085,N,12046.6918837,E,4,17,1.5,2.7500,M,8.316,M,01,0004*6D
$GPHPD,1957,33062.200,322.52,0.00,14.34,31.5920585,120.7781981,2.750,13631003.318,24925515.323,2.750,0.894,-0.056,0.834,0.680,1.277,0.725,0.000,17,15,4*66
$GPGGA,091044.60,3135.5236188,N,12046.6917922,E,4,17,1.5,2.7514,M,8.316,M,00,0004*6E
$GPHPD,1957,33062.400,322.59,0.35,14.35,31.5920603,120.7781965,2.751,13631001.566,24925513.578,2.751,0.901,-0.071,0.843,0.680,1.277,0.725,0.000,17,15,4*60
$GPGGA,091044.80,3135.5237281,N,12046.6916973,E,4,17,1.5,2.7548,M,8.316,M,00,0004*67
$GPHPD,1957,33062.600,322.49,0.71,14.33,31.5920621,120.7781950,2.755,13630999.822,24925511.797,2.755,0.889,-0.071,0.853,0.746,1.338,0.853,0.000,17,15,4*69
$GPGGA,091045.00,3135.5238368,N,12046.6916041,E,4,17,1.5,2.7546,M,8.316,M,01,0004*60
$GPHPD,1957,33062.800,322.72,0.79,14.32,31.5920639,120.7781934,2.755,13630998.089,24925510.040,2.755,0.904,-0.059,0.877,0.680,1.277,0.725,0.000,17,15,4*6E
$GPGGA,091045.20,3135.5239466,N,12046.6915081,E,4,17,1.5,2.7575,M,8.316,M,01,0004*65
$GPHPD,1957,33063.000,322.56,1.32,14.31,31.5920658,120.7781918,2.758,13630996.335,24925508.243,2.758,0.914,-0.086,0.859,0.685,1.288,0.773,0.000,17,15,4*6E
$GPGGA,091045.40,3135.5240554,N,12046.6914149,E,4,17,1.5,2.7635,M,8.316,M,01,0004*6E
$GPHPD,1957,33063.200,322.77,0.92,14.29,31.5920676,120.7781902,2.764,13630994.601,24925506.486,2.764,0.911,-0.091,0.869,0.680,1.277,0.725,0.000,17,15,4*6D
$GPGGA,091045.60,3135.5241639,N,12046.6913227,E,4,17,1.5,2.7580,M,8.316,M,00,0004*65
$GPHPD,1957,33063.400,322.81,0.51,14.28,31.5920694,120.7781887,2.758,13630992.873,24925504.742,2.758,0.904,-0.082,0.862,0.680,1.277,0.725,0.000,17,15,4*65
$GPGGA,091045.80,3135.5242719,N,12046.6912287,E,4,17,1.5,2.7665,M,8.316,M,00,0004*68
$GPHPD,1957,33063.600,322.89,0.90,14.24,31.5920712,120.7781871,2.767,13630991.149,24925502.980,2.767,0.891,-0.076,0.854,0.680,1.277,0.725,0.000,17,15,4*6E
$GPGGA,091046.00,3135.5243795,N,12046.6911370,E,4,17,1.5,2.7786,M,8.316,M,01,0004*61
$GPHPD,1957,33063.800,322.95,1.06,14.22,31.5920730,120.7781856,2.779,13630989.435,24925501.248,2.779,0.894,-0.080,0.853,0.680,1.277,0.725,0.000,17,15,4*60
$GPGGA,091046.20,3135.5244873,N,12046.6910457,E,4,17,1.5,2.7889,M,8.316,M,01,0004*60
$GPHPD,1957,33064.000,323.02,0.17,14.23,31.5920748,120.7781841,2.789,13630987.719,24925499.519,2.789,0.882,-0.076,0.850,0.726,1.310,0.769,0.000,17,15,4*61
$GPGGA,091046.40,3135.5245971,N,12046.6909509,E,4,17,1.6,2.7847,M,8.316,M,01,0004*67
$GPHPD,1957,33064.200,323.18,-0.12,14.24,31.5920766,120.7781825,2.785,13630985.968,24925497.737,2.785,0.872,-0.053,0.867,0.726,1.310,0.769,0.000,17,15,4*4F
$GPGGA,091046.60,3135.5247024,N,12046.6908582,E,4,17,1.5,2.7878,M,8.316,M,00,0004*62
$GPHPD,1957,33064.400,323.29,-0.53,14.24,31.5920784,120.7781810,2.788,13630984.284,24925496.006,2.788,0.918,-0.097,0.858,0.680,1.277,0.725,0.000,17,15,4*44
$GPGGA,091046.80,3135.5248133,N,12046.6907585,E,4,17,1.5,2.7847,M,8.316,M,00,0004*60
$GPHPD,1957,33064.600,323.50,-0.51,14.24,31.5920802,120.7781793,2.785,13630982.507,24925494.158,2.785,0.894,-0.073,0.818,0.680,1.277,0.725,0.000,17,15,4*46
$GPGGA,091047.00,3135.5249229,N,12046.6906685,E,4,17,1.5,2.7891,M,8.316,M,01,0004*68
$GPHPD,1957,33064.800,323.77,-0.53,14.25,31.5920820,120.7781778,2.789,13630980.769,24925492.434,2.789,0.944,-0.081,0.850,0.680,1.277,0.725,0.000,17,15,4*47
$GPGGA,091047.20,3135.5250339,N,12046.6905713,E,4,17,1.5,2.7888,M,8.316,M,01,0004*67
$GPHPD,1957,33065.000,323.71,-0.85,14.27,31.5920839,120.7781762,2.789,13630978.995,24925490.616,2.789,0.885,-0.053,0.886,0.680,1.277,0.725,0.000,17,15,4*40
$GPGGA,091047.40,3135.5251465,N,12046.6904798,E,4,17,1.5,2.7862,M,8.316,M,01,0004*68
$GPHPD,1957,33065.200,324.11,-0.52,14.26,31.5920858,120.7781747,2.786,13630977.211,24925488.857,2.786,0.947,-0.099,0.855,0.726,1.310,0.770,0.000,17,15,4*48
$GPGGA,091047.60,3135.5252591,N,12046.6903850,E,4,17,1.5,2.7799,M,8.316,M,00,0004*65
$GPHPD,1957,33065.400,324.13,-0.25,14.25,31.5920877,120.7781731,2.780,13630975.419,24925487.058,2.780,0.897,-0.083,0.900,0.726,1.310,0.770,0.000,17,15,4*41
$GPGGA,091047.80,3135.5253726,N,12046.6902917,E,4,17,1.5,2.7821,M,8.316,M,00,0004*6B
$GPHPD,1957,33065.600,324.06,0.49,14.26,31.5920895,120.7781715,2.782,13630973.618,24925485.272,2.782,0.943,-0.135,0.860,0.680,1.277,0.725,0.000,17,15,4*6A
$GPGGA,091048.00,3135.5254867,N,12046.6901981,E,4,17,1.5,2.7723,M,8.316,M,01,0004*61
$GPHPD,1957,33065.800,324.06,-0.06,14.27,31.5920914,120.7781700,2.772,13630971.808,24925483.479,2.772,0.918,-0.075,0.901,0.680,1.277,0.725,0.000,17,15,4*44
$GPGGA,091048.20,3135.5256000,N,12046.6901025,E,4,17,1.5,2.7838,M,8.316,M,01,0004*6A
$GPHPD,1957,33066.000,323.91,0.56,14.26,31.5920933,120.7781684,2.784,13630970.005,24925481.667,2.784,0.954,-0.124,0.873,0.680,1.277,0.725,0.000,17,15,4*65
$GPGGA,091048.40,3135.5257140,N,12046.6900084,E,4,17,1.5,2.7923,M,8.316,M,01,0004*69
$GPHPD,1957,33066.200,324.09,0.58,14.25,31.5920952,120.7781668,2.792,13630968.196,24925479.868,2.792,0.930,-0.089,0.905,0.680,1.277,0.725,0.000,17,15,4*69
$GPGGA,091048.60,3135.5258326,N,12046.6899159,E,4,17,1.5,2.7891,M,8.316,M,00,0004*6F
$GPHPD,1957,33066.400,324.15,0.53,14.26,31.5920972,120.7781653,2.789,13630966.324,24925478.062,2.789,0.908,-0.071,0.910,0.680,1.277,0.725,0.000,17,15,4*6E
$GPGGA,091048.80,3135.5259453,N,12046.6898188,E,4,17,1.5,2.7997,M,8.316,M,00,0004*6F
$GPHPD,1957,33066.600,324.05,0.40,14.28,31.5920991,120.7781636,2.800,13630964.526,24925476.235,2.800,0.916,-0.097,0.922,0.680,1.277,0.725,0.000,17,15,4*61
$GPGGA,091049.00,3135.5260606,N,12046.6897226,E,4,17,1.5,2.7974,M,8.316,M,01,0004*6A
$GPHPD,1957,33066.800,324.13,-0.08,14.27,31.5921010,120.7781620,2.797,13630962.694,24925474.404,2.797,0.904,-0.035,0.922,0.680,1.277,0.725,0.000,17,15,4*41
$GPGGA,091049.20,3135.5261788,N,12046.6896268,E,4,17,1.5,2.7981,M,8.316,M,01,0004*6F
$GPHPD,1957,33067.000,324.16,0.26,14.27,31.5921030,120.7781604,2.798,13630960.821,24925472.561,2.798,0.936,-0.084,0.912,0.680,1.277,0.725,0.000,17,15,4*66
$GPGGA,091049.40,3135.5262953,N,12046.6895290,E,4,17,1.5,2.8083,M,8.316,M,01,0004*62
$GPHPD,1957,33067.200,324.48,0.40,14.26,31.5921049,120.7781588,2.808,13630958.968,24925470.703,2.808,0.939,-0.100,0.920,0.680,1.277,0.725,0.000,17,15,4*67
$GPGGA,091049.60,3135.5264138,N,12046.6894328,E,4,17,1.5,2.7970,M,8.316,M,00,0004*6B
$GPHPD,1957,33067.400,324.01,-0.69,14.26,31.5921069,120.7781572,2.797,13630957.090,24925468.853,2.797,0.925,-0.062,0.947,0.726,1.310,0.770,0.000,17,14,4*4A
$GPGGA,091049.80,3135.5265300,N,12046.6893349,E,4,17,1.5,2.8063,M,8.316,M,00,0004*69
$GPHPD,1957,33067.600,323.99,-0.24,14.26,31.5921088,120.7781556,2.806,13630955.242,24925466.996,2.806,0.955,-0.115,0.918,0.680,1.277,0.725,0.000,17,14,4*46
$GPGGA,091050.00,3135.5266463,N,12046.6892390,E,4,17,1.5,2.8033,M,8.316,M,01,0004*69
$GPHPD,1957,33067.800,324.02,0.38,14.26,31.5921108,120.7781540,2.803,13630953.396,24925465.162,2.803,0.939,-0.080,0.934,0.680,1.277,0.725,0.000,17,14,4*64
$GPGGA,091050.20,3135.5267651,N,12046.6891433,E,4,17,1.5,2.8023,M,8.316,M,01,0004*65
$GPHPD,1957,33068.000,324.00,0.61,14.27,31.5921128,120.7781524,2.802,13630951.515,24925463.317,2.802,0.951,-0.119,0.918,0.680,1.277,0.725,0.000,17,14,4*64
$GPGGA,091050.40,3135.5268865,N,12046.6890355,E,4,17,1.5,2.7933,M,8.316,M,01,0004*64
$GPHPD,1957,33068.200,324.02,0.98,14.27,31.5921148,120.7781506,2.793,13630949.572,24925461.310,2.793,0.983,-0.157,0.904,0.680,1.277,0.725,0.000,17,14,4*61
$GPGGA,091050.60,3135.5270052,N,12046.6889338,E,4,17,1.5,2.7925,M,8.316,M,00,0004*66
$GPHPD,1957,33068.400,324.10,0.78,14.24,31.5921168,120.7781489,2.793,13630947.680,24925459.392,2.793,1.020,-0.112,0.928,0.727,1.278,0.729,0.000,17,15,4*6C
$GPGGA,091050.80,3135.5271242,N,12046.6888382,E,4,17,1.5,2.7979,M,8.316,M,00,0004*63
$GPHPD,1957,33068.600,324.31,0.46,14.21,31.5921187,120.7781473,2.798,13630945.796,24925457.547,2.798,0.974,-0.092,0.944,0.727,1.278,0.729,0.000,17,15,4*6F
$GPGGA,091051.00,3135.5272425,N,12046.6887400,E,4,17,1.5,2.8124,M,8.316,M,01,0004*62
$GPHPD,1957,33068.800,324.24,-0.13,14.19,31.5921207,120.7781457,2.812,13630943.917,24925455.674,2.812,0.955,-0.094,0.947,0.782,1.313,0.771,0.000,17,15,4*46
$GPGGA,091051.20,3135.5273626,N,12046.6886418,E,4,17,1.5,2.8041,M,8.316,M,01,0004*6A
$GPHPD,1957,33069.000,324.31,-0.66,14.17,31.5921227,120.7781440,2.804,13630942.013,24925453.790,2.804,0.930,-0.041,0.959,0.727,1.278,0.729,0.000,17,15,4*48
$GPGGA,091051.40,3135.5274814,N,12046.6885436,E,4,16,1.5,2.8140,M,8.316,M,01,0004*6A
$GPHPD,1957,33069.200,324.27,-0.59,14.15,31.5921247,120.7781424,2.814,13630940.126,24925451.914,2.814,0.983,-0.133,0.923,0.727,1.278,0.729,0.000,16,15,4*42
$GPGGA,091051.60,3135.5276002,N,12046.6884460,E,4,17,1.6,2.8070,M,8.316,M,00,0004*66
$GPHPD,1957,33069.400,324.48,-1.04,14.12,31.5921267,120.7781408,2.807,13630938.241,24925450.046,2.807,0.964,-0.082,0.937,0.727,1.278,0.729,0.000,17,15,4*4B
$GPGGA,091051.80,3135.5277189,N,12046.6883477,E,4,17,1.5,2.8094,M,8.316,M,00,0004*63
$GPHPD,1957,33069.600,324.51,-0.57,14.11,31.5921286,120.7781391,2.809,13630936.356,24925448.169,2.809,0.981,-0.126,0.920,0.727,1.278,0.729,0.000,17,16,4*40
$GPGGA,091052.00,3135.5278402,N,12046.6882486,E,4,16,1.5,2.8011,M,8.316,M,01,0004*63
$GPHPD,1957,33069.800,324.49,-0.32,14.09,31.5921307,120.7781375,2.801,13630934.433,24925446.268,2.801,0.949,-0.110,0.934,0.727,1.278,0.729,0.000,16,16,4*40
$GPGGA,091052.20,3135.5279594,N,12046.6881495,E,4,16,1.5,2.8172,M,8.316,M,01,0004*6B
$GPHPD,1957,33070.000,324.61,0.32,14.07,31.5921327,120.7781358,2.817,13630932.539,24925444.379,2.817,1.013,-0.172,0.903,0.727,1.278,0.729,0.000,16,15,4*6E
$GPGGA,091052.40,3135.5280807,N,12046.6880540,E,4,16,1.5,2.8034,M,8.316,M,01,0004*67
$GPHPD,1957,33070.200,324.69,-0.21,14.07,31.5921347,120.7781342,2.803,13630930.623,24925442.521,2.803,0.965,-0.063,0.971,0.727,1.278,0.729,0.000,16,15,4*4C
$GPGGA,091052.60,3135.5282007,N,12046.6879554,E,4,16,1.5,2.8079,M,8.316,M,00,0004*64
$GPHPD,1957,33070.400,324.37,0.16,14.07,31.5921367,120.7781326,2.808,13630928.719,24925440.633,2.808,0.967,-0.124,0.948,0.727,1.278,0.729,0.000,16,15,4*61
$GPGGA,091052.80,3135.5283196,N,12046.6878557,E,4,16,1.5,2.8037,M,8.316,M,00,0004*6A
$GPHPD,1957,33070.600,324.63,-0.12,14.08,31.5921387,120.7781309,2.804,13630926.828,24925438.739,2.804,0.978,-0.102,0.954,0.727,1.278,0.730,0.000,16,15,4*4F
$GPGGA,091053.00,3135.5284387,N,12046.6877577,E,4,16,1.5,2.8150,M,8.316,M,01,0004*6A
$GPHPD,1957,33070.800,324.55,0.36,14.10,31.5921406,120.7781293,2.815,13630924.938,24925436.864,2.815,0.969,-0.100,0.939,0.727,1.278,0.730,0.000,16,15,4*68
$GPGGA,091053.20,3135.5285615,N,12046.6876610,E,4,16,1.5,2.8218,M,8.316,M,01,0004*6B
$GPHPD,1957,33071.000,324.46,0.19,14.11,31.5921427,120.7781277,2.822,13630922.998,24925434.983,2.822,0.955,-0.058,0.951,0.727,1.278,0.730,0.000,16,16,4*6E
$GPGGA,091053.40,3135.5286830,N,12046.6875633,E,4,16,1.5,2.8140,M,8.316,M,01,0004*6B
$GPHPD,1957,33071.200,324.54,-0.23,14.11,31.5921447,120.7781261,2.814,13630921.074,24925433.097,2.814,0.943,-0.045,0.980,0.727,1.278,0.730,0.000,16,16,4*4E
$GPGGA,091053.60,3135.5288037,N,12046.6874649,E,4,16,1.5,2.8138,M,8.316,M,00,0004*6A
$GPHPD,1957,33071.400,324.69,-0.10,14.10,31.5921467,120.7781244,2.814,13630919.161,24925431.208,2.814,0.981,-0.131,0.962,0.727,1.278,0.730,0.000,16,16,4*4A
$GPGGA,091053.80,3135.5289234,N,12046.6873649,E,4,16,1.5,2.8053,M,8.316,M,00,0004*6F
$GPHPD,1957,33071.600,324.49,0.05,14.10,31.5921487,120.7781227,2.805,13630917.258,24925429.305,2.805,0.965,-0.112,0.947,0.727,1.278,0.730,0.000,16,15,4*65
$GPGGA,091054.00,3135.5290440,N,12046.6872657,E,4,16,1.5,2.8073,M,8.316,M,01,0004*60
$GPHPD,1957,33071.800,324.59,0.21,14.09,31.5921507,120.7781211,2.807,13630915.344,24925427.407,2.807,0.967,-0.115,0.953,0.727,1.278,0.730,0.000,16,15,4*6D
$GPGGA,091054.20,3135.5291679,N,12046.6871686,E,4,16,1.5,2.8113,M,8.316,M,01,0004*63
$GPHPD,1957,33072.000,324.61,-0.43,14.08,31.5921528,120.7781195,2.811,13630913.388,24925425.514,2.811,0.946,-0.086,0.961,0.727,1.278,0.730,0.000,16,15,4*49
$GPGGA,091054.40,3135.5292890,N,12046.6870765,E,4,16,1.5,2.8104,M,8.316,M,01,0004*64
$GPHPD,1957,33072.200,324.78,0.57,14.05,31.5921548,120.7781179,2.810,13630911.481,24925423.699,2.810,0.982,-0.135,0.955,0.727,1.278,0.730,0.000,16,15,4*68
$GPGGA,091054.60,3135.5294092,N,12046.6869711,E,4,16,1.6,2.8115,M,8.316,M,00,0004*63
$GPHPD,1957,33072.400,324.63,0.58,14.07,31.5921568,120.7781162,2.812,13630909.561,24925421.728,2.812,0.936,-0.131,0.954,0.727,1.278,0.730,0.000,16,15,4*64
$GPGGA,091054.80,3135.5295303,N,12046.6868711,E,4,15,1.6,2.8287,M,8.316,M,00,0004*6D
$GPHPD,1957,33072.600,324.73,0.66,14.05,31.5921588,120.7781145,2.829,13630907.638,24925419.817,2.829,1.090,-0.087,0.921,0.740,1.288,0.735,0.000,15,15,4*68
$GPGGA,091055.00,3135.5296506,N,12046.6867752,E,4,15,1.6,2.8355,M,8.316,M,01,0004*63
$GPHPD,1957,33072.800,324.56,0.57,14.03,31.5921608,120.7781129,2.836,13630905.735,24925417.960,2.836,0.990,-0.072,0.965,0.740,1.288,0.735,0.000,15,15,4*67
$GPGGA,091055.20,3135.5297740,N,12046.6866742,E,4,15,1.6,2.8288,M,8.316,M,01,0004*61
$GPHPD,1957,33073.000,324.81,0.30,14.00,31.5921629,120.7781112,2.829,13630903.778,24925416.024,2.829,0.918,-0.095,0.983,0.740,1.288,0.735,0.000,15,15,4*6B
$GPGGA,091055.40,3135.5298934,N,12046.6865789,E,4,15,1.6,2.8458,M,8.316,M,01,0004*6A
$GPHPD,1957,33073.200,324.75,0.51,14.00,31.5921649,120.7781096,2.846,13630901.889,24925414.179,2.846,0.998,-0.126,0.931,0.740,1.288,0.735,0.000,15,15,4*6E
$GPGGA,091055.60,3135.5300151,N,12046.6864780,E,4,15,1.6,2.8484,M,8.316,M,00,0004*6B
$GPHPD,1957,33073.400,324.77,-0.45,14.01,31.5921669,120.7781080,2.848,13630899.956,24925412.254,2.848,0.944,-0.080,0.970,0.740,1.288,0.735,0.000,15,15,4*46
$GPGGA,091055.80,3135.5301370,N,12046.6863803,E,4,15,1.6,2.8513,M,8.316,M,00,0004*69
$GPHPD,1957,33073.600,324.86,-0.71,14.00,31.5921690,120.7781063,2.851,13630898.027,24925410.366,2.851,0.932,-0.089,0.974,0.810,1.316,0.772,0.000,15,15,4*48
$GPGGA,091056.00,3135.5302569,N,12046.6862761,E,4,15,1.6,2.8427,M,8.316,M,01,0004*62
$GPHPD,1957,33073.800,324.66,-1.35,13.99,31.5921709,120.7781046,2.843,13630896.113,24925408.411,2.843,0.941,-0.086,0.986,0.810,1.316,0.772,0.000,15,15,4*48
$GPGGA,091056.20,3135.5303757,N,12046.6861801,E,4,15,1.6,2.8422,M,8.316,M,01,0004*61
$GPHPD,1957,33074.000,324.62,-0.70,14.00,31.5921729,120.7781030,2.842,13630894.231,24925406.562,2.842,1.001,-0.104,0.939,0.810,1.316,0.772,0.000,15,15,4*4E
$GPGGA,091056.40,3135.5305024,N,12046.6860818,E,4,15,1.6,2.8408,M,8.316,M,01,0004*63
$GPHPD,1957,33074.200,324.57,-0.16,14.00,31.5921750,120.7781014,2.841,13630892.232,24925404.639,2.841,0.973,-0.111,0.938,0.810,1.316,0.772,0.000,15,15,4*40
$GPGGA,091056.60,3135.5306239,N,12046.6859861,E,4,15,1.6,2.8338,M,8.316,M,00,0004*6D
$GPHPD,1957,33074.400,324.34,-0.38,13.99,31.5921771,120.7780998,2.834,13630890.313,24925402.778,2.834,0.978,-0.110,0.973,0.810,1.316,0.772,0.000,15,15,4*40
$GPGGA,091056.80,3135.5307446,N,12046.6858905,E,4,15,1.6,2.8373,M,8.316,M,00,0004*61
$GPHPD,1957,33074.600,324.15,-0.05,13.99,31.5921791,120.7780982,2.837,13630888.405,24925400.922,2.837,0.989,-0.167,0.948,0.810,1.316,0.772,0.000,15,15,4*46
$GPGGA,091057.00,3135.5308666,N,12046.6857885,E,4,16,1.6,2.8292,M,8.316,M,01,0004*6D
$GPHPD,1957,33074.800,324.01,0.07,13.99,31.5921811,120.7780965,2.829,13630886.466,24925398.982,2.829,0.910,-0.063,0.979,0.810,1.316,0.772,0.000,16,15,4*6F
$GPGGA,091057.20,3135.5309855,N,12046.6856897,E,4,16,1.6,2.8423,M,8.316,M,01,0004*6E
$GPHPD,1957,33075.000,324.27,0.53,13.97,31.5921831,120.7780948,2.842,13630884.577,24925397.098,2.842,0.991,-0.108,0.927,0.810,1.316,0.772,0.000,16,16,4*63
$GPGGA,091057.40,3135.5311041,N,12046.6855937,E,4,16,1.6,2.8518,M,8.316,M,01,0004*6D
$GPHPD,1957,33075.200,324.38,0.16,13.96,31.5921851,120.7780932,2.852,13630882.698,24925395.250,2.852,0.947,-0.052,0.966,0.810,1.316,0.772,0.000,16,16,4*64
$GPGGA,091057.60,3135.5312244,N,12046.6854967,E,4,16,1.6,2.8480,M,8.316,M,00,0004*6E
$GPHPD,1957,33075.400,324.61,0.28,13.95,31.5921871,120.7780916,2.848,13630880.793,24925393.380,2.848,0.896,-0.004,0.974,0.810,1.316,0.772,0.000,16,16,4*6B
$GPGGA,091057.80,3135.5313454,N,12046.6853992,E,4,16,1.6,2.8459,M,8.316,M,00,0004*6F
$GPHPD,1957,33075.600,324.50,0.30,13.93,31.5921891,120.7780900,2.846,13630878.877,24925391.500,2.846,0.917,-0.045,0.956,0.810,1.316,0.772,0.000,16,16,4*6E
$GPGGA,091058.00,3135.5314601,N,12046.6852967,E,4,16,1.6,2.8463,M,8.316,M,01,0004*6E
$GPHPD,1957,33075.800,324.51,0.16,13.92,31.5921910,120.7780883,2.846,13630877.040,24925389.596,2.846,0.954,-0.095,0.945,0.845,1.342,0.858,0.000,16,16,4*6D
$GPGGA,091058.20,3135.5315825,N,12046.6852021,E,4,16,1.6,2.8566,M,8.316,M,01,0004*6A
$GPHPD,1957,33076.000,324.71,-0.25,13.90,31.5921930,120.7780867,2.857,13630875.110,24925387.742,2.857,1.035,-0.116,0.865,0.845,1.342,0.858,0.000,16,16,4*46
$GPGGA,091058.40,3135.5317025,N,12046.6851052,E,4,16,1.6,2.8585,M,8.316,M,01,0004*6C
$GPHPD,1957,33076.200,324.59,-0.02,13.90,31.5921950,120.7780851,2.859,13630873.209,24925385.875,2.859,0.930,-0.076,0.973,0.845,1.342,0.858,0.000,16,16,4*40
$GPGGA,091058.60,3135.5318193,N,12046.6850104,E,4,16,1.6,2.8583,M,8.316,M,00,0004*69
$GPHPD,1957,33076.400,324.74,0.21,13.91,31.5921970,120.7780835,2.858,13630871.358,24925384.052,2.858,0.934,-0.087,0.956,0.810,1.316,0.772,0.000,16,16,4*64
$GPGGA,091058.80,3135.5319359,N,12046.6849082,E,4,16,1.7,2.8559,M,8.316,M,00,0004*63
$GPHPD,1957,33076.600,324.59,0.02,13.90,31.5921989,120.7780818,2.856,13630869.495,24925382.141,2.856,0.957,-0.112,0.921,0.845,1.342,0.858,0.000,16,16,4*64
$GPGGA,091059.00,3135.5320561,N,12046.6848154,E,4,16,1.6,2.8638,M,8.316,M,01,0004*62
$GPHPD,1957,33076.800,324.74,-0.02,13.89,31.5922009,120.7780803,2.864,13630867.600,24925380.322,2.864,0.989,-0.083,0.932,0.845,1.342,0.858,0.000,16,16,4*45
$GPGGA,091059.20,3135.5321749,N,12046.6847148,E,4,17,1.7,2.8578,M,8.316,M,01,0004*6C
$GPHPD,1957,33077.000,324.56,-0.39,13.88,31.5922029,120.7780786,2.858,13630865.709,24925378.417,2.858,0.928,-0.059,0.961,0.810,1.316,0.773,0.000,17,16,4*45
$GPGGA,091059.40,3135.5322957,N,12046.6846211,E,4,17,1.7,2.8557,M,8.316,M,01,0004*6B
$GPHPD,1957,33077.200,324.56,-0.11,13.89,31.5922049,120.7780770,2.856,13630863.803,24925376.584,2.856,0.981,-0.117,0.941,0.845,1.342,0.858,0.000,17,17,4*49
$GPGGA,091059.60,3135.5324165,N,12046.6845226,E,4,16,1.7,2.8609,M,8.316,M,01,0004*68
$GPHPD,1957,33077.400,324.40,-0.40,13.88,31.5922069,120.7780754,2.861,13630861.888,24925374.693,2.861,0.924,-0.102,0.952,0.845,1.342,0.858,0.000,16,17,4*47
$GPGGA,091059.80,3135.5325353,N,12046.6844274,E,4,17,1.7,2.8715,M,8.316,M,01,0004*6B
$GPHPD,1957,33077.600,324.32,-0.53,13.87,31.5922089,120.7780738,2.872,13630860.008,24925372.853,2.872,0.975,-0.110,0.943,0.845,1.342,0.858,0.000,17,17,4*4A
$GPGGA,091100.00,3135.5326570,N,12046.6843288,E,4,17,1.7,2.8660,M,8.316,M,02,0004*6E
$GPHPD,1957,33077.800,324.01,-0.76,13.87,31.5922110,120.7780721,2.866,13630858.080,24925370.955,2.866,0.940,-0.074,0.956,0.845,1.342,0.858,0.000,17,17,4*45
$GPGGA,091100.20,3135.5327755,N,12046.6842289,E,4,17,1.7,2.8571,M,8.316,M,02,0004*6B
$GPHPD,1957,33078.000,324.40,-1.17,13.87,31.5922129,120.7780705,2.857,13630856.194,24925369.061,2.857,0.959,-0.109,0.956,0.845,1.342,0.858,0.000,17,17,4*42
$GPGGA,091100.40,3135.5328911,N,12046.6841341,E,4,16,1.7,2.8623,M,8.316,M,02,0004*6F
$GPHPD,1957,33078.200,324.44,-0.50,13.88,31.5922149,120.7780689,2.862,13630854.361,24925367.245,2.862,0.985,-0.136,0.916,0.810,1.316,0.773,0.000,16,17,4*45
$GPGGA,091100.60,3135.5330110,N,12046.6840363,E,4,17,1.7,2.8611,M,8.316,M,02,0004*6C
$GPHPD,1957,33078.400,324.29,-0.73,13.86,31.5922169,120.7780673,2.861,13630852.460,24925365.367,2.861,0.938,-0.110,0.936,0.810,1.316,0.773,0.000,17,16,4*43
$GPGGA,091100.80,3135.5331294,N,12046.6839375,E,4,16,1.7,2.8582,M,8.316,M,00,0004*6F
$GPHPD,1957,33078.600,324.34,-0.37,13.86,31.5922188,120.7780656,2.858,13630850.578,24925363.486,2.858,0.964,-0.132,0.927,0.810,1.316,0.773,0.000,16,17,4*48
$GPGGA,091101.00,3135.5332468,N,12046.6838387,E,4,16,1.7,2.8587,M,8.316,M,01,0004*68
$GPHPD,1957,33078.800,324.35,0.07,13.89,31.5922208,120.7780640,2.859,13630848.710,24925361.611,2.859,0.956,-0.106,0.927,0.810,1.316,0.773,0.000,16,16,4*66
$GPGGA,091101.20,3135.5333657,N,12046.6837414,E,4,16,1.7,2.8629,M,8.316,M,01,0004*60
$GPHPD,1957,33079.000,324.65,-0.52,13.88,31.5922228,120.7780624,2.863,13630846.824,24925359.746,2.863,0.976,-0.119,0.914,0.810,1.316,0.773,0.000,16,16,4*44
$GPGGA,091101.40,3135.5334849,N,12046.6836471,E,4,16,1.7,2.8630,M,8.316,M,01,0004*6A
$GPHPD,1957,33079.200,324.66,0.01,13.89,31.5922247,120.7780608,2.863,13630844.940,24925357.915,2.863,0.940,-0.081,0.941,0.810,1.316,0.773,0.000,16,16,4*6A
$GPGGA,091101.60,3135.5336011,N,12046.6835469,E,4,17,1.7,2.8614,M,8.316,M,00,0004*63
$GPHPD,1957,33079.400,324.75,0.25,13.89,31.5922267,120.7780591,2.861,13630843.087,24925356.030,2.861,0.942,-0.106,0.937,0.810,1.316,0.773,0.000,17,15,4*6C
$GPGGA,091101.80,3135.5337206,N,12046.6834526,E,4,17,1.7,2.8614,M,8.316,M,00,0004*63
$GPHPD,1957,33079.600,324.77,0.28,13.89,31.5922287,120.7780575,2.861,13630841.199,24925354.197,2.861,0.967,-0.118,0.913,0.810,1.316,0.773,0.000,17,16,4*6A
$GPGGA,091102.00,3135.5338388,N,12046.6833561,E,4,17,1.7,2.8630,M,8.316,M,01,0004*63
$GPHPD,1957,33079.800,324.68,0.20,13.87,31.5922306,120.7780559,2.863,13630839.325,24925352.345,2.863,0.914,-0.087,0.942,0.810,1.316,0.773,0.000,17,16,4*6C
$GPGGA,091102.20,3135.5339576,N,12046.6832613,E,4,17,1.7,2.8673,M,8.316,M,01,0004*67
$GPHPD,1957,33080.000,324.74,0.23,13.87,31.5922326,120.7780544,2.867,13630837.445,24925350.510,2.867,0.937,-0.102,0.930,0.810,1.316,0.773,0.000,17,15,4*62
$GPGGA,091102.40,3135.5340769,N,12046.6831679,E,4,16,1.7,2.8734,M,8.316,M,01,0004*6F
$GPHPD,1957,33080.200,324.50,0.03,13.88,31.5922346,120.7780528,2.873,13630835.562,24925348.689,2.873,0.937,-0.112,0.943,0.845,1.342,0.859,0.000,16,16,4*6A
$GPGGA,091102.60,3135.5341957,N,12046.6830693,E,4,15,1.7,2.8731,M,8.316,M,00,0004*6D
$GPHPD,1957,33080.400,324.64,0.04,13.88,31.5922366,120.7780512,2.873,13630833.675,24925346.809,2.873,0.885,-0.081,0.964,0.845,1.342,0.859,0.000,15,15,4*6A
$GPGGA,091102.80,3135.5343126,N,12046.6829762,E,4,15,1.7,2.8823,M,8.316,M,00,0004*64
$GPHPD,1957,33080.600,324.51,-0.34,13.87,31.5922385,120.7780496,2.882,13630831.826,24925345.005,2.882,0.936,-0.087,0.939,0.810,1.316,0.773,0.000,15,15,4*43
$GPGGA,091103.00,3135.5344326,N,12046.6828784,E,4,15,1.7,2.8844,M,8.316,M,01,0004*61
$GPHPD,1957,33080.800,324.62,-0.82,13.86,31.5922405,120.7780480,2.884,13630829.923,24925343.127,2.884,0.917,-0.068,0.945,0.810,1.316,0.773,0.000,15,15,4*4A
$GPGGA,091103.20,3135.5345498,N,12046.6827798,E,4,15,1.7,2.8816,M,8.316,M,01,0004*65
$GPHPD,1957,33081.000,324.56,-0.50,13.86,31.5922425,120.7780463,2.882,13630828.059,24925341.256,2.882,0.917,-0.059,0.958,0.810,1.316,0.773,0.000,15,15,4*48
$GPGGA,091103.40,3135.5346663,N,12046.6826857,E,4,16,1.7,2.8895,M,8.316,M,01,0004*63
$GPHPD,1957,33081.200,324.61,-0.88,13.85,31.5922444,120.7780448,2.890,13630826.214,24925339.443,2.890,0.960,-0.062,0.935,0.810,1.316,0.773,0.000,16,15,4*4E
$GPGGA,091103.60,3135.5347886,N,12046.6825936,E,4,16,1.7,2.8829,M,8.316,M,00,0004*66
$GPHPD,1957,33081.400,324.37,-1.27,13.85,31.5922465,120.7780432,2.883,13630824.290,24925337.620,2.883,0.923,-0.078,0.940,0.810,1.316,0.773,0.000,16,16,4*4B
$GPGGA,091103.80,3135.5349074,N,12046.6824911,E,4,16,1.6,2.8845,M,8.316,M,00,0004*6C
$GPHPD,1957,33081.600,323.92,-0.84,13.88,31.5922485,120.7780415,2.885,13630822.395,24925335.693,2.885,0.939,-0.135,0.929,0.810,1.316,0.773,0.000,16,16,4*4B
$GPGGA,091104.00,3135.5350245,N,12046.6823936,E,4,16,1.6,2.8841,M,8.316,M,01,0004*6C
$GPHPD,1957,33081.800,324.32,-0.36,13.90,31.5922504,120.7780399,2.884,13630820.535,24925333.835,2.884,0.986,-0.119,0.911,0.810,1.316,0.773,0.000,16,16,4*48
$GPGGA,091104.20,3135.5351431,N,12046.6822965,E,4,16,1.6,2.8861,M,8.316,M,01,0004*6F
$GPHPD,1957,33082.000,324.41,-0.55,13.91,31.5922524,120.7780383,2.886,13630818.653,24925331.974,2.886,0.968,-0.114,0.920,0.810,1.316,0.773,0.000,16,16,4*4B
$GPGGA,091104.40,3135.5352643,N,12046.6822028,E,4,16,1.6,2.8908,M,8.316,M,01,0004*63
$GPHPD,1957,33082.200,324.57,-0.74,13.91,31.5922544,120.7780367,2.891,13630816.742,24925330.138,2.891,0.944,-0.080,0.941,0.810,1.316,0.773,0.000,16,16,4*4A
$GPGGA,091104.60,3135.5353826,N,12046.6821034,E,4,16,1.6,2.8759,M,8.316,M,00,0004*68
$GPHPD,1957,33082.400,324.44,-0.40,13.92,31.5922564,120.7780351,2.876,13630814.861,24925328.251,2.876,0.940,-0.097,0.942,0.810,1.316,0.773,0.000,16,16,4*45
$GPGGA,091104.80,3135.5354983,N,12046.6820025,E,4,16,1.6,2.8790,M,8.316,M,00,0004*6B
$GPHPD,1957,33082.600,324.62,0.35,13.92,31.5922583,120.7780334,2.879,13630813.013,24925326.360,2.879,0.960,-0.135,0.937,0.810,1.316,0.773,0.000,16,16,4*68
$GPGGA,091105.00,3135.5356186,N,12046.6819135,E,4,15,1.6,2.8870,M,8.316,M,01,0004*64
$GPHPD,1957,33082.800,324.90,0.50,13.91,31.5922603,120.7780319,2.887,13630811.124,24925324.587,2.887,0.943,-0.062,0.953,0.810,1.316,0.773,0.000,15,16,4*66
$GPGGA,091105.20,3135.5357359,N,12046.6818154,E,4,16,1.6,2.8838,M,8.316,M,01,0004*6E
$GPHPD,1957,33083.000,324.61,0.31,13.91,31.5922623,120.7780303,2.884,13630809.259,24925322.721,2.884,0.908,-0.083,0.960,0.810,1.316,0.773,0.000,16,15,4*67
$GPGGA,091105.40,3135.5358546,N,12046.6817156,E,4,16,1.6,2.8758,M,8.316,M,01,0004*6B
$GPHPD,1957,33083.200,324.56,0.30,13.93,31.5922642,120.7780286,2.876,13630807.371,24925320.826,2.876,0.944,-0.114,0.933,0.810,1.316,0.773,0.000,16,16,4*64
$GPGGA,091105.60,3135.5359749,N,12046.6816180,E,4,16,1.6,2.8854,M,8.316,M,00,0004*6D
$GPHPD,1957,33083.400,324.64,0.34,13.93,31.5922662,120.7780270,2.885,13630805.465,24925318.949,2.885,0.984,-0.174,0.902,0.846,1.342,0.859,0.000,16,16,4*62
$GPGGA,091105.80,3135.5360934,N,12046.6815261,E,4,15,1.7,2.8899,M,8.316,M,00,0004*61
$GPHPD,1957,33083.600,324.54,0.08,13.90,31.5922682,120.7780254,2.890,13630803.596,24925317.151,2.890,0.967,-0.078,0.930,0.810,1.316,0.773,0.000,15,16,4*65
$GPGGA,091106.00,3135.5362117,N,12046.6814257,E,4,16,1.7,2.8984,M,8.316,M,01,0004*6A
$GPHPD,1957,33083.800,324.27,-0.34,13.89,31.5922702,120.7780238,2.898,13630801.712,24925315.251,2.898,0.899,-0.067,0.975,0.846,1.342,0.859,0.000,16,15,4*41
$GPGGA,091106.20,3135.5363303,N,12046.6813318,E,4,15,1.6,2.8917,M,8.316,M,01,0004*6B
$GPHPD,1957,33084.000,324.76,-0.40,13.89,31.5922722,120.7780222,2.892,13630799.838,24925313.428,2.892,0.903,-0.027,0.968,0.846,1.342,0.859,0.000,15,16,4*4D
$GPGGA,091106.40,3135.5364510,N,12046.6812313,E,4,16,1.6,2.8941,M,8.316,M,01,0004*64
$GPHPD,1957,33084.200,324.38,-0.51,13.89,31.5922742,120.7780205,2.894,13630797.920,24925311.514,2.894,0.896,-0.078,0.954,0.846,1.342,0.859,0.000,16,15,4*44
$GPGGA,091106.60,3135.5365725,N,12046.6811383,E,4,15,1.6,2.9015,M,8.316,M,00,0004*62
$GPHPD,1957,33084.400,324.66,-0.37,13.87,31.5922762,120.7780190,2.902,13630796.006,24925309.685,2.902,0.987,-0.106,0.935,0.810,1.316,0.773,0.000,15,16,4*4F
$GPGGA,091106.80,3135.5366909,N,12046.6810350,E,4,15,1.6,2.9051,M,8.316,M,00,0004*60
$GPHPD,1957,33084.600,324.32,-0.33,13.88,31.5922782,120.7780173,2.905,13630794.115,24925307.750,2.905,0.928,-0.068,0.951,0.810,1.316,0.773,0.000,15,15,4*4F
$GPGGA,091107.00,3135.5368116,N,12046.6809347,E,4,16,1.8,2.8937,M,8.316,M,01,0004*6B
$GPHPD,1957,33084.800,324.57,0.07,13.88,31.5922802,120.7780156,2.894,13630792.197,24925305.838,2.894,0.996,-0.095,0.927,0.810,1.316,0.773,0.000,16,15,4*62
$GPGGA,091107.20,3135.5369309,N,12046.6808363,E,4,16,1.6,2.9045,M,8.316,M,01,0004*60
$GPHPD,1957,33085.000,323.75,-0.31,13.87,31.5922822,120.7780139,2.905,13630790.304,24925303.956,2.905,1.044,-0.156,0.899,0.888,1.316,0.955,0.000,16,16,4*40
$GPGGA,091107.40,3135.5370551,N,12046.6807329,E,4,15,1.8,2.8913,M,8.316,M,01,0004*62
$GPHPD,1957,33085.200,323.66,-0.80,13.87,31.5922843,120.7780122,2.891,13630788.330,24925301.986,2.891,0.978,-0.071,0.944,0.810,1.316,0.773,0.000,15,16,4*4C
$GPGGA,091107.60,3135.5371737,N,12046.6806374,E,4,15,1.8,2.9056,M,8.316,M,00,0004*62
$GPHPD,1957,33085.400,324.12,0.66,13.88,31.5922862,120.7780106,2.906,13630786.452,24925300.144,2.906,1.035,-0.159,0.934,0.888,1.316,0.955,0.000,15,15,4*6E
$GPGGA,091107.80,3135.5372969,N,12046.6805339,E,4,15,1.8,2.8921,M,8.316,M,00,0004*68
$GPHPD,1957,33085.600,323.96,0.00,13.90,31.5922883,120.7780089,2.892,13630784.493,24925298.179,2.892,0.936,-0.080,0.971,0.888,1.316,0.955,0.000,15,14,4*68
$GPGGA,091108.00,3135.5374172,N,12046.6804345,E,4,15,1.8,2.9111,M,8.316,M,01,0004*6A
$GPHPD,1957,33085.800,323.92,0.26,13.90,31.5922903,120.7780072,2.911,13630782.583,24925296.280,2.911,1.031,-0.142,0.925,0.888,1.316,0.955,0.000,15,14,4*67
$GPGGA,091108.20,3135.5375373,N,12046.6803312,E,4,15,1.8,2.9043,M,8.316,M,01,0004*69
$GPHPD,1957,33086.000,323.81,-0.02,13.92,31.5922923,120.7780055,2.904,13630780.668,24925294.335,2.904,0.949,-0.025,0.977,0.888,1.316,0.955,0.000,15,14,4*49
$GPGGA,091108.40,3135.5376586,N,12046.6802300,E,4,15,1.8,2.9043,M,8.316,M,01,0004*62
$GPHPD,1957,33086.200,324.01,-0.59,13.93,31.5922943,120.7780038,2.904,13630778.740,24925292.408,2.904,0.975,-0.101,0.966,0.888,1.316,0.955,0.000,15,14,4*4D
$GPGGA,091108.60,3135.5377820,N,12046.6801340,E,4,14,1.8,2.9199,M,8.316,M,00,0004*61
$GPHPD,1957,33086.400,323.91,-0.31,13.93,31.5922964,120.7780022,2.920,13630776.793,24925290.532,2.920,0.995,-0.111,0.941,0.810,1.316,0.774,0.000,14,14,4*48
$GPGGA,091108.80,3135.5379021,N,12046.6800282,E,4,14,1.8,2.9116,M,8.316,M,00,0004*61
$GPHPD,1957,33086.600,323.70,-0.75,13.93,31.5922984,120.7780005,2.912,13630774.873,24925288.557,2.912,0.936,-0.085,0.993,0.810,1.316,0.774,0.000,14,14,4*4D
$GPGGA,091109.00,3135.5380250,N,12046.6799292,E,4,14,1.8,2.9168,M,8.316,M,01,0004*6C
$GPHPD,1957,33086.800,323.93,-0.01,13.94,31.5923004,120.7779988,2.917,13630772.927,24925286.648,2.917,0.986,-0.075,0.971,0.810,1.316,0.774,0.000,14,14,4*4D
$GPGGA,091109.20,3135.5381451,N,12046.6798286,E,4,14,1.8,2.9265,M,8.316,M,01,0004*62
$GPHPD,1957,33087.000,323.81,0.04,13.95,31.5923024,120.7779971,2.927,13630771.018,24925284.735,2.927,0.981,-0.082,0.968,0.810,1.316,0.774,0.000,14,14,4*62
$GPGGA,091109.40,3135.5382639,N,12046.6797224,E,4,14,2.0,2.9015,M,8.316,M,01,0004*62
$GPHPD,1957,33087.200,323.69,-0.42,13.96,31.5923044,120.7779954,2.902,13630769.115,24925282.763,2.902,0.961,-0.066,0.980,0.810,1.316,0.774,0.000,14,14,4*49
$GPGGA,091109.60,3135.5383844,N,12046.6796219,E,4,14,2.0,2.9105,M,8.316,M,00,0004*6B
$GPHPD,1957,33087.400,323.81,0.32,13.97,31.5923064,120.7779937,2.911,13630767.200,24925280.850,2.911,0.992,-0.093,0.952,0.846,1.342,0.859,0.000,14,14,4*6A
$GPGGA,091109.80,3135.5385050,N,12046.6795192,E,4,14,2.0,2.9090,M,8.316,M,00,0004*60
$GPHPD,1957,33087.600,323.72,-0.26,13.98,31.5923084,120.7779920,2.909,13630765.280,24925278.909,2.909,0.960,-0.064,0.972,0.846,1.342,0.860,0.000,14,14,4*46
$GPGGA,091110.00,3135.5386261,N,12046.6794189,E,4,14,2.0,2.9245,M,8.316,M,01,0004*63
$GPHPD,1957,33087.800,323.60,0.11,14.00,31.5923104,120.7779903,2.925,13630763.356,24925276.994,2.925,0.999,-0.101,0.936,0.810,1.316,0.774,0.000,14,14,4*66
$GPGGA,091110.20,3135.5387488,N,12046.6793147,E,4,14,1.8,2.9189,M,8.316,M,01,0004*6C
$GPHPD,1957,33088.000,323.50,0.00,14.01,31.5923125,120.7779886,2.919,13630761.403,24925275.024,2.919,0.929,-0.019,0.997,0.740,1.287,0.736,0.000,14,14,4*65
$GPGGA,091110.40,3135.5388712,N,12046.6792169,E,4,14,1.8,2.9160,M,8.316,M,01,0004*6F
$GPHPD,1957,33088.200,323.65,-0.25,14.03,31.5923145,120.7779869,2.916,13630759.466,24925273.132,2.916,1.003,-0.082,0.962,0.810,1.316,0.774,0.000,14,13,4*4C
$GPGGA,091110.60,3135.5389889,N,12046.6791129,E,4,13,1.8,2.9248,M,8.316,M,00,0004*69
$GPHPD,1957,33088.400,323.46,0.16,14.07,31.5923165,120.7779852,2.925,13630757.584,24925271.192,2.925,1.016,-0.136,0.933,0.810,1.316,0.774,0.000,13,13,4*6A
$GPGGA,091110.80,3135.5391075,N,12046.6790095,E,4,13,1.8,2.9313,M,8.316,M,00,0004*6D
$GPHPD,1957,33088.600,323.53,-0.11,14.07,31.5923185,120.7779835,2.931,13630755.690,24925269.255,2.931,0.967,-0.050,0.946,0.768,1.291,0.849,0.000,13,13,4*4E
$GPGGA,091111.00,3135.5392286,N,12046.6789107,E,4,14,1.8,2.9272,M,8.315,M,01,0004*68
$GPHPD,1957,33088.800,323.75,-0.18,14.09,31.5923205,120.7779818,2.927,13630753.770,24925267.358,2.927,0.986,-0.042,0.942,0.810,1.316,0.774,0.000,14,13,4*4C
$GPGGA,091111.20,3135.5393469,N,12046.6788064,E,4,14,1.8,2.9191,M,8.315,M,01,0004*67
$GPHPD,1957,33089.000,323.41,-0.34,14.10,31.5923224,120.7779801,2.919,13630751.879,24925265.412,2.919,0.978,-0.099,0.938,0.810,1.316,0.774,0.000,14,14,4*4D
$GPGGA,091111.40,3135.5394667,N,12046.6787085,E,4,14,1.8,2.9232,M,8.315,M,01,0004*60
$GPHPD,1957,33089.200,323.61,-0.20,14.12,31.5923244,120.7779785,2.923,13630749.979,24925263.534,2.923,1.016,-0.118,0.918,0.740,1.287,0.736,0.000,14,13,4*4C
$GPGGA,091111.60,3135.5395849,N,12046.6786026,E,4,14,1.8,2.9236,M,8.315,M,00,0004*6C
$GPHPD,1957,33089.400,323.54,0.26,14.13,31.5923264,120.7779767,2.924,13630748.086,24925261.568,2.924,0.984,-0.097,0.937,0.810,1.316,0.774,0.000,14,13,4*66
$GPGGA,091111.80,3135.5397063,N,12046.6784986,E,4,14,1.8,2.9321,M,8.315,M,00,0004*66
$GPHPD,1957,33089.600,323.55,0.54,14.14,31.5923284,120.7779750,2.932,13630746.151,24925259.608,2.932,1.001,-0.081,0.930,0.740,1.287,0.736,0.000,14,13,4*66
$GPGGA,091112.00,3135.5398246,N,12046.6783976,E,4,14,1.8,2.9227,M,8.315,M,01,0004*69
$GPHPD,1957,33089.800,323.52,0.77,14.19,31.5923304,120.7779733,2.923,13630744.266,24925257.701,2.923,0.994,-0.064,0.955,0.740,1.287,0.736,0.000,14,13,4*60
$GPGGA,091112.20,3135.5399462,N,12046.6782981,E,4,14,1.8,2.9283,M,8.315,M,01,0004*6D
$GPHPD,1957,33090.000,323.40,0.47,14.23,31.5923324,120.7779716,2.928,13630742.338,24925255.793,2.928,0.987,-0.086,0.948,0.740,1.287,0.736,0.000,14,13,4*6B
$GPGGA,091112.40,3135.5400651,N,12046.6781992,E,4,13,1.8,2.9330,M,8.315,M,01,0004*61
$GPHPD,1957,33090.200,323.55,0.49,14.20,31.5923344,120.7779700,2.933,13630740.449,24925253.908,2.933,0.973,-0.108,0.969,0.740,1.287,0.736,0.000,13,13,4*60
$GPGGA,091112.60,3135.5401822,N,12046.6780952,E,4,13,1.8,2.9363,M,8.315,M,00,0004*62
$GPHPD,1957,33090.400,323.34,0.37,14.20,31.5923364,120.7779683,2.936,13630738.575,24925251.972,2.936,0.978,-0.090,0.951,0.740,1.287,0.736,0.000,13,13,4*6E
$GPGGA,091112.80,3135.5403048,N,12046.6779957,E,4,14,1.6,2.9449,M,8.315,M,00,0004*6F
$GPHPD,1957,33090.600,323.61,0.01,14.19,31.5923384,120.7779666,2.945,13630736.632,24925250.059,2.945,0.960,-0.047,0.949,0.740,1.287,0.736,0.000,14,13,4*64
$GPGGA,091113.00,3135.5404245,N,12046.6778923,E,4,14,1.6,2.9528,M,8.315,M,01,0004*6B
$GPHPD,1957,33090.800,323.34,0.26,14.16,31.5923404,120.7779649,2.953,13630734.723,24925248.115,2.953,0.989,-0.086,0.957,0.740,1.287,0.736,0.000,14,14,4*63
$GPGGA,091113.20,3135.5405447,N,12046.6777887,E,4,14,1.6,2.9618,M,8.315,M,01,0004*6C
$GPHPD,1957,33091.000,323.27,0.17,14.11,31.5923424,120.7779631,2.962,13630732.806,24925246.166,2.962,0.998,-0.075,0.951,0.740,1.287,0.736,0.000,14,14,4*6E
$GPGGA,091113.40,3135.5406643,N,12046.6776844,E,4,14,1.6,2.9572,M,8.315,M,01,0004*6E
$GPHPD,1957,33091.200,323.38,0.15,14.03,31.5923444,120.7779614,2.957,13630730.896,24925244.212,2.957,0.966,-0.040,0.983,0.740,1.287,0.736,0.000,14,14,4*63
$GPGGA,091113.60,3135.5407807,N,12046.6775881,E,4,14,1.6,2.9582,M,8.315,M,00,0004*67
$GPHPD,1957,33091.400,323.32,0.32,13.93,31.5923463,120.7779598,2.958,13630729.048,24925242.373,2.958,0.996,-0.065,0.948,0.740,1.287,0.736,0.000,14,14,4*6A
$GPGGA,091113.80,3135.5408853,N,12046.6774985,E,4,14,1.6,2.9560,M,8.315,M,00,0004*6F
$GPHPD,1957,33091.600,323.51,0.18,13.92,31.5923481,120.7779583,2.956,13630727.381,24925240.683,2.956,0.965,-0.111,0.927,0.740,1.287,0.736,0.000,14,14,4*65
$GPGGA,091114.00,3135.5409773,N,12046.6774178,E,4,13,1.6,2.9589,M,8.315,M,01,0004*67
$GPHPD,1957,33091.800,323.48,0.75,13.82,31.5923496,120.7779570,2.959,13630725.910,24925239.174,2.959,0.881,-0.069,0.828,0.740,1.287,0.736,0.000,13,14,4*6E
$GPGGA,091114.20,3135.5410608,N,12046.6773436,E,4,13,1.6,2.9569,M,8.315,M,01,0004*66
$GPHPD,1957,33092.000,323.42,0.14,13.71,31.5923510,120.7779557,2.957,13630724.574,24925237.793,2.957,0.808,-0.086,0.719,0.740,1.287,0.736,0.000,13,14,4*6D
$GPGGA,091114.40,3135.5411331,N,12046.6772837,E,4,13,1.6,2.9656,M,8.315,M,01,0004*6D
$GPHPD,1957,33092.200,323.44,0.40,13.62,31.5923522,120.7779547,2.966,13630723.426,24925236.650,2.966,0.738,-0.074,0.641,0.740,1.287,0.736,0.000,13,13,4*6E
$GPGGA,091114.60,3135.5411971,N,12046.6772327,E,4,13,1.6,2.9682,M,8.315,M,00,0004*63
$GPHPD,1957,33092.400,323.47,0.30,13.54,31.5923533,120.7779539,2.968,13630722.414,24925235.663,2.968,0.596,-0.050,0.569,0.740,1.287,0.736,0.000,13,13,4*6A
$GPGGA,091114.80,3135.5412496,N,12046.6771880,E,4,13,1.6,2.9725,M,8.315,M,00,0004*63
$GPHPD,1957,33092.600,323.36,0.03,13.45,31.5923542,120.7779531,2.973,13630721.578,24925234.818,2.973,0.498,-0.031,0.513,0.740,1.287,0.736,0.000,13,13,4*6E
$GPGGA,091115.00,3135.5412924,N,12046.6771508,E,4,13,1.6,2.9763,M,8.315,M,01,0004*60
$GPHPD,1957,33092.800,323.41,0.27,13.36,31.5923549,120.7779525,2.976,13630720.894,24925234.120,2.976,0.419,-0.027,0.428,0.740,1.287,0.736,0.000,13,13,4*67
