$GPGGA,090315.00,3135.4452024,N,12046.7448026,E,4,17,1.5,2.7321,M,8.320,M,01,0004*63
$GPHPD,1957,32612.800,144.38,-1.22,13.15,31.5907534,120.7790800,2.732,13632222.893,24926609.374,2.732,-0.454,0.038,-0.465,0.546,0.922,0.727,0.000,17,16,4*67
$GPGGA,090315.20,3135.4451435,N,12046.7448520,E,4,17,1.5,2.7265,M,8.321,M,01,0004*65
$GPHPD,1957,32613.000,144.31,-0.89,13.14,31.5907524,120.7790809,2.727,13632223.830,24926610.312,2.727,-0.452,0.036,-0.464,0.562,0.931,0.771,0.000,17,16,4*60
$GPGGA,090315.40,3135.4450825,N,12046.7449017,E,4,17,1.5,2.7408,M,8.321,M,01,0004*62
$GPHPD,1957,32613.200,144.25,-0.78,13.14,31.5907514,120.7790817,2.741,13632224.797,24926611.267,2.741,-0.458,0.024,-0.471,0.546,0.922,0.727,0.000,17,16,4*68
$GPGGA,090315.60,3135.4450191,N,12046.7449525,E,4,17,1.5,2.7283,M,8.321,M,00,0004*66
$GPHPD,1957,32613.400,144.91,-1.46,13.19,31.5907503,120.7790825,2.728,13632225.800,24926612.249,2.728,-0.518,0.108,-0.452,0.562,0.931,0.771,0.000,17,17,4*65
$GPGGA,090315.80,3135.4449490,N,12046.7450066,E,4,17,1.5,2.7319,M,8.321,M,00,0004*6C
$GPHPD,1957,32613.600,144.46,-0.63,13.24,31.5907492,120.7790834,2.732,13632226.906,24926613.309,2.732,-0.479,-0.025,-0.501,0.562,0.931,0.771,0.000,17,17,4*4E
$GPGGA,090316.00,3135.4448823,N,12046.7450670,E,4,17,1.5,2.7305,M,8.321,M,01,0004*6F
$GPHPD,1957,32613.800,144.26,-0.76,13.33,31.5907480,120.7790845,2.731,13632227.976,24926614.426,2.731,-0.536,0.060,-0.538,0.556,0.929,0.730,0.000,17,17,4*6D
$GPGGA,090316.20,3135.4448026,N,12046.7451252,E,4,17,1.5,2.7269,M,8.321,M,01,0004*6E
$GPHPD,1957,32614.000,144.24,-0.77,13.43,31.5907467,120.7790854,2.727,13632229.226,24926615.592,2.727,-0.567,0.063,-0.545,0.569,0.936,0.779,0.000,17,17,4*62
$GPGGA,090316.40,3135.4447251,N,12046.7451962,E,4,17,1.5,2.7178,M,8.321,M,01,0004*6E
$GPHPD,1957,32614.200,144.21,-0.26,13.49,31.5907454,120.7790866,2.718,13632230.470,24926616.899,2.718,-0.597,0.025,-0.628,0.562,0.931,0.771,0.000,17,17,4*63
$GPGGA,090316.60,3135.4446364,N,12046.7452619,E,4,17,1.5,2.7115,M,8.321,M,00,0004*60
$GPHPD,1957,32614.400,144.46,-1.77,13.55,31.5907439,120.7790877,2.712,13632231.863,24926618.208,2.712,-0.667,0.034,-0.585,0.549,0.928,0.728,0.000,17,17,4*61
$GPGGA,090316.80,3135.4445506,N,12046.7453326,E,4,17,1.5,2.7096,M,8.321,M,00,0004*6D
$GPHPD,1957,32614.600,144.64,-0.35,13.56,31.5907425,120.7790889,2.710,13632233.225,24926619.560,2.710,-0.668,0.049,-0.706,0.546,0.922,0.727,0.000,17,16,4*6E
$GPGGA,090317.00,3135.4444627,N,12046.7454071,E,4,17,1.5,2.7204,M,8.321,M,01,0004*6B
$GPHPD,1957,32614.800,144.77,-0.61,13.57,31.5907410,120.7790901,2.720,13632234.625,24926620.970,2.720,-0.681,0.109,-0.697,0.617,0.949,0.731,0.000,17,16,4*67
$GPGGA,090317.20,3135.4443685,N,12046.7454818,E,4,17,1.5,2.7022,M,8.321,M,01,0004*67
$GPHPD,1957,32615.000,144.92,0.08,13.56,31.5907395,120.7790914,2.702,13632236.114,24926622.419,2.702,-0.756,0.025,-0.640,0.617,0.949,0.731,0.000,17,15,4*42
$GPGGA,090317.40,3135.4442782,N,12046.7455550,E,4,16,1.5,2.7263,M,8.321,M,01,0004*60
$GPHPD,1957,32615.200,144.24,0.25,13.53,31.5907380,120.7790926,2.726,13632237.545,24926623.828,2.726,-0.670,0.007,-0.767,0.617,0.949,0.731,0.000,16,15,4*4C
$GPGGA,090317.60,3135.4441820,N,12046.7456305,E,4,16,1.5,2.7207,M,8.321,M,00,0004*60
$GPHPD,1957,32615.400,145.38,-0.84,13.51,31.5907364,120.7790938,2.721,13632239.064,24926625.298,2.721,-0.742,0.114,-0.709,0.617,0.949,0.731,0.000,16,15,4*63
$GPGGA,090317.80,3135.4440948,N,12046.7457049,E,4,16,1.5,2.7157,M,8.321,M,00,0004*6C
$GPHPD,1957,32615.600,144.75,-0.45,13.48,31.5907349,120.7790951,2.716,13632240.454,24926626.703,2.716,-0.715,0.053,-0.735,0.617,0.949,0.731,0.000,16,15,4*6E
$GPGGA,090318.00,3135.4440008,N,12046.7457789,E,4,16,1.5,2.7058,M,8.321,M,01,0004*62
$GPHPD,1957,32615.800,145.20,-0.51,13.45,31.5907333,120.7790963,2.706,13632241.939,24926628.143,2.706,-0.737,0.102,-0.737,0.617,0.949,0.731,0.000,16,15,4*69
$GPGGA,090318.20,3135.4439082,N,12046.7458485,E,4,16,1.5,2.6965,M,8.321,M,01,0004*6A
$GPHPD,1957,32616.000,144.36,-0.37,13.43,31.5907318,120.7790975,2.697,13632243.395,24926629.521,2.697,-0.693,0.067,-0.724,0.617,0.949,0.731,0.000,16,15,4*6C
$GPGGA,090318.40,3135.4438173,N,12046.7459373,E,4,16,1.5,2.7154,M,8.321,M,01,0004*66
$GPHPD,1957,32616.200,144.86,-0.22,13.39,31.5907303,120.7790990,2.715,13632244.866,24926631.121,2.715,-0.693,0.093,-0.764,0.617,0.949,0.731,0.000,16,15,4*6F
$GPGGA,090318.60,3135.4437155,N,12046.7460040,E,4,16,1.5,2.7112,M,8.321,M,00,0004*65
$GPHPD,1957,32616.400,145.08,-0.29,13.32,31.5907286,120.7791001,2.711,13632246.447,24926632.518,2.711,-0.745,0.151,-0.715,0.656,0.950,0.734,0.000,16,15,4*69
$GPGGA,090318.80,3135.4436246,N,12046.7460786,E,4,16,1.5,2.7149,M,8.321,M,00,0004*68
$GPHPD,1957,32616.600,144.53,-0.67,13.28,31.5907271,120.7791013,2.715,13632247.890,24926633.947,2.715,-0.757,0.051,-0.751,0.617,0.949,0.731,0.000,16,15,4*64
$GPGGA,090319.00,3135.4435337,N,12046.7461491,E,4,16,1.5,2.7005,M,8.321,M,01,0004*69
$GPHPD,1957,32616.800,144.98,-0.94,13.26,31.5907256,120.7791025,2.701,13632249.324,24926635.327,2.701,-0.710,0.082,-0.764,0.617,0.949,0.731,0.000,16,15,4*64
$GPGGA,090319.20,3135.4434420,N,12046.7462224,E,4,16,1.5,2.7004,M,8.321,M,01,0004*61
$GPHPD,1957,32617.000,144.77,0.10,13.24,31.5907240,120.7791037,2.700,13632250.775,24926636.744,2.700,-0.698,-0.021,-0.752,0.612,0.939,0.684,0.000,16,15,4*6C
$GPGGA,090319.40,3135.4433460,N,12046.7462944,E,4,16,1.5,2.7124,M,8.321,M,01,0004*6A
$GPHPD,1957,32617.200,144.90,-0.48,13.23,31.5907224,120.7791049,2.712,13632252.284,24926638.171,2.712,-0.739,0.047,-0.723,0.612,0.939,0.684,0.000,16,15,4*6D
$GPGGA,090319.60,3135.4432519,N,12046.7463655,E,4,16,1.5,2.7098,M,8.321,M,00,0004*6F
$GPHPD,1957,32617.400,144.94,-1.28,13.25,31.5907209,120.7791061,2.710,13632253.765,24926639.577,2.710,-0.735,0.084,-0.744,0.612,0.939,0.684,0.000,16,16,4*62
$GPGGA,090319.80,3135.4431589,N,12046.7464420,E,4,16,1.5,2.7081,M,8.321,M,00,0004*64
$GPHPD,1957,32617.600,144.58,-0.75,13.26,31.5907193,120.7791074,2.708,13632255.241,24926641.041,2.708,-0.715,0.094,-0.721,0.612,0.939,0.684,0.000,16,16,4*64
$GPGGA,090320.00,3135.4430676,N,12046.7465229,E,4,16,1.5,2.6878,M,8.321,M,01,0004*64
$GPHPD,1957,32617.800,144.55,-1.14,13.27,31.5907178,120.7791087,2.688,13632256.702,24926642.548,2.688,-0.738,0.101,-0.711,0.612,0.939,0.684,0.000,16,16,4*66
$GPGGA,090320.20,3135.4429716,N,12046.7465972,E,4,16,1.5,2.6926,M,8.321,M,01,0004*66
$GPHPD,1957,32618.000,144.90,-1.15,13.30,31.5907162,120.7791100,2.693,13632258.216,24926644.003,2.693,-0.729,-0.009,-0.785,0.612,0.939,0.684,0.000,16,16,4*41
$GPGGA,090320.40,3135.4428701,N,12046.7466783,E,4,16,1.5,2.7045,M,8.321,M,01,0004*69
$GPHPD,1957,32618.200,145.11,-1.18,13.33,31.5907145,120.7791113,2.705,13632259.822,24926645.572,2.705,-0.739,0.053,-0.774,0.612,0.939,0.684,0.000,16,16,4*61
$GPGGA,090320.60,3135.4427667,N,12046.7467563,E,4,16,1.5,2.7030,M,8.321,M,00,0004*6B
$GPHPD,1957,32618.400,144.72,-1.37,13.34,31.5907128,120.7791126,2.703,13632261.449,24926647.114,2.703,-0.805,0.073,-0.772,0.612,0.939,0.684,0.000,16,16,4*6C
$GPGGA,090320.80,3135.4426641,N,12046.7468386,E,4,16,1.5,2.6924,M,8.321,M,00,0004*6F
$GPHPD,1957,32618.600,144.49,-1.50,13.36,31.5907111,120.7791140,2.692,13632263.073,24926648.704,2.692,-0.769,0.081,-0.801,0.612,0.939,0.684,0.000,16,16,4*6B
$GPGGA,090321.00,3135.4425609,N,12046.7469258,E,4,16,1.5,2.6903,M,8.321,M,01,0004*6E
$GPHPD,1957,32618.800,144.81,-0.72,13.39,31.5907093,120.7791154,2.690,13632264.715,24926650.356,2.690,-0.782,0.071,-0.837,0.612,0.939,0.684,0.000,16,15,4*67
$GPGGA,090321.20,3135.4424558,N,12046.7470117,E,4,16,1.5,2.6783,M,8.321,M,01,0004*6C
$GPHPD,1957,32619.000,145.07,-1.08,13.41,31.5907076,120.7791169,2.678,13632266.382,24926652.004,2.678,-0.836,0.040,-0.832,0.612,0.939,0.684,0.000,16,16,4*6D
$GPGGA,090321.40,3135.4423498,N,12046.7470936,E,4,16,1.5,2.6804,M,8.321,M,01,0004*6B
$GPHPD,1957,32619.200,145.36,-1.16,13.42,31.5907058,120.7791182,2.680,13632268.054,24926653.609,2.680,-0.828,0.048,-0.853,0.612,0.939,0.684,0.000,16,15,4*67
$GPGGA,090321.60,3135.4422440,N,12046.7471793,E,4,16,1.5,2.6677,M,8.321,M,00,0004*66
$GPHPD,1957,32619.400,145.84,-0.50,13.39,31.5907041,120.7791197,2.668,13632269.730,24926655.258,2.668,-0.820,0.079,-0.858,0.612,0.938,0.684,0.000,16,16,4*6A
$GPGGA,090321.80,3135.4421360,N,12046.7472680,E,4,15,1.6,2.6613,M,8.321,M,00,0004*6C
$GPHPD,1957,32619.600,145.58,-0.16,13.38,31.5907023,120.7791211,2.661,13632271.444,24926656.957,2.661,-0.821,0.045,-0.863,0.612,0.938,0.684,0.000,15,16,4*68
$GPGGA,090322.00,3135.4420247,N,12046.7473554,E,4,15,1.6,2.6609,M,8.321,M,01,0004*63
$GPHPD,1957,32619.800,145.86,0.29,13.40,31.5907004,120.7791226,2.661,13632273.202,24926658.659,2.661,-0.868,0.085,-0.851,0.682,0.947,0.693,0.000,15,15,4*47
$GPGGA,090322.20,3135.4419171,N,12046.7474387,E,4,15,1.6,2.6550,M,8.321,M,01,0004*6D
$GPHPD,1957,32620.000,145.92,-0.11,13.41,31.5906986,120.7791240,2.655,13632274.899,24926660.290,2.655,-0.885,0.121,-0.863,0.682,0.947,0.693,0.000,15,15,4*6D
$GPGGA,090322.40,3135.4418005,N,12046.7475285,E,4,15,1.6,2.6585,M,8.321,M,01,0004*62
$GPHPD,1957,32620.200,145.83,-0.40,13.41,31.5906967,120.7791255,2.659,13632276.737,24926662.052,2.659,-0.828,0.079,-0.878,0.682,0.947,0.693,0.000,15,15,4*66
$GPGGA,090322.60,3135.4416834,N,12046.7476172,E,4,15,1.6,2.6620,M,8.321,M,00,0004*61
$GPHPD,1957,32620.400,145.61,-0.02,13.43,31.5906947,120.7791270,2.662,13632278.580,24926663.803,2.662,-0.915,0.159,-0.901,0.682,0.947,0.693,0.000,15,15,4*63
$GPGGA,090322.80,3135.4415685,N,12046.7477036,E,4,15,1.6,2.6737,M,8.321,M,00,0004*6F
$GPHPD,1957,32620.600,145.22,-0.69,13.45,31.5906928,120.7791284,2.674,13632280.388,24926665.514,2.674,-0.897,0.116,-0.901,0.682,0.947,0.693,0.000,15,15,4*6B
$GPGGA,090323.00,3135.4414504,N,12046.7477959,E,4,15,1.6,2.6665,M,8.321,M,01,0004*6A
$GPHPD,1957,32620.800,145.27,-0.86,13.46,31.5906908,120.7791299,2.667,13632282.252,24926667.314,2.667,-0.892,0.152,-0.876,0.682,0.947,0.693,0.000,15,15,4*68
$GPGGA,090323.20,3135.4413353,N,12046.7478885,E,4,15,1.6,2.6488,M,8.321,M,01,0004*65
$GPHPD,1957,32621.000,144.88,-1.06,13.47,31.5906889,120.7791315,2.649,13632284.075,24926669.101,2.649,-0.895,0.117,-0.924,0.794,1.361,0.699,0.000,15,15,4*6A
$GPGGA,090323.40,3135.4412168,N,12046.7479825,E,4,15,1.6,2.6589,M,8.321,M,01,0004*63
$GPHPD,1957,32621.200,145.04,-0.80,13.48,31.5906869,120.7791330,2.659,13632285.948,24926670.925,2.659,-0.898,0.094,-0.951,0.794,1.361,0.699,0.000,15,15,4*61
$GPGGA,090323.60,3135.4410971,N,12046.7480769,E,4,15,1.6,2.6565,M,8.321,M,00,0004*61
$GPHPD,1957,32621.400,145.00,-0.38,13.50,31.5906850,120.7791346,2.657,13632287.840,24926672.760,2.657,-0.920,0.126,-0.930,0.794,1.361,0.699,0.000,15,15,4*69
$GPGGA,090323.80,3135.4409775,N,12046.7481720,E,4,15,1.6,2.6469,M,8.321,M,00,0004*6C
$GPHPD,1957,32621.600,145.03,-1.05,13.51,31.5906830,120.7791362,2.647,13632289.731,24926674.603,2.647,-0.928,0.128,-0.922,0.794,1.361,0.699,0.000,15,15,4*66
$GPGGA,090324.00,3135.4408565,N,12046.7482693,E,4,15,1.6,2.6449,M,8.321,M,01,0004*68
$GPHPD,1957,32621.800,145.19,-0.89,13.51,31.5906809,120.7791378,2.645,13632291.647,24926676.481,2.645,-0.982,0.138,-0.947,0.794,1.361,0.699,0.000,15,15,4*66
$GPGGA,090324.20,3135.4407331,N,12046.7483655,E,4,16,1.6,2.6356,M,8.321,M,01,0004*63
$GPHPD,1957,32622.000,145.13,-0.61,13.52,31.5906789,120.7791394,2.636,13632293.595,24926678.359,2.636,-0.950,0.080,-0.984,0.794,1.361,0.699,0.000,16,15,4*64
$GPGGA,090324.40,3135.4406140,N,12046.7484601,E,4,16,1.6,2.6407,M,8.321,M,01,0004*65
$GPHPD,1957,32622.200,145.17,-0.24,13.54,31.5906769,120.7791410,2.641,13632295.479,24926680.194,2.641,-0.951,0.101,-0.989,0.677,1.291,0.695,0.000,16,16,4*68
$GPGGA,090324.60,3135.4404908,N,12046.7485639,E,4,16,1.6,2.6319,M,8.321,M,00,0004*62
$GPHPD,1957,32622.400,144.94,-0.78,13.54,31.5906748,120.7791427,2.632,13632297.439,24926682.163,2.632,-0.970,0.105,-0.938,0.677,1.291,0.695,0.000,16,16,4*6B
$GPGGA,090324.80,3135.4403663,N,12046.7486615,E,4,16,1.5,2.6375,M,8.321,M,00,0004*6D
$GPHPD,1957,32622.600,144.92,-0.82,13.55,31.5906728,120.7791444,2.638,13632299.405,24926684.064,2.638,-0.978,0.074,-0.977,0.677,1.291,0.695,0.000,16,16,4*6D
$GPGGA,090325.00,3135.4402428,N,12046.7487626,E,4,16,1.5,2.6304,M,8.321,M,01,0004*6E
$GPHPD,1957,32622.800,144.79,-0.55,13.56,31.5906707,120.7791460,2.630,13632301.364,24926686.003,2.630,-0.968,0.108,-0.977,0.677,1.291,0.695,0.000,16,16,4*6C
$GPGGA,090325.20,3135.4401187,N,12046.7488622,E,4,16,1.5,2.6398,M,8.321,M,01,0004*61
$GPHPD,1957,32623.000,144.65,-0.24,13.55,31.5906686,120.7791477,2.640,13632303.329,24926687.926,2.640,-0.976,0.090,-0.985,0.677,1.291,0.695,0.000,16,16,4*65
$GPGGA,090325.40,3135.4399956,N,12046.7489632,E,4,16,1.5,2.6360,M,8.321,M,01,0004*62
$GPHPD,1957,32623.200,144.55,-0.46,13.52,31.5906666,120.7791494,2.636,13632305.282,24926689.861,2.636,-1.012,0.129,-0.966,0.677,1.291,0.695,0.000,16,16,4*6A
$GPGGA,090325.60,3135.4398659,N,12046.7490648,E,4,16,1.5,2.6296,M,8.321,M,00,0004*6D
$GPHPD,1957,32623.400,144.17,-0.82,13.52,31.5906644,120.7791511,2.630,13632307.330,24926691.841,2.630,-0.980,0.093,-0.971,0.683,1.302,0.743,0.000,16,16,4*60
$GPGGA,090325.80,3135.4397429,N,12046.7491687,E,4,16,1.5,2.6211,M,8.321,M,00,0004*64
$GPHPD,1957,32623.600,143.93,-0.80,13.52,31.5906624,120.7791528,2.621,13632309.287,24926693.810,2.621,-1.007,0.084,-1.028,0.692,1.314,0.695,0.000,16,16,4*6A
$GPGGA,090326.00,3135.4396165,N,12046.7492744,E,4,16,1.5,2.6190,M,8.321,M,01,0004*65
$GPHPD,1957,32623.800,143.77,-1.21,13.51,31.5906603,120.7791546,2.619,13632311.297,24926695.821,2.619,-0.998,0.087,-0.987,0.692,1.314,0.695,0.000,16,16,4*66
$GPGGA,090326.20,3135.4394912,N,12046.7493834,E,4,16,1.5,2.6254,M,8.321,M,01,0004*6F
$GPHPD,1957,32624.000,143.83,-1.40,13.52,31.5906582,120.7791564,2.625,13632313.297,24926697.865,2.625,-1.020,0.047,-1.018,0.623,0.954,0.735,0.000,16,16,4*6B
$GPGGA,090326.40,3135.4393679,N,12046.7494877,E,4,16,1.5,2.6161,M,8.321,M,01,0004*69
$GPHPD,1957,32624.200,144.17,-1.14,13.50,31.5906561,120.7791581,2.616,13632315.260,24926699.840,2.616,-1.043,0.073,-0.977,0.620,0.946,0.685,0.000,16,16,4*68
$GPGGA,090326.60,3135.4392382,N,12046.7495906,E,4,16,1.5,2.6346,M,8.321,M,00,0004*6B
$GPHPD,1957,32624.400,144.39,-1.01,13.48,31.5906540,120.7791598,2.635,13632317.311,24926701.836,2.635,-1.008,0.032,-0.991,0.620,0.946,0.685,0.000,16,16,4*62
$GPGGA,090326.80,3135.4391094,N,12046.7496992,E,4,16,1.5,2.6267,M,8.321,M,00,0004*6E
$GPHPD,1957,32624.600,143.72,-1.14,13.48,31.5906518,120.7791617,2.627,13632319.360,24926703.896,2.627,-1.105,0.206,-0.965,0.620,0.946,0.685,0.000,16,16,4*67
$GPGGA,090327.00,3135.4389836,N,12046.7498090,E,4,16,1.5,2.6152,M,8.321,M,01,0004*6F
$GPHPD,1957,32624.800,143.70,-0.30,13.48,31.5906497,120.7791635,2.615,13632321.370,24926705.952,2.615,-1.029,0.060,-1.027,0.692,1.314,0.695,0.000,16,16,4*68
$GPGGA,090327.20,3135.4388465,N,12046.7499058,E,4,16,1.7,2.6125,M,8.321,M,01,0004*61
$GPHPD,1957,32625.000,144.49,-0.40,13.48,31.5906474,120.7791651,2.613,13632323.513,24926707.918,2.613,-1.023,-0.021,-1.020,0.695,1.321,0.745,0.000,16,16,4*41
$GPGGA,090327.40,3135.4387244,N,12046.7500152,E,4,16,1.5,2.6390,M,8.321,M,01,0004*69
$GPHPD,1957,32625.200,144.04,0.15,13.48,31.5906454,120.7791669,2.639,13632325.469,24926709.948,2.639,-1.001,0.143,-1.101,0.620,0.946,0.685,0.000,16,16,4*4C
$GPGGA,090327.60,3135.4385992,N,12046.7501199,E,4,16,1.5,2.6265,M,8.321,M,00,0004*65
$GPHPD,1957,32625.400,144.37,-0.38,13.49,31.5906433,120.7791687,2.627,13632327.460,24926711.939,2.627,-1.119,0.275,-0.955,0.623,0.954,0.735,0.000,16,16,4*60
$GPGGA,090327.80,3135.4384716,N,12046.7502262,E,4,16,1.6,2.6171,M,8.321,M,00,0004*69
$GPHPD,1957,32625.600,144.56,0.65,13.49,31.5906412,120.7791704,2.617,13632329.487,24926713.964,2.617,-1.036,0.107,-0.952,0.623,0.954,0.735,0.000,16,16,4*49
$GPGGA,090328.00,3135.4383403,N,12046.7503307,E,4,16,1.6,2.6134,M,8.321,M,01,0004*6D
$GPHPD,1957,32625.800,145.11,1.22,13.50,31.5906390,120.7791722,2.613,13632331.564,24926715.989,2.613,-1.014,0.094,-1.016,0.635,0.957,0.735,0.000,16,15,4*42
$GPGGA,090328.20,3135.4382063,N,12046.7504312,E,4,16,1.6,2.6184,M,8.321,M,01,0004*64
$GPHPD,1957,32626.000,144.57,0.65,13.47,31.5906368,120.7791739,2.618,13632333.671,24926717.981,2.618,-1.027,0.147,-1.036,0.635,0.956,0.735,0.000,16,15,4*40
$GPGGA,090328.40,3135.4380889,N,12046.7505428,E,4,16,1.6,2.6118,M,8.321,M,01,0004*66
$GPHPD,1957,32626.200,144.17,0.99,13.47,31.5906348,120.7791757,2.612,13632335.565,24926720.010,2.612,-1.024,0.125,-1.028,0.635,0.956,0.735,0.000,16,15,4*42
$GPGGA,090328.60,3135.4379622,N,12046.7506472,E,4,16,1.6,2.6090,M,8.321,M,00,0004*61
$GPHPD,1957,32626.400,144.18,-0.13,13.48,31.5906327,120.7791775,2.609,13632337.576,24926722.007,2.609,-1.027,0.096,-0.989,0.629,0.951,0.687,0.000,16,15,4*6D
$GPGGA,090328.80,3135.4378394,N,12046.7507574,E,4,16,1.6,2.6191,M,8.321,M,00,0004*60
$GPHPD,1957,32626.600,144.40,-0.73,13.46,31.5906307,120.7791793,2.619,13632339.543,24926724.051,2.619,-1.016,0.072,-1.014,0.629,0.951,0.687,0.000,16,15,4*69
$GPGGA,090329.00,3135.4377040,N,12046.7508562,E,4,16,1.6,2.6295,M,8.321,M,01,0004*62
$GPHPD,1957,32626.800,144.28,-1.13,13.44,31.5906284,120.7791809,2.630,13632341.667,24926726.030,2.630,-1.069,0.088,-0.951,0.629,0.951,0.687,0.000,16,15,4*61
$GPGGA,090329.20,3135.4375775,N,12046.7509617,E,4,16,1.6,2.6276,M,8.321,M,01,0004*6E
$GPHPD,1957,32627.000,143.50,-1.20,13.42,31.5906263,120.7791827,2.628,13632343.677,24926728.039,2.628,-1.013,0.093,-1.019,0.629,0.951,0.687,0.000,16,15,4*64
$GPGGA,090329.40,3135.4374499,N,12046.7510611,E,4,16,1.6,2.6328,M,8.321,M,01,0004*6C
$GPHPD,1957,32627.200,143.88,-1.04,13.38,31.5906242,120.7791844,2.633,13632345.691,24926729.981,2.633,-1.036,0.098,-1.006,0.629,0.951,0.687,0.000,16,14,4*68
$GPGGA,090329.60,3135.4373266,N,12046.7511636,E,4,16,1.6,2.6074,M,8.321,M,00,0004*60
$GPHPD,1957,32627.400,144.05,-1.56,13.36,31.5906221,120.7791861,2.607,13632347.650,24926731.935,2.607,-1.015,0.116,-0.984,0.629,0.951,0.687,0.000,16,15,4*6B
$GPGGA,090329.80,3135.4372031,N,12046.7512693,E,4,16,1.6,2.6096,M,8.321,M,00,0004*6F
$GPHPD,1957,32627.600,143.67,-1.43,13.35,31.5906201,120.7791878,2.610,13632349.619,24926733.928,2.610,-0.937,-0.012,-1.020,0.629,0.951,0.687,0.000,16,14,4*4D
$GPGGA,090330.00,3135.4370744,N,12046.7513709,E,4,16,1.6,2.6054,M,8.321,M,01,0004*64
$GPHPD,1957,32627.800,144.21,-0.64,13.35,31.5906179,120.7791895,2.605,13632351.653,24926735.903,2.605,-1.008,0.093,-1.007,0.629,0.951,0.687,0.000,16,14,4*60
$GPGGA,090330.20,3135.4369476,N,12046.7514742,E,4,15,1.6,2.5952,M,8.321,M,01,0004*6B
$GPHPD,1957,32628.000,143.78,-1.44,13.35,31.5906158,120.7791912,2.595,13632353.663,24926737.887,2.595,-1.036,0.155,-1.003,0.629,0.951,0.687,0.000,15,14,4*6D
$GPGGA,090330.40,3135.4368225,N,12046.7515796,E,4,15,1.6,2.5925,M,8.321,M,01,0004*64
$GPHPD,1957,32628.200,144.14,-1.24,13.34,31.5906137,120.7791930,2.593,13632355.653,24926739.886,2.593,-1.027,0.167,-1.004,0.677,0.952,0.691,0.000,15,13,4*68
$GPGGA,090330.60,3135.4366929,N,12046.7516845,E,4,15,1.6,2.6097,M,8.321,M,00,0004*6F
$GPHPD,1957,32628.400,144.37,-0.41,13.34,31.5906115,120.7791947,2.610,13632357.707,24926741.906,2.610,-0.982,0.068,-1.021,0.629,0.951,0.687,0.000,15,12,4*69
$GPGGA,090330.80,3135.4365703,N,12046.7517918,E,4,14,1.6,2.5928,M,8.321,M,00,0004*63
$GPHPD,1957,32628.600,144.44,-1.02,13.36,31.5906095,120.7791965,2.593,13632359.666,24926743.913,2.593,-1.089,0.149,-0.957,0.629,0.951,0.687,0.000,14,13,4*64
$GPGGA,090331.00,3135.4364369,N,12046.7518806,E,4,14,1.6,2.5739,M,8.321,M,01,0004*6D
$GPHPD,1957,32628.800,144.77,-0.79,13.36,31.5906073,120.7791980,2.574,13632361.741,24926745.761,2.574,-1.016,0.126,-1.009,0.677,0.952,0.691,0.000,14,13,4*65
$GPGGA,090331.20,3135.4363112,N,12046.7519886,E,4,14,1.6,2.5795,M,8.321,M,01,0004*69
$GPHPD,1957,32629.000,144.24,-0.38,13.36,31.5906052,120.7791998,2.580,13632363.745,24926747.795,2.580,-0.886,-0.029,-1.078,0.670,0.943,0.691,0.000,14,13,4*48
$GPGGA,090331.40,3135.4361894,N,12046.7520922,E,4,14,1.8,2.5693,M,8.321,M,01,0004*66
$GPHPD,1957,32629.200,144.22,-0.63,13.36,31.5906032,120.7792015,2.569,13632365.685,24926749.753,2.569,-1.007,0.062,-0.996,0.670,0.943,0.691,0.000,14,13,4*6E
$GPGGA,090331.60,3135.4360643,N,12046.7521945,E,4,14,1.8,2.5663,M,8.321,M,00,0004*6F
$GPHPD,1957,32629.400,145.50,-0.92,13.35,31.5906011,120.7792032,2.566,13632367.669,24926751.715,2.566,-1.039,0.069,-1.018,0.670,0.943,0.691,0.000,14,13,4*66
$GPGGA,090331.80,3135.4359320,N,12046.7522930,E,4,14,1.8,2.5902,M,8.321,M,00,0004*62
$GPHPD,1957,32629.600,145.09,-0.20,13.35,31.5905989,120.7792049,2.590,13632369.748,24926753.674,2.590,-1.003,0.044,-0.993,0.670,0.942,0.691,0.000,14,13,4*62
$GPGGA,090332.00,3135.4358063,N,12046.7523931,E,4,15,1.8,2.5789,M,8.321,M,01,0004*61
$GPHPD,1957,32629.800,144.61,-0.44,13.37,31.5905968,120.7792066,2.579,13632371.736,24926755.612,2.579,-1.010,0.192,-0.998,0.623,0.941,0.687,0.000,15,13,4*67
$GPGGA,090332.20,3135.4356756,N,12046.7525045,E,4,15,1.7,2.6162,M,8.321,M,01,0004*6F
$GPHPD,1957,32630.000,144.87,-0.09,13.37,31.5905946,120.7792084,2.616,13632373.818,24926757.717,2.616,-1.030,0.142,-1.024,0.623,0.941,0.687,0.000,15,15,4*67
$GPGGA,090332.40,3135.4355527,N,12046.7526042,E,4,15,1.7,2.6018,M,8.321,M,01,0004*66
$GPHPD,1957,32630.200,144.33,-0.67,13.38,31.5905925,120.7792101,2.602,13632375.766,24926759.635,2.602,-1.032,0.208,-1.000,0.623,0.941,0.687,0.000,15,15,4*62
$GPGGA,090332.60,3135.4354363,N,12046.7527169,E,4,15,1.7,2.5889,M,8.321,M,00,0004*68
$GPHPD,1957,32630.400,145.36,-0.68,13.38,31.5905906,120.7792119,2.589,13632377.647,24926761.671,2.589,-1.016,0.129,-0.983,0.623,0.941,0.687,0.000,15,15,4*69
$GPGGA,090332.80,3135.4353054,N,12046.7528179,E,4,15,1.5,2.6066,M,8.321,M,00,0004*60
$GPHPD,1957,32630.600,145.38,0.38,13.37,31.5905884,120.7792136,2.607,13632379.711,24926763.651,2.607,-1.026,0.118,-0.985,0.612,0.938,0.685,0.000,15,15,4*41
$GPGGA,090333.00,3135.4351815,N,12046.7529123,E,4,15,1.5,2.5856,M,8.321,M,01,0004*61
$GPHPD,1957,32630.800,145.35,-0.39,13.37,31.5905864,120.7792152,2.586,13632381.663,24926765.511,2.586,-0.992,0.110,-1.017,0.612,0.938,0.685,0.000,15,15,4*6C
$GPGGA,090333.20,3135.4350475,N,12046.7530056,E,4,15,1.5,2.5726,M,8.321,M,01,0004*6B
$GPHPD,1957,32631.000,145.55,0.27,13.35,31.5905841,120.7792168,2.573,13632383.755,24926767.416,2.573,-0.905,0.059,-1.025,0.612,0.938,0.685,0.000,15,15,4*4C
$GPGGA,090333.40,3135.4349244,N,12046.7531044,E,4,16,1.5,2.5948,M,8.321,M,01,0004*66
$GPHPD,1957,32631.200,144.25,0.19,13.37,31.5905821,120.7792184,2.595,13632385.704,24926769.325,2.595,-0.969,0.095,-1.024,0.612,0.938,0.685,0.000,16,13,4*46
$GPGGA,090333.60,3135.4348017,N,12046.7532091,E,4,16,1.5,2.5801,M,8.321,M,00,0004*67
$GPHPD,1957,32631.400,145.20,-0.98,13.37,31.5905800,120.7792202,2.580,13632387.659,24926771.301,2.580,-1.034,0.180,-0.940,0.612,0.938,0.685,0.000,16,14,4*62
$GPGGA,090333.80,3135.4346722,N,12046.7533120,E,4,16,1.5,2.5943,M,8.321,M,00,0004*6B
$GPHPD,1957,32631.600,144.78,0.05,13.35,31.5905779,120.7792219,2.594,13632389.707,24926773.296,2.594,-0.999,0.122,-1.010,0.677,1.290,0.695,0.000,16,14,4*45
$GPGGA,090334.00,3135.4345391,N,12046.7533944,E,4,16,1.5,2.5650,M,8.321,M,01,0004*6D
$GPHPD,1957,32631.800,145.04,-0.91,13.31,31.5905757,120.7792232,2.565,13632391.765,24926775.065,2.565,-0.976,0.128,-0.997,0.677,1.290,0.695,0.000,16,14,4*69
$GPGGA,090334.20,3135.4344110,N,12046.7534977,E,4,16,1.5,2.5640,M,8.321,M,01,0004*63
$GPHPD,1957,32632.000,145.27,-0.86,13.32,31.5905735,120.7792250,2.564,13632393.794,24926777.056,2.564,-0.976,0.052,-1.020,0.677,1.290,0.695,0.000,16,14,4*60
$GPGGA,090334.40,3135.4342826,N,12046.7535978,E,4,16,1.5,2.5736,M,8.321,M,01,0004*61
$GPHPD,1957,32632.200,144.53,-0.98,13.31,31.5905714,120.7792266,2.574,13632395.820,24926779.011,2.574,-0.992,0.052,-1.033,0.651,0.938,0.688,0.000,16,14,4*69
$GPGGA,090334.60,3135.4341529,N,12046.7537012,E,4,16,1.5,2.5634,M,8.321,M,00,0004*67
$GPHPD,1957,32632.400,144.29,-1.13,13.28,31.5905692,120.7792284,2.563,13632397.872,24926781.013,2.563,-1.013,0.127,-0.985,0.612,0.938,0.685,0.000,16,15,4*67
$GPGGA,090334.80,3135.4340260,N,12046.7538041,E,4,16,1.5,2.5574,M,8.321,M,00,0004*6C
$GPHPD,1957,32632.600,143.76,-0.52,13.26,31.5905671,120.7792301,2.557,13632399.883,24926782.993,2.557,-0.989,0.112,-1.015,0.620,0.946,0.685,0.000,16,15,4*65
$GPGGA,090335.00,3135.4339050,N,12046.7539072,E,4,16,1.5,2.5454,M,8.321,M,01,0004*69
$GPHPD,1957,32632.800,143.94,-1.55,13.25,31.5905651,120.7792318,2.545,13632401.811,24926784.940,2.545,-0.993,0.092,-1.037,0.612,0.938,0.685,0.000,16,15,4*67
$GPGGA,090335.20,3135.4337710,N,12046.7540094,E,4,16,1.5,2.5411,M,8.321,M,01,0004*61
$GPHPD,1957,32633.000,145.35,-0.67,13.24,31.5905629,120.7792335,2.541,13632403.921,24926786.953,2.541,-0.986,0.057,-1.023,0.612,0.938,0.685,0.000,16,15,4*6A
$GPGGA,090335.40,3135.4336441,N,12046.7541094,E,4,16,1.5,2.5621,M,8.321,M,01,0004*61
$GPHPD,1957,32633.200,145.58,-0.32,13.23,31.5905607,120.7792352,2.562,13632405.926,24926788.898,2.562,-0.985,0.035,-1.036,0.612,0.938,0.685,0.000,16,16,4*60
$GPGGA,090335.60,3135.4335128,N,12046.7542098,E,4,16,1.5,2.5539,M,8.321,M,00,0004*6E
$GPHPD,1957,32633.400,145.07,-0.74,13.25,31.5905585,120.7792368,2.554,13632407.995,24926790.873,2.554,-1.025,0.213,-0.982,0.612,0.938,0.685,0.000,16,16,4*6D
$GPGGA,090335.80,3135.4333900,N,12046.7543123,E,4,16,1.5,2.5462,M,8.321,M,00,0004*6B
$GPHPD,1957,32633.600,144.71,-0.34,13.30,31.5905565,120.7792385,2.546,13632409.947,24926792.824,2.546,-1.012,0.131,-0.998,0.677,1.290,0.696,0.000,16,15,4*65
$GPGGA,090336.00,3135.4332545,N,12046.7544111,E,4,16,1.5,2.5575,M,8.321,M,01,0004*6C
$GPHPD,1957,32633.800,144.87,-0.17,13.30,31.5905542,120.7792402,2.558,13632412.072,24926794.804,2.558,-1.023,0.111,-0.998,0.677,1.290,0.696,0.000,16,15,4*6F
$GPGGA,090336.20,3135.4331257,N,12046.7545133,E,4,16,1.5,2.5591,M,8.321,M,01,0004*62
$GPHPD,1957,32634.000,145.08,-0.94,13.32,31.5905521,120.7792419,2.559,13632414.108,24926796.787,2.559,-1.031,0.193,-1.006,0.677,1.290,0.696,0.000,16,15,4*6A
$GPGGA,090336.40,3135.4329955,N,12046.7546156,E,4,16,1.5,2.5563,M,8.321,M,01,0004*69
$GPHPD,1957,32634.200,146.17,-1.05,13.32,31.5905499,120.7792436,2.556,13632416.165,24926798.778,2.556,-1.032,0.217,-1.000,0.677,1.290,0.696,0.000,16,15,4*6E
$GPGGA,090336.60,3135.4328649,N,12046.7547153,E,4,16,1.5,2.5605,M,8.321,M,00,0004*6E
$GPHPD,1957,32634.400,145.05,-0.13,13.32,31.5905477,120.7792453,2.561,13632418.222,24926800.741,2.561,-1.008,0.092,-1.049,0.677,1.290,0.696,0.000,16,15,4*6C
$GPGGA,090336.80,3135.4327347,N,12046.7548203,E,4,16,1.5,2.5610,M,8.321,M,00,0004*69
$GPHPD,1957,32634.600,145.28,-1.49,13.33,31.5905456,120.7792470,2.561,13632420.284,24926802.765,2.561,-1.031,0.142,-1.033,0.677,1.290,0.696,0.000,16,16,4*67
$GPGGA,090337.00,3135.4326050,N,12046.7549233,E,4,16,1.5,2.5619,M,8.321,M,01,0004*6E
$GPHPD,1957,32634.800,145.45,0.13,13.32,31.5905434,120.7792487,2.562,13632422.335,24926804.762,2.562,-1.022,0.098,-1.023,0.677,1.290,0.696,0.000,16,16,4*41
$GPGGA,090337.20,3135.4324751,N,12046.7550209,E,4,16,1.5,2.5586,M,8.321,M,01,0004*6C
$GPHPD,1957,32635.000,144.65,-0.80,13.33,31.5905413,120.7792503,2.559,13632424.378,24926806.696,2.559,-1.054,0.164,-0.990,0.683,1.302,0.744,0.000,16,16,4*6E
$GPGGA,090337.40,3135.4323472,N,12046.7551269,E,4,16,1.5,2.5545,M,8.321,M,01,0004*67
$GPHPD,1957,32635.200,145.16,-0.73,13.31,31.5905391,120.7792521,2.555,13632426.410,24926808.718,2.555,-1.016,0.170,-1.002,0.683,1.302,0.744,0.000,16,16,4*68
$GPGGA,090337.60,3135.4322195,N,12046.7552306,E,4,16,1.5,2.5584,M,8.321,M,00,0004*6F
$GPHPD,1957,32635.400,144.57,0.38,13.29,31.5905370,120.7792538,2.558,13632428.434,24926810.712,2.558,-1.010,0.092,-1.018,0.677,1.290,0.696,0.000,16,16,4*42
$GPGGA,090337.80,3135.4320914,N,12046.7553340,E,4,16,1.5,2.5569,M,8.321,M,00,0004*62
$GPHPD,1957,32635.600,144.45,0.10,13.30,31.5905349,120.7792556,2.557,13632430.463,24926812.705,2.557,-1.016,0.128,-0.994,0.677,1.290,0.696,0.000,16,16,4*46
$GPGGA,090338.00,3135.4319639,N,12046.7554348,E,4,16,1.5,2.5580,M,8.321,M,01,0004*66
$GPHPD,1957,32635.800,144.08,-0.36,13.32,31.5905327,120.7792572,2.558,13632432.478,24926814.663,2.558,-1.043,0.136,-0.986,0.677,1.290,0.696,0.000,16,16,4*67
$GPGGA,090338.20,3135.4318382,N,12046.7555364,E,4,16,1.5,2.5607,M,8.321,M,01,0004*63
$GPHPD,1957,32636.000,143.98,0.15,13.34,31.5905306,120.7792589,2.561,13632434.470,24926816.620,2.561,-1.022,0.175,-0.964,0.677,1.290,0.696,0.000,16,16,4*48
$GPGGA,090338.40,3135.4317146,N,12046.7556375,E,4,16,1.5,2.5413,M,8.321,M,01,0004*64
$GPHPD,1957,32636.200,145.44,-0.45,13.37,31.5905286,120.7792606,2.541,13632436.430,24926818.559,2.541,-1.003,0.110,-0.996,0.683,1.302,0.744,0.000,16,16,4*6C
$GPGGA,090338.60,3135.4315896,N,12046.7557371,E,4,16,1.5,2.5384,M,8.321,M,00,0004*6D
$GPHPD,1957,32636.400,146.43,-0.95,13.40,31.5905265,120.7792623,2.538,13632438.407,24926820.488,2.538,-0.958,0.022,-1.004,0.677,1.290,0.696,0.000,16,16,4*6F
$GPGGA,090338.80,3135.4314629,N,12046.7558400,E,4,16,1.5,2.5359,M,8.321,M,00,0004*66
$GPHPD,1957,32636.600,145.12,-1.09,13.40,31.5905244,120.7792640,2.536,13632440.416,24926822.466,2.536,-0.989,0.089,-0.970,0.677,1.290,0.696,0.000,16,15,4*60
$GPGGA,090339.00,3135.4313379,N,12046.7559435,E,4,16,1.5,2.5359,M,8.321,M,01,0004*6E
$GPHPD,1957,32636.800,145.31,-0.67,13.42,31.5905223,120.7792657,2.536,13632442.401,24926824.442,2.536,-0.987,0.057,-1.026,0.683,1.302,0.744,0.000,16,15,4*6E
$GPGGA,090339.20,3135.4312150,N,12046.7560455,E,4,16,1.5,2.5264,M,8.321,M,01,0004*67
$GPHPD,1957,32637.000,145.89,-0.60,13.43,31.5905203,120.7792674,2.526,13632444.353,24926826.388,2.526,-0.999,0.095,-0.995,0.683,1.302,0.744,0.000,16,15,4*65
$GPGGA,090339.40,3135.4310814,N,12046.7561424,E,4,16,1.5,2.5361,M,8.321,M,01,0004*69
$GPHPD,1957,32637.200,145.30,-0.68,13.46,31.5905180,120.7792690,2.536,13632446.447,24926828.334,2.536,-0.982,0.102,-0.997,0.683,1.302,0.744,0.000,16,15,4*64
$GPGGA,090339.60,3135.4309607,N,12046.7562431,E,4,16,1.5,2.5253,M,8.321,M,00,0004*69
$GPHPD,1957,32637.400,144.90,-1.13,13.43,31.5905160,120.7792707,2.525,13632448.366,24926830.251,2.525,-1.019,0.207,-1.010,0.683,1.302,0.744,0.000,16,15,4*6A
$GPGGA,090339.80,3135.4308304,N,12046.7563454,E,4,15,1.6,2.5190,M,8.321,M,00,0004*6E
$GPHPD,1957,32637.600,145.40,-0.18,13.37,31.5905138,120.7792724,2.519,13632450.424,24926832.243,2.519,-0.983,0.104,-0.992,0.683,1.302,0.744,0.000,15,15,4*62
$GPGGA,090340.00,3135.4306993,N,12046.7564494,E,4,15,1.6,2.5172,M,8.321,M,01,0004*64
$GPHPD,1957,32637.800,146.16,-0.34,13.34,31.5905117,120.7792742,2.517,13632452.497,24926834.261,2.517,-1.000,0.123,-1.029,0.797,1.370,0.748,0.000,15,15,4*63
$GPGGA,090340.20,3135.4305733,N,12046.7565494,E,4,15,1.6,2.5220,M,8.321,M,01,0004*64
$GPHPD,1957,32638.000,144.92,-0.73,13.32,31.5905096,120.7792758,2.522,13632454.489,24926836.200,2.522,-1.036,0.075,-1.028,0.797,1.370,0.748,0.000,15,15,4*66
$GPGGA,090340.40,3135.4304453,N,12046.7566528,E,4,15,1.6,2.5253,M,8.321,M,01,0004*67
$GPHPD,1957,32638.200,144.37,0.65,13.28,31.5905074,120.7792775,2.525,13632456.517,24926838.192,2.525,-0.976,0.065,-1.038,0.797,1.370,0.748,0.000,15,15,4*47
$GPGGA,090340.60,3135.4303142,N,12046.7567537,E,4,15,1.6,2.5229,M,8.321,M,00,0004*64
$GPHPD,1957,32638.400,144.86,0.27,13.25,31.5905052,120.7792792,2.523,13632458.584,24926840.172,2.523,-1.041,0.191,-0.981,0.797,1.370,0.748,0.000,15,15,4*44
$GPGGA,090340.80,3135.4301823,N,12046.7568512,E,4,15,1.6,2.5320,M,8.321,M,00,0004*66
$GPHPD,1957,32638.600,145.07,0.52,13.23,31.5905030,120.7792809,2.532,13632460.655,24926842.116,2.532,-1.042,0.192,-0.987,0.797,1.370,0.748,0.000,15,15,4*41
$GPGGA,090341.00,3135.4300533,N,12046.7569627,E,4,16,1.6,2.5370,M,8.321,M,01,0004*61
$GPHPD,1957,32638.800,145.46,-0.71,13.19,31.5905009,120.7792827,2.537,13632462.713,24926844.212,2.537,-1.020,0.215,-0.997,0.683,1.302,0.744,0.000,16,15,4*6E
$GPGGA,090341.20,3135.4299283,N,12046.7570636,E,4,16,1.6,2.5264,M,8.321,M,01,0004*62
$GPHPD,1957,32639.000,144.20,0.76,13.13,31.5904988,120.7792844,2.526,13632464.693,24926846.156,2.526,-1.087,0.171,-0.962,0.683,1.302,0.744,0.000,16,15,4*4A
$GPGGA,090341.40,3135.4297960,N,12046.7571708,E,4,16,1.6,2.5319,M,8.321,M,01,0004*6A
$GPHPD,1957,32639.200,145.47,-0.36,13.10,31.5904966,120.7792862,2.532,13632466.789,24926848.219,2.532,-0.961,0.042,-1.006,0.683,1.302,0.744,0.000,16,15,4*63
$GPGGA,090341.60,3135.4296637,N,12046.7572766,E,4,16,1.6,2.5450,M,8.321,M,00,0004*64
$GPHPD,1957,32639.400,144.76,-0.28,13.12,31.5904944,120.7792879,2.545,13632468.883,24926850.265,2.545,-1.067,0.138,-1.044,0.683,1.302,0.744,0.000,16,15,4*6C
$GPGGA,090341.80,3135.4295386,N,12046.7573738,E,4,16,1.6,2.5054,M,8.321,M,00,0004*6C
$GPHPD,1957,32639.600,144.64,-0.72,13.16,31.5904923,120.7792896,2.505,13632470.857,24926852.166,2.505,-1.045,0.137,-1.011,0.683,1.302,0.744,0.000,16,14,4*6A
$GPGGA,090342.00,3135.4294111,N,12046.7574821,E,4,16,1.6,2.5248,M,8.321,M,01,0004*64
$GPHPD,1957,32639.800,145.06,-0.26,13.15,31.5904902,120.7792914,2.525,13632472.887,24926854.214,2.525,-0.960,0.047,-1.089,0.683,1.302,0.744,0.000,16,15,4*6D
$GPGGA,090342.20,3135.4292783,N,12046.7575833,E,4,16,1.6,2.5190,M,8.321,M,01,0004*69
$GPHPD,1957,32640.000,145.43,-0.19,13.15,31.5904880,120.7792931,2.519,13632474.979,24926856.208,2.519,-1.064,0.152,-1.029,0.683,1.302,0.744,0.000,16,16,4*63
$GPGGA,090342.40,3135.4291471,N,12046.7576924,E,4,16,1.6,2.5170,M,8.321,M,01,0004*68
$GPHPD,1957,32640.200,144.97,0.28,13.16,31.5904858,120.7792949,2.517,13632477.063,24926858.287,2.517,-1.033,0.134,-1.008,0.683,1.302,0.744,0.000,16,15,4*45
$GPGGA,090342.60,3135.4290144,N,12046.7577997,E,4,16,1.6,2.5113,M,8.321,M,00,0004*65
$GPHPD,1957,32640.400,145.13,-0.40,13.15,31.5904836,120.7792967,2.511,13632479.166,24926860.354,2.511,-1.057,0.095,-1.032,0.683,1.302,0.744,0.000,16,14,4*64
$GPGGA,090342.80,3135.4288819,N,12046.7578974,E,4,16,1.6,2.5078,M,8.321,M,00,0004*6D
$GPHPD,1957,32640.600,145.49,0.53,13.15,31.5904814,120.7792983,2.508,13632481.246,24926862.303,2.508,-1.049,0.093,-1.063,0.683,1.302,0.744,0.000,16,15,4*46
$GPGGA,090343.00,3135.4287532,N,12046.7580057,E,4,16,1.6,2.5139,M,8.321,M,01,0004*65
$GPHPD,1957,32640.800,145.58,-0.93,13.15,31.5904792,120.7793001,2.514,13632483.293,24926864.358,2.514,-0.999,0.084,-1.035,0.683,1.302,0.744,0.000,16,14,4*69
$GPGGA,090343.20,3135.4286173,N,12046.7581060,E,4,16,1.6,2.5197,M,8.321,M,01,0004*66
$GPHPD,1957,32641.000,145.41,-0.78,13.17,31.5904770,120.7793018,2.520,13632485.427,24926866.359,2.520,-1.065,0.142,-1.037,0.683,1.302,0.744,0.000,16,14,4*65
$GPGGA,090343.40,3135.4284832,N,12046.7582128,E,4,16,1.6,2.5048,M,8.321,M,01,0004*63
$GPHPD,1957,32641.200,147.67,-2.82,13.18,31.5904747,120.7793035,2.505,13632487.548,24926868.428,2.505,-1.028,0.155,-1.036,0.683,1.302,0.744,0.000,16,15,4*68
$GPGGA,090343.60,3135.4283512,N,12046.7583177,E,4,16,1.6,2.5249,M,8.322,M,00,0004*63
$GPHPD,1957,32641.400,147.83,-3.31,13.18,31.5904725,120.7793053,2.525,13632489.636,24926870.461,2.525,-1.066,0.119,-1.067,0.683,1.302,0.744,0.000,16,15,4*6F
$GPGGA,090343.80,3135.4282182,N,12046.7584240,E,4,16,1.6,2.5103,M,8.322,M,00,0004*6C
$GPHPD,1957,32641.600,145.61,0.60,13.19,31.5904703,120.7793071,2.510,13632491.740,24926872.518,2.510,-1.109,0.203,-1.017,0.683,1.302,0.744,0.000,16,15,4*4F
$GPGGA,090344.00,3135.4280950,N,12046.7585281,E,4,16,1.6,2.4656,M,8.322,M,01,0004*6D
$GPHPD,1957,32641.800,145.99,-0.32,13.20,31.5904683,120.7793088,2.466,13632493.701,24926874.490,2.466,-1.034,0.141,-1.068,0.677,1.290,0.696,0.000,16,15,4*64
$GPGGA,090344.20,3135.4279615,N,12046.7586314,E,4,16,1.6,2.4819,M,8.322,M,01,0004*6C
$GPHPD,1957,32642.000,145.22,-0.07,13.20,31.5904660,120.7793105,2.482,13632495.807,24926876.513,2.482,-0.956,-0.040,-1.087,0.677,1.290,0.696,0.000,16,16,4*44
$GPGGA,090344.40,3135.4278350,N,12046.7587326,E,4,16,1.6,2.4834,M,8.322,M,01,0004*60
$GPHPD,1957,32642.200,145.21,-1.30,13.22,31.5904639,120.7793122,2.483,13632497.809,24926878.470,2.483,-1.019,0.140,-1.035,0.677,1.290,0.696,0.000,16,16,4*6B
$GPGGA,090344.60,3135.4276972,N,12046.7588327,E,4,16,1.6,2.4872,M,8.322,M,00,0004*6B
$GPHPD,1957,32642.400,145.23,-1.08,13.23,31.5904616,120.7793139,2.487,13632499.969,24926880.479,2.487,-1.037,0.169,-0.966,0.677,1.290,0.696,0.000,16,16,4*6C
$GPGGA,090344.80,3135.4275696,N,12046.7589351,E,4,16,1.6,2.5172,M,8.322,M,00,0004*6B
$GPHPD,1957,32642.600,144.98,-1.01,13.27,31.5904595,120.7793156,2.517,13632501.989,24926882.457,2.517,-0.988,0.164,-1.023,0.677,1.290,0.696,0.000,16,16,4*6B
$GPGGA,090345.00,3135.4274417,N,12046.7590451,E,4,16,1.5,2.4847,M,8.322,M,01,0004*6B
$GPHPD,1957,32642.800,144.46,-1.02,13.28,31.5904574,120.7793174,2.485,13632504.029,24926884.528,2.485,-1.091,0.215,-0.956,0.677,1.290,0.696,0.000,16,16,4*63
$GPGGA,090345.20,3135.4273136,N,12046.7591464,E,4,16,1.5,2.5028,M,8.322,M,01,0004*6F
$GPHPD,1957,32643.000,145.14,-0.32,13.29,31.5904552,120.7793191,2.503,13632506.053,24926886.496,2.503,-0.977,0.035,-1.016,0.677,1.290,0.696,0.000,16,16,4*65
$GPGGA,090345.40,3135.4271883,N,12046.7592487,E,4,16,1.5,2.4698,M,8.322,M,01,0004*6E
$GPHPD,1957,32643.200,144.07,-0.42,13.30,31.5904531,120.7793208,2.470,13632508.041,24926888.459,2.470,-0.974,0.131,-0.980,0.677,1.290,0.696,0.000,16,16,4*6C
$GPGGA,090345.60,3135.4270649,N,12046.7593576,E,4,16,1.5,2.4778,M,8.322,M,00,0004*65
$GPHPD,1957,32643.400,144.20,-0.50,13.30,31.5904511,120.7793226,2.478,13632510.014,24926890.490,2.478,-0.921,-0.078,-1.039,0.677,1.290,0.696,0.000,16,16,4*4C
$GPGGA,090345.80,3135.4269365,N,12046.7594517,E,4,16,1.5,2.4821,M,8.322,M,00,0004*6B
$GPHPD,1957,32643.600,144.28,-0.04,13.30,31.5904489,120.7793242,2.482,13632512.029,24926892.373,2.482,-0.957,0.079,-1.053,0.683,1.302,0.744,0.000,16,16,4*6F
$GPGGA,090346.00,3135.4268059,N,12046.7595563,E,4,16,1.5,2.4822,M,8.322,M,01,0004*6D
$GPHPD,1957,32643.800,143.90,0.65,13.29,31.5904468,120.7793259,2.482,13632514.096,24926894.394,2.482,-0.967,0.014,-1.023,0.677,1.290,0.696,0.000,16,16,4*4F
$GPGGA,090346.20,3135.4266830,N,12046.7596584,E,4,16,1.5,2.4794,M,8.322,M,01,0004*6E
$GPHPD,1957,32644.000,144.73,0.17,13.29,31.5904447,120.7793276,2.479,13632516.048,24926896.341,2.479,-0.964,0.122,-1.055,0.677,1.290,0.696,0.000,16,16,4*42
$GPGGA,090346.40,3135.4265637,N,12046.7597613,E,4,16,1.5,2.4700,M,8.322,M,01,0004*63
$GPHPD,1957,32644.200,144.35,0.36,13.29,31.5904427,120.7793294,2.470,13632517.951,24926898.277,2.470,-0.987,0.067,-0.971,0.677,1.290,0.696,0.000,16,16,4*42
$GPGGA,090346.60,3135.4264476,N,12046.7598745,E,4,16,1.5,2.4868,M,8.322,M,00,0004*6A
$GPHPD,1957,32644.400,144.80,0.10,13.32,31.5904408,120.7793312,2.487,13632519.829,24926900.318,2.487,-0.926,-0.072,-1.042,0.677,1.290,0.696,0.000,16,15,4*67
$GPGGA,090346.80,3135.4263157,N,12046.7599702,E,4,16,1.5,2.5000,M,8.322,M,00,0004*60
$GPHPD,1957,32644.600,146.46,-0.92,13.31,31.5904386,120.7793328,2.500,13632521.897,24926902.240,2.500,-1.011,0.037,-0.935,0.677,1.290,0.696,0.000,16,15,4*69
$GPGGA,090347.00,3135.4261902,N,12046.7600627,E,4,16,1.5,2.4711,M,8.322,M,01,0004*61
$GPHPD,1957,32644.800,144.73,-1.01,13.34,31.5904365,120.7793344,2.471,13632523.867,24926904.086,2.471,-1.040,0.179,-0.917,0.692,1.314,0.696,0.000,16,15,4*60
$GPGGA,090347.20,3135.4260572,N,12046.7601540,E,4,16,1.6,2.4873,M,8.322,M,01,0004*62
$GPHPD,1957,32645.000,144.38,-0.67,13.35,31.5904343,120.7793359,2.487,13632525.942,24926905.961,2.487,-0.959,0.071,-0.963,0.677,1.290,0.696,0.000,16,15,4*63
$GPGGA,090347.40,3135.4259321,N,12046.7602522,E,4,16,1.6,2.4851,M,8.322,M,01,0004*69
$GPHPD,1957,32645.200,144.20,-0.93,13.37,31.5904322,120.7793375,2.485,13632527.917,24926907.874,2.485,-0.992,0.175,-1.003,0.716,1.409,0.706,0.000,16,15,4*69
$GPGGA,090347.60,3135.4258068,N,12046.7603422,E,4,16,1.7,2.4779,M,8.322,M,00,0004*61
$GPHPD,1957,32645.400,144.30,-0.91,13.39,31.5904301,120.7793390,2.478,13632529.880,24926909.688,2.478,-0.962,0.089,-0.985,0.717,1.410,0.750,0.000,16,15,4*6B
$GPGGA,090347.80,3135.4256898,N,12046.7604519,E,4,16,1.6,2.4646,M,8.322,M,00,0004*64
$GPHPD,1957,32645.600,143.65,-0.19,13.39,31.5904282,120.7793409,2.465,13632531.764,24926911.693,2.465,-0.903,0.100,-1.024,0.716,1.408,0.706,0.000,16,15,4*63
$GPGGA,090348.00,3135.4255636,N,12046.7605469,E,4,16,1.6,2.4917,M,8.322,M,01,0004*67
$GPHPD,1957,32645.800,143.79,-0.78,13.40,31.5904261,120.7793424,2.492,13632533.749,24926913.573,2.492,-0.947,0.099,-0.990,0.716,1.408,0.706,0.000,16,15,4*6F
$GPGGA,090348.20,3135.4254404,N,12046.7606477,E,4,16,1.6,2.4880,M,8.322,M,01,0004*64
$GPHPD,1957,32646.000,143.97,-1.18,13.39,31.5904240,120.7793441,2.488,13632535.703,24926915.506,2.488,-0.993,0.238,-0.931,0.716,1.408,0.706,0.000,16,15,4*6A
$GPGGA,090348.40,3135.4253145,N,12046.7607530,E,4,16,1.7,2.4902,M,8.322,M,01,0004*6C
$GPHPD,1957,32646.200,144.30,-0.75,13.35,31.5904219,120.7793459,2.490,13632537.705,24926917.509,2.490,-0.982,0.102,-1.000,0.693,1.364,0.706,0.000,16,15,4*69
$GPGGA,090348.60,3135.4251878,N,12046.7608444,E,4,16,1.7,2.4874,M,8.322,M,00,0004*67
$GPHPD,1957,32646.400,144.59,-0.87,13.31,31.5904198,120.7793474,2.487,13632539.690,24926919.348,2.487,-0.994,0.173,-1.009,0.697,1.370,0.749,0.000,16,15,4*60
$GPGGA,090348.80,3135.4250684,N,12046.7609550,E,4,16,1.7,2.4599,M,8.322,M,00,0004*6E
$GPHPD,1957,32646.600,144.29,-0.82,13.30,31.5904178,120.7793493,2.460,13632541.610,24926921.377,2.460,-0.972,0.118,-0.989,0.697,1.370,0.749,0.000,16,15,4*63
$GPGGA,090349.00,3135.4249393,N,12046.7610553,E,4,16,1.8,2.4861,M,8.322,M,01,0004*63
$GPHPD,1957,32646.800,144.78,-0.26,13.25,31.5904157,120.7793509,2.486,13632543.647,24926923.338,2.486,-0.963,0.071,-1.034,0.697,1.370,0.749,0.000,16,16,4*66
$GPGGA,090349.20,3135.4248210,N,12046.7611584,E,4,16,1.7,2.4619,M,8.322,M,01,0004*6F
$GPHPD,1957,32647.000,144.80,-0.22,13.23,31.5904137,120.7793526,2.462,13632545.536,24926925.270,2.462,-1.031,0.146,-0.943,0.697,1.370,0.749,0.000,16,16,4*6B
$GPGGA,090349.40,3135.4246832,N,12046.7612490,E,4,16,1.7,2.4855,M,8.322,M,01,0004*6C
$GPHPD,1957,32647.200,145.01,-0.21,13.23,31.5904114,120.7793542,2.486,13632547.677,24926927.165,2.486,-0.948,0.025,-1.004,0.697,1.370,0.749,0.000,16,16,4*69
$GPGGA,090349.60,3135.4245624,N,12046.7613529,E,4,16,1.8,2.4848,M,8.322,M,00,0004*64
$GPHPD,1957,32647.400,144.46,-0.65,13.23,31.5904094,120.7793559,2.485,13632549.603,24926929.122,2.485,-0.999,0.122,-1.008,0.693,1.364,0.706,0.000,16,16,4*62
$GPGGA,090349.80,3135.4244399,N,12046.7614566,E,4,16,1.8,2.4699,M,8.322,M,00,0004*66
$GPHPD,1957,32647.600,145.13,-0.21,13.23,31.5904073,120.7793576,2.470,13632551.554,24926931.085,2.470,-1.028,0.176,-0.951,0.693,1.364,0.706,0.000,16,16,4*6F
$GPGGA,090350.00,3135.4243228,N,12046.7615604,E,4,16,1.7,2.4745,M,8.322,M,01,0004*62
$GPHPD,1957,32647.800,145.05,-0.48,13.25,31.5904054,120.7793593,2.475,13632553.427,24926933.019,2.475,-0.979,-0.002,-1.020,0.677,1.290,0.697,0.000,16,16,4*45
$GPGGA,090350.20,3135.4241952,N,12046.7616607,E,4,16,1.7,2.4516,M,8.322,M,01,0004*60
$GPHPD,1957,32648.000,144.28,-1.17,13.24,31.5904033,120.7793610,2.452,13632555.443,24926934.971,2.452,-1.011,0.190,-0.963,0.677,1.290,0.697,0.000,16,16,4*65
$GPGGA,090350.40,3135.4240704,N,12046.7617625,E,4,16,1.7,2.4491,M,8.322,M,01,0004*65
$GPHPD,1957,32648.200,144.28,-0.24,13.26,31.5904012,120.7793627,2.449,13632557.422,24926936.925,2.449,-0.935,0.011,-1.054,0.677,1.290,0.697,0.000,16,16,4*6F
$GPGGA,090350.60,3135.4239433,N,12046.7618675,E,4,16,1.7,2.4748,M,8.322,M,00,0004*62
$GPHPD,1957,32648.400,144.83,-0.86,13.27,31.5903991,120.7793645,2.475,13632559.440,24926938.932,2.475,-0.947,-0.018,-1.026,0.677,1.290,0.697,0.000,16,15,4*45
$GPGGA,090350.80,3135.4238121,N,12046.7619733,E,4,16,1.5,2.4820,M,8.322,M,00,0004*6A
$GPHPD,1957,32648.600,144.13,-1.06,13.29,31.5903969,120.7793662,2.482,13632561.518,24926940.971,2.482,-1.038,0.177,-0.961,0.677,1.290,0.697,0.000,16,15,4*6A
$GPGGA,090351.00,3135.4236796,N,12046.7620650,E,4,16,1.5,2.4729,M,8.322,M,01,0004*6E
$GPHPD,1957,32648.800,144.27,-1.08,13.31,31.5903947,120.7793678,2.473,13632563.586,24926942.849,2.473,-1.031,0.112,-0.996,0.677,1.290,0.697,0.000,16,15,4*6C
$GPGGA,090351.20,3135.4235524,N,12046.7621696,E,4,16,1.5,2.4697,M,8.322,M,01,0004*6B
$GPHPD,1957,32649.000,144.30,-0.69,13.32,31.5903925,120.7793695,2.470,13632565.605,24926944.850,2.470,-1.024,0.121,-1.012,0.683,1.302,0.745,0.000,16,15,4*6E
$GPGGA,090351.40,3135.4234260,N,12046.7622695,E,4,16,1.5,2.4764,M,8.322,M,01,0004*66
$GPHPD,1957,32649.200,144.44,-1.08,13.32,31.5903904,120.7793712,2.476,13632567.603,24926946.791,2.476,-1.017,0.098,-1.007,0.677,1.290,0.697,0.000,16,15,4*68
$GPGGA,090351.60,3135.4233027,N,12046.7623745,E,4,16,1.5,2.4709,M,8.322,M,00,0004*65
$GPHPD,1957,32649.400,144.91,-1.11,13.31,31.5903884,120.7793729,2.471,13632569.567,24926948.775,2.471,-1.026,0.162,-0.980,0.677,1.290,0.697,0.000,16,15,4*66
$GPGGA,090351.80,3135.4231769,N,12046.7624756,E,4,16,1.5,2.4651,M,8.322,M,00,0004*6D
$GPHPD,1957,32649.600,144.53,-0.86,13.31,31.5903863,120.7793746,2.465,13632571.558,24926950.727,2.465,-0.995,0.086,-1.009,0.677,1.290,0.697,0.000,16,16,4*6F
$GPGGA,090352.00,3135.4230511,N,12046.7625764,E,4,16,1.5,2.4657,M,8.322,M,01,0004*6D
$GPHPD,1957,32649.800,144.57,-1.21,13.30,31.5903842,120.7793763,2.466,13632573.550,24926952.675,2.466,-0.982,0.099,-1.000,0.683,1.302,0.745,0.000,16,16,4*6C
$GPGGA,090352.20,3135.4229249,N,12046.7626819,E,4,16,1.5,2.4556,M,8.322,M,01,0004*69
$GPHPD,1957,32650.000,145.13,-0.78,13.30,31.5903821,120.7793780,2.456,13632575.556,24926954.682,2.456,-1.007,0.149,-0.982,0.683,1.302,0.745,0.000,16,16,4*6D
$GPGGA,090352.40,3135.4227958,N,12046.7627829,E,4,16,1.5,2.4560,M,8.322,M,01,0004*6D
$GPHPD,1957,32650.200,145.23,-0.87,13.29,31.5903799,120.7793797,2.456,13632577.594,24926956.651,2.456,-1.001,0.065,-1.022,0.677,1.290,0.697,0.000,16,15,4*69
$GPGGA,090352.60,3135.4226729,N,12046.7628867,E,4,16,1.5,2.4482,M,8.322,M,00,0004*6F
$GPHPD,1957,32650.400,145.22,-0.96,13.30,31.5903779,120.7793814,2.448,13632579.550,24926958.619,2.448,-0.989,0.097,-1.011,0.677,1.290,0.697,0.000,16,15,4*6D
$GPGGA,090352.80,3135.4225440,N,12046.7629856,E,4,16,1.5,2.4484,M,8.322,M,00,0004*6B
$GPHPD,1957,32650.600,145.30,-0.39,13.29,31.5903757,120.7793831,2.448,13632581.582,24926960.562,2.448,-0.986,0.064,-0.997,0.677,1.290,0.697,0.000,16,16,4*60
$GPGGA,090353.00,3135.4224141,N,12046.7630846,E,4,16,1.5,2.4457,M,8.322,M,01,0004*61
$GPHPD,1957,32650.800,145.27,-0.28,13.29,31.5903736,120.7793847,2.446,13632583.628,24926962.512,2.446,-0.992,0.132,-0.986,0.677,1.290,0.697,0.000,16,16,4*6D
$GPGGA,090353.20,3135.4222855,N,12046.7631837,E,4,16,1.5,2.4472,M,8.322,M,01,0004*69
$GPHPD,1957,32651.000,145.07,-0.37,13.27,31.5903714,120.7793864,2.447,13632585.655,24926964.455,2.447,-0.992,0.140,-0.982,0.677,1.290,0.697,0.000,16,16,4*6E
$GPGGA,090353.40,3135.4221617,N,12046.7632845,E,4,16,1.6,2.4348,M,8.322,M,01,0004*6F
$GPHPD,1957,32651.200,144.91,-0.12,13.28,31.5903694,120.7793881,2.435,13632587.618,24926966.392,2.435,-1.005,0.160,-1.004,0.677,1.290,0.697,0.000,16,16,4*6F
$GPGGA,090353.60,3135.4220357,N,12046.7633852,E,4,16,1.6,2.4450,M,8.322,M,00,0004*65
$GPHPD,1957,32651.400,144.81,0.32,13.29,31.5903673,120.7793898,2.445,13632589.612,24926968.340,2.445,-0.933,0.031,-1.005,0.793,1.358,0.701,0.000,16,16,4*4B
$GPGGA,090353.80,3135.4219101,N,12046.7634858,E,4,16,1.6,2.4428,M,8.322,M,00,0004*62
$GPHPD,1957,32651.600,144.69,-0.81,13.29,31.5903652,120.7793914,2.443,13632591.600,24926970.284,2.443,-0.995,0.142,-0.977,0.677,1.290,0.697,0.000,16,16,4*62
$GPGGA,090354.00,3135.4217848,N,12046.7635859,E,4,16,1.6,2.4540,M,8.322,M,01,0004*69
$GPHPD,1957,32651.800,144.78,-0.72,13.31,31.5903631,120.7793931,2.454,13632593.582,24926972.221,2.454,-0.973,0.071,-1.002,0.677,1.290,0.697,0.000,16,16,4*6E
$GPGGA,090354.20,3135.4216614,N,12046.7636876,E,4,16,1.6,2.4475,M,8.322,M,01,0004*64
$GPHPD,1957,32652.000,144.52,-0.99,13.32,31.5903610,120.7793948,2.448,13632595.541,24926974.166,2.448,-1.002,0.172,-0.954,0.677,1.290,0.697,0.000,16,16,4*6E
$GPGGA,090354.40,3135.4215370,N,12046.7637901,E,4,16,1.6,2.4458,M,8.322,M,01,0004*69
$GPHPD,1957,32652.200,144.51,-0.88,13.35,31.5903590,120.7793965,2.446,13632597.516,24926976.126,2.446,-1.000,0.140,-0.976,0.677,1.290,0.697,0.000,16,16,4*69
$GPGGA,090354.60,3135.4214137,N,12046.7638874,E,4,16,1.6,2.4429,M,8.322,M,00,0004*60
$GPHPD,1957,32652.400,144.68,-0.97,13.35,31.5903569,120.7793981,2.443,13632599.464,24926978.017,2.443,-0.986,0.067,-0.982,0.677,1.290,0.697,0.000,16,16,4*69
$GPGGA,090354.80,3135.4212901,N,12046.7639925,E,4,16,1.5,2.4336,M,8.322,M,00,0004*6B
$GPHPD,1957,32652.600,144.61,-1.24,13.38,31.5903548,120.7793999,2.434,13632601.433,24926980.004,2.434,-0.981,0.093,-0.986,0.677,1.290,0.697,0.000,16,16,4*61
$GPGGA,090355.00,3135.4211674,N,12046.7640885,E,4,16,1.5,2.4501,M,8.322,M,01,0004*6A
$GPHPD,1957,32652.800,144.69,-0.87,13.38,31.5903528,120.7794015,2.450,13632603.370,24926981.876,2.450,-0.937,-0.004,-1.008,0.677,1.290,0.697,0.000,16,16,4*4D
$GPGGA,090355.20,3135.4210424,N,12046.7641898,E,4,16,1.5,2.4392,M,8.322,M,01,0004*6F
$GPHPD,1957,32653.000,144.57,-1.51,13.38,31.5903507,120.7794032,2.439,13632605.351,24926983.826,2.439,-0.998,0.138,-0.952,0.683,1.302,0.745,0.000,16,16,4*67
$GPGGA,090355.40,3135.4209162,N,12046.7642945,E,4,16,1.5,2.4353,M,8.322,M,01,0004*69
$GPHPD,1957,32653.200,144.41,-1.60,13.33,31.5903486,120.7794049,2.435,13632607.356,24926985.823,2.435,-1.007,0.114,-0.974,0.683,1.302,0.745,0.000,16,16,4*6D
$GPGGA,090355.60,3135.4207920,N,12046.7643930,E,4,16,1.5,2.4242,M,8.322,M,00,0004*68
$GPHPD,1957,32653.400,144.70,-1.33,13.29,31.5903465,120.7794066,2.424,13632609.320,24926987.734,2.424,-1.014,0.135,-0.975,0.677,1.290,0.697,0.000,16,16,4*6F
$GPGGA,090355.80,3135.4206659,N,12046.7644929,E,4,16,1.5,2.4307,M,8.322,M,00,0004*69
$GPHPD,1957,32653.600,144.80,-0.89,13.27,31.5903444,120.7794082,2.431,13632611.313,24926989.673,2.431,-0.969,0.065,-1.013,0.683,1.302,0.745,0.000,16,16,4*61
$GPGGA,090356.00,3135.4205419,N,12046.7645961,E,4,16,1.5,2.4282,M,8.322,M,01,0004*67
$GPHPD,1957,32653.800,144.89,-0.59,13.25,31.5903424,120.7794099,2.428,13632613.284,24926991.639,2.428,-0.996,0.136,-0.965,0.677,1.290,0.697,0.000,16,16,4*6E
$GPGGA,090356.20,3135.4204190,N,12046.7646990,E,4,16,1.5,2.4147,M,8.322,M,01,0004*67
$GPHPD,1957,32654.000,145.34,-0.39,13.23,31.5903403,120.7794117,2.415,13632615.238,24926993.595,2.415,-1.000,0.080,-0.985,0.677,1.290,0.697,0.000,16,16,4*67
$GPGGA,090356.40,3135.4202897,N,12046.7648026,E,4,16,1.5,2.4067,M,8.322,M,01,0004*60
$GPHPD,1957,32654.200,145.60,0.00,13.19,31.5903382,120.7794134,2.407,13632617.284,24926995.598,2.407,-0.993,0.093,-0.990,0.677,1.290,0.697,0.000,16,16,4*4F
$GPGGA,090356.60,3135.4201635,N,12046.7648996,E,4,16,1.5,2.4137,M,8.322,M,00,0004*60
$GPHPD,1957,32654.400,145.33,0.09,13.17,31.5903361,120.7794150,2.414,13632619.274,24926997.502,2.414,-0.997,0.112,-1.014,0.677,1.290,0.697,0.000,16,16,4*4F
$GPGGA,090356.80,3135.4200376,N,12046.7650049,E,4,16,1.5,2.4033,M,8.322,M,00,0004*6A
$GPHPD,1957,32654.600,145.08,-0.16,13.13,31.5903340,120.7794167,2.403,13632621.275,24926999.505,2.403,-1.004,0.114,-1.015,0.677,1.290,0.697,0.000,16,15,4*60
$GPGGA,090357.00,3135.4199094,N,12046.7651015,E,4,16,1.5,2.3954,M,8.322,M,01,0004*69
$GPHPD,1957,32654.800,145.60,0.30,13.12,31.5903318,120.7794184,2.395,13632623.292,24927001.416,2.395,-0.993,0.034,-1.041,0.677,1.290,0.697,0.000,16,15,4*4D
$GPGGA,090357.20,3135.4197782,N,12046.7652014,E,4,16,1.5,2.4248,M,8.322,M,01,0004*66
$GPHPD,1957,32655.000,145.21,0.51,13.12,31.5903296,120.7794200,2.425,13632625.358,24927003.385,2.425,-0.929,0.036,-1.057,0.677,1.290,0.697,0.000,16,15,4*44
$GPGGA,090357.40,3135.4196532,N,12046.7653029,E,4,16,1.5,2.4211,M,8.322,M,01,0004*6B
$GPHPD,1957,32655.200,145.16,-0.11,13.14,31.5903276,120.7794217,2.421,13632627.340,24927005.336,2.421,-1.031,0.185,-0.965,0.677,1.290,0.697,0.000,16,15,4*61
$GPGGA,090357.60,3135.4195228,N,12046.7654055,E,4,16,1.5,2.4247,M,8.322,M,00,0004*68
$GPHPD,1957,32655.400,145.07,0.15,13.16,31.5903254,120.7794234,2.425,13632629.400,24927007.333,2.425,-1.009,0.113,-0.992,0.677,1.290,0.697,0.000,16,15,4*4B
$GPGGA,090357.80,3135.4193965,N,12046.7655044,E,4,16,1.5,2.4222,M,8.322,M,00,0004*60
$GPHPD,1957,32655.600,145.12,0.27,13.18,31.5903233,120.7794251,2.422,13632631.394,24927009.261,2.422,-1.004,0.123,-0.999,0.677,1.290,0.697,0.000,16,16,4*4D
$GPGGA,090358.00,3135.4192716,N,12046.7655991,E,4,16,1.5,2.4188,M,8.322,M,01,0004*6F
$GPHPD,1957,32655.800,145.08,-0.20,13.21,31.5903212,120.7794267,2.419,13632633.360,24927011.130,2.419,-1.012,0.153,-0.988,0.677,1.290,0.697,0.000,16,16,4*69
$GPGGA,090358.20,3135.4191418,N,12046.7657012,E,4,16,1.5,2.4213,M,8.322,M,01,0004*62
$GPHPD,1957,32656.000,144.83,-0.50,13.24,31.5903190,120.7794284,2.421,13632635.411,24927013.117,2.421,-0.948,0.125,-0.988,0.677,1.290,0.697,0.000,16,16,4*60
$GPGGA,090358.40,3135.4190188,N,12046.7658026,E,4,16,1.5,2.4164,M,8.322,M,01,0004*62
$GPHPD,1957,32656.200,144.74,-0.49,13.26,31.5903170,120.7794300,2.416,13632637.363,24927015.056,2.416,-0.975,0.096,-1.001,0.677,1.290,0.697,0.000,16,16,4*6F
$GPGGA,090358.60,3135.4188923,N,12046.7659096,E,4,16,1.5,2.4192,M,8.322,M,00,0004*62
$GPHPD,1957,32656.400,144.77,-0.83,13.27,31.5903149,120.7794318,2.419,13632639.377,24927017.083,2.419,-0.968,0.050,-1.007,0.677,1.290,0.697,0.000,16,16,4*6F
$GPGGA,090358.80,3135.4187651,N,12046.7660080,E,4,16,1.5,2.4215,M,8.322,M,00,0004*68
$GPHPD,1957,32656.600,144.72,-0.85,13.30,31.5903128,120.7794335,2.422,13632641.383,24927019.010,2.422,-1.018,0.037,-1.008,0.724,1.291,0.699,0.000,16,16,4*69
$GPGGA,090359.00,3135.4186389,N,12046.7661069,E,4,16,1.5,2.4223,M,8.322,M,01,0004*62
$GPHPD,1957,32656.800,144.60,-1.36,13.31,31.5903106,120.7794351,2.422,13632643.376,24927020.937,2.422,-0.984,0.079,-1.004,0.677,1.290,0.697,0.000,16,16,4*6F
$GPGGA,090359.20,3135.4185124,N,12046.7662105,E,4,16,1.5,2.4130,M,8.322,M,01,0004*6F
$GPHPD,1957,32657.000,144.74,-1.24,13.29,31.5903085,120.7794368,2.413,13632645.383,24927022.923,2.413,-0.999,0.136,-0.979,0.677,1.290,0.697,0.000,16,16,4*66
$GPGGA,090359.40,3135.4183902,N,12046.7663089,E,4,16,1.5,2.4124,M,8.322,M,01,0004*62
$GPHPD,1957,32657.200,144.74,-1.10,13.28,31.5903065,120.7794385,2.412,13632647.318,24927024.821,2.412,-0.983,0.075,-1.007,0.677,1.290,0.697,0.000,16,15,4*65
$GPGGA,090359.60,3135.4182657,N,12046.7664089,E,4,16,1.5,2.3951,M,8.322,M,00,0004*65
$GPHPD,1957,32657.400,144.92,-0.69,13.28,31.5903044,120.7794401,2.395,13632649.289,24927026.752,2.395,-0.959,0.070,-1.000,0.677,1.290,0.697,0.000,16,16,4*64
$GPGGA,090359.80,3135.4181407,N,12046.7665084,E,4,16,1.5,2.3962,M,8.322,M,00,0004*63
$GPHPD,1957,32657.600,145.31,-0.42,13.27,31.5903023,120.7794418,2.396,13632651.267,24927028.679,2.396,-0.962,0.037,-1.018,0.677,1.290,0.697,0.000,16,15,4*6F
$GPGGA,090400.00,3135.4180149,N,12046.7666094,E,4,16,1.5,2.3864,M,8.322,M,01,0004*6A
$GPHPD,1957,32657.800,145.47,0.06,13.24,31.5903002,120.7794435,2.386,13632653.258,24927030.630,2.386,-0.955,0.079,-0.977,0.677,1.290,0.697,0.000,16,16,4*44
$GPGGA,090400.20,3135.4178840,N,12046.7667085,E,4,16,1.5,2.4026,M,8.322,M,01,0004*67
$GPHPD,1957,32658.000,146.00,0.72,13.23,31.5902981,120.7794451,2.403,13632655.318,24927032.587,2.403,-0.975,0.103,-1.018,0.692,1.313,0.697,0.000,16,16,4*46
$GPGGA,090400.40,3135.4177559,N,12046.7668101,E,4,16,1.5,2.4003,M,8.322,M,01,0004*6E
$GPHPD,1957,32658.200,145.53,-0.60,13.19,31.5902959,120.7794468,2.400,13632657.344,24927034.558,2.400,-1.047,0.194,-1.005,0.692,1.313,0.697,0.000,16,16,4*6D
$GPGGA,090400.60,3135.4176365,N,12046.7669112,E,4,16,1.6,2.3829,M,8.322,M,00,0004*62
$GPHPD,1957,32658.400,145.39,0.04,13.15,31.5902939,120.7794485,2.383,13632659.245,24927036.472,2.383,-0.963,0.088,-1.028,0.793,1.357,0.701,0.000,16,16,4*47
$GPGGA,090400.80,3135.4175129,N,12046.7670077,E,4,16,1.6,2.3844,M,8.322,M,00,0004*64
$GPHPD,1957,32658.600,145.58,-0.38,13.13,31.5902919,120.7794501,2.384,13632661.196,24927038.356,2.384,-1.016,0.086,-0.997,0.677,1.290,0.697,0.000,16,16,4*67
$GPGGA,090401.00,3135.4173781,N,12046.7671014,E,4,16,1.6,2.3924,M,8.322,M,01,0004*6D
$GPHPD,1957,32658.800,145.41,-0.17,13.13,31.5902896,120.7794517,2.392,13632663.301,24927040.270,2.392,-0.950,0.112,-0.970,0.677,1.290,0.697,0.000,16,16,4*66
$GPGGA,090401.20,3135.4172539,N,12046.7672037,E,4,16,1.6,2.4014,M,8.322,M,01,0004*60
$GPHPD,1957,32659.000,144.92,-0.29,13.12,31.5902876,120.7794534,2.401,13632665.272,24927042.227,2.401,-1.017,0.167,-1.053,0.677,1.290,0.697,0.000,16,16,4*60
$GPGGA,090401.40,3135.4171316,N,12046.7673051,E,4,16,1.6,2.3863,M,8.322,M,01,0004*60
$GPHPD,1957,32659.200,145.41,-1.49,13.12,31.5902855,120.7794551,2.386,13632667.215,24927044.162,2.386,-1.009,0.066,-1.011,0.677,1.290,0.697,0.000,16,16,4*66
$GPGGA,090401.60,3135.4170096,N,12046.7674113,E,4,16,1.6,2.4167,M,8.322,M,00,0004*63
$GPHPD,1957,32659.400,145.08,-0.11,13.13,31.5902835,120.7794569,2.417,13632669.163,24927046.153,2.417,-0.960,0.030,-0.993,0.677,1.290,0.697,0.000,16,15,4*64
$GPGGA,090401.80,3135.4168805,N,12046.7675119,E,4,16,1.5,2.3974,M,8.322,M,00,0004*63
$GPHPD,1957,32659.600,144.71,-0.22,13.16,31.5902813,120.7794585,2.397,13632671.201,24927048.118,2.397,-0.996,0.116,-0.947,0.677,1.290,0.697,0.000,16,15,4*60
$GPGGA,090402.00,3135.4167540,N,12046.7676019,E,4,16,1.5,2.3910,M,8.322,M,01,0004*6A
$GPHPD,1957,32659.800,144.89,-0.24,13.17,31.5902792,120.7794600,2.391,13632673.180,24927049.939,2.391,-0.951,0.111,-1.007,0.677,1.290,0.697,0.000,16,15,4*64
$GPGGA,090402.20,3135.4166336,N,12046.7677044,E,4,16,1.5,2.3639,M,8.322,M,01,0004*63
$GPHPD,1957,32660.000,144.84,-0.38,13.21,31.5902772,120.7794617,2.364,13632675.098,24927051.877,2.364,-0.970,0.128,-0.990,0.677,1.290,0.697,0.000,16,15,4*68
$GPGGA,090402.40,3135.4165030,N,12046.7678030,E,4,16,1.5,2.3916,M,8.322,M,01,0004*6D
$GPHPD,1957,32660.200,144.66,-0.46,13.23,31.5902751,120.7794634,2.392,13632677.153,24927053.826,2.392,-0.901,-0.050,-1.022,0.677,1.290,0.697,0.000,16,15,4*4B
$GPGGA,090402.60,3135.4163810,N,12046.7679039,E,4,16,1.5,2.3876,M,8.322,M,00,0004*6D
$GPHPD,1957,32660.400,144.57,-0.93,13.31,31.5902730,120.7794651,2.388,13632679.090,24927055.753,2.388,-0.989,0.118,-0.999,0.677,1.290,0.697,0.000,16,16,4*60
$GPGGA,090402.80,3135.4162606,N,12046.7680008,E,4,16,1.5,2.3758,M,8.322,M,00,0004*6C
$GPHPD,1957,32660.600,144.64,-1.38,13.37,31.5902710,120.7794667,2.376,13632680.997,24927057.622,2.376,-0.977,0.105,-0.996,0.677,1.290,0.697,0.000,16,15,4*6F
$GPGGA,090403.00,3135.4161382,N,12046.7680999,E,4,16,1.5,2.3785,M,8.322,M,01,0004*6F
$GPHPD,1957,32660.800,144.77,-0.80,13.40,31.5902690,120.7794683,2.379,13632682.936,24927059.530,2.379,-0.949,0.094,-0.981,0.677,1.290,0.697,0.000,16,15,4*67
$GPGGA,090403.20,3135.4160179,N,12046.7681964,E,4,16,1.5,2.3689,M,8.322,M,01,0004*64
$GPHPD,1957,32661.000,144.22,-0.67,13.41,31.5902670,120.7794699,2.369,13632684.840,24927061.394,2.369,-0.975,0.096,-0.982,0.683,1.301,0.746,0.000,16,15,4*67
$GPGGA,090403.40,3135.4158940,N,12046.7682997,E,4,16,1.5,2.3783,M,8.322,M,01,0004*6F
$GPHPD,1957,32661.200,144.76,-0.34,13.43,31.5902649,120.7794717,2.378,13632686.810,24927063.361,2.378,-0.930,0.067,-0.968,0.683,1.301,0.746,0.000,16,15,4*69
$GPGGA,090403.60,3135.4157698,N,12046.7683975,E,4,16,1.5,2.3754,M,8.322,M,00,0004*6E
$GPHPD,1957,32661.400,145.03,-0.10,13.46,31.5902628,120.7794733,2.375,13632688.772,24927065.264,2.375,-0.986,0.115,-0.958,0.677,1.290,0.697,0.000,16,15,4*6C
$GPGGA,090403.80,3135.4156501,N,12046.7684914,E,4,16,1.5,2.3697,M,8.322,M,00,0004*6C
$GPHPD,1957,32661.600,144.82,0.26,13.46,31.5902608,120.7794749,2.370,13632690.663,24927067.093,2.370,-0.989,0.120,-1.008,0.677,1.290,0.697,0.000,16,16,4*46
$GPGGA,090404.00,3135.4155260,N,12046.7685964,E,4,16,1.5,2.3794,M,8.322,M,01,0004*65
$GPHPD,1957,32661.800,144.78,0.38,13.49,31.5902588,120.7794766,2.379,13632692.638,24927069.082,2.379,-0.930,0.099,-0.949,0.677,1.290,0.697,0.000,16,15,4*46
