$GPGGA,081853.60,3135.3907364,N,12046.6271606,E,4,17,1.3,2.8257,M,8.314,M,00,0004*67
$GPHPD,1957,29951.400,144.86,-0.90,12.46,31.5898456,120.7771193,2.826,13632760.280,24925507.699,2.826,-0.633,0.036,-0.668,0.575,1.015,0.684,0.000,17,14,4*6A
$GPGGA,081853.80,3135.3906537,N,12046.6272287,E,4,17,1.3,2.8338,M,8.314,M,00,0004*6E
$GPHPD,1957,29951.600,144.85,-0.70,12.44,31.5898442,120.7771205,2.834,13632761.592,24925509.002,2.834,-0.644,0.081,-0.671,0.575,1.015,0.684,0.000,17,14,4*65
$GPGGA,081854.00,3135.3905707,N,12046.6272970,E,4,17,1.3,2.8323,M,8.314,M,01,0004*6B
$GPHPD,1957,29951.800,144.84,-1.17,12.44,31.5898428,120.7771216,2.832,13632762.910,24925510.309,2.832,-0.683,0.075,-0.639,0.575,1.015,0.684,0.000,17,14,4*6D
$GPGGA,081854.20,3135.3904873,N,12046.6273606,E,4,17,1.3,2.8327,M,8.314,M,01,0004*6F
$GPHPD,1957,29952.000,145.07,-0.29,12.43,31.5898415,120.7771227,2.833,13632764.223,24925511.561,2.833,-0.677,0.091,-0.647,0.659,1.055,0.704,0.000,17,14,4*67
$GPGGA,081854.40,3135.3904027,N,12046.6274251,E,4,17,1.3,2.8370,M,8.314,M,01,0004*63
$GPHPD,1957,29952.200,145.40,-1.73,12.43,31.5898400,120.7771238,2.837,13632765.556,24925512.831,2.837,-0.642,0.100,-0.661,0.575,1.015,0.684,0.000,17,14,4*66
$GPGGA,081854.60,3135.3903219,N,12046.6274909,E,4,17,1.3,2.8201,M,8.314,M,00,0004*69
$GPHPD,1957,29952.400,145.38,-1.76,12.44,31.5898387,120.7771248,2.820,13632766.837,24925514.095,2.820,-0.662,0.106,-0.646,0.575,1.015,0.684,0.000,17,14,4*6A
$GPGGA,081854.80,3135.3902379,N,12046.6275562,E,4,17,1.3,2.8148,M,8.314,M,00,0004*6F
$GPHPD,1957,29952.600,145.71,-1.18,12.46,31.5898373,120.7771259,2.815,13632768.162,24925515.371,2.815,-0.641,0.049,-0.654,0.575,1.015,0.684,0.000,17,14,4*63
$GPGGA,081855.00,3135.3901551,N,12046.6276179,E,4,17,1.3,2.8132,M,8.314,M,01,0004*68
$GPHPD,1957,29952.800,146.09,-0.90,12.49,31.5898359,120.7771270,2.813,13632769.463,24925516.597,2.813,-0.630,0.064,-0.673,0.575,1.015,0.684,0.000,17,14,4*68
$GPGGA,081855.20,3135.3900704,N,12046.6276795,E,4,17,1.3,2.8128,M,8.314,M,01,0004*66
$GPHPD,1957,29953.000,146.41,-0.97,12.52,31.5898345,120.7771280,2.813,13632770.791,24925517.833,2.813,-0.644,0.081,-0.658,0.575,1.015,0.684,0.000,17,14,4*67
$GPGGA,081855.40,3135.3899877,N,12046.6277394,E,4,17,1.3,2.8177,M,8.314,M,01,0004*64
$GPHPD,1957,29953.200,146.41,-0.98,12.55,31.5898331,120.7771290,2.818,13632772.087,24925519.037,2.818,-0.634,0.070,-0.670,0.575,1.015,0.684,0.000,17,13,4*6B
$GPGGA,081855.60,3135.3899045,N,12046.6278070,E,4,17,1.3,2.8150,M,8.314,M,00,0004*6D
$GPHPD,1957,29953.400,146.47,-0.95,12.59,31.5898317,120.7771301,2.815,13632773.406,24925520.336,2.815,-0.627,0.116,-0.650,0.659,1.055,0.704,0.000,17,13,4*62
$GPGGA,081855.80,3135.3898182,N,12046.6278699,E,4,17,1.3,2.8160,M,8.314,M,00,0004*6A
$GPHPD,1957,29953.600,146.42,-1.09,12.63,31.5898303,120.7771312,2.816,13632774.759,24925521.597,2.816,-0.613,0.043,-0.651,0.575,1.015,0.684,0.000,17,13,4*6A
$GPGGA,081856.00,3135.3897352,N,12046.6279366,E,4,17,1.3,2.8052,M,8.314,M,01,0004*64
$GPHPD,1957,29953.800,146.12,-1.31,12.68,31.5898289,120.7771323,2.805,13632776.073,24925522.884,2.805,-0.657,0.111,-0.660,0.659,1.055,0.704,0.000,17,13,4*65
$GPGGA,081856.20,3135.3896495,N,12046.6280010,E,4,17,1.3,2.8065,M,8.314,M,01,0004*6B
$GPHPD,1957,29954.000,146.38,-1.54,12.71,31.5898275,120.7771334,2.807,13632777.421,24925524.160,2.807,-0.611,0.025,-0.697,0.659,1.055,0.704,0.000,17,13,4*67
$GPGGA,081856.40,3135.3895624,N,12046.6280696,E,4,17,1.3,2.8120,M,8.314,M,01,0004*6E
$GPHPD,1957,29954.200,146.16,-1.41,12.75,31.5898260,120.7771345,2.812,13632778.797,24925525.494,2.812,-0.670,0.116,-0.682,0.659,1.055,0.704,0.000,17,13,4*67
$GPGGA,081856.60,3135.3894721,N,12046.6281400,E,4,17,1.3,2.8090,M,8.314,M,00,0004*6E
$GPHPD,1957,29954.400,146.04,-0.76,12.82,31.5898245,120.7771357,2.809,13632780.223,24925526.868,2.809,-0.683,0.069,-0.693,0.659,1.055,0.704,0.000,17,13,4*6F
$GPGGA,081856.80,3135.3893794,N,12046.6282086,E,4,16,1.3,2.7960,M,8.314,M,00,0004*68
$GPHPD,1957,29954.600,146.51,-1.44,12.89,31.5898230,120.7771368,2.796,13632781.679,24925528.235,2.796,-0.697,0.084,-0.714,0.659,1.055,0.704,0.000,16,13,4*67
$GPGGA,081857.00,3135.3892843,N,12046.6282792,E,4,16,1.3,2.7970,M,8.314,M,01,0004*67
$GPHPD,1957,29954.800,146.37,-0.91,12.90,31.5898214,120.7771380,2.797,13632783.172,24925529.640,2.797,-0.666,0.058,-0.766,0.659,1.055,0.704,0.000,16,13,4*6B
$GPGGA,081857.20,3135.3891856,N,12046.6283534,E,4,16,1.3,2.8054,M,8.314,M,01,0004*6D
$GPHPD,1957,29955.000,146.47,-0.36,12.92,31.5898198,120.7771392,2.805,13632784.725,24925531.109,2.805,-0.700,0.084,-0.757,0.659,1.055,0.704,0.000,16,12,4*6D
$GPGGA,081857.40,3135.3890873,N,12046.6284275,E,4,16,1.3,2.8034,M,8.314,M,01,0004*6E
$GPHPD,1957,29955.200,147.13,-1.77,12.96,31.5898181,120.7771405,2.803,13632786.271,24925532.575,2.803,-0.744,0.122,-0.767,0.659,1.055,0.704,0.000,16,12,4*6A
$GPGGA,081857.60,3135.3889862,N,12046.6285011,E,4,16,1.3,2.7980,M,8.314,M,00,0004*6D
$GPHPD,1957,29955.400,147.12,-0.88,12.99,31.5898164,120.7771417,2.798,13632787.856,24925534.051,2.798,-0.771,0.088,-0.778,0.659,1.055,0.704,0.000,16,12,4*69
$GPGGA,081857.80,3135.3888860,N,12046.6285743,E,4,16,1.3,2.7945,M,8.314,M,00,0004*69
$GPHPD,1957,29955.600,147.16,-0.03,12.98,31.5898148,120.7771429,2.795,13632789.428,24925535.517,2.795,-0.755,0.097,-0.805,0.659,1.055,0.704,0.000,16,12,4*6E
$GPGGA,081858.00,3135.3887890,N,12046.6286459,E,4,16,1.4,2.7841,M,8.314,M,01,0004*66
$GPHPD,1957,29955.800,147.05,-0.31,12.97,31.5898132,120.7771441,2.784,13632790.951,24925536.945,2.784,-0.742,0.073,-0.806,0.659,1.055,0.704,0.000,16,12,4*63
$GPGGA,081858.20,3135.3886925,N,12046.6287145,E,4,16,1.4,2.7862,M,8.314,M,01,0004*62
$GPHPD,1957,29956.000,147.20,-1.16,12.96,31.5898115,120.7771452,2.786,13632792.461,24925538.334,2.786,-0.696,0.065,-0.791,0.759,1.061,0.740,0.000,16,12,4*6B
$GPGGA,081858.40,3135.3885986,N,12046.6287894,E,4,15,1.4,2.7885,M,8.314,M,01,0004*61
$GPHPD,1957,29956.200,146.76,-1.09,12.95,31.5898100,120.7771465,2.789,13632793.946,24925539.783,2.789,-0.723,0.124,-0.749,0.659,1.055,0.704,0.000,15,13,4*6C
$GPGGA,081858.60,3135.3885075,N,12046.6288558,E,4,15,1.4,2.7915,M,8.314,M,00,0004*6D
$GPHPD,1957,29956.400,146.55,0.03,12.92,31.5898085,120.7771476,2.792,13632795.375,24925541.114,2.792,-0.724,0.113,-0.728,0.759,1.061,0.740,0.000,15,12,4*4C
$GPGGA,081858.80,3135.3884201,N,12046.6289262,E,4,15,1.4,2.7966,M,8.314,M,00,0004*68
$GPHPD,1957,29956.600,146.36,-0.86,12.88,31.5898070,120.7771488,2.797,13632796.759,24925542.472,2.797,-0.701,0.152,-0.701,0.759,1.061,0.740,0.000,15,12,4*6D
$GPGGA,081859.00,3135.3883320,N,12046.6289915,E,4,15,1.4,2.8009,M,8.314,M,01,0004*61
$GPHPD,1957,29956.800,146.45,-1.04,12.88,31.5898055,120.7771499,2.801,13632798.143,24925543.772,2.801,-0.704,0.104,-0.671,0.759,1.061,0.740,0.000,15,12,4*6A
$GPGGA,081859.20,3135.3882461,N,12046.6290567,E,4,15,1.4,2.7926,M,8.314,M,01,0004*6A
$GPHPD,1957,29957.000,146.23,-0.43,12.89,31.5898041,120.7771509,2.793,13632799.495,24925545.058,2.793,-0.695,0.116,-0.669,0.759,1.061,0.740,0.000,15,12,4*68
$GPGGA,081859.40,3135.3881601,N,12046.6291223,E,4,16,1.4,2.7880,M,8.314,M,01,0004*63
$GPHPD,1957,29957.200,146.14,-0.84,12.89,31.5898027,120.7771520,2.788,13632800.850,24925546.350,2.788,-0.619,0.050,-0.709,0.818,1.065,0.785,0.000,16,12,4*68
$GPGGA,081859.60,3135.3880793,N,12046.6291881,E,4,16,1.4,2.7900,M,8.314,M,00,0004*60
$GPHPD,1957,29957.400,146.01,-0.24,12.90,31.5898013,120.7771531,2.790,13632802.131,24925547.614,2.790,-0.661,0.094,-0.681,0.659,1.055,0.704,0.000,16,13,4*61
$GPGGA,081859.80,3135.3879954,N,12046.6292493,E,4,16,1.4,2.7929,M,8.314,M,00,0004*6A
$GPHPD,1957,29957.600,145.90,0.24,12.91,31.5897999,120.7771542,2.793,13632803.446,24925548.840,2.793,-0.621,0.012,-0.662,0.659,1.055,0.704,0.000,16,13,4*47
$GPGGA,081900.00,3135.3879123,N,12046.6293151,E,4,16,1.4,2.7893,M,8.314,M,01,0004*6C
$GPHPD,1957,29957.800,145.96,-0.09,12.92,31.5897985,120.7771553,2.789,13632804.760,24925550.117,2.789,-0.651,0.109,-0.650,0.659,1.055,0.704,0.000,16,13,4*6C
$GPGGA,081900.20,3135.3878278,N,12046.6293829,E,4,16,1.3,2.7896,M,8.314,M,01,0004*66
$GPHPD,1957,29958.000,146.04,-0.17,12.95,31.5897971,120.7771564,2.790,13632806.098,24925551.427,2.790,-0.634,0.097,-0.665,0.660,1.055,0.704,0.000,16,13,4*68
$GPGGA,081900.40,3135.3877421,N,12046.6294489,E,4,16,1.3,2.7888,M,8.314,M,01,0004*6B
$GPHPD,1957,29958.200,146.20,0.27,12.98,31.5897957,120.7771575,2.789,13632807.449,24925552.721,2.789,-0.638,0.062,-0.680,0.660,1.055,0.704,0.000,16,13,4*49
$GPGGA,081900.60,3135.3876532,N,12046.6295170,E,4,16,1.3,2.7869,M,8.314,M,00,0004*67
$GPHPD,1957,29958.400,146.26,-0.84,13.01,31.5897942,120.7771586,2.787,13632808.849,24925554.060,2.787,-0.673,0.118,-0.656,0.660,1.055,0.704,0.000,16,13,4*6B
$GPGGA,081900.80,3135.3875648,N,12046.6295859,E,4,16,1.3,2.7845,M,8.314,M,00,0004*68
$GPHPD,1957,29958.600,145.97,-0.16,13.04,31.5897927,120.7771598,2.785,13632810.245,24925555.405,2.785,-0.695,0.072,-0.721,0.660,1.055,0.704,0.000,16,13,4*6F
$GPGGA,081901.00,3135.3874735,N,12046.6296520,E,4,16,1.4,2.7818,M,8.314,M,01,0004*65
$GPHPD,1957,29958.800,146.03,-0.71,13.06,31.5897912,120.7771609,2.782,13632811.676,24925556.734,2.782,-0.700,0.088,-0.712,0.660,1.055,0.704,0.000,16,12,4*6F
$GPGGA,081901.20,3135.3873798,N,12046.6297291,E,4,16,1.4,2.7821,M,8.314,M,01,0004*61
$GPHPD,1957,29959.000,145.99,-0.82,13.10,31.5897897,120.7771622,2.782,13632813.163,24925558.209,2.782,-0.685,0.094,-0.725,0.660,1.055,0.704,0.000,16,12,4*69
$GPGGA,081901.40,3135.3872817,N,12046.6298050,E,4,16,1.4,2.7853,M,8.314,M,01,0004*6B
$GPHPD,1957,29959.200,146.10,-1.04,13.15,31.5897880,120.7771634,2.785,13632814.710,24925559.695,2.785,-0.727,0.078,-0.748,0.660,1.055,0.704,0.000,16,12,4*67
$GPGGA,081901.60,3135.3871850,N,12046.6298790,E,4,16,1.4,2.7891,M,8.314,M,00,0004*6D
$GPHPD,1957,29959.400,145.92,-0.18,13.19,31.5897864,120.7771647,2.789,13632816.233,24925561.150,2.789,-0.748,0.094,-0.756,0.660,1.055,0.704,0.000,16,12,4*61
$GPGGA,081901.80,3135.3870836,N,12046.6299571,E,4,16,1.4,2.7830,M,8.314,M,00,0004*65
$GPHPD,1957,29959.600,145.60,-0.82,13.24,31.5897847,120.7771660,2.783,13632817.832,24925562.682,2.783,-0.747,0.097,-0.785,0.660,1.055,0.704,0.000,16,12,4*64
$GPGGA,081902.00,3135.3869808,N,12046.6300370,E,4,16,1.3,2.7915,M,8.314,M,01,0004*6D
$GPHPD,1957,29959.800,145.61,-0.67,13.28,31.5897830,120.7771673,2.792,13632819.454,24925564.244,2.792,-0.771,0.093,-0.813,0.660,1.055,0.704,0.000,16,12,4*65
$GPGGA,081902.20,3135.3868751,N,12046.6301191,E,4,16,1.4,2.7685,M,8.314,M,01,0004*60
$GPHPD,1957,29960.000,145.39,-0.58,13.32,31.5897813,120.7771687,2.769,13632821.122,24925565.849,2.769,-0.829,0.146,-0.784,0.660,1.055,0.704,0.000,16,12,4*64
$GPGGA,081902.40,3135.3867663,N,12046.6302062,E,4,16,1.4,2.7709,M,8.314,M,01,0004*62
$GPHPD,1957,29960.200,145.15,-0.73,13.35,31.5897794,120.7771701,2.771,13632822.844,24925567.533,2.771,-0.824,0.105,-0.849,0.661,1.125,0.721,0.000,16,12,4*65
$GPGGA,081902.60,3135.3866577,N,12046.6302945,E,4,16,1.4,2.7798,M,8.314,M,00,0004*62
$GPHPD,1957,29960.400,145.34,-0.91,13.35,31.5897776,120.7771716,2.780,13632824.565,24925569.230,2.780,-0.852,0.092,-0.850,0.660,1.055,0.704,0.000,16,13,4*63
$GPGGA,081902.80,3135.3865497,N,12046.6303841,E,4,16,1.4,2.7812,M,8.314,M,00,0004*69
$GPHPD,1957,29960.600,145.13,0.49,13.37,31.5897758,120.7771731,2.781,13632826.281,24925570.939,2.781,-0.904,0.149,-0.832,0.660,1.055,0.704,0.000,16,13,4*43
$GPGGA,081903.00,3135.3864390,N,12046.6304691,E,4,16,1.4,2.7687,M,8.314,M,01,0004*66
$GPHPD,1957,29960.800,145.25,-0.32,13.41,31.5897740,120.7771745,2.769,13632828.025,24925572.608,2.769,-0.898,0.113,-0.849,0.759,1.061,0.740,0.000,16,13,4*64
$GPGGA,081903.20,3135.3863259,N,12046.6305540,E,4,16,1.4,2.7642,M,8.314,M,01,0004*60
$GPHPD,1957,29961.000,145.21,-0.08,13.44,31.5897721,120.7771759,2.764,13632829.804,24925574.290,2.764,-0.877,0.112,-0.875,0.660,1.055,0.704,0.000,16,13,4*65
$GPGGA,081903.40,3135.3862118,N,12046.6306484,E,4,16,1.4,2.7641,M,8.314,M,01,0004*68
$GPHPD,1957,29961.200,144.81,1.03,13.46,31.5897702,120.7771775,2.764,13632831.616,24925576.093,2.764,-0.822,0.065,-0.913,0.660,1.055,0.704,0.000,16,13,4*41
$GPGGA,081903.60,3135.3860956,N,12046.6307402,E,4,16,1.4,2.7743,M,8.314,M,00,0004*67
$GPHPD,1957,29961.400,145.01,0.49,13.46,31.5897683,120.7771790,2.774,13632833.452,24925577.876,2.774,-0.921,0.111,-0.883,0.660,1.055,0.704,0.000,16,13,4*48
$GPGGA,081903.80,3135.3859834,N,12046.6308311,E,4,16,1.4,2.7775,M,8.314,M,00,0004*69
$GPHPD,1957,29961.600,144.80,0.98,13.46,31.5897664,120.7771805,2.778,13632835.230,24925579.625,2.778,-0.915,0.131,-0.896,0.660,1.055,0.704,0.000,16,13,4*47
$GPGGA,081904.00,3135.3858666,N,12046.6309242,E,4,16,1.4,2.7686,M,8.314,M,01,0004*64
$GPHPD,1957,29961.800,145.13,1.17,13.46,31.5897644,120.7771821,2.769,13632837.078,24925581.428,2.769,-0.909,0.130,-0.880,0.688,1.057,0.731,0.000,16,13,4*4D
$GPGGA,081904.20,3135.3857486,N,12046.6310153,E,4,16,1.3,2.7787,M,8.314,M,01,0004*69
$GPHPD,1957,29962.000,145.06,1.49,13.46,31.5897625,120.7771836,2.779,13632838.938,24925583.213,2.779,-0.874,0.046,-0.936,0.660,1.055,0.704,0.000,16,13,4*43
$GPGGA,081904.40,3135.3856334,N,12046.6311048,E,4,16,1.3,2.7775,M,8.314,M,01,0004*67
$GPHPD,1957,29962.200,145.66,-0.21,13.44,31.5897606,120.7771851,2.778,13632840.756,24925584.963,2.778,-0.955,0.134,-0.904,0.660,1.055,0.704,0.000,16,13,4*62
$GPGGA,081904.60,3135.3855180,N,12046.6311979,E,4,16,1.3,2.7853,M,8.314,M,00,0004*6A
$GPHPD,1957,29962.400,145.44,-0.45,13.45,31.5897586,120.7771866,2.785,13632842.584,24925586.757,2.785,-0.913,0.137,-0.926,0.660,1.055,0.704,0.000,16,13,4*6D
$GPGGA,081904.80,3135.3854000,N,12046.6312934,E,4,16,1.3,2.7780,M,8.314,M,00,0004*67
$GPHPD,1957,29962.600,146.04,-1.83,13.48,31.5897567,120.7771882,2.778,13632844.454,24925588.596,2.778,-0.953,0.119,-0.893,0.660,1.055,0.704,0.000,16,13,4*67
$GPGGA,081905.00,3135.3852833,N,12046.6313888,E,4,16,1.3,2.7769,M,8.314,M,01,0004*61
$GPHPD,1957,29962.800,146.28,-1.39,13.47,31.5897547,120.7771898,2.777,13632846.304,24925590.425,2.777,-0.974,0.154,-0.896,0.660,1.055,0.704,0.000,16,13,4*69
$GPGGA,081905.20,3135.3851629,N,12046.6314817,E,4,16,1.3,2.7787,M,8.314,M,01,0004*64
$GPHPD,1957,29963.000,146.02,-1.49,13.45,31.5897527,120.7771914,2.779,13632848.203,24925592.246,2.779,-0.937,0.118,-0.914,0.660,1.055,0.704,0.000,16,13,4*63
$GPGGA,081905.40,3135.3850446,N,12046.6315709,E,4,16,1.3,2.7722,M,8.314,M,01,0004*66
$GPHPD,1957,29963.200,145.95,-1.52,13.45,31.5897507,120.7771928,2.772,13632850.064,24925594.011,2.772,-0.938,0.160,-0.917,0.660,1.055,0.704,0.000,16,13,4*64
$GPGGA,081905.60,3135.3849269,N,12046.6316642,E,4,16,1.3,2.7772,M,8.314,M,00,0004*6E
$GPHPD,1957,29963.400,145.84,-1.75,13.45,31.5897488,120.7771944,2.777,13632851.925,24925595.821,2.777,-0.866,0.042,-0.966,0.660,1.055,0.704,0.000,16,13,4*61
$GPGGA,081905.80,3135.3848072,N,12046.6317559,E,4,16,1.3,2.7710,M,8.314,M,00,0004*65
$GPHPD,1957,29963.600,145.72,-1.18,13.43,31.5897468,120.7771959,2.771,13632853.811,24925597.623,2.771,-0.931,0.095,-0.928,0.660,1.055,0.704,0.000,16,13,4*6C
$GPGGA,081906.00,3135.3846898,N,12046.6318487,E,4,16,1.3,2.7689,M,8.314,M,01,0004*61
$GPHPD,1957,29963.800,145.31,-1.16,13.41,31.5897448,120.7771975,2.769,13632855.667,24925599.426,2.769,-0.912,0.112,-0.961,0.660,1.055,0.704,0.000,16,13,4*67
$GPGGA,081906.20,3135.3845703,N,12046.6319417,E,4,16,1.3,2.7678,M,8.314,M,01,0004*6B
$GPHPD,1957,29964.000,145.40,-0.56,13.39,31.5897428,120.7771990,2.768,13632857.552,24925601.243,2.768,-0.871,0.044,-0.961,0.660,1.055,0.704,0.000,16,13,4*6F
$GPGGA,081906.40,3135.3844488,N,12046.6320364,E,4,16,1.3,2.7710,M,8.314,M,01,0004*6A
$GPHPD,1957,29964.200,145.33,-0.68,13.38,31.5897408,120.7772006,2.771,13632859.470,24925603.092,2.771,-0.917,0.087,-0.938,0.660,1.055,0.704,0.000,16,12,4*62
$GPGGA,081906.60,3135.3843310,N,12046.6321307,E,4,16,1.3,2.7621,M,8.314,M,00,0004*6F
$GPHPD,1957,29964.400,145.32,-0.42,13.36,31.5897389,120.7772022,2.762,13632861.334,24925604.914,2.762,-0.925,0.109,-0.943,0.660,1.055,0.704,0.000,16,12,4*6D
$GPGGA,081906.80,3135.3842120,N,12046.6322256,E,4,16,1.3,2.7596,M,8.314,M,00,0004*68
$GPHPD,1957,29964.600,145.33,-0.01,13.33,31.5897369,120.7772038,2.760,13632863.217,24925606.751,2.760,-0.938,0.110,-0.945,0.660,1.055,0.704,0.000,16,12,4*64
$GPGGA,081907.00,3135.3840904,N,12046.6323194,E,4,16,1.3,2.7622,M,8.314,M,01,0004*6C
$GPHPD,1957,29964.800,145.19,-0.77,13.31,31.5897348,120.7772053,2.762,13632865.134,24925608.590,2.762,-0.933,0.075,-0.950,0.660,1.055,0.704,0.000,16,12,4*67
$GPGGA,081907.20,3135.3839709,N,12046.6324144,E,4,16,1.4,2.7513,M,8.314,M,01,0004*6F
$GPHPD,1957,29965.000,145.25,-0.89,13.28,31.5897328,120.7772069,2.751,13632867.024,24925610.431,2.751,-0.936,0.097,-0.952,0.660,1.055,0.704,0.000,16,12,4*6D
$GPGGA,081907.40,3135.3838510,N,12046.6325113,E,4,16,1.4,2.7557,M,8.314,M,01,0004*61
$GPHPD,1957,29965.200,144.94,-0.67,13.25,31.5897309,120.7772085,2.756,13632868.924,24925612.298,2.756,-0.908,0.019,-0.995,0.662,1.149,0.706,0.000,16,12,4*65
$GPGGA,081907.60,3135.3837283,N,12046.6326092,E,4,16,1.4,2.7569,M,8.314,M,00,0004*66
$GPHPD,1957,29965.400,144.92,-0.37,13.23,31.5897288,120.7772102,2.757,13632870.865,24925614.193,2.757,-0.970,0.144,-0.927,0.660,1.055,0.704,0.000,16,12,4*60
$GPGGA,081907.80,3135.3836075,N,12046.6327050,E,4,16,1.3,2.7541,M,8.314,M,00,0004*60
$GPHPD,1957,29965.600,145.24,-1.09,13.22,31.5897268,120.7772118,2.754,13632872.775,24925616.051,2.754,-0.961,0.168,-0.950,0.660,1.055,0.704,0.000,16,12,4*69
$GPGGA,081908.00,3135.3834885,N,12046.6328045,E,4,16,1.4,2.7600,M,8.314,M,01,0004*69
$GPHPD,1957,29965.800,145.43,-1.18,13.21,31.5897248,120.7772134,2.760,13632874.667,24925617.943,2.760,-0.919,0.049,-0.984,0.660,1.055,0.704,0.000,16,12,4*62
$GPGGA,081908.20,3135.3833674,N,12046.6328980,E,4,16,1.4,2.7454,M,8.314,M,01,0004*6F
$GPHPD,1957,29966.000,145.28,-0.55,13.20,31.5897228,120.7772150,2.745,13632876.576,24925619.776,2.745,-1.008,0.183,-0.906,0.660,1.055,0.704,0.000,16,12,4*6B
$GPGGA,081908.40,3135.3832506,N,12046.6329915,E,4,16,1.4,2.7429,M,8.314,M,01,0004*69
$GPHPD,1957,29966.200,145.17,-0.32,13.19,31.5897208,120.7772165,2.743,13632878.425,24925621.583,2.743,-0.946,0.110,-0.959,0.660,1.055,0.704,0.000,16,12,4*62
$GPGGA,081908.60,3135.3831299,N,12046.6330875,E,4,15,1.5,2.7423,M,8.314,M,00,0004*6F
$GPHPD,1957,29966.400,145.26,-0.60,13.20,31.5897188,120.7772181,2.742,13632880.334,24925623.443,2.742,-0.908,0.111,-0.954,0.660,1.055,0.704,0.000,15,12,4*60
$GPGGA,081908.80,3135.3830070,N,12046.6331833,E,4,15,1.5,2.7393,M,8.314,M,00,0004*6A
$GPHPD,1957,29966.600,145.21,-0.07,13.21,31.5897168,120.7772197,2.739,13632882.273,24925625.314,2.739,-0.944,0.090,-0.949,0.759,1.061,0.740,0.000,15,12,4*6F
$GPGGA,081909.00,3135.3828858,N,12046.6332770,E,4,15,1.4,2.7428,M,8.314,M,01,0004*64
$GPHPD,1957,29966.800,144.84,0.44,13.20,31.5897148,120.7772213,2.743,13632884.185,24925627.149,2.743,-0.941,0.099,-0.960,0.759,1.061,0.740,0.000,15,12,4*4A
$GPGGA,081909.20,3135.3827628,N,12046.6333699,E,4,15,1.4,2.7499,M,8.314,M,01,0004*6D
$GPHPD,1957,29967.000,145.16,0.44,13.20,31.5897127,120.7772228,2.750,13632886.120,24925628.985,2.750,-0.915,0.083,-0.973,0.759,1.061,0.740,0.000,15,12,4*4A
$GPGGA,081909.40,3135.3826437,N,12046.6334696,E,4,15,1.4,2.7449,M,8.314,M,01,0004*63
$GPHPD,1957,29967.200,144.95,-0.95,13.20,31.5897107,120.7772245,2.745,13632888.014,24925630.881,2.745,-0.944,0.130,-0.972,0.759,1.061,0.740,0.000,15,12,4*62
$GPGGA,081909.60,3135.3825214,N,12046.6335653,E,4,15,1.4,2.7590,M,8.314,M,00,0004*69
$GPHPD,1957,29967.400,145.25,0.04,13.19,31.5897087,120.7772261,2.759,13632889.945,24925632.747,2.759,-0.954,0.079,-0.960,0.759,1.061,0.740,0.000,15,12,4*4B
$GPGGA,081909.80,3135.3824013,N,12046.6336622,E,4,15,1.4,2.7578,M,8.314,M,00,0004*60
$GPHPD,1957,29967.600,145.21,-0.61,13.18,31.5897067,120.7772277,2.758,13632891.847,24925634.614,2.758,-0.978,0.098,-0.952,0.689,1.057,0.731,0.000,15,12,4*6F
$GPGGA,081910.00,3135.3822818,N,12046.6337564,E,4,15,1.4,2.7395,M,8.314,M,01,0004*61
$GPHPD,1957,29967.800,145.33,0.49,13.18,31.5897047,120.7772293,2.740,13632893.735,24925636.446,2.740,-0.951,0.093,-0.947,0.660,1.055,0.704,0.000,15,12,4*45
$GPGGA,081910.20,3135.3821586,N,12046.6338531,E,4,15,1.4,2.7610,M,8.314,M,01,0004*6D
$GPHPD,1957,29968.000,146.27,-0.54,13.18,31.5897026,120.7772309,2.761,13632895.681,24925638.329,2.761,-0.970,0.112,-0.957,0.660,1.055,0.704,0.000,15,12,4*62
$GPGGA,081910.40,3135.3820395,N,12046.6339465,E,4,15,1.4,2.7515,M,8.314,M,01,0004*69
$GPHPD,1957,29968.200,145.79,-2.10,13.16,31.5897007,120.7772324,2.752,13632897.562,24925640.148,2.752,-0.993,0.173,-0.923,0.660,1.055,0.704,0.000,15,12,4*67
$GPGGA,081910.60,3135.3819193,N,12046.6340404,E,4,15,1.4,2.7489,M,8.314,M,00,0004*69
$GPHPD,1957,29968.400,145.62,-2.09,13.13,31.5896987,120.7772340,2.749,13632899.460,24925641.980,2.749,-0.941,0.120,-0.962,0.660,1.055,0.704,0.000,15,11,4*6B
$GPGGA,081910.80,3135.3817997,N,12046.6341288,E,4,15,1.4,2.7552,M,8.314,M,00,0004*61
$GPHPD,1957,29968.600,145.60,-1.08,13.11,31.5896967,120.7772355,2.755,13632901.338,24925643.742,2.755,-0.921,0.105,-0.969,0.660,1.055,0.704,0.000,15,11,4*63
$GPGGA,081911.00,3135.3816794,N,12046.6342230,E,4,15,1.4,2.7526,M,8.314,M,01,0004*66
$GPHPD,1957,29968.800,145.37,-0.94,13.10,31.5896947,120.7772371,2.753,13632903.238,24925645.578,2.753,-0.909,0.163,-0.932,0.660,1.055,0.704,0.000,15,11,4*64
$GPGGA,081911.20,3135.3815608,N,12046.6343152,E,4,15,1.4,2.7443,M,8.314,M,01,0004*67
$GPHPD,1957,29969.000,145.54,-1.73,13.09,31.5896927,120.7772386,2.744,13632905.109,24925647.380,2.744,-0.907,0.070,-0.969,0.660,1.055,0.705,0.000,15,11,4*60
$GPGGA,081911.40,3135.3814429,N,12046.6344179,E,4,15,1.5,2.7230,M,8.314,M,01,0004*6C
$GPHPD,1957,29969.200,145.44,-0.80,13.07,31.5896907,120.7772403,2.723,13632906.992,24925649.305,2.723,-0.923,0.104,-0.952,0.661,1.126,0.721,0.000,15,11,4*6C
$GPGGA,081911.60,3135.3813229,N,12046.6345122,E,4,14,1.5,2.7187,M,8.314,M,00,0004*6F
$GPHPD,1957,29969.400,145.53,-0.47,13.06,31.5896887,120.7772419,2.719,13632908.887,24925651.141,2.719,-0.882,0.006,-1.000,0.661,1.126,0.721,0.000,14,11,4*63
$GPGGA,081911.80,3135.3812001,N,12046.6346059,E,4,14,1.5,2.7319,M,8.314,M,00,0004*63
$GPHPD,1957,29969.600,145.18,-0.11,13.05,31.5896867,120.7772434,2.732,13632910.821,24925652.985,2.732,-0.945,0.098,-0.947,0.661,1.126,0.721,0.000,14,11,4*6F
$GPGGA,081912.00,3135.3810836,N,12046.6346975,E,4,14,1.5,2.7453,M,8.314,M,01,0004*69
$GPHPD,1957,29969.800,145.30,-1.68,13.04,31.5896847,120.7772450,2.745,13632912.662,24925654.768,2.745,-0.967,0.149,-0.951,0.661,1.126,0.721,0.000,14,11,4*6F
$GPGGA,081912.20,3135.3809611,N,12046.6347962,E,4,14,1.5,2.7295,M,8.314,M,01,0004*63
$GPHPD,1957,29970.000,145.17,-0.31,13.05,31.5896827,120.7772466,2.730,13632914.602,24925656.671,2.730,-0.950,0.161,-0.903,0.661,1.126,0.721,0.000,14,11,4*67
$GPGGA,081912.40,3135.3808412,N,12046.6348872,E,4,14,1.5,2.7254,M,8.314,M,01,0004*67
$GPHPD,1957,29970.200,145.21,-0.41,13.03,31.5896807,120.7772481,2.725,13632916.489,24925658.466,2.725,-0.923,0.101,-0.965,0.661,1.126,0.721,0.000,14,11,4*61
$GPGGA,081912.60,3135.3807240,N,12046.6349827,E,4,14,1.5,2.7223,M,8.314,M,00,0004*6B
$GPHPD,1957,29970.400,144.99,-0.63,13.02,31.5896787,120.7772497,2.722,13632918.348,24925660.300,2.722,-0.921,0.103,-0.952,0.661,1.126,0.721,0.000,14,11,4*68
$GPGGA,081912.80,3135.3806046,N,12046.6350774,E,4,15,1.5,2.7196,M,8.314,M,00,0004*6D
$GPHPD,1957,29970.600,145.05,-0.38,13.02,31.5896767,120.7772513,2.720,13632920.235,24925662.137,2.720,-0.919,0.074,-0.949,0.661,1.126,0.721,0.000,15,11,4*66
$GPGGA,081913.00,3135.3804873,N,12046.6351739,E,4,15,1.5,2.7284,M,8.314,M,01,0004*61
$GPHPD,1957,29970.800,145.32,-0.05,13.02,31.5896748,120.7772529,2.728,13632922.097,24925663.984,2.728,-0.933,0.095,-0.936,0.661,1.126,0.721,0.000,15,11,4*60
$GPGGA,081913.20,3135.3803674,N,12046.6352697,E,4,15,1.5,2.7263,M,8.314,M,01,0004*62
$GPHPD,1957,29971.000,145.63,-0.82,13.04,31.5896728,120.7772545,2.726,13632923.994,24925665.837,2.726,-0.967,0.161,-0.899,0.661,1.126,0.721,0.000,15,11,4*63
$GPGGA,081913.40,3135.3802470,N,12046.6353637,E,4,15,1.5,2.7207,M,8.314,M,01,0004*6A
$GPHPD,1957,29971.200,145.65,-1.22,13.04,31.5896708,120.7772561,2.721,13632925.895,24925667.671,2.721,-0.951,0.145,-0.928,0.661,1.126,0.721,0.000,15,11,4*68
$GPGGA,081913.60,3135.3801271,N,12046.6354569,E,4,14,1.5,2.7313,M,8.314,M,00,0004*67
$GPHPD,1957,29971.400,145.60,-1.47,13.06,31.5896688,120.7772576,2.731,13632927.787,24925669.493,2.731,-0.934,0.084,-0.952,0.661,1.126,0.721,0.000,14,12,4*6B
$GPGGA,081913.80,3135.3800068,N,12046.6355503,E,4,16,1.5,2.7161,M,8.314,M,00,0004*6A
$GPHPD,1957,29971.600,145.43,-1.47,13.05,31.5896668,120.7772592,2.716,13632929.685,24925671.319,2.716,-0.959,0.184,-0.928,0.661,1.126,0.721,0.000,16,12,4*6B
$GPGGA,081914.00,3135.3798904,N,12046.6356434,E,4,16,1.5,2.7058,M,8.314,M,01,0004*64
$GPHPD,1957,29971.800,145.34,-1.95,13.03,31.5896648,120.7772607,2.706,13632931.527,24925673.119,2.706,-0.938,0.109,-0.944,0.660,1.055,0.705,0.000,16,13,4*68
$GPGGA,081914.20,3135.3797686,N,12046.6357355,E,4,16,1.5,2.7160,M,8.314,M,01,0004*67
$GPHPD,1957,29972.000,145.47,-1.40,13.03,31.5896628,120.7772623,2.716,13632933.444,24925674.939,2.716,-0.890,0.064,-0.962,0.660,1.055,0.705,0.000,16,13,4*69
$GPGGA,081914.40,3135.3796516,N,12046.6358321,E,4,16,1.5,2.7064,M,8.314,M,01,0004*63
$GPHPD,1957,29972.200,145.15,-1.28,13.00,31.5896609,120.7772639,2.706,13632935.301,24925676.785,2.706,-0.906,0.145,-0.950,0.660,1.055,0.705,0.000,16,13,4*6F
$GPGGA,081914.60,3135.3795318,N,12046.6359245,E,4,16,1.5,2.7066,M,8.314,M,00,0004*6B
$GPHPD,1957,29972.400,145.26,-1.01,13.01,31.5896589,120.7772654,2.707,13632937.190,24925678.596,2.707,-0.932,0.087,-0.939,0.660,1.055,0.705,0.000,16,13,4*62
$GPGGA,081914.80,3135.3794107,N,12046.6360159,E,4,16,1.5,2.7070,M,8.314,M,00,0004*6B
$GPHPD,1957,29972.600,145.13,-0.69,13.04,31.5896568,120.7772669,2.707,13632939.095,24925680.403,2.707,-0.923,0.112,-0.935,0.660,1.055,0.705,0.000,16,14,4*6B
$GPGGA,081915.00,3135.3792924,N,12046.6361112,E,4,16,1.5,2.7046,M,8.314,M,01,0004*67
$GPHPD,1957,29972.800,144.98,-1.49,13.04,31.5896549,120.7772685,2.705,13632940.969,24925682.241,2.705,-0.915,0.105,-0.955,0.660,1.055,0.705,0.000,16,13,4*61
$GPGGA,081915.20,3135.3791724,N,12046.6362050,E,4,16,1.5,2.7165,M,8.314,M,01,0004*6C
$GPHPD,1957,29973.000,145.18,-0.75,13.03,31.5896529,120.7772701,2.717,13632942.864,24925684.071,2.717,-0.935,0.101,-0.934,0.660,1.055,0.705,0.000,16,13,4*6B
$GPGGA,081915.40,3135.3790554,N,12046.6362969,E,4,16,1.5,2.7130,M,8.314,M,01,0004*6D
$GPHPD,1957,29973.200,145.25,-1.08,13.04,31.5896509,120.7772716,2.713,13632944.712,24925685.860,2.713,-0.944,0.148,-0.919,0.660,1.055,0.705,0.000,16,13,4*6A
$GPGGA,081915.60,3135.3789377,N,12046.6363896,E,4,16,1.5,2.7109,M,8.314,M,00,0004*6B
$GPHPD,1957,29973.400,145.23,-1.06,13.06,31.5896490,120.7772732,2.711,13632946.571,24925687.663,2.711,-0.937,0.130,-0.924,0.660,1.055,0.705,0.000,16,13,4*6E
$GPGGA,081915.80,3135.3788208,N,12046.6364842,E,4,16,1.5,2.7070,M,8.314,M,00,0004*6C
$GPHPD,1957,29973.600,145.17,-1.23,13.05,31.5896470,120.7772747,2.707,13632948.423,24925689.484,2.707,-0.918,0.136,-0.915,0.660,1.055,0.705,0.000,16,13,4*67
$GPGGA,081916.00,3135.3787033,N,12046.6365758,E,4,16,1.5,2.7220,M,8.314,M,01,0004*61
$GPHPD,1957,29973.800,145.40,-0.53,13.05,31.5896451,120.7772763,2.722,13632950.278,24925691.272,2.722,-0.895,0.035,-0.952,0.660,1.055,0.705,0.000,16,13,4*6A
$GPGGA,081916.20,3135.3785863,N,12046.6366743,E,4,16,1.6,2.6779,M,8.314,M,01,0004*6E
$GPHPD,1957,29974.000,145.49,-0.90,13.07,31.5896431,120.7772779,2.678,13632952.139,24925693.141,2.678,-0.946,0.171,-0.891,0.660,1.055,0.705,0.000,16,13,4*69
$GPGGA,081916.40,3135.3784676,N,12046.6367660,E,4,16,1.5,2.6929,M,8.314,M,01,0004*6A
$GPHPD,1957,29974.200,145.21,-1.40,13.08,31.5896411,120.7772794,2.693,13632954.011,24925694.938,2.693,-0.894,0.043,-0.999,0.662,1.150,0.707,0.000,16,13,4*68
$GPGGA,081916.60,3135.3783508,N,12046.6368588,E,4,16,1.5,2.6928,M,8.314,M,00,0004*6F
$GPHPD,1957,29974.400,145.37,-0.70,13.08,31.5896392,120.7772810,2.693,13632955.858,24925696.737,2.693,-0.909,0.096,-0.942,0.660,1.055,0.705,0.000,16,13,4*6C
$GPGGA,081916.80,3135.3782323,N,12046.6369492,E,4,16,1.4,2.7058,M,8.314,M,00,0004*6A
$GPHPD,1957,29974.600,145.10,-1.06,13.07,31.5896372,120.7772825,2.706,13632957.725,24925698.516,2.706,-0.872,0.022,-0.938,0.660,1.055,0.705,0.000,16,13,4*6B
$GPGGA,081917.00,3135.3781148,N,12046.6370422,E,4,16,1.4,2.7013,M,8.314,M,01,0004*62
$GPHPD,1957,29974.800,145.50,-0.76,13.10,31.5896352,120.7772840,2.701,13632959.582,24925700.322,2.701,-0.927,0.080,-0.916,0.660,1.055,0.705,0.000,16,13,4*65
$GPGGA,081917.20,3135.3779963,N,12046.6371375,E,4,16,1.3,2.7091,M,8.314,M,01,0004*6F
$GPHPD,1957,29975.000,145.13,-1.10,13.10,31.5896333,120.7772856,2.709,13632961.459,24925702.161,2.709,-0.931,0.170,-0.907,0.660,1.055,0.705,0.000,16,12,4*69
$GPGGA,081917.40,3135.3778845,N,12046.6372337,E,4,16,1.3,2.6956,M,8.314,M,01,0004*6B
$GPHPD,1957,29975.200,144.84,-1.40,13.09,31.5896314,120.7772872,2.696,13632963.241,24925703.972,2.696,-0.947,0.126,-0.909,0.660,1.055,0.705,0.000,16,12,4*60
$GPGGA,081917.60,3135.3777626,N,12046.6373249,E,4,16,1.3,2.7074,M,8.314,M,00,0004*6D
$GPHPD,1957,29975.400,145.09,-0.49,13.10,31.5896294,120.7772887,2.707,13632965.158,24925705.781,2.707,-0.896,0.021,-0.925,0.660,1.055,0.705,0.000,16,12,4*6D
$GPGGA,081917.80,3135.3776512,N,12046.6374203,E,4,16,1.3,2.6964,M,8.314,M,00,0004*66
$GPHPD,1957,29975.600,144.66,-1.07,13.12,31.5896275,120.7772903,2.696,13632966.933,24925707.580,2.696,-0.914,0.121,-0.943,0.660,1.055,0.705,0.000,16,12,4*61
$GPGGA,081918.00,3135.3775352,N,12046.6375155,E,4,16,1.3,2.6833,M,8.314,M,01,0004*63
$GPHPD,1957,29975.800,144.84,-0.93,13.13,31.5896256,120.7772919,2.683,13632968.774,24925709.403,2.683,-0.895,0.016,-0.928,0.660,1.055,0.705,0.000,16,12,4*63
$GPGGA,081918.20,3135.3774195,N,12046.6376126,E,4,16,1.3,2.6701,M,8.314,M,01,0004*60
$GPHPD,1957,29976.000,144.49,-1.24,13.12,31.5896237,120.7772935,2.670,13632970.614,24925711.247,2.670,-0.946,0.154,-0.892,0.660,1.055,0.705,0.000,16,13,4*64
$GPGGA,081918.40,3135.3773013,N,12046.6377056,E,4,16,1.3,2.6750,M,8.314,M,01,0004*6D
$GPHPD,1957,29976.200,144.89,-0.91,13.12,31.5896217,120.7772951,2.675,13632972.481,24925713.057,2.675,-0.931,0.106,-0.904,0.660,1.055,0.705,0.000,16,13,4*61
$GPGGA,081918.60,3135.3771852,N,12046.6377980,E,4,16,1.3,2.6796,M,8.314,M,00,0004*69
$GPHPD,1957,29976.400,144.74,-1.74,13.12,31.5896198,120.7772966,2.680,13632974.318,24925714.846,2.680,-0.913,0.059,-0.931,0.660,1.055,0.705,0.000,16,13,4*6C
$GPGGA,081918.80,3135.3770664,N,12046.6378940,E,4,16,1.3,2.6812,M,8.314,M,00,0004*6D
$GPHPD,1957,29976.600,144.75,-0.98,13.14,31.5896178,120.7772982,2.681,13632976.200,24925716.696,2.681,-0.958,0.192,-0.899,0.660,1.055,0.705,0.000,16,13,4*6F
$GPGGA,081919.00,3135.3769511,N,12046.6379883,E,4,16,1.3,2.6883,M,8.314,M,01,0004*6B
$GPHPD,1957,29976.800,144.70,-1.10,13.13,31.5896159,120.7772998,2.688,13632978.028,24925718.504,2.688,-0.917,0.073,-0.929,0.660,1.055,0.705,0.000,16,13,4*65
$GPGGA,081919.20,3135.3768340,N,12046.6380817,E,4,16,1.3,2.6748,M,8.314,M,01,0004*69
$GPHPD,1957,29977.000,144.57,-0.45,13.13,31.5896139,120.7773014,2.675,13632979.881,24925720.312,2.675,-0.950,0.133,-0.898,0.660,1.055,0.705,0.000,16,13,4*6F
$GPGGA,081919.40,3135.3767152,N,12046.6381755,E,4,16,1.3,2.6852,M,8.314,M,01,0004*6D
$GPHPD,1957,29977.200,144.66,-0.55,13.14,31.5896119,120.7773029,2.685,13632981.758,24925722.134,2.685,-0.921,0.117,-0.935,0.660,1.056,0.705,0.000,16,13,4*68
$GPGGA,081919.60,3135.3765975,N,12046.6382720,E,4,16,1.3,2.6835,M,8.314,M,00,0004*61
$GPHPD,1957,29977.400,144.58,-0.58,13.14,31.5896100,120.7773045,2.684,13632983.626,24925723.983,2.684,-0.921,0.064,-0.932,0.660,1.056,0.705,0.000,16,13,4*61
$GPGGA,081919.80,3135.3764813,N,12046.6383646,E,4,16,1.3,2.6784,M,8.314,M,00,0004*6A
$GPHPD,1957,29977.600,144.58,-0.28,13.10,31.5896080,120.7773061,2.678,13632985.464,24925725.776,2.678,-0.948,0.067,-0.933,0.660,1.056,0.705,0.000,16,13,4*62
$GPGGA,081920.00,3135.3763624,N,12046.6384613,E,4,16,1.3,2.6780,M,8.314,M,01,0004*67
$GPHPD,1957,29977.800,144.49,-0.49,13.10,31.5896060,120.7773077,2.678,13632987.349,24925727.634,2.678,-0.905,0.092,-0.933,0.660,1.056,0.705,0.000,16,13,4*6E
$GPGGA,081920.20,3135.3762445,N,12046.6385581,E,4,16,1.3,2.6741,M,8.314,M,01,0004*65
$GPHPD,1957,29978.000,144.50,-0.52,13.11,31.5896041,120.7773093,2.674,13632989.220,24925729.488,2.674,-0.937,0.107,-0.944,0.660,1.056,0.705,0.000,16,13,4*64
$GPGGA,081920.40,3135.3761288,N,12046.6386551,E,4,16,1.3,2.6750,M,8.314,M,01,0004*69
$GPHPD,1957,29978.200,144.57,-0.65,13.11,31.5896021,120.7773109,2.675,13632991.059,24925731.331,2.675,-0.913,0.055,-0.950,0.660,1.056,0.705,0.000,16,13,4*6D
$GPGGA,081920.60,3135.3760125,N,12046.6387494,E,4,16,1.3,2.6674,M,8.314,M,01,0004*60
$GPHPD,1957,29978.400,144.51,-0.87,13.12,31.5896002,120.7773125,2.667,13632992.902,24925733.145,2.667,-0.929,0.099,-0.930,0.660,1.056,0.705,0.000,16,13,4*65
$GPGGA,081920.80,3135.3758930,N,12046.6388398,E,4,16,1.3,2.6877,M,8.314,M,00,0004*61
$GPHPD,1957,29978.600,144.87,-2.60,13.11,31.5895982,120.7773140,2.688,13632994.783,24925734.930,2.688,-0.957,0.129,-0.910,0.662,1.151,0.707,0.000,16,13,4*6E
$GPGGA,081921.00,3135.3757769,N,12046.6389352,E,4,16,1.3,2.6745,M,8.314,M,01,0004*6D
$GPHPD,1957,29978.800,144.84,-1.86,13.13,31.5895963,120.7773156,2.675,13632996.625,24925736.757,2.675,-0.966,0.190,-0.867,0.662,1.151,0.707,0.000,16,13,4*61
$GPGGA,081921.20,3135.3756607,N,12046.6390336,E,4,16,1.3,2.6757,M,8.314,M,01,0004*6E
$GPHPD,1957,29979.000,144.84,-2.60,13.13,31.5895943,120.7773172,2.676,13632998.475,24925738.620,2.676,-0.944,0.097,-0.926,0.660,1.056,0.705,0.000,16,13,4*65
$GPGGA,081921.40,3135.3755448,N,12046.6391274,E,4,16,1.3,2.6718,M,8.314,M,01,0004*6F
$GPHPD,1957,29979.200,144.48,-1.10,13.12,31.5895924,120.7773188,2.672,13633000.312,24925740.425,2.672,-0.980,0.111,-0.891,0.660,1.056,0.705,0.000,16,12,4*6A
$GPGGA,081921.60,3135.3754292,N,12046.6392256,E,4,16,1.3,2.6790,M,8.314,M,00,0004*6F
$GPHPD,1957,29979.400,144.44,-0.85,13.13,31.5895905,120.7773204,2.679,13633002.152,24925742.282,2.679,-0.900,0.035,-0.933,0.689,1.058,0.731,0.000,16,12,4*6D
$GPGGA,081921.80,3135.3753135,N,12046.6393199,E,4,16,1.3,2.6713,M,8.314,M,00,0004*62
$GPHPD,1957,29979.600,144.44,-0.42,13.15,31.5895886,120.7773220,2.671,13633003.987,24925744.093,2.671,-0.957,0.101,-0.882,0.660,1.056,0.705,0.000,16,12,4*6A
$GPGGA,081922.00,3135.3751980,N,12046.6394156,E,4,16,1.3,2.6677,M,8.314,M,01,0004*6B
$GPHPD,1957,29979.800,144.36,-0.68,13.17,31.5895866,120.7773236,2.668,13633005.821,24925745.919,2.668,-0.922,0.075,-0.919,0.689,1.058,0.731,0.000,16,12,4*6E
$GPGGA,081922.20,3135.3750828,N,12046.6395125,E,4,16,1.3,2.6556,M,8.314,M,01,0004*6E
$GPHPD,1957,29980.000,144.40,-1.00,13.17,31.5895847,120.7773252,2.656,13633007.654,24925747.758,2.656,-0.952,0.107,-0.903,0.660,1.056,0.705,0.000,16,12,4*6E
$GPGGA,081922.40,3135.3749668,N,12046.6396057,E,4,16,1.3,2.6610,M,8.314,M,01,0004*6C
$GPHPD,1957,29980.200,144.62,-0.96,13.17,31.5895828,120.7773268,2.661,13633009.491,24925749.557,2.661,-0.925,0.050,-0.926,0.689,1.058,0.731,0.000,16,13,4*6F
$GPGGA,081922.60,3135.3748485,N,12046.6396987,E,4,16,1.4,2.6578,M,8.314,M,00,0004*61
$GPHPD,1957,29980.400,144.68,-0.54,13.17,31.5895808,120.7773283,2.658,13633011.359,24925751.367,2.658,-0.916,0.069,-0.901,0.689,1.058,0.731,0.000,16,13,4*63
$GPGGA,081922.80,3135.3747324,N,12046.6397928,E,4,16,1.4,2.6596,M,8.314,M,00,0004*68
$GPHPD,1957,29980.600,144.47,-0.71,13.18,31.5895789,120.7773299,2.660,13633013.199,24925753.178,2.660,-0.902,0.106,-0.933,0.689,1.058,0.731,0.000,16,13,4*67
$GPGGA,081923.00,3135.3746159,N,12046.6398866,E,4,16,1.4,2.6563,M,8.314,M,01,0004*67
$GPHPD,1957,29980.800,144.55,-0.58,13.20,31.5895769,120.7773314,2.656,13633015.044,24925754.987,2.656,-0.939,0.109,-0.912,0.689,1.058,0.731,0.000,16,13,4*6C
$GPGGA,081923.20,3135.3744998,N,12046.6399813,E,4,16,1.4,2.6517,M,8.314,M,01,0004*62
$GPHPD,1957,29981.000,144.67,-0.80,13.21,31.5895750,120.7773330,2.652,13633016.885,24925756.805,2.652,-0.912,0.088,-0.914,0.689,1.058,0.731,0.000,16,13,4*64
$GPGGA,081923.40,3135.3743857,N,12046.6400756,E,4,16,1.4,2.6513,M,8.314,M,01,0004*6C
$GPHPD,1957,29981.200,144.60,-1.06,13.23,31.5895731,120.7773346,2.651,13633018.697,24925758.606,2.651,-0.919,0.090,-0.923,0.689,1.058,0.731,0.000,16,13,4*6C
$GPGGA,081923.60,3135.3742666,N,12046.6401709,E,4,16,1.4,2.6571,M,8.314,M,00,0004*6D
$GPHPD,1957,29981.400,144.70,-0.66,13.22,31.5895711,120.7773362,2.657,13633020.581,24925760.448,2.657,-0.922,0.082,-0.927,0.689,1.058,0.731,0.000,16,13,4*6A
$GPGGA,081923.80,3135.3741521,N,12046.6402642,E,4,16,1.4,2.6547,M,8.314,M,00,0004*68
$GPHPD,1957,29981.600,144.75,-0.73,13.21,31.5895692,120.7773377,2.655,13633022.397,24925762.240,2.655,-0.943,0.112,-0.911,0.689,1.058,0.731,0.000,16,13,4*61
$GPGGA,081924.00,3135.3740328,N,12046.6403602,E,4,16,1.4,2.6595,M,8.314,M,01,0004*62
$GPHPD,1957,29981.800,144.80,-0.88,13.19,31.5895672,120.7773393,2.660,13633024.286,24925764.092,2.660,-0.925,0.076,-0.914,0.689,1.058,0.731,0.000,16,13,4*64
$GPGGA,081924.20,3135.3739162,N,12046.6404533,E,4,16,1.4,2.6542,M,8.314,M,01,0004*6E
$GPHPD,1957,29982.000,144.52,-0.49,13.19,31.5895653,120.7773409,2.654,13633026.131,24925765.893,2.654,-0.956,0.100,-0.927,0.689,1.058,0.731,0.000,16,13,4*6B
$GPGGA,081924.40,3135.3737980,N,12046.6405496,E,4,16,1.4,2.6623,M,8.314,M,01,0004*69
$GPHPD,1957,29982.200,144.58,-0.29,13.19,31.5895633,120.7773425,2.662,13633028.005,24925767.742,2.662,-0.943,0.125,-0.923,0.689,1.058,0.731,0.000,16,12,4*62
$GPGGA,081924.60,3135.3736815,N,12046.6406433,E,4,15,1.4,2.6510,M,8.315,M,00,0004*6B
$GPHPD,1957,29982.400,144.65,-1.02,13.18,31.5895614,120.7773441,2.651,13633029.849,24925769.550,2.651,-0.956,0.114,-0.917,0.689,1.058,0.731,0.000,15,12,4*68
$GPGGA,081924.80,3135.3735653,N,12046.6407391,E,4,15,1.4,2.6651,M,8.315,M,00,0004*62
$GPHPD,1957,29982.600,144.60,0.03,13.19,31.5895594,120.7773457,2.665,13633031.694,24925771.382,2.665,-0.906,0.057,-0.948,0.689,1.058,0.731,0.000,15,12,4*41
$GPGGA,081925.00,3135.3734490,N,12046.6408348,E,4,15,1.4,2.6645,M,8.315,M,01,0004*68
$GPHPD,1957,29982.800,144.47,-1.08,13.19,31.5895575,120.7773472,2.665,13633033.540,24925773.213,2.665,-0.971,0.149,-0.881,0.689,1.058,0.731,0.000,15,12,4*6C
$GPGGA,081925.20,3135.3733311,N,12046.6409279,E,4,15,1.4,2.6656,M,8.315,M,01,0004*63
$GPHPD,1957,29983.000,144.35,-0.71,13.17,31.5895555,120.7773488,2.666,13633035.403,24925775.022,2.666,-0.922,0.067,-0.912,0.689,1.058,0.731,0.000,15,12,4*60
$GPGGA,081925.40,3135.3732152,N,12046.6410273,E,4,15,1.4,2.6637,M,8.315,M,01,0004*64
$GPHPD,1957,29983.200,144.16,-0.34,13.16,31.5895536,120.7773505,2.664,13633037.251,24925776.895,2.664,-0.930,0.115,-0.922,0.689,1.058,0.731,0.000,15,12,4*62
$GPGGA,081925.60,3135.3730981,N,12046.6411226,E,4,15,1.4,2.6630,M,8.315,M,00,0004*65
$GPHPD,1957,29983.400,144.15,-0.98,13.19,31.5895516,120.7773520,2.663,13633039.107,24925778.726,2.663,-0.930,0.075,-0.920,0.689,1.058,0.731,0.000,15,13,4*68
$GPGGA,081925.80,3135.3729827,N,12046.6412177,E,4,15,1.4,2.6568,M,8.315,M,00,0004*64
$GPHPD,1957,29983.600,144.02,-0.25,13.20,31.5895497,120.7773536,2.657,13633040.939,24925780.544,2.657,-0.936,0.065,-0.929,0.689,1.058,0.731,0.000,15,13,4*6B
$GPGGA,081926.00,3135.3728644,N,12046.6413154,E,4,15,1.4,2.6525,M,8.315,M,01,0004*6D
$GPHPD,1957,29983.800,144.11,-1.23,13.23,31.5895477,120.7773553,2.653,13633042.817,24925782.411,2.653,-0.924,0.068,-0.930,0.689,1.058,0.731,0.000,15,13,4*64
$GPGGA,081926.20,3135.3727458,N,12046.6414154,E,4,15,1.4,2.6502,M,8.315,M,01,0004*6D
$GPHPD,1957,29984.000,143.79,0.10,13.26,31.5895458,120.7773569,2.650,13633044.704,24925784.307,2.650,-0.936,0.083,-0.930,0.689,1.058,0.731,0.000,15,13,4*44
$GPGGA,081926.40,3135.3726299,N,12046.6415117,E,4,15,1.4,2.6519,M,8.315,M,01,0004*6D
$GPHPD,1957,29984.200,144.02,-0.74,13.26,31.5895438,120.7773585,2.652,13633046.546,24925786.143,2.652,-0.962,0.090,-0.931,0.689,1.058,0.731,0.000,15,13,4*62
$GPGGA,081926.60,3135.3725136,N,12046.6416082,E,4,15,1.4,2.6462,M,8.315,M,00,0004*68
$GPHPD,1957,29984.400,143.82,-0.72,13.27,31.5895419,120.7773601,2.646,13633048.393,24925787.983,2.646,-0.966,0.108,-0.913,0.689,1.058,0.731,0.000,15,13,4*61
$GPGGA,081926.80,3135.3723965,N,12046.6417108,E,4,15,1.4,2.6515,M,8.315,M,00,0004*6D
$GPHPD,1957,29984.600,143.73,-0.50,13.24,31.5895399,120.7773618,2.652,13633050.264,24925789.902,2.652,-0.915,0.061,-0.950,0.689,1.058,0.731,0.000,15,13,4*63
$GPGGA,081927.00,3135.3722793,N,12046.6418081,E,4,15,1.4,2.6443,M,8.315,M,01,0004*6E
$GPHPD,1957,29984.800,143.72,-1.17,13.24,31.5895380,120.7773635,2.644,13633052.126,24925791.758,2.644,-0.982,0.086,-0.907,0.689,1.058,0.731,0.000,15,13,4*63
$GPGGA,081927.20,3135.3721625,N,12046.6419083,E,4,15,1.4,2.6451,M,8.315,M,01,0004*63
$GPHPD,1957,29985.000,143.24,-1.36,13.24,31.5895360,120.7773651,2.645,13633053.988,24925793.646,2.645,-0.941,0.046,-0.944,0.689,1.058,0.731,0.000,15,13,4*63
$GPGGA,081927.40,3135.3720442,N,12046.6420128,E,4,15,1.4,2.6409,M,8.315,M,01,0004*60
$GPHPD,1957,29985.200,143.17,-2.13,13.22,31.5895341,120.7773669,2.641,13633055.880,24925795.595,2.641,-0.967,0.066,-0.919,0.689,1.058,0.731,0.000,15,13,4*61
$GPGGA,081927.60,3135.3719284,N,12046.6421150,E,4,15,1.4,2.6443,M,8.315,M,00,0004*65
$GPHPD,1957,29985.400,142.73,-1.50,13.20,31.5895321,120.7773686,2.644,13633057.732,24925797.501,2.644,-0.974,0.069,-0.934,0.689,1.058,0.731,0.000,15,13,4*6C
$GPGGA,081927.80,3135.3718117,N,12046.6422151,E,4,15,1.4,2.6520,M,8.315,M,00,0004*65
$GPHPD,1957,29985.600,142.68,-1.61,13.18,31.5895302,120.7773703,2.652,13633059.592,24925799.387,2.652,-1.012,0.081,-0.919,0.689,1.058,0.731,0.000,15,13,4*61
$GPGGA,081928.00,3135.3716986,N,12046.6423205,E,4,15,1.4,2.6481,M,8.315,M,01,0004*64
$GPHPD,1957,29985.800,142.26,-1.76,13.17,31.5895283,120.7773720,2.648,13633061.412,24925801.317,2.648,-0.999,0.095,-0.903,0.689,1.058,0.732,0.000,15,13,4*66
$GPGGA,081928.20,3135.3715857,N,12046.6424253,E,4,15,1.4,2.6411,M,8.315,M,01,0004*65
$GPHPD,1957,29986.000,142.16,-1.10,13.13,31.5895264,120.7773738,2.641,13633063.228,24925803.238,2.641,-1.022,0.098,-0.891,0.689,1.058,0.732,0.000,15,13,4*66
$GPGGA,081928.40,3135.3714704,N,12046.6425255,E,4,15,1.4,2.6445,M,8.315,M,01,0004*6D
$GPHPD,1957,29986.200,142.36,-0.75,13.13,31.5895245,120.7773754,2.645,13633065.069,24925805.117,2.645,-0.990,0.062,-0.898,0.689,1.058,0.732,0.000,15,13,4*69
$GPGGA,081928.60,3135.3713562,N,12046.6426324,E,4,15,1.4,2.6408,M,8.315,M,00,0004*66
$GPHPD,1957,29986.400,141.99,-1.26,13.14,31.5895226,120.7773772,2.641,13633066.907,24925807.071,2.641,-0.969,0.066,-0.903,0.689,1.058,0.732,0.000,15,13,4*68
$GPGGA,081928.80,3135.3712426,N,12046.6427348,E,4,15,1.4,2.6436,M,8.315,M,00,0004*6E
$GPHPD,1957,29986.600,141.82,-1.38,13.16,31.5895207,120.7773789,2.644,13633068.728,24925808.967,2.644,-1.008,0.056,-0.894,0.689,1.058,0.732,0.000,15,13,4*65
$GPGGA,081929.00,3135.3711319,N,12046.6428418,E,4,15,1.4,2.6459,M,8.315,M,01,0004*6A
$GPHPD,1957,29986.800,141.43,-1.16,13.20,31.5895189,120.7773807,2.646,13633070.517,24925810.901,2.646,-0.983,0.045,-0.893,0.689,1.058,0.732,0.000,15,13,4*63
$GPGGA,081929.20,3135.3710180,N,12046.6429456,E,4,15,1.4,2.6534,M,8.315,M,01,0004*6A
$GPHPD,1957,29987.000,141.12,-0.48,13.19,31.5895170,120.7773824,2.653,13633072.345,24925812.816,2.653,-0.995,0.012,-0.868,0.689,1.058,0.732,0.000,15,13,4*6E
$GPGGA,081929.40,3135.3709050,N,12046.6430517,E,4,15,1.4,2.6535,M,8.315,M,01,0004*65
$GPHPD,1957,29987.200,140.64,-0.97,13.22,31.5895151,120.7773842,2.654,13633074.165,24925814.753,2.654,-1.012,0.093,-0.871,0.689,1.058,0.732,0.000,15,13,4*6D
$GPGGA,081929.60,3135.3707955,N,12046.6431604,E,4,15,1.4,2.6453,M,8.315,M,00,0004*65
$GPHPD,1957,29987.400,139.84,-0.69,13.24,31.5895133,120.7773860,2.645,13633075.940,24925816.701,2.645,-1.022,0.052,-0.875,0.689,1.058,0.732,0.000,15,13,4*69
$GPGGA,081929.80,3135.3706859,N,12046.6432679,E,4,15,1.4,2.6491,M,8.315,M,00,0004*60
$GPHPD,1957,29987.600,139.89,-1.03,13.25,31.5895114,120.7773878,2.649,13633077.715,24925818.636,2.649,-0.984,-0.030,-0.885,0.689,1.058,0.732,0.000,15,13,4*43
$GPGGA,081930.00,3135.3705740,N,12046.6433738,E,4,15,1.4,2.6478,M,8.315,M,01,0004*67
$GPHPD,1957,29987.800,139.74,-1.12,13.25,31.5895096,120.7773896,2.648,13633079.519,24925820.564,2.648,-1.017,0.062,-0.841,0.689,1.058,0.732,0.000,15,13,4*6B
$GPGGA,081930.20,3135.3704636,N,12046.6434841,E,4,15,1.4,2.6391,M,8.315,M,01,0004*62
$GPHPD,1957,29988.000,139.69,-1.17,13.26,31.5895077,120.7773914,2.639,13633081.310,24925822.537,2.639,-1.001,0.033,-0.876,0.689,1.058,0.732,0.000,15,13,4*69
$GPGGA,081930.40,3135.3703533,N,12046.6435939,E,4,15,1.4,2.6385,M,8.315,M,01,0004*6F
$GPHPD,1957,29988.200,139.55,-0.92,13.25,31.5895059,120.7773932,2.639,13633083.099,24925824.503,2.639,-0.983,-0.014,-0.899,0.689,1.058,0.732,0.000,15,13,4*49
$GPGGA,081930.60,3135.3702435,N,12046.6437035,E,4,15,1.4,2.6397,M,8.315,M,00,0004*6E
$GPHPD,1957,29988.400,139.42,-0.78,13.23,31.5895041,120.7773951,2.640,13633084.880,24925826.463,2.640,-0.999,0.003,-0.881,0.689,1.058,0.732,0.000,15,13,4*6C
$GPGGA,081930.80,3135.3701362,N,12046.6438120,E,4,15,1.4,2.6402,M,8.315,M,00,0004*67
$GPHPD,1957,29988.600,139.29,-1.03,13.23,31.5895023,120.7773969,2.640,13633086.624,24925828.396,2.640,-1.007,0.001,-0.865,0.689,1.058,0.732,0.000,15,13,4*67
$GPGGA,081931.00,3135.3700237,N,12046.6439213,E,4,15,1.4,2.6371,M,8.315,M,01,0004*6E
$GPHPD,1957,29988.800,139.25,-0.38,13.20,31.5895004,120.7773987,2.637,13633088.443,24925830.369,2.637,-0.995,-0.009,-0.859,0.689,1.058,0.732,0.000,15,13,4*47
$GPGGA,081931.20,3135.3699180,N,12046.6440308,E,4,15,1.4,2.6288,M,8.315,M,01,0004*60
$GPHPD,1957,29989.000,139.18,-0.36,13.22,31.5894986,120.7774005,2.629,13633090.166,24925832.305,2.629,-1.027,0.045,-0.857,0.689,1.058,0.732,0.000,15,13,4*63
$GPGGA,081931.40,3135.3698085,N,12046.6441399,E,4,15,1.4,2.6289,M,8.315,M,01,0004*6B
$GPHPD,1957,29989.200,139.23,-0.30,13.22,31.5894968,120.7774023,2.629,13633091.942,24925834.258,2.629,-0.986,-0.004,-0.852,0.689,1.058,0.732,0.000,15,13,4*45
$GPGGA,081931.60,3135.3696988,N,12046.6442473,E,4,15,1.4,2.6361,M,8.315,M,00,0004*65
$GPHPD,1957,29989.400,139.09,-0.44,13.22,31.5894950,120.7774041,2.636,13633093.718,24925836.191,2.636,-0.998,0.008,-0.870,0.689,1.058,0.732,0.000,15,13,4*6E
$GPGGA,081931.80,3135.3695929,N,12046.6443583,E,4,15,1.4,2.6264,M,8.315,M,00,0004*68
$GPHPD,1957,29989.600,139.22,-0.84,13.22,31.5894932,120.7774060,2.626,13633095.447,24925838.146,2.626,-1.018,0.055,-0.841,0.689,1.058,0.732,0.000,15,13,4*6F
$GPGGA,081932.00,3135.3694826,N,12046.6444661,E,4,15,1.4,2.6293,M,8.315,M,01,0004*6D
$GPHPD,1957,29989.800,139.21,-0.42,13.19,31.5894914,120.7774078,2.629,13633097.231,24925840.088,2.629,-0.998,-0.026,-0.861,0.689,1.058,0.732,0.000,15,13,4*4F
$GPGGA,081932.20,3135.3693732,N,12046.6445738,E,4,15,1.4,2.6318,M,8.315,M,01,0004*6C
$GPHPD,1957,29990.000,139.04,-0.43,13.18,31.5894896,120.7774096,2.632,13633099.003,24925842.024,2.632,-1.025,0.047,-0.844,0.689,1.058,0.732,0.000,15,13,4*69
$GPGGA,081932.40,3135.3692659,N,12046.6446845,E,4,15,1.4,2.6210,M,8.315,M,01,0004*68
$GPHPD,1957,29990.200,139.21,-0.54,13.19,31.5894878,120.7774114,2.621,13633100.751,24925843.983,2.621,-1.028,0.053,-0.842,0.689,1.058,0.732,0.000,15,13,4*6A
$GPGGA,081932.60,3135.3691555,N,12046.6447899,E,4,15,1.4,2.6280,M,8.315,M,00,0004*6E
$GPHPD,1957,29990.400,139.21,-0.45,13.19,31.5894859,120.7774132,2.628,13633102.533,24925845.897,2.628,-1.004,-0.009,-0.862,0.689,1.058,0.732,0.000,15,13,4*43
$GPGGA,081932.80,3135.3690467,N,12046.6448991,E,4,15,1.4,2.6245,M,8.315,M,00,0004*6E
$GPHPD,1957,29990.600,139.22,-1.02,13.20,31.5894841,120.7774150,2.625,13633104.299,24925847.847,2.625,-0.979,0.014,-0.864,0.689,1.058,0.732,0.000,15,13,4*6C
$GPGGA,081933.00,3135.3689380,N,12046.6450080,E,4,15,1.4,2.6304,M,8.315,M,01,0004*64
$GPHPD,1957,29990.800,139.38,-0.94,13.17,31.5894823,120.7774168,2.630,13633106.064,24925849.793,2.630,-0.985,0.015,-0.865,0.689,1.058,0.732,0.000,15,13,4*65
$GPGGA,081933.20,3135.3688285,N,12046.6451149,E,4,15,1.4,2.6257,M,8.315,M,01,0004*61
$GPHPD,1957,29991.000,139.61,-0.96,13.17,31.5894805,120.7774186,2.626,13633107.835,24925851.719,2.626,-1.020,0.015,-0.836,0.689,1.058,0.732,0.000,15,13,4*61
$GPGGA,081933.40,3135.3687176,N,12046.6452187,E,4,15,1.4,2.6265,M,8.315,M,01,0004*67
$GPHPD,1957,29991.200,139.68,-0.56,13.14,31.5894786,120.7774203,2.627,13633109.621,24925853.616,2.627,-0.982,-0.006,-0.881,0.689,1.058,0.732,0.000,15,13,4*45
$GPGGA,081933.60,3135.3686076,N,12046.6453288,E,4,15,1.4,2.6197,M,8.315,M,00,0004*67
$GPHPD,1957,29991.400,139.68,-0.86,13.12,31.5894768,120.7774221,2.620,13633111.406,24925855.584,2.620,-0.977,0.005,-0.864,0.689,1.058,0.732,0.000,15,13,4*67
$GPGGA,081933.80,3135.3684958,N,12046.6454362,E,4,15,1.4,2.6175,M,8.315,M,00,0004*60
$GPHPD,1957,29991.600,139.84,-0.44,13.11,31.5894749,120.7774239,2.618,13633113.212,24925857.530,2.618,-0.985,-0.024,-0.888,0.689,1.058,0.732,0.000,15,13,4*4D
$GPGGA,081934.00,3135.3683870,N,12046.6455387,E,4,15,1.4,2.6223,M,8.315,M,01,0004*68
$GPHPD,1957,29991.800,140.03,-0.30,13.11,31.5894731,120.7774256,2.622,13633114.964,24925859.400,2.622,-0.959,-0.027,-0.914,0.692,1.127,0.745,0.000,15,13,4*43
$GPGGA,081934.20,3135.3682750,N,12046.6456473,E,4,15,1.4,2.6265,M,8.315,M,01,0004*6B
$GPHPD,1957,29992.000,140.04,-0.31,13.12,31.5894713,120.7774275,2.627,13633116.775,24925861.361,2.627,-0.972,0.020,-0.868,0.689,1.058,0.732,0.000,15,13,4*61
$GPGGA,081934.40,3135.3681627,N,12046.6457518,E,4,15,1.4,2.6238,M,8.315,M,01,0004*6A
$GPHPD,1957,29992.200,140.12,-1.18,13.10,31.5894694,120.7774292,2.624,13633118.582,24925863.275,2.624,-1.029,0.066,-0.857,0.689,1.058,0.732,0.000,15,13,4*61
$GPGGA,081934.60,3135.3680525,N,12046.6458597,E,4,15,1.4,2.6233,M,8.315,M,00,0004*6A
$GPHPD,1957,29992.400,140.16,-1.37,13.09,31.5894675,120.7774310,2.623,13633120.366,24925865.217,2.623,-0.986,0.040,-0.884,0.689,1.058,0.732,0.000,15,13,4*60
$GPGGA,081934.80,3135.3679423,N,12046.6459697,E,4,15,1.4,2.6253,M,8.315,M,00,0004*61
$GPHPD,1957,29992.600,140.21,0.09,13.09,31.5894657,120.7774328,2.625,13633122.153,24925867.185,2.625,-0.998,0.028,-0.876,0.689,1.058,0.732,0.000,15,13,4*4C
$GPGGA,081935.00,3135.3678282,N,12046.6460746,E,4,15,1.4,2.6267,M,8.315,M,01,0004*65
$GPHPD,1957,29992.800,140.62,-0.93,13.08,31.5894638,120.7774346,2.627,13633123.987,24925869.114,2.627,-1.040,0.061,-0.871,0.692,1.127,0.745,0.000,15,13,4*69
$GPGGA,081935.20,3135.3677169,N,12046.6461785,E,4,15,1.4,2.6174,M,8.315,M,01,0004*61
$GPHPD,1957,29993.000,140.65,-0.80,13.08,31.5894619,120.7774363,2.617,13633125.778,24925871.015,2.617,-1.011,0.075,-0.876,0.689,1.058,0.732,0.000,15,13,4*65
$GPGGA,081935.40,3135.3676031,N,12046.6462827,E,4,15,1.4,2.6086,M,8.315,M,01,0004*62
$GPHPD,1957,29993.200,140.75,-1.17,13.07,31.5894601,120.7774380,2.609,13633127.605,24925872.934,2.609,-0.961,0.030,-0.906,0.689,1.058,0.732,0.000,15,13,4*6A
$GPGGA,081935.60,3135.3674897,N,12046.6463872,E,4,15,1.4,2.6108,M,8.315,M,00,0004*61
$GPHPD,1957,29993.400,140.65,-0.56,13.07,31.5894582,120.7774398,2.611,13633129.428,24925874.854,2.611,-0.965,0.007,-0.910,0.689,1.058,0.732,0.000,15,13,4*6D
$GPGGA,081935.80,3135.3673759,N,12046.6464963,E,4,15,1.4,2.6278,M,8.315,M,00,0004*67
$GPHPD,1957,29993.600,141.08,0.12,13.06,31.5894563,120.7774416,2.628,13633131.265,24925876.832,2.628,-0.985,0.067,-0.898,0.692,1.127,0.745,0.000,15,13,4*49
$GPGGA,081936.00,3135.3672627,N,12046.6465991,E,4,15,1.4,2.6209,M,8.315,M,01,0004*6E
$GPHPD,1957,29993.800,141.47,-0.90,13.05,31.5894544,120.7774433,2.621,13633133.081,24925878.731,2.621,-1.042,0.099,-0.866,0.689,1.058,0.732,0.000,15,13,4*62
$GPGGA,081936.20,3135.3671508,N,12046.6467023,E,4,15,1.4,2.6086,M,8.315,M,01,0004*66
$GPHPD,1957,29994.000,141.69,-0.83,13.04,31.5894525,120.7774450,2.609,13633134.879,24925880.626,2.609,-0.976,0.048,-0.906,0.689,1.058,0.732,0.000,15,13,4*6C
$GPGGA,081936.40,3135.3670363,N,12046.6468049,E,4,15,1.4,2.6102,M,8.315,M,01,0004*64
$GPHPD,1957,29994.200,141.74,-0.27,13.02,31.5894506,120.7774467,2.610,13633136.713,24925882.530,2.610,-0.973,-0.015,-0.908,0.689,1.058,0.732,0.000,15,13,4*46
$GPGGA,081936.60,3135.3669214,N,12046.6469090,E,4,15,1.4,2.6149,M,8.315,M,00,0004*64
$GPHPD,1957,29994.400,141.78,-0.29,13.01,31.5894487,120.7774485,2.615,13633138.556,24925884.454,2.615,-0.977,0.040,-0.901,0.689,1.058,0.732,0.000,15,13,4*6D
$GPGGA,081936.80,3135.3668078,N,12046.6470101,E,4,15,1.4,2.6295,M,8.315,M,00,0004*60
$GPHPD,1957,29994.600,142.09,-1.58,13.00,31.5894468,120.7774502,2.630,13633140.375,24925886.335,2.630,-1.005,0.101,-0.888,0.689,1.058,0.732,0.000,15,13,4*60
$GPGGA,081937.00,3135.3666904,N,12046.6471097,E,4,15,1.4,2.6295,M,8.315,M,01,0004*6B
$GPHPD,1957,29994.800,142.20,-2.29,13.00,31.5894448,120.7774518,2.630,13633142.244,24925888.219,2.630,-0.996,0.120,-0.873,0.689,1.058,0.732,0.000,15,13,4*6C
$GPGGA,081937.20,3135.3665758,N,12046.6472091,E,4,15,1.4,2.6221,M,8.315,M,01,0004*67
$GPHPD,1957,29995.000,142.57,-1.71,13.00,31.5894429,120.7774535,2.622,13633144.073,24925890.085,2.622,-0.969,0.107,-0.916,0.689,1.058,0.732,0.000,15,13,4*6A
$GPGGA,081937.40,3135.3664630,N,12046.6473118,E,4,15,1.4,2.6195,M,8.315,M,01,0004*62
$GPHPD,1957,29995.200,142.63,-1.99,13.01,31.5894411,120.7774552,2.620,13633145.883,24925891.980,2.620,-0.955,0.073,-0.911,0.689,1.058,0.732,0.000,15,13,4*63
$GPGGA,081937.60,3135.3663488,N,12046.6474104,E,4,15,1.4,2.6102,M,8.315,M,00,0004*63
$GPHPD,1957,29995.400,143.13,-1.03,12.97,31.5894391,120.7774568,2.610,13633147.705,24925893.833,2.610,-0.939,-0.005,-0.919,0.689,1.058,0.732,0.000,15,13,4*4E
$GPGGA,081937.80,3135.3662377,N,12046.6475021,E,4,15,1.4,2.6059,M,8.315,M,00,0004*63
$GPHPD,1957,29995.600,143.34,-1.16,12.92,31.5894373,120.7774584,2.606,13633149.469,24925895.586,2.606,-0.923,-0.002,-0.930,0.689,1.058,0.732,0.000,15,13,4*43
$GPGGA,081938.00,3135.3661284,N,12046.6475978,E,4,15,1.4,2.6002,M,8.315,M,01,0004*60
$GPHPD,1957,29995.800,143.52,-0.51,12.87,31.5894355,120.7774600,2.600,13633151.215,24925897.376,2.600,-0.892,0.063,-0.903,0.689,1.058,0.732,0.000,15,13,4*6E
$GPGGA,081938.20,3135.3660225,N,12046.6476860,E,4,15,1.4,2.5982,M,8.315,M,01,0004*61
$GPHPD,1957,29996.000,143.70,0.55,12.83,31.5894337,120.7774614,2.598,13633152.898,24925899.056,2.598,-0.921,0.091,-0.852,0.689,1.058,0.732,0.000,15,13,4*4B
$GPGGA,081938.40,3135.3659194,N,12046.6477733,E,4,15,1.4,2.5862,M,8.315,M,01,0004*63
$GPHPD,1957,29996.200,143.65,-0.38,12.76,31.5894320,120.7774629,2.586,13633154.540,24925900.709,2.586,-0.872,0.090,-0.830,0.689,1.058,0.732,0.000,15,13,4*69
$GPGGA,081938.60,3135.3658200,N,12046.6478545,E,4,15,1.4,2.6006,M,8.315,M,00,0004*6A
$GPHPD,1957,29996.400,143.76,0.34,12.73,31.5894303,120.7774642,2.601,13633156.116,24925902.266,2.601,-0.827,0.001,-0.867,0.689,1.058,0.732,0.000,15,13,4*44
$GPGGA,081938.80,3135.3657226,N,12046.6479368,E,4,15,1.4,2.6152,M,8.315,M,00,0004*67
$GPHPD,1957,29996.600,143.66,0.09,12.71,31.5894287,120.7774656,2.615,13633157.666,24925903.826,2.615,-0.822,0.116,-0.739,0.689,1.058,0.732,0.000,15,13,4*4B
$GPGGA,081939.00,3135.3656266,N,12046.6480120,E,4,15,1.4,2.6082,M,8.315,M,01,0004*6E
$GPHPD,1957,29996.800,143.81,-0.71,12.70,31.5894271,120.7774669,2.608,13633159.182,24925905.291,2.608,-0.839,0.162,-0.717,0.689,1.058,0.732,0.000,15,13,4*6C
$GPGGA,081939.20,3135.3655344,N,12046.6480932,E,4,15,1.4,2.6071,M,8.315,M,01,0004*69
$GPHPD,1957,29997.000,143.63,-0.60,12.69,31.5894256,120.7774682,2.607,13633160.656,24925906.807,2.607,-0.787,0.148,-0.738,0.689,1.058,0.732,0.000,15,13,4*6C
$GPGGA,081939.40,3135.3654411,N,12046.6481690,E,4,15,1.4,2.6124,M,8.315,M,01,0004*6E
$GPHPD,1957,29997.200,144.06,-0.85,12.69,31.5894240,120.7774695,2.612,13633162.135,24925908.264,2.612,-0.783,0.104,-0.737,0.689,1.058,0.732,0.000,15,13,4*62
$GPGGA,081939.60,3135.3653531,N,12046.6482443,E,4,15,1.4,2.6134,M,8.315,M,00,0004*67
$GPHPD,1957,29997.400,143.93,-0.78,12.71,31.5894226,120.7774707,2.613,13633163.538,24925909.685,2.613,-0.767,0.056,-0.725,0.689,1.058,0.732,0.000,15,13,4*63
$GPGGA,081939.80,3135.3652637,N,12046.6483197,E,4,15,1.4,2.6117,M,8.315,M,00,0004*61
$GPHPD,1957,29997.600,144.25,-0.81,12.73,31.5894211,120.7774720,2.612,13633164.960,24925911.114,2.612,-0.742,0.097,-0.694,0.689,1.058,0.732,0.000,15,13,4*6F
$GPGGA,081940.00,3135.3651764,N,12046.6483898,E,4,15,1.4,2.6157,M,8.315,M,01,0004*60
$GPHPD,1957,29997.800,144.39,-1.16,12.72,31.5894196,120.7774732,2.616,13633166.342,24925912.468,2.616,-0.724,0.032,-0.701,0.689,1.058,0.732,0.000,15,13,4*6A
$GPGGA,081940.20,3135.3650873,N,12046.6484621,E,4,15,1.4,2.6103,M,8.315,M,01,0004*60
$GPHPD,1957,29998.000,144.48,-1.40,12.71,31.5894181,120.7774744,2.610,13633167.754,24925913.858,2.610,-0.705,0.090,-0.696,0.689,1.058,0.732,0.000,15,13,4*64
$GPGGA,081940.40,3135.3649982,N,12046.6485351,E,4,15,1.4,2.6176,M,8.315,M,01,0004*60
$GPHPD,1957,29998.200,144.52,-1.24,12.73,31.5894166,120.7774756,2.618,13633169.168,24925915.257,2.618,-0.702,0.092,-0.707,0.689,1.058,0.732,0.000,15,13,4*6F
$GPGGA,081940.60,3135.3649090,N,12046.6486038,E,4,15,1.4,2.6175,M,8.315,M,00,0004*65
$GPHPD,1957,29998.400,144.84,-2.08,12.76,31.5894152,120.7774767,2.618,13633170.574,24925916.605,2.618,-0.739,0.100,-0.688,0.689,1.058,0.732,0.000,15,13,4*6A
$GPGGA,081940.80,3135.3648212,N,12046.6486779,E,4,15,1.4,2.6041,M,8.315,M,00,0004*66
$GPHPD,1957,29998.600,144.61,-2.11,12.76,31.5894137,120.7774780,2.604,13633171.971,24925918.009,2.604,-0.711,0.089,-0.689,0.689,1.058,0.732,0.000,15,13,4*66
$GPGGA,081941.00,3135.3647353,N,12046.6487504,E,4,15,1.4,2.6025,M,8.315,M,01,0004*6E
$GPHPD,1957,29998.800,145.36,-3.87,12.80,31.5894123,120.7774792,2.603,13633173.338,24925919.383,2.603,-0.692,0.026,-0.720,0.689,1.058,0.732,0.000,15,13,4*62
$GPGGA,081941.20,3135.3646424,N,12046.6488228,E,4,15,1.4,2.6092,M,8.315,M,01,0004*60
$GPHPD,1957,29999.000,144.93,-2.01,12.84,31.5894107,120.7774804,2.609,13633174.805,24925920.797,2.609,-0.694,0.026,-0.729,0.689,1.058,0.732,0.000,15,12,4*6F
$GPGGA,081941.40,3135.3645519,N,12046.6488965,E,4,15,1.4,2.5961,M,8.315,M,01,0004*6E
$GPHPD,1957,29999.200,144.78,-1.45,12.86,31.5894092,120.7774816,2.596,13633176.239,24925922.213,2.596,-0.727,0.117,-0.707,0.689,1.058,0.732,0.000,15,12,4*6D
$GPGGA,081941.60,3135.3644580,N,12046.6489733,E,4,15,1.4,2.5937,M,8.315,M,00,0004*63
$GPHPD,1957,29999.400,144.85,-0.99,12.89,31.5894076,120.7774829,2.594,13633177.729,24925923.685,2.594,-0.726,0.025,-0.743,0.689,1.058,0.732,0.000,15,12,4*6E
$GPGGA,081941.80,3135.3643609,N,12046.6490485,E,4,15,1.4,2.6003,M,8.315,M,00,0004*63
$GPHPD,1957,29999.600,144.95,-0.84,12.93,31.5894060,120.7774841,2.600,13633179.260,24925925.157,2.600,-0.740,0.013,-0.765,0.819,1.066,0.786,0.000,15,12,4*6F
$GPGGA,081942.00,3135.3642645,N,12046.6491321,E,4,15,1.4,2.6029,M,8.315,M,01,0004*60
$GPHPD,1957,29999.800,144.86,-0.85,12.98,31.5894044,120.7774855,2.603,13633180.799,24925926.726,2.603,-0.756,0.118,-0.760,0.819,1.066,0.786,0.000,15,12,4*64
$GPGGA,081942.20,3135.3641657,N,12046.6492104,E,4,15,1.4,2.5949,M,8.315,M,01,0004*68
$GPHPD,1957,30000.000,144.87,-0.17,13.02,31.5894028,120.7774868,2.595,13633182.361,24925928.246,2.595,-0.774,0.047,-0.769,0.819,1.066,0.786,0.000,15,12,4*6F
$GPGGA,081942.40,3135.3640654,N,12046.6492952,E,4,15,1.4,2.5919,M,8.315,M,01,0004*62
$GPHPD,1957,30000.200,144.89,-0.36,13.06,31.5894011,120.7774883,2.592,13633183.958,24925929.852,2.592,-0.760,0.049,-0.804,0.819,1.067,0.786,0.000,15,12,4*6A
$GPGGA,081942.60,3135.3639625,N,12046.6493794,E,4,15,1.4,2.5824,M,8.315,M,00,0004*63
