$GPGGA,092213.00,3135.6458268,N,12046.6277756,E,4,17,1.7,2.5944,M,8.311,M,01,0004*64
$GPHPD,0,0.000,240.74,-1.82,-11.99,31.5940971,120.7771296,2.594,13629135.788,24924030.053,2.594,0.000,0.000,0.000,0.000,0.000,0.000,0.000,17,16,4*7C
$GPGGA,092213.20,3135.6457996,N,12046.6277195,E,4,17,1.7,2.5966,M,8.311,M,01,0004*6A
$GPHPD,0,0.000,240.89,-1.91,-11.98,31.5940967,120.7771287,2.597,13629136.062,24924029.535,2.597,0.000,0.000,0.000,0.000,0.000,0.000,0.000,17,16,4*77
$GPGGA,092213.40,3135.6457751,N,12046.6276691,E,4,17,1.7,2.5900,M,8.311,M,01,0004*6B
$GPHPD,0,0.000,241.09,-1.65,-11.97,31.5940963,120.7771278,2.590,13629136.309,24924029.070,2.590,0.000,0.000,0.000,0.000,0.000,0.000,0.000,17,16,4*74
$GPGGA,092213.60,3135.6457517,N,12046.6276163,E,4,17,1.7,2.5879,M,8.311,M,00,0004*6D
$GPHPD,0,0.000,240.96,-1.02,-11.95,31.5940959,120.7771269,2.588,13629136.535,24924028.569,2.588,0.000,0.000,0.000,0.000,0.000,0.000,0.000,17,16,4*7C
$GPGGA,092213.80,3135.6457273,N,12046.6275691,E,4,17,1.7,2.5883,M,8.311,M,00,0004*6A
$GPHPD,0,0.000,240.48,-0.94,-11.94,31.5940955,120.7771262,2.588,13629136.787,24924028.142,2.588,0.000,0.000,0.000,0.000,0.000,0.000,0.000,17,16,4*71
$GPGGA,092214.00,3135.6457072,N,12046.6275224,E,4,17,1.7,2.5795,M,8.311,M,01,0004*65
$GPHPD,0,0.000,240.50,-0.80,-11.91,31.5940951,120.7771254,2.580,13629136.979,24924027.696,2.580,0.000,0.000,0.000,0.000,0.000,0.000,0.000,17,16,4*77
$GPGGA,092214.20,3135.6456847,N,12046.6274757,E,4,17,1.7,2.5904,M,8.311,M,01,0004*6E
$GPHPD,0,0.000,240.40,-0.61,-11.90,31.5940947,120.7771246,2.590,13629137.205,24924027.264,2.590,0.000,0.000,0.000,0.000,0.000,0.000,0.000,17,16,4*74
$GPGGA,092214.40,3135.6456631,N,12046.6274311,E,4,17,1.7,2.5870,M,8.311,M,01,0004*63
$GPHPD,0,0.000,240.16,-0.41,-11.91,31.5940944,120.7771239,2.587,13629137.422,24924026.852,2.587,0.000,0.000,0.000,0.000,0.000,0.000,0.000,17,16,4*72
$GPGGA,092214.60,3135.6456404,N,12046.6273864,E,4,17,1.7,2.5851,M,8.311,M,00,0004*69
$GPHPD,0,0.000,240.43,-0.63,-11.95,31.5940940,120.7771231,2.585,13629137.655,24924026.445,2.585,0.000,0.000,0.000,0.000,0.000,0.000,0.000,17,16,4*72
$GPGGA,092214.80,3135.6456181,N,12046.6273334,E,4,17,1.7,2.5809,M,8.311,M,00,0004*6C
$GPHPD,0,0.000,240.34,0.16,-11.99,31.5940936,120.7771222,2.581,13629137.865,24924025.936,2.581,0.000,0.000,0.000,0.000,0.000,0.000,0.000,17,16,4*55
$GPGGA,092215.00,3135.6455902,N,12046.6272775,E,4,17,1.7,2.5835,M,8.311,M,01,0004*6B
$GPHPD,0,0.000,240.29,-0.17,-12.05,31.5940932,120.7771213,2.584,13629138.149,24924025.425,2.584,0.000,0.000,0.000,0.000,0.000,0.000,0.000,17,16,4*72
$GPGGA,092215.20,3135.6455612,N,12046.6272177,E,4,17,1.7,2.5872,M,8.311,M,01,0004*60
$GPHPD,0,0.000,240.06,-0.10,-12.10,31.5940927,120.7771203,2.587,13629138.441,24924024.872,2.587,0.000,0.000,0.000,0.000,0.000,0.000,0.000,17,16,4*7B
$GPGGA,092215.40,3135.6455342,N,12046.6271528,E,4,17,1.7,2.5764,M,8.311,M,01,0004*63
$GPHPD,0,0.000,239.92,0.10,-12.15,31.5940922,120.7771192,2.576,13629138.694,24924024.247,2.576,0.000,0.000,0.000,0.000,0.000,0.000,0.000,17,16,4*58
$GPGGA,092215.60,3135.6455033,N,12046.6270839,E,4,17,1.7,2.5793,M,8.311,M,00,0004*61
$GPHPD,0,0.000,239.88,-0.02,-12.22,31.5940917,120.7771181,2.579,13629138.995,24924023.596,2.579,0.000,0.000,0.000,0.000,0.000,0.000,0.000,17,16,4*7F
$GPGGA,092215.80,3135.6454703,N,12046.6270120,E,4,17,1.7,2.5717,M,8.311,M,00,0004*67
$GPHPD,0,0.000,239.98,-0.05,-12.31,31.5940912,120.7771169,2.572,13629139.319,24924022.922,2.572,0.000,0.000,0.000,0.000,0.000,0.000,0.000,17,16,4*75
$GPGGA,092216.00,3135.6454309,N,12046.6269249,E,4,17,1.7,2.5798,M,8.311,M,01,0004*60
$GPHPD,0,0.000,240.05,-0.10,-12.39,31.5940905,120.7771154,2.580,13629139.704,24924022.101,2.580,0.000,0.000,0.000,0.000,0.000,0.000,0.000,17,16,4*7A
$GPGGA,092216.20,3135.6453854,N,12046.6268393,E,4,17,1.7,2.5879,M,8.311,M,01,0004*61
$GPHPD,0,0.000,240.15,-0.20,-12.45,31.5940898,120.7771140,2.588,13629140.178,24924021.334,2.588,0.000,0.000,0.000,0.000,0.000,0.000,0.000,17,16,4*77
$GPGGA,092216.40,3135.6453408,N,12046.6267462,E,4,17,1.7,2.5940,M,8.311,M,01,0004*6F
$GPHPD,0,0.000,240.45,-0.03,-12.52,31.5940890,120.7771124,2.594,13629140.625,24924020.471,2.594,0.000,0.000,0.000,0.000,0.000,0.000,0.000,17,16,4*77
$GPGGA,092216.60,3135.6452902,N,12046.6266477,E,4,17,1.7,2.6063,M,8.311,M,00,0004*64
$GPHPD,0,0.000,240.56,-1.12,-12.59,31.5940882,120.7771108,2.606,13629141.146,24924019.578,2.606,0.000,0.000,0.000,0.000,0.000,0.000,0.000,17,16,4*73
$GPGGA,092216.80,3135.6452365,N,12046.6265372,E,4,17,1.7,2.6106,M,8.311,M,00,0004*62
$GPHPD,0,0.000,240.36,-0.95,-12.63,31.5940873,120.7771090,2.611,13629141.687,24924018.558,2.611,0.000,0.000,0.000,0.000,0.000,0.000,0.000,17,16,4*75
$GPGGA,092217.00,3135.6451827,N,12046.6264243,E,4,17,1.7,2.6041,M,8.311,M,01,0004*64
$GPHPD,0,0.000,240.17,-0.83,-12.67,31.5940864,120.7771071,2.604,13629142.225,24924017.510,2.604,0.000,0.000,0.000,0.000,0.000,0.000,0.000,17,16,4*70
$GPGGA,092217.20,3135.6451258,N,12046.6263053,E,4,17,1.7,2.6049,M,8.311,M,01,0004*68
$GPHPD,0,0.000,240.22,-0.94,-12.69,31.5940854,120.7771051,2.605,13629142.794,24924016.407,2.605,0.000,0.000,0.000,0.000,0.000,0.000,0.000,17,16,4*76
$GPGGA,092217.40,3135.6450684,N,12046.6261748,E,4,17,1.7,2.6092,M,8.311,M,01,0004*63
$GPHPD,0,0.000,240.24,-0.63,-12.72,31.5940845,120.7771029,2.609,13629143.347,24924015.167,2.609,0.000,0.000,0.000,0.000,0.000,0.000,0.000,17,16,4*76
$GPGGA,092217.60,3135.6450088,N,12046.6260409,E,4,17,1.7,2.5869,M,8.311,M,00,0004*62
$GPHPD,0,0.000,240.20,-0.56,-12.75,31.5940835,120.7771007,2.587,13629143.925,24924013.900,2.587,0.000,0.000,0.000,0.000,0.000,0.000,0.000,17,16,4*79
$GPGGA,092217.80,3135.6449482,N,12046.6259059,E,4,17,1.7,2.5726,M,8.311,M,00,0004*65
$GPHPD,0,0.000,239.68,-0.13,-12.81,31.5940825,120.7770984,2.573,13629144.515,24924012.625,2.573,0.000,0.000,0.000,0.000,0.000,0.000,0.000,17,16,4*72
$GPGGA,092218.00,3135.6448771,N,12046.6257705,E,4,17,1.7,2.5760,M,8.311,M,01,0004*6F
$GPHPD,0,0.000,239.61,-0.17,-12.85,31.5940813,120.7770962,2.576,13629145.253,24924011.407,2.576,0.000,0.000,0.000,0.000,0.000,0.000,0.000,17,16,4*73
$GPGGA,092218.20,3135.6448072,N,12046.6256232,E,4,17,1.7,2.5806,M,8.311,M,01,0004*66
$GPHPD,0,0.000,239.59,0.34,-12.88,31.5940801,120.7770937,2.581,13629145.950,24924010.038,2.581,0.000,0.000,0.000,0.000,0.000,0.000,0.000,17,16,4*5B
$GPGGA,092218.40,3135.6447365,N,12046.6254712,E,4,17,1.7,2.5898,M,8.311,M,01,0004*68
$GPHPD,0,0.000,239.56,0.69,-12.90,31.5940789,120.7770912,2.590,13629146.649,24924008.616,2.590,0.000,0.000,0.000,0.000,0.000,0.000,0.000,17,16,4*5A
$GPGGA,092218.60,3135.6446587,N,12046.6253209,E,4,17,1.7,2.5920,M,8.311,M,00,0004*6A
$GPHPD,0,0.000,240.38,-0.54,-12.90,31.5940776,120.7770887,2.592,13629147.453,24924007.257,2.592,0.000,0.000,0.000,0.000,0.000,0.000,0.000,17,16,4*74
$GPGGA,092218.80,3135.6445839,N,12046.6251648,E,4,17,1.7,2.5892,M,8.311,M,00,0004*64
$GPHPD,0,0.000,241.04,-1.07,-12.90,31.5940764,120.7770861,2.589,13629148.202,24924005.811,2.589,0.000,0.000,0.000,0.000,0.000,0.000,0.000,17,16,4*71
$GPGGA,092219.00,3135.6445044,N,12046.6250028,E,4,17,1.7,2.5988,M,8.311,M,01,0004*65
$GPHPD,0,0.000,240.93,-0.21,-12.91,31.5940751,120.7770834,2.599,13629149.006,24924004.320,2.599,0.000,0.000,0.000,0.000,0.000,0.000,0.000,17,16,4*73
$GPGGA,092219.20,3135.6444219,N,12046.6248394,E,4,17,1.7,2.6330,M,8.311,M,01,0004*6B
$GPHPD,0,0.000,240.70,-0.56,-12.90,31.5940737,120.7770807,2.633,13629149.850,24924002.831,2.633,0.000,0.000,0.000,0.000,0.000,0.000,0.000,17,16,4*79
$GPGGA,092219.40,3135.6443512,N,12046.6246603,E,4,17,1.7,2.5993,M,8.311,M,01,0004*63
$GPHPD,0,0.000,241.47,-1.90,-12.93,31.5940725,120.7770777,2.599,13629150.494,24924001.083,2.599,0.000,0.000,0.000,0.000,0.000,0.000,0.000,17,16,4*71
$GPGGA,092219.60,3135.6442710,N,12046.6244883,E,4,17,1.7,2.6051,M,8.311,M,00,0004*61
$GPHPD,0,0.000,241.05,-0.92,-12.96,31.5940712,120.7770748,2.605,13629151.288,24923999.476,2.605,0.000,0.000,0.000,0.000,0.000,0.000,0.000,17,16,4*72
$GPGGA,092219.80,3135.6441916,N,12046.6243094,E,4,17,1.7,2.5987,M,8.311,M,00,0004*6C
$GPHPD,0,0.000,241.34,-1.49,-12.91,31.5940699,120.7770718,2.599,13629152.057,24923997.781,2.599,0.000,0.000,0.000,0.000,0.000,0.000,0.000,17,16,4*71
$GPGGA,092220.00,3135.6441093,N,12046.6241273,E,4,17,1.7,2.5850,M,8.311,M,01,0004*69
$GPHPD,0,0.000,241.21,-1.41,-12.92,31.5940685,120.7770688,2.585,13629152.860,24923996.065,2.585,0.000,0.000,0.000,0.000,0.000,0.000,0.000,17,16,4*7B
$GPGGA,092220.20,3135.6440260,N,12046.6239496,E,4,17,1.8,2.5868,M,8.311,M,01,0004*62
$GPHPD,0,0.000,241.31,-0.48,-12.91,31.5940671,120.7770658,2.587,13629153.687,24923994.407,2.587,0.000,0.000,0.000,0.000,0.000,0.000,0.000,17,16,4*73
$GPGGA,092220.40,3135.6439406,N,12046.6237625,E,4,17,1.7,2.5791,M,8.311,M,01,0004*6E
$GPHPD,0,0.000,240.91,-0.53,-12.88,31.5940657,120.7770627,2.579,13629154.524,24923992.649,2.579,0.000,0.000,0.000,0.000,0.000,0.000,0.000,17,16,4*75
$GPGGA,092220.60,3135.6438532,N,12046.6235784,E,4,17,1.7,2.5822,M,8.311,M,00,0004*65
$GPHPD,0,0.000,240.63,-0.80,-12.88,31.5940642,120.7770596,2.582,13629155.396,24923990.938,2.582,0.000,0.000,0.000,0.000,0.000,0.000,0.000,17,16,4*7E
$GPGGA,092220.80,3135.6437653,N,12046.6233885,E,4,17,1.7,2.5862,M,8.311,M,00,0004*6C
$GPHPD,0,0.000,240.90,-1.22,-12.83,31.5940628,120.7770565,2.586,13629156.263,24923989.160,2.586,0.000,0.000,0.000,0.000,0.000,0.000,0.000,17,16,4*75
$GPGGA,092221.00,3135.6436720,N,12046.6232020,E,4,17,1.7,2.5890,M,8.311,M,01,0004*6B
$GPHPD,0,0.000,240.53,-0.64,-12.80,31.5940612,120.7770534,2.589,13629157.214,24923987.455,2.589,0.000,0.000,0.000,0.000,0.000,0.000,0.000,17,16,4*7B
$GPGGA,092221.20,3135.6435884,N,12046.6230110,E,4,17,1.7,2.5915,M,8.311,M,01,0004*67
$GPHPD,0,0.000,240.98,-0.69,-12.81,31.5940598,120.7770502,2.592,13629158.018,24923985.638,2.592,0.000,0.000,0.000,0.000,0.000,0.000,0.000,17,16,4*7E
$GPGGA,092221.40,3135.6435094,N,12046.6228302,E,4,17,1.7,2.5397,M,8.311,M,01,0004*60
$GPHPD,0,0.000,240.69,0.18,-12.77,31.5940585,120.7770472,2.540,13629158.777,24923983.918,2.540,0.000,0.000,0.000,0.000,0.000,0.000,0.000,17,16,4*5D
$GPGGA,092221.60,3135.6434211,N,12046.6226435,E,4,17,1.6,2.5542,M,8.311,M,01,0004*6E
$GPHPD,0,0.000,240.91,1.00,-12.77,31.5940570,120.7770441,2.554,13629159.657,24923982.181,2.554,0.000,0.000,0.000,0.000,0.000,0.000,0.000,17,16,4*53
$GPGGA,092221.80,3135.6433308,N,12046.6224547,E,4,17,1.6,2.5685,M,8.311,M,00,0004*61
$GPHPD,0,0.000,240.62,0.66,-12.81,31.5940555,120.7770409,2.569,13629160.561,24923980.431,2.569,0.000,0.000,0.000,0.000,0.000,0.000,0.000,17,16,4*5C
$GPGGA,092222.00,3135.6432358,N,12046.6222683,E,4,17,1.8,2.6040,M,8.311,M,01,0004*60
$GPHPD,0,0.000,239.84,0.65,-12.88,31.5940539,120.7770378,2.604,13629161.536,24923978.737,2.604,0.000,0.000,0.000,0.000,0.000,0.000,0.000,17,16,4*5A
$GPGGA,092222.20,3135.6431465,N,12046.6220879,E,4,16,1.7,2.6053,M,8.311,M,01,0004*6D
$GPHPD,0,0.000,239.86,0.25,-12.90,31.5940524,120.7770348,2.605,13629162.442,24923977.081,2.605,0.000,0.000,0.000,0.000,0.000,0.000,0.000,16,16,4*5F
$GPGGA,092222.40,3135.6430615,N,12046.6219130,E,4,17,1.6,2.6089,M,8.311,M,01,0004*66
$GPHPD,0,0.000,240.93,-0.37,-12.98,31.5940510,120.7770319,2.609,13629163.298,24923975.468,2.609,0.000,0.000,0.000,0.000,0.000,0.000,0.000,17,17,4*71
$GPGGA,092222.60,3135.6429733,N,12046.6217366,E,4,17,1.6,2.6083,M,8.311,M,00,0004*6D
$GPHPD,0,0.000,240.86,-0.78,-13.03,31.5940496,120.7770289,2.608,13629164.197,24923973.854,2.608,0.000,0.000,0.000,0.000,0.000,0.000,0.000,17,17,4*74
$GPGGA,092222.80,3135.6428932,N,12046.6215544,E,4,17,1.6,2.5887,M,8.311,M,00,0004*66
$GPHPD,0,0.000,241.33,0.50,-12.98,31.5940482,120.7770259,2.589,13629164.969,24923972.124,2.589,0.000,0.000,0.000,0.000,0.000,0.000,0.000,17,17,4*51
$GPGGA,092223.00,3135.6428123,N,12046.6213751,E,4,17,1.6,2.6047,M,8.311,M,01,0004*61
$GPHPD,0,0.000,241.36,1.07,-12.97,31.5940469,120.7770229,2.605,13629165.758,24923970.433,2.605,0.000,0.000,0.000,0.000,0.000,0.000,0.000,17,17,4*56
$GPGGA,092223.20,3135.6427284,N,12046.6212010,E,4,17,1.6,2.5741,M,8.311,M,01,0004*63
$GPHPD,0,0.000,240.46,1.10,-12.96,31.5940455,120.7770200,2.574,13629166.601,24923968.822,2.574,0.000,0.000,0.000,0.000,0.000,0.000,0.000,17,17,4*58
$GPGGA,092223.40,3135.6426475,N,12046.6210201,E,4,17,1.6,2.5837,M,8.311,M,01,0004*62
$GPHPD,0,0.000,240.13,0.22,-12.80,31.5940441,120.7770170,2.584,13629167.386,24923967.112,2.584,0.000,0.000,0.000,0.000,0.000,0.000,0.000,17,17,4*50
$GPGGA,092223.60,3135.6425591,N,12046.6208363,E,4,17,1.6,2.6039,M,8.311,M,00,0004*60
$GPHPD,0,0.000,240.39,0.38,-12.65,31.5940427,120.7770139,2.604,13629168.273,24923965.411,2.604,0.000,0.000,0.000,0.000,0.000,0.000,0.000,17,17,4*55
$GPGGA,092223.80,3135.6424736,N,12046.6206627,E,4,17,1.6,2.6131,M,8.311,M,00,0004*62
$GPHPD,0,0.000,240.62,-0.71,-12.53,31.5940412,120.7770110,2.613,13629169.139,24923963.816,2.613,0.000,0.000,0.000,0.000,0.000,0.000,0.000,17,17,4*72
$GPGGA,092224.00,3135.6423854,N,12046.6204952,E,4,17,1.6,2.6009,M,8.311,M,01,0004*65
$GPHPD,0,0.000,240.90,-0.90,-12.42,31.5940398,120.7770083,2.601,13629170.056,24923962.310,2.601,0.000,0.000,0.000,0.000,0.000,0.000,0.000,17,17,4*72
$GPGGA,092224.20,3135.6423039,N,12046.6203218,E,4,17,1.6,2.5823,M,8.311,M,01,0004*65
$GPHPD,0,0.000,240.39,0.00,-12.35,31.5940384,120.7770054,2.582,13629170.865,24923960.693,2.582,0.000,0.000,0.000,0.000,0.000,0.000,0.000,17,17,4*56
$GPGGA,092224.40,3135.6422302,N,12046.6201457,E,4,17,1.6,2.5993,M,8.311,M,01,0004*6C
$GPHPD,0,0.000,240.13,0.94,-12.32,31.5940372,120.7770024,2.599,13629171.559,24923958.999,2.599,0.000,0.000,0.000,0.000,0.000,0.000,0.000,17,17,4*57
$GPGGA,092224.60,3135.6421526,N,12046.6199744,E,4,17,1.6,2.5996,M,8.311,M,00,0004*6A
$GPHPD,0,0.000,240.19,-0.01,-12.34,31.5940359,120.7769996,2.600,13629172.317,24923957.386,2.600,0.000,0.000,0.000,0.000,0.000,0.000,0.000,17,17,4*7F
$GPGGA,092224.80,3135.6420710,N,12046.6198128,E,4,17,1.6,2.5855,M,8.311,M,00,0004*61
$GPHPD,0,0.000,239.92,0.33,-12.31,31.5940345,120.7769969,2.586,13629173.152,24923955.912,2.586,0.000,0.000,0.000,0.000,0.000,0.000,0.000,17,17,4*51
$GPGGA,092225.00,3135.6419835,N,12046.6196469,E,4,17,1.6,2.5924,M,8.311,M,01,0004*62
$GPHPD,0,0.000,239.78,1.07,-12.34,31.5940331,120.7769941,2.592,13629174.062,24923954.422,2.592,0.000,0.000,0.000,0.000,0.000,0.000,0.000,17,17,4*55
$GPGGA,092225.20,3135.6419045,N,12046.6194772,E,4,17,1.6,2.6029,M,8.311,M,01,0004*63
$GPHPD,0,0.000,240.45,0.36,-12.38,31.5940317,120.7769913,2.603,13629174.843,24923952.835,2.603,0.000,0.000,0.000,0.000,0.000,0.000,0.000,17,17,4*5E
$GPGGA,092225.40,3135.6418223,N,12046.6193108,E,4,17,1.6,2.6008,M,8.311,M,01,0004*69
$GPHPD,0,0.000,239.79,-0.47,-12.39,31.5940304,120.7769885,2.601,13629175.677,24923951.308,2.601,0.000,0.000,0.000,0.000,0.000,0.000,0.000,17,17,4*77
$GPGGA,092225.60,3135.6417373,N,12046.6191410,E,4,16,1.6,2.6225,M,8.311,M,00,0004*63
$GPHPD,0,0.000,239.48,0.29,-12.37,31.5940290,120.7769857,2.623,13629176.543,24923949.755,2.623,0.000,0.000,0.000,0.000,0.000,0.000,0.000,16,17,4*5E
$GPGGA,092225.80,3135.6416482,N,12046.6189841,E,4,17,1.7,2.6201,M,8.311,M,00,0004*62
$GPHPD,0,0.000,240.08,-1.07,-12.37,31.5940275,120.7769831,2.620,13629177.494,24923948.382,2.620,0.000,0.000,0.000,0.000,0.000,0.000,0.000,17,17,4*7B
$GPGGA,092226.00,3135.6415771,N,12046.6188091,E,4,17,1.6,2.6107,M,8.311,M,01,0004*64
$GPHPD,0,0.000,240.40,-0.24,-12.35,31.5940263,120.7769802,2.611,13629178.152,24923946.686,2.611,0.000,0.000,0.000,0.000,0.000,0.000,0.000,17,17,4*7D
$GPGGA,092226.20,3135.6414980,N,12046.6186444,E,4,17,1.6,2.5849,M,8.311,M,01,0004*65
$GPHPD,0,0.000,240.06,-0.05,-12.36,31.5940250,120.7769774,2.585,13629178.945,24923945.161,2.585,0.000,0.000,0.000,0.000,0.000,0.000,0.000,17,17,4*72
$GPGGA,092226.40,3135.6414157,N,12046.6184845,E,4,17,1.6,2.5927,M,8.311,M,01,0004*67
$GPHPD,0,0.000,240.23,1.32,-12.36,31.5940236,120.7769747,2.593,13629179.793,24923943.712,2.593,0.000,0.000,0.000,0.000,0.000,0.000,0.000,17,17,4*5D
$GPGGA,092226.60,3135.6413390,N,12046.6183206,E,4,17,1.6,2.6089,M,8.311,M,00,0004*6E
$GPHPD,0,0.000,239.77,1.33,-12.36,31.5940223,120.7769720,2.609,13629180.554,24923942.183,2.609,0.000,0.000,0.000,0.000,0.000,0.000,0.000,17,17,4*56
$GPGGA,092226.80,3135.6412594,N,12046.6181544,E,4,17,1.6,2.5985,M,8.311,M,00,0004*66
$GPHPD,0,0.000,239.86,0.24,-12.34,31.5940210,120.7769692,2.599,13629181.351,24923940.642,2.599,0.000,0.000,0.000,0.000,0.000,0.000,0.000,17,16,4*5E
$GPGGA,092227.00,3135.6411815,N,12046.6179925,E,4,17,1.6,2.6192,M,8.311,M,01,0004*68
$GPHPD,0,0.000,239.88,0.36,-12.37,31.5940197,120.7769665,2.619,13629182.132,24923939.144,2.619,0.000,0.000,0.000,0.000,0.000,0.000,0.000,17,16,4*5F
$GPGGA,092227.20,3135.6411031,N,12046.6178308,E,4,17,1.6,2.6208,M,8.311,M,01,0004*60
$GPHPD,0,0.000,239.95,-0.45,-12.36,31.5940184,120.7769638,2.621,13629182.921,24923937.651,2.621,0.000,0.000,0.000,0.000,0.000,0.000,0.000,17,16,4*76
$GPGGA,092227.40,3135.6410274,N,12046.6176734,E,4,17,1.6,2.6075,M,8.311,M,01,0004*69
$GPHPD,0,0.000,239.65,-0.25,-12.39,31.5940171,120.7769612,2.608,13629183.681,24923936.194,2.608,0.000,0.000,0.000,0.000,0.000,0.000,0.000,17,16,4*79
$GPGGA,092227.60,3135.6409523,N,12046.6175104,E,4,17,1.6,2.5928,M,8.311,M,00,0004*63
$GPHPD,0,0.000,239.77,-0.74,-12.38,31.5940159,120.7769585,2.593,13629184.420,24923934.666,2.593,0.000,0.000,0.000,0.000,0.000,0.000,0.000,17,16,4*7E
$GPGGA,092227.80,3135.6408721,N,12046.6173534,E,4,17,1.6,2.5874,M,8.311,M,00,0004*65
$GPHPD,0,0.000,239.82,0.36,-12.37,31.5940145,120.7769559,2.587,13629185.244,24923933.240,2.587,0.000,0.000,0.000,0.000,0.000,0.000,0.000,17,17,4*5F
$GPGGA,092228.00,3135.6407934,N,12046.6171961,E,4,17,1.6,2.5974,M,8.311,M,01,0004*69
$GPHPD,0,0.000,239.67,0.77,-12.37,31.5940132,120.7769533,2.597,13629186.046,24923931.801,2.597,0.000,0.000,0.000,0.000,0.000,0.000,0.000,17,17,4*53
$GPGGA,092228.20,3135.6407227,N,12046.6170407,E,4,17,1.6,2.5860,M,8.311,M,01,0004*6A
$GPHPD,0,0.000,239.71,0.34,-12.33,31.5940120,120.7769507,2.586,13629186.739,24923930.339,2.586,0.000,0.000,0.000,0.000,0.000,0.000,0.000,17,17,4*5D
$GPGGA,092228.40,3135.6406410,N,12046.6168870,E,4,17,1.6,2.6056,M,8.311,M,01,0004*64
$GPHPD,0,0.000,239.38,0.72,-12.30,31.5940107,120.7769481,2.606,13629187.591,24923928.962,2.606,0.000,0.000,0.000,0.000,0.000,0.000,0.000,17,17,4*57
$GPGGA,092228.60,3135.6405610,N,12046.6167361,E,4,17,1.6,2.6203,M,8.311,M,00,0004*60
$GPHPD,0,0.000,239.32,0.19,-12.31,31.5940094,120.7769456,2.620,13629188.424,24923927.608,2.620,0.000,0.000,0.000,0.000,0.000,0.000,0.000,17,17,4*5C
$GPGGA,092228.80,3135.6404893,N,12046.6165825,E,4,17,1.6,2.6281,M,8.311,M,00,0004*69
$GPHPD,0,0.000,239.66,0.01,-12.30,31.5940082,120.7769430,2.628,13629189.134,24923926.174,2.628,0.000,0.000,0.000,0.000,0.000,0.000,0.000,17,17,4*5A
$GPGGA,092229.00,3135.6404160,N,12046.6164301,E,4,17,1.6,2.6176,M,8.311,M,01,0004*63
$GPHPD,0,0.000,239.38,-0.11,-12.32,31.5940069,120.7769405,2.618,13629189.870,24923924.763,2.618,0.000,0.000,0.000,0.000,0.000,0.000,0.000,17,17,4*77
$GPGGA,092229.20,3135.6403433,N,12046.6162800,E,4,17,1.6,2.6135,M,8.311,M,01,0004*6E
$GPHPD,0,0.000,239.16,0.70,-12.34,31.5940057,120.7769380,2.614,13629190.601,24923923.377,2.614,0.000,0.000,0.000,0.000,0.000,0.000,0.000,17,17,4*56
$GPGGA,092229.40,3135.6402649,N,12046.6161342,E,4,17,1.6,2.6183,M,8.311,M,01,0004*65
$GPHPD,0,0.000,238.96,1.10,-12.39,31.5940044,120.7769356,2.618,13629191.422,24923922.075,2.618,0.000,0.000,0.000,0.000,0.000,0.000,0.000,17,17,4*5E
$GPGGA,092229.60,3135.6401926,N,12046.6159836,E,4,17,1.6,2.6090,M,8.311,M,00,0004*63
$GPHPD,0,0.000,239.36,0.15,-12.41,31.5940032,120.7769331,2.609,13629192.147,24923920.680,2.609,0.000,0.000,0.000,0.000,0.000,0.000,0.000,17,17,4*55
$GPGGA,092229.80,3135.6401187,N,12046.6158372,E,4,17,1.6,2.6231,M,8.311,M,00,0004*6D
$GPHPD,0,0.000,239.10,0.61,-12.40,31.5940020,120.7769306,2.623,13629192.902,24923919.345,2.623,0.000,0.000,0.000,0.000,0.000,0.000,0.000,17,17,4*5B
$GPGGA,092230.00,3135.6400460,N,12046.6156866,E,4,17,1.6,2.6251,M,8.311,M,01,0004*67
$GPHPD,0,0.000,239.25,0.85,-12.38,31.5940008,120.7769281,2.625,13629193.633,24923917.953,2.625,0.000,0.000,0.000,0.000,0.000,0.000,0.000,17,17,4*53
$GPGGA,092230.20,3135.6399726,N,12046.6155414,E,4,17,1.6,2.6332,M,8.311,M,01,0004*6D
$GPHPD,0,0.000,238.95,0.45,-12.37,31.5939995,120.7769257,2.633,13629194.384,24923916.630,2.633,0.000,0.000,0.000,0.000,0.000,0.000,0.000,17,17,4*57
$GPGGA,092230.40,3135.6399021,N,12046.6154007,E,4,17,1.6,2.6244,M,8.311,M,01,0004*6C
$GPHPD,0,0.000,239.21,0.06,-12.35,31.5939984,120.7769233,2.624,13629195.103,24923915.344,2.624,0.000,0.000,0.000,0.000,0.000,0.000,0.000,17,17,4*57
$GPGGA,092230.60,3135.6398278,N,12046.6152494,E,4,17,1.6,2.6319,M,8.311,M,00,0004*61
$GPHPD,0,0.000,239.44,0.28,-12.33,31.5939971,120.7769208,2.632,13629195.855,24923913.952,2.632,0.000,0.000,0.000,0.000,0.000,0.000,0.000,17,17,4*5D
$GPGGA,092230.80,3135.6397558,N,12046.6151068,E,4,17,1.6,2.6351,M,8.311,M,00,0004*6D
$GPHPD,0,0.000,239.46,0.04,-12.29,31.5939959,120.7769184,2.635,13629196.591,24923912.652,2.635,0.000,0.000,0.000,0.000,0.000,0.000,0.000,17,16,4*5E
$GPGGA,092231.00,3135.6396809,N,12046.6149619,E,4,17,1.6,2.6433,M,8.311,M,01,0004*67
$GPHPD,0,0.000,239.49,0.36,-12.24,31.5939947,120.7769160,2.643,13629197.364,24923911.341,2.643,0.000,0.000,0.000,0.000,0.000,0.000,0.000,17,16,4*51
$GPGGA,092231.20,3135.6396114,N,12046.6148149,E,4,17,1.5,2.6280,M,8.311,M,01,0004*6E
$GPHPD,0,0.000,239.54,0.30,-12.20,31.5939935,120.7769136,2.628,13629198.056,24923909.973,2.628,0.000,0.000,0.000,0.000,0.000,0.000,0.000,17,16,4*56
$GPGGA,092231.40,3135.6395381,N,12046.6146757,E,4,17,1.5,2.6373,M,8.311,M,01,0004*6F
$GPHPD,0,0.000,239.61,-0.04,-12.18,31.5939923,120.7769113,2.637,13629198.818,24923908.722,2.637,0.000,0.000,0.000,0.000,0.000,0.000,0.000,17,16,4*78
$GPGGA,092231.60,3135.6394753,N,12046.6145249,E,4,17,1.6,2.6247,M,8.311,M,00,0004*6A
$GPHPD,0,0.000,239.37,1.00,-12.13,31.5939913,120.7769087,2.625,13629199.407,24923907.269,2.625,0.000,0.000,0.000,0.000,0.000,0.000,0.000,17,16,4*51
$GPGGA,092231.80,3135.6394050,N,12046.6143805,E,4,17,1.6,2.6361,M,8.311,M,00,0004*61
$GPHPD,0,0.000,239.48,0.71,-12.09,31.5939901,120.7769063,2.636,13629200.116,24923905.937,2.636,0.000,0.000,0.000,0.000,0.000,0.000,0.000,17,16,4*58
$GPGGA,092232.00,3135.6393365,N,12046.6142371,E,4,17,1.6,2.6225,M,8.311,M,01,0004*61
$GPHPD,0,0.000,239.27,0.75,-12.05,31.5939889,120.7769040,2.623,13629200.801,24923904.607,2.623,0.000,0.000,0.000,0.000,0.000,0.000,0.000,17,17,4*5A
$GPGGA,092232.20,3135.6392657,N,12046.6140922,E,4,17,1.6,2.6148,M,8.311,M,01,0004*60
$GPHPD,0,0.000,239.80,-0.02,-12.03,31.5939878,120.7769015,2.615,13629201.516,24923903.272,2.615,0.000,0.000,0.000,0.000,0.000,0.000,0.000,17,17,4*79
$GPGGA,092232.40,3135.6391967,N,12046.6139478,E,4,17,1.6,2.6177,M,8.311,M,01,0004*69
$GPHPD,0,0.000,239.98,-0.48,-12.01,31.5939866,120.7768991,2.618,13629202.206,24923901.933,2.618,0.000,0.000,0.000,0.000,0.000,0.000,0.000,17,17,4*7E
$GPGGA,092232.60,3135.6391268,N,12046.6138000,E,4,17,1.6,2.6194,M,8.310,M,00,0004*68
$GPHPD,0,0.000,239.91,-0.15,-12.00,31.5939854,120.7768967,2.619,13629202.902,24923900.558,2.619,0.000,0.000,0.000,0.000,0.000,0.000,0.000,17,17,4*79
$GPGGA,092232.80,3135.6390532,N,12046.6136588,E,4,17,1.6,2.6410,M,8.310,M,00,0004*6D
$GPHPD,0,0.000,239.95,-0.58,-12.00,31.5939842,120.7768943,2.641,13629203.664,24923899.284,2.641,0.000,0.000,0.000,0.000,0.000,0.000,0.000,17,17,4*7C
$GPGGA,092233.00,3135.6389858,N,12046.6135137,E,4,17,1.6,2.6359,M,8.310,M,01,0004*65
$GPHPD,0,0.000,240.06,-0.69,-12.00,31.5939831,120.7768919,2.636,13629204.330,24923897.927,2.636,0.000,0.000,0.000,0.000,0.000,0.000,0.000,17,17,4*7E
$GPGGA,092233.20,3135.6389178,N,12046.6133683,E,4,17,1.6,2.6252,M,8.310,M,01,0004*68
$GPHPD,0,0.000,239.76,-0.21,-11.99,31.5939820,120.7768895,2.625,13629205.004,24923896.570,2.625,0.000,0.000,0.000,0.000,0.000,0.000,0.000,17,17,4*77
$GPGGA,092233.40,3135.6388470,N,12046.6132232,E,4,17,1.6,2.6423,M,8.310,M,01,0004*6D
$GPHPD,0,0.000,239.63,0.48,-11.95,31.5939808,120.7768871,2.642,13629205.719,24923895.233,2.642,0.000,0.000,0.000,0.000,0.000,0.000,0.000,17,17,4*55
$GPGGA,092233.60,3135.6387782,N,12046.6130712,E,4,17,1.5,2.6287,M,8.310,M,00,0004*61
$GPHPD,0,0.000,239.53,0.19,-11.93,31.5939796,120.7768845,2.629,13629206.391,24923893.800,2.629,0.000,0.000,0.000,0.000,0.000,0.000,0.000,17,17,4*50
$GPGGA,092233.80,3135.6387078,N,12046.6129233,E,4,17,1.5,2.6121,M,8.310,M,00,0004*6C
$GPHPD,0,0.000,239.79,0.01,-11.92,31.5939785,120.7768821,2.612,13629207.094,24923892.427,2.612,0.000,0.000,0.000,0.000,0.000,0.000,0.000,17,17,4*5F
$GPGGA,092234.00,3135.6386349,N,12046.6127770,E,4,17,1.5,2.6204,M,8.310,M,01,0004*6A
$GPHPD,0,0.000,239.74,0.50,-11.89,31.5939772,120.7768796,2.620,13629207.836,24923891.088,2.620,0.000,0.000,0.000,0.000,0.000,0.000,0.000,17,17,4*55
$GPGGA,092234.20,3135.6385638,N,12046.6126293,E,4,17,1.5,2.6293,M,8.310,M,01,0004*6F
$GPHPD,0,0.000,240.02,0.11,-11.89,31.5939761,120.7768772,2.629,13629208.549,24923889.721,2.629,0.000,0.000,0.000,0.000,0.000,0.000,0.000,17,17,4*50
$GPGGA,092234.40,3135.6384921,N,12046.6124820,E,4,17,1.5,2.6289,M,8.310,M,01,0004*64
$GPHPD,0,0.000,239.82,0.13,-11.88,31.5939749,120.7768747,2.629,13629209.272,24923888.362,2.629,0.000,0.000,0.000,0.000,0.000,0.000,0.000,17,17,4*55
$GPGGA,092234.60,3135.6384213,N,12046.6123286,E,4,17,1.5,2.6147,M,8.310,M,00,0004*6D
$GPHPD,0,0.000,240.16,-0.29,-11.86,31.5939737,120.7768721,2.615,13629209.970,24923886.925,2.615,0.000,0.000,0.000,0.000,0.000,0.000,0.000,17,17,4*7B
$GPGGA,092234.80,3135.6383463,N,12046.6121833,E,4,17,1.5,2.6349,M,8.310,M,00,0004*6F
$GPHPD,0,0.000,240.06,0.42,-11.83,31.5939724,120.7768697,2.635,13629210.743,24923885.610,2.635,0.000,0.000,0.000,0.000,0.000,0.000,0.000,17,17,4*5D
$GPGGA,092235.00,3135.6382793,N,12046.6120279,E,4,17,1.5,2.6193,M,8.310,M,01,0004*6A
$GPHPD,0,0.000,240.25,-0.07,-11.82,31.5939713,120.7768671,2.619,13629211.383,24923884.126,2.619,0.000,0.000,0.000,0.000,0.000,0.000,0.000,17,17,4*77
$GPGGA,092235.20,3135.6382055,N,12046.6118794,E,4,17,1.5,2.6232,M,8.310,M,01,0004*60
$GPHPD,0,0.000,239.56,-0.05,-11.83,31.5939701,120.7768647,2.623,13629212.133,24923882.765,2.623,0.000,0.000,0.000,0.000,0.000,0.000,0.000,17,17,4*75
$GPGGA,092235.40,3135.6381299,N,12046.6117275,E,4,17,1.5,2.6373,M,8.310,M,01,0004*66
$GPHPD,0,0.000,240.27,-0.28,-11.84,31.5939688,120.7768621,2.637,13629212.902,24923881.374,2.637,0.000,0.000,0.000,0.000,0.000,0.000,0.000,17,17,4*78
$GPGGA,092235.60,3135.6380593,N,12046.6115768,E,4,17,1.5,2.6289,M,8.310,M,00,0004*66
$GPHPD,0,0.000,240.33,-0.35,-11.84,31.5939677,120.7768596,2.629,13629213.602,24923879.968,2.629,0.000,0.000,0.000,0.000,0.000,0.000,0.000,17,17,4*70
$GPGGA,092235.80,3135.6379858,N,12046.6114255,E,4,17,1.5,2.6245,M,8.310,M,00,0004*6E
$GPHPD,0,0.000,240.41,0.12,-11.86,31.5939664,120.7768571,2.625,13629214.343,24923878.572,2.625,0.000,0.000,0.000,0.000,0.000,0.000,0.000,17,17,4*55
$GPGGA,092236.00,3135.6379174,N,12046.6112715,E,4,17,1.5,2.6133,M,8.310,M,01,0004*66
$GPHPD,0,0.000,240.65,0.19,-11.87,31.5939653,120.7768545,2.613,13629215.005,24923877.113,2.613,0.000,0.000,0.000,0.000,0.000,0.000,0.000,17,17,4*56
$GPGGA,092236.20,3135.6378492,N,12046.6111172,E,4,17,1.5,2.6005,M,8.310,M,01,0004*68
$GPHPD,0,0.000,240.40,0.16,-11.87,31.5939642,120.7768520,2.601,13629215.664,24923875.650,2.601,0.000,0.000,0.000,0.000,0.000,0.000,0.000,17,17,4*5E
$GPGGA,092236.40,3135.6377772,N,12046.6109641,E,4,17,1.5,2.6066,M,8.310,M,01,0004*67
$GPHPD,0,0.000,240.41,0.12,-11.87,31.5939630,120.7768494,2.607,13629216.379,24923874.223,2.607,0.000,0.000,0.000,0.000,0.000,0.000,0.000,17,17,4*5B
$GPGGA,092236.60,3135.6377029,N,12046.6108084,E,4,17,1.5,2.6162,M,8.310,M,00,0004*66
$GPHPD,0,0.000,240.16,-0.45,-11.88,31.5939617,120.7768468,2.616,13629217.122,24923872.778,2.616,0.000,0.000,0.000,0.000,0.000,0.000,0.000,17,17,4*7F
$GPGGA,092236.80,3135.6376297,N,12046.6106516,E,4,17,1.5,2.6337,M,8.310,M,00,0004*6C
$GPHPD,0,0.000,240.21,-0.35,-11.90,31.5939605,120.7768442,2.634,13629217.847,24923871.314,2.634,0.000,0.000,0.000,0.000,0.000,0.000,0.000,17,17,4*79
$GPGGA,092237.00,3135.6375596,N,12046.6104954,E,4,17,1.5,2.6144,M,8.310,M,01,0004*6F
$GPHPD,0,0.000,240.49,-0.97,-11.94,31.5939593,120.7768416,2.614,13629218.529,24923869.839,2.614,0.000,0.000,0.000,0.000,0.000,0.000,0.000,17,17,4*71
$GPGGA,092237.20,3135.6374864,N,12046.6103434,E,4,17,1.5,2.6164,M,8.310,M,01,0004*62
$GPHPD,0,0.000,240.77,-0.70,-11.96,31.5939581,120.7768391,2.616,13629219.264,24923868.432,2.616,0.000,0.000,0.000,0.000,0.000,0.000,0.000,17,17,4*75
$GPGGA,092237.40,3135.6374155,N,12046.6101928,E,4,17,1.5,2.5983,M,8.310,M,01,0004*6F
$GPHPD,0,0.000,240.49,-0.29,-11.99,31.5939569,120.7768365,2.598,13629219.969,24923867.029,2.598,0.000,0.000,0.000,0.000,0.000,0.000,0.000,17,17,4*71
$GPGGA,092237.60,3135.6373415,N,12046.6100369,E,4,17,1.5,2.5999,M,8.310,M,00,0004*6F
$GPHPD,0,0.000,240.58,0.62,-12.00,31.5939557,120.7768339,2.600,13629220.707,24923865.581,2.600,0.000,0.000,0.000,0.000,0.000,0.000,0.000,17,17,4*5D
$GPGGA,092237.80,3135.6372714,N,12046.6098819,E,4,17,1.5,2.5966,M,8.310,M,00,0004*6E
$GPHPD,0,0.000,240.40,0.23,-12.01,31.5939545,120.7768314,2.597,13629221.391,24923864.120,2.597,0.000,0.000,0.000,0.000,0.000,0.000,0.000,17,17,4*58
$GPGGA,092238.00,3135.6372044,N,12046.6097304,E,4,17,1.5,2.5880,M,8.310,M,01,0004*6B
$GPHPD,0,0.000,240.68,0.24,-12.07,31.5939534,120.7768288,2.588,13629222.039,24923862.683,2.588,0.000,0.000,0.000,0.000,0.000,0.000,0.000,17,17,4*5B
$GPGGA,092238.20,3135.6371282,N,12046.6095809,E,4,17,1.5,2.6074,M,8.310,M,01,0004*66
$GPHPD,0,0.000,240.36,0.29,-12.17,31.5939521,120.7768263,2.607,13629222.821,24923861.324,2.607,0.000,0.000,0.000,0.000,0.000,0.000,0.000,17,17,4*57
$GPGGA,092238.40,3135.6370604,N,12046.6094255,E,4,17,1.5,2.6103,M,8.310,M,01,0004*68
$GPHPD,0,0.000,240.82,0.37,-12.25,31.5939510,120.7768238,2.610,13629223.472,24923859.846,2.610,0.000,0.000,0.000,0.000,0.000,0.000,0.000,17,17,4*55
$GPGGA,092238.60,3135.6369870,N,12046.6092739,E,4,17,1.5,2.6042,M,8.310,M,00,0004*63
$GPHPD,0,0.000,240.55,0.08,-12.34,31.5939498,120.7768212,2.604,13629224.210,24923858.445,2.604,0.000,0.000,0.000,0.000,0.000,0.000,0.000,17,17,4*51
$GPGGA,092238.80,3135.6369181,N,12046.6091176,E,4,17,1.5,2.5965,M,8.310,M,00,0004*6B
$GPHPD,0,0.000,240.84,0.53,-12.38,31.5939486,120.7768186,2.597,13629224.875,24923856.962,2.597,0.000,0.000,0.000,0.000,0.000,0.000,0.000,17,17,4*51
$GPGGA,092239.00,3135.6368449,N,12046.6089612,E,4,17,1.5,2.5972,M,8.310,M,01,0004*69
$GPHPD,0,0.000,240.37,0.86,-12.45,31.5939474,120.7768160,2.597,13629225.601,24923855.502,2.597,0.000,0.000,0.000,0.000,0.000,0.000,0.000,17,17,4*5B
$GPGGA,092239.20,3135.6367716,N,12046.6088035,E,4,17,1.5,2.6144,M,8.310,M,01,0004*61
$GPHPD,0,0.000,240.72,0.89,-12.50,31.5939462,120.7768134,2.614,13629226.326,24923854.028,2.614,0.000,0.000,0.000,0.000,0.000,0.000,0.000,17,17,4*58
$GPGGA,092239.40,3135.6366982,N,12046.6086448,E,4,17,1.5,2.5998,M,8.310,M,01,0004*6F
$GPHPD,0,0.000,240.75,0.11,-12.57,31.5939450,120.7768107,2.600,13629227.050,24923852.541,2.600,0.000,0.000,0.000,0.000,0.000,0.000,0.000,17,17,4*57
$GPGGA,092239.60,3135.6366283,N,12046.6084887,E,4,17,1.5,2.5960,M,8.310,M,00,0004*6C
$GPHPD,0,0.000,240.95,0.59,-12.64,31.5939438,120.7768081,2.596,13629227.729,24923851.066,2.596,0.000,0.000,0.000,0.000,0.000,0.000,0.000,17,17,4*5E
$GPGGA,092239.80,3135.6365524,N,12046.6083330,E,4,17,1.5,2.6064,M,8.310,M,00,0004*65
$GPHPD,0,0.000,240.97,0.44,-12.76,31.5939425,120.7768056,2.606,13629228.495,24923849.631,2.606,0.000,0.000,0.000,0.000,0.000,0.000,0.000,17,17,4*53
$GPGGA,092240.00,3135.6364803,N,12046.6081739,E,4,17,1.5,2.6086,M,8.310,M,01,0004*68
$GPHPD,0,0.000,241.36,0.11,-12.81,31.5939413,120.7768029,2.609,13629229.199,24923848.132,2.609,0.000,0.000,0.000,0.000,0.000,0.000,0.000,17,17,4*51
$GPGGA,092240.20,3135.6364096,N,12046.6080173,E,4,17,1.5,2.5878,M,8.310,M,01,0004*6D
$GPHPD,0,0.000,241.09,0.70,-12.82,31.5939402,120.7768003,2.588,13629229.889,24923846.656,2.588,0.000,0.000,0.000,0.000,0.000,0.000,0.000,17,17,4*52
$GPGGA,092240.40,3135.6363368,N,12046.6078569,E,4,17,1.5,2.5988,M,8.310,M,01,0004*68
$GPHPD,0,0.000,241.08,0.98,-12.83,31.5939389,120.7767976,2.599,13629230.601,24923845.146,2.599,0.000,0.000,0.000,0.000,0.000,0.000,0.000,17,17,4*57
$GPGGA,092240.60,3135.6362608,N,12046.6076960,E,4,17,1.5,2.6214,M,8.310,M,00,0004*6F
$GPHPD,0,0.000,240.91,1.19,-12.85,31.5939377,120.7767949,2.621,13629231.358,24923843.648,2.621,0.000,0.000,0.000,0.000,0.000,0.000,0.000,17,17,4*52
$GPGGA,092240.80,3135.6361904,N,12046.6075348,E,4,17,1.5,2.6097,M,8.310,M,00,0004*6B
$GPHPD,0,0.000,241.15,0.55,-12.85,31.5939365,120.7767922,2.610,13629232.034,24923842.115,2.610,0.000,0.000,0.000,0.000,0.000,0.000,0.000,17,17,4*5C
$GPGGA,092241.00,3135.6361211,N,12046.6073730,E,4,17,1.5,2.6147,M,8.310,M,01,0004*6D
$GPHPD,0,0.000,241.40,0.90,-12.85,31.5939354,120.7767896,2.615,13629232.693,24923840.567,2.615,0.000,0.000,0.000,0.000,0.000,0.000,0.000,17,17,4*51
$GPGGA,092241.20,3135.6360455,N,12046.6072146,E,4,17,1.5,2.6088,M,8.310,M,01,0004*6C
$GPHPD,0,0.000,241.55,0.28,-12.85,31.5939341,120.7767869,2.609,13629233.449,24923839.098,2.609,0.000,0.000,0.000,0.000,0.000,0.000,0.000,17,17,4*5D
$GPGGA,092241.40,3135.6359754,N,12046.6070552,E,4,17,1.5,2.6094,M,8.310,M,01,0004*6C
$GPHPD,0,0.000,241.60,0.62,-12.82,31.5939329,120.7767843,2.609,13629234.125,24923837.584,2.609,0.000,0.000,0.000,0.000,0.000,0.000,0.000,17,17,4*5A
$GPGGA,092241.60,3135.6359053,N,12046.6068967,E,4,17,1.5,2.6143,M,8.310,M,00,0004*67
$GPHPD,0,0.000,241.54,0.27,-12.74,31.5939318,120.7767816,2.614,13629234.802,24923836.081,2.614,0.000,0.000,0.000,0.000,0.000,0.000,0.000,17,17,4*5A
$GPGGA,092241.80,3135.6358352,N,12046.6067374,E,4,17,1.5,2.6219,M,8.310,M,00,0004*61
$GPHPD,0,0.000,241.45,0.43,-12.64,31.5939306,120.7767790,2.622,13629235.478,24923834.568,2.622,0.000,0.000,0.000,0.000,0.000,0.000,0.000,17,17,4*57
