$GPGGA,084911.60,3135.3691002,N,12046.8229118,E,4,18,1.4,2.5181,M,8.326,M,00,0004*61
$GPHPD,1957,31769.400,326.31,-0.37,13.86,31.5894850,120.7803819,2.518,13633461.952,24927994.396,2.518,0.901,-0.106,0.963,0.718,1.248,0.597,0.000,18,16,4*48
$GPGGA,084911.80,3135.3692221,N,12046.8228220,E,4,18,1.4,2.5119,M,8.326,M,00,0004*67
$GPHPD,1957,31769.600,326.55,-0.53,13.87,31.5894870,120.7803804,2.512,13633460.038,24927992.604,2.512,0.912,-0.144,0.955,0.718,1.248,0.597,0.000,18,16,4*48
$GPGGA,084912.00,3135.3693376,N,12046.8227324,E,4,18,1.4,2.5219,M,8.326,M,01,0004*66
$GPHPD,1957,31769.800,326.70,0.02,13.90,31.5894890,120.7803789,2.522,13633458.216,24927990.851,2.522,0.939,-0.180,0.926,0.718,1.248,0.597,0.000,18,16,4*66
$GPGGA,084912.20,3135.3694549,N,12046.8226462,E,4,18,1.4,2.5141,M,8.326,M,01,0004*63
$GPHPD,1957,31770.000,327.00,-0.05,13.92,31.5894909,120.7803774,2.514,13633456.375,24927989.128,2.514,0.897,-0.103,0.917,0.655,1.248,0.596,0.000,18,16,4*4B
$GPGGA,084912.40,3135.3695716,N,12046.8225637,E,4,18,1.4,2.5163,M,8.326,M,01,0004*6D
$GPHPD,1957,31770.200,327.28,0.22,13.88,31.5894929,120.7803761,2.516,13633454.550,24927987.454,2.516,0.892,-0.171,0.885,0.655,1.248,0.596,0.000,18,16,4*6F
$GPGGA,084912.60,3135.3696806,N,12046.8224825,E,4,18,1.4,2.5209,M,8.326,M,01,0004*61
$GPHPD,1957,31770.400,327.21,0.20,13.82,31.5894947,120.7803747,2.521,13633452.837,24927985.840,2.521,0.855,-0.152,0.923,0.655,1.248,0.596,0.000,18,16,4*62
$GPGGA,084912.80,3135.3697882,N,12046.8224059,E,4,18,1.4,2.5135,M,8.326,M,00,0004*6C
$GPHPD,1957,31770.600,327.54,0.28,13.79,31.5894965,120.7803734,2.514,13633451.153,24927984.290,2.514,0.823,-0.148,0.869,0.661,1.531,0.606,0.000,18,16,4*65
$GPGGA,084913.00,3135.3698906,N,12046.8223303,E,4,18,1.4,2.5209,M,8.326,M,01,0004*61
$GPHPD,1957,31770.800,327.77,-0.07,13.77,31.5894982,120.7803722,2.521,13633449.545,24927982.782,2.521,0.795,-0.168,0.830,0.655,1.248,0.596,0.000,18,16,4*48
$GPGGA,084913.20,3135.3699945,N,12046.8222630,E,4,17,1.6,2.5159,M,8.326,M,01,0004*6A
$GPHPD,1957,31771.000,328.04,-0.59,13.72,31.5894999,120.7803711,2.516,13633447.933,24927981.366,2.516,0.769,-0.141,0.823,0.655,1.248,0.596,0.000,17,17,4*44
$GPGGA,084913.40,3135.3700885,N,12046.8221922,E,4,18,1.6,2.5148,M,8.326,M,01,0004*60
$GPHPD,1957,31771.200,327.89,-0.25,13.65,31.5895015,120.7803699,2.515,13633446.454,24927979.965,2.515,0.728,-0.220,0.771,0.661,1.531,0.606,0.000,18,17,4*4D
$GPGGA,084913.60,3135.3701853,N,12046.8221301,E,4,17,1.6,2.5079,M,8.326,M,00,0004*6E
$GPHPD,1957,31771.400,328.11,0.12,13.64,31.5895031,120.7803688,2.508,13633444.953,24927978.652,2.508,0.711,-0.121,0.746,0.661,1.531,0.606,0.000,17,17,4*6A
$GPGGA,084913.80,3135.3702727,N,12046.8220656,E,4,18,1.6,2.5070,M,8.326,M,00,0004*6F
$GPHPD,1957,31771.600,328.09,0.09,13.62,31.5895045,120.7803678,2.507,13633443.580,24927977.365,2.507,0.671,-0.139,0.752,0.661,1.531,0.606,0.000,18,17,4*6E
$GPGGA,084914.00,3135.3703660,N,12046.8220010,E,4,17,1.6,2.5128,M,8.326,M,01,0004*65
$GPHPD,1957,31771.800,328.10,0.65,13.57,31.5895061,120.7803667,2.513,13633442.124,24927976.043,2.513,0.666,-0.126,0.692,0.655,1.248,0.596,0.000,17,17,4*6F
$GPGGA,084914.20,3135.3704511,N,12046.8219414,E,4,17,1.6,2.5055,M,8.326,M,01,0004*64
$GPHPD,1957,31772.000,327.84,0.41,13.49,31.5895075,120.7803657,2.506,13633440.794,24927974.829,2.506,0.655,-0.123,0.718,0.661,1.531,0.606,0.000,17,17,4*62
$GPGGA,084914.40,3135.3705327,N,12046.8218813,E,4,17,1.6,2.5089,M,8.326,M,01,0004*6B
$GPHPD,1957,31772.200,327.80,0.41,13.44,31.5895089,120.7803647,2.509,13633439.513,24927973.629,2.509,0.630,-0.115,0.680,0.678,1.533,0.614,0.000,17,17,4*6E
$GPGGA,084914.60,3135.3706147,N,12046.8218215,E,4,17,1.6,2.5225,M,8.326,M,01,0004*66
$GPHPD,1957,31772.400,327.62,0.25,13.36,31.5895102,120.7803637,2.523,13633438.227,24927972.431,2.523,0.612,-0.100,0.670,0.661,1.531,0.606,0.000,17,17,4*6F
$GPGGA,084914.80,3135.3706951,N,12046.8217656,E,4,17,1.6,2.5113,M,8.326,M,00,0004*6C
$GPHPD,1957,31772.600,327.56,0.39,13.33,31.5895116,120.7803628,2.511,13633436.972,24927971.288,2.511,0.586,-0.088,0.653,0.661,1.531,0.606,0.000,17,17,4*65
$GPGGA,084915.00,3135.3707713,N,12046.8217094,E,4,18,1.6,2.5207,M,8.326,M,01,0004*6C
$GPHPD,1957,31772.800,327.53,0.40,13.29,31.5895129,120.7803618,2.521,13633435.775,24927970.167,2.521,0.612,-0.133,0.606,0.661,1.531,0.606,0.000,18,17,4*6D
$GPGGA,084915.20,3135.3708454,N,12046.8216492,E,4,18,1.4,2.5343,M,8.326,M,01,0004*61
$GPHPD,1957,31773.000,327.35,0.23,13.26,31.5895141,120.7803608,2.534,13633434.601,24927969.010,2.534,0.559,-0.066,0.610,0.655,1.248,0.596,0.000,18,17,4*65
$GPGGA,084915.40,3135.3709215,N,12046.8215968,E,4,18,1.4,2.5250,M,8.326,M,01,0004*6D
$GPHPD,1957,31773.200,327.34,-0.33,13.24,31.5895154,120.7803599,2.525,13633433.413,24927967.935,2.525,0.569,-0.078,0.596,0.655,1.248,0.596,0.000,18,16,4*41
$GPGGA,084915.60,3135.3709928,N,12046.8215399,E,4,18,1.4,2.5506,M,8.326,M,00,0004*6B
$GPHPD,1957,31773.400,327.33,-0.20,13.25,31.5895165,120.7803590,2.551,13633432.285,24927966.833,2.551,0.578,-0.116,0.588,0.609,1.241,0.658,0.000,18,16,4*41
$GPGGA,084915.80,3135.3710639,N,12046.8214870,E,4,18,1.4,2.5441,M,8.326,M,00,0004*6D
$GPHPD,1957,31773.600,327.66,-1.12,13.23,31.5895177,120.7803581,2.544,13633431.168,24927965.782,2.544,0.530,-0.011,0.598,0.593,1.218,0.602,0.000,18,16,4*4B
$GPGGA,084916.00,3135.3711409,N,12046.8214373,E,4,18,1.4,2.5346,M,8.326,M,01,0004*6F
$GPHPD,1957,31773.800,327.57,-0.57,13.27,31.5895190,120.7803573,2.535,13633429.973,24927964.734,2.535,0.527,-0.097,0.575,0.593,1.218,0.602,0.000,18,16,4*4B
$GPGGA,084916.20,3135.3712194,N,12046.8213791,E,4,18,1.4,2.5287,M,8.326,M,01,0004*6C
$GPHPD,1957,31774.000,327.50,-0.69,13.38,31.5895203,120.7803563,2.529,13633428.740,24927963.575,2.529,0.535,-0.055,0.587,0.593,1.218,0.602,0.000,18,16,4*47
$GPGGA,084916.40,3135.3713047,N,12046.8213168,E,4,18,1.4,2.5294,M,8.326,M,01,0004*66
$GPHPD,1957,31774.200,327.22,-0.54,13.50,31.5895217,120.7803553,2.529,13633427.402,24927962.327,2.529,0.582,-0.085,0.629,0.586,1.217,0.594,0.000,18,16,4*4D
$GPGGA,084916.60,3135.3713948,N,12046.8212466,E,4,18,1.4,2.5359,M,8.326,M,01,0004*68
$GPHPD,1957,31774.400,327.35,-0.36,13.61,31.5895232,120.7803541,2.536,13633425.980,24927960.956,2.536,0.616,-0.084,0.670,0.586,1.217,0.594,0.000,18,16,4*47
$GPGGA,084916.80,3135.3714923,N,12046.8211765,E,4,18,1.4,2.5294,M,8.326,M,00,0004*6E
$GPHPD,1957,31774.600,326.95,-0.16,13.64,31.5895249,120.7803529,2.529,13633424.453,24927959.543,2.529,0.695,-0.056,0.735,0.655,1.248,0.596,0.000,18,16,4*4A
$GPGGA,084917.00,3135.3715942,N,12046.8211038,E,4,18,1.4,2.5207,M,8.326,M,01,0004*65
$GPHPD,1957,31774.800,326.58,-0.37,13.67,31.5895266,120.7803517,2.521,13633422.858,24927958.073,2.521,0.756,-0.106,0.752,0.655,1.248,0.596,0.000,18,16,4*48
$GPGGA,084917.20,3135.3716987,N,12046.8210253,E,4,18,1.4,2.5149,M,8.326,M,01,0004*6A
$GPHPD,1957,31775.000,326.31,0.41,13.73,31.5895283,120.7803504,2.515,13633421.214,24927956.518,2.515,0.776,-0.179,0.758,0.655,1.248,0.596,0.000,18,16,4*69
$GPGGA,084917.40,3135.3717981,N,12046.8209499,E,4,18,1.4,2.5391,M,8.326,M,01,0004*64
$GPHPD,1957,31775.200,325.78,0.18,13.74,31.5895300,120.7803492,2.539,13633419.649,24927955.030,2.539,0.808,-0.155,0.801,0.655,1.248,0.596,0.000,18,16,4*6A
$GPGGA,084917.60,3135.3718921,N,12046.8208692,E,4,18,1.4,2.5286,M,8.326,M,00,0004*6D
$GPHPD,1957,31775.400,325.41,0.00,13.73,31.5895315,120.7803478,2.529,13633418.151,24927953.509,2.529,0.720,-0.048,0.847,0.655,1.248,0.596,0.000,18,16,4*64
$GPGGA,084917.80,3135.3719913,N,12046.8207981,E,4,18,1.4,2.5275,M,8.326,M,00,0004*6D
$GPHPD,1957,31775.600,326.09,-0.11,13.68,31.5895332,120.7803466,2.528,13633416.597,24927952.075,2.528,0.773,-0.094,0.747,0.655,1.248,0.596,0.000,18,16,4*43
$GPGGA,084918.00,3135.3720788,N,12046.8207297,E,4,18,1.4,2.5325,M,8.326,M,01,0004*65
$GPHPD,1957,31775.800,326.20,-0.13,13.65,31.5895346,120.7803455,2.533,13633415.216,24927950.740,2.533,0.726,-0.076,0.740,0.655,1.248,0.596,0.000,18,16,4*4F
$GPGGA,084918.20,3135.3721638,N,12046.8206598,E,4,18,1.4,2.5374,M,8.326,M,01,0004*61
$GPHPD,1957,31776.000,326.33,-0.57,13.65,31.5895361,120.7803443,2.537,13633413.866,24927949.402,2.537,0.671,-0.057,0.678,0.655,1.248,0.596,0.000,18,16,4*48
$GPGGA,084918.40,3135.3722478,N,12046.8205975,E,4,18,1.4,2.5325,M,8.326,M,01,0004*6A
$GPHPD,1957,31776.200,325.93,-0.42,13.58,31.5895375,120.7803433,2.533,13633412.547,24927948.162,2.533,0.653,-0.064,0.679,0.655,1.248,0.596,0.000,18,16,4*47
$GPGGA,084918.60,3135.3723173,N,12046.8205343,E,4,18,1.4,2.5489,M,8.326,M,01,0004*69
$GPHPD,1957,31776.400,325.71,0.49,13.51,31.5895386,120.7803422,2.549,13633411.432,24927946.995,2.549,0.638,-0.110,0.641,0.655,1.248,0.596,0.000,18,16,4*64
$GPGGA,084918.80,3135.3723866,N,12046.8204780,E,4,18,1.4,2.5416,M,8.326,M,00,0004*67
$GPHPD,1957,31776.600,326.22,-0.70,13.46,31.5895398,120.7803413,2.542,13633410.333,24927945.913,2.542,0.581,-0.019,0.580,0.655,1.248,0.596,0.000,18,16,4*42
$GPGGA,084919.00,3135.3724527,N,12046.8204248,E,4,18,1.4,2.5379,M,8.326,M,01,0004*6F
$GPHPD,1957,31776.800,326.14,0.29,13.42,31.5895409,120.7803404,2.538,13633409.286,24927944.886,2.538,0.547,-0.043,0.537,0.655,1.248,0.596,0.000,18,16,4*67
$GPGGA,084919.20,3135.3725212,N,12046.8203741,E,4,18,1.4,2.5320,M,8.326,M,01,0004*6A
$GPHPD,1957,31777.000,326.05,-1.22,13.36,31.5895420,120.7803396,2.532,13633408.211,24927943.876,2.532,0.536,-0.075,0.521,0.655,1.248,0.596,0.000,18,15,4*4D
$GPGGA,084919.40,3135.3725873,N,12046.8203253,E,4,18,1.4,2.5266,M,8.326,M,01,0004*64
$GPHPD,1957,31777.200,326.45,-2.50,13.31,31.5895431,120.7803388,2.527,13633407.173,24927942.903,2.527,0.522,-0.101,0.511,0.655,1.248,0.596,0.000,18,15,4*4B
$GPGGA,084919.60,3135.3726470,N,12046.8202803,E,4,18,1.4,2.5064,M,8.326,M,00,0004*65
$GPHPD,1957,31777.400,325.79,-1.24,13.30,31.5895441,120.7803380,2.506,13633406.233,24927942.013,2.506,0.515,-0.126,0.538,0.655,1.248,0.596,0.000,18,16,4*48
$GPGGA,084919.80,3135.3727110,N,12046.8202376,E,4,18,1.4,2.4945,M,8.326,M,00,0004*6B
$GPHPD,1957,31777.600,325.72,-0.50,13.29,31.5895452,120.7803373,2.495,13633405.238,24927941.125,2.495,0.511,-0.134,0.441,0.655,1.248,0.596,0.000,18,16,4*42
$GPGGA,084920.00,3135.3727681,N,12046.8201883,E,4,18,1.4,2.4907,M,8.326,M,01,0004*63
$GPHPD,1957,31777.800,325.23,-0.51,13.29,31.5895461,120.7803365,2.491,13633404.327,24927940.198,2.491,0.464,-0.106,0.447,0.655,1.248,0.596,0.000,18,16,4*43
$GPGGA,084920.20,3135.3728258,N,12046.8201403,E,4,18,1.4,2.4906,M,8.326,M,01,0004*6B
$GPHPD,1957,31778.000,325.30,-2.15,13.30,31.5895471,120.7803357,2.491,13633403.410,24927939.283,2.491,0.491,-0.072,0.442,0.655,1.248,0.596,0.000,18,16,4*42
$GPGGA,084920.40,3135.3728911,N,12046.8200919,E,4,18,1.4,2.4874,M,8.326,M,01,0004*68
$GPHPD,1957,31778.200,325.43,-2.55,13.35,31.5895482,120.7803349,2.487,13633402.384,24927938.320,2.487,0.492,-0.057,0.445,0.655,1.248,0.596,0.000,18,16,4*47
$GPGGA,084920.60,3135.3729550,N,12046.8200386,E,4,18,1.4,2.4983,M,8.326,M,01,0004*67
$GPHPD,1957,31778.400,325.26,-2.38,13.43,31.5895493,120.7803340,2.498,13633401.368,24927937.305,2.498,0.506,-0.088,0.475,0.656,1.276,0.706,0.000,18,16,4*40
$GPGGA,084920.80,3135.3730295,N,12046.8199837,E,4,18,1.4,2.5089,M,8.326,M,00,0004*6E
$GPHPD,1957,31778.600,325.36,-2.57,13.51,31.5895505,120.7803331,2.509,13633400.199,24927936.209,2.509,0.521,-0.072,0.551,0.656,1.276,0.706,0.000,18,16,4*47
$GPGGA,084921.00,3135.3731003,N,12046.8199216,E,4,18,1.4,2.5054,M,8.326,M,01,0004*63
$GPHPD,1957,31778.800,325.00,-1.22,13.58,31.5895517,120.7803320,2.505,13633399.067,24927935.048,2.505,0.559,-0.066,0.622,0.656,1.276,0.706,0.000,18,16,4*49
$GPGGA,084921.20,3135.3731796,N,12046.8198586,E,4,18,1.4,2.4900,M,8.326,M,01,0004*6C
$GPHPD,1957,31779.000,326.09,-1.47,13.61,31.5895530,120.7803310,2.490,13633397.813,24927933.826,2.490,0.582,-0.087,0.585,0.655,1.248,0.596,0.000,18,16,4*44
$GPGGA,084921.40,3135.3732625,N,12046.8197918,E,4,18,1.5,2.4913,M,8.326,M,01,0004*67
$GPHPD,1957,31779.200,325.56,0.88,13.69,31.5895544,120.7803299,2.491,13633396.500,24927932.538,2.491,0.630,-0.080,0.619,0.655,1.248,0.596,0.000,18,16,4*6D
$GPGGA,084921.60,3135.3733472,N,12046.8197255,E,4,18,1.5,2.4885,M,8.326,M,00,0004*69
$GPHPD,1957,31779.400,325.62,-0.38,13.76,31.5895558,120.7803288,2.489,13633395.162,24927931.246,2.489,0.649,0.002,0.645,0.655,1.248,0.596,0.000,18,16,4*67
$GPGGA,084921.80,3135.3734415,N,12046.8196497,E,4,18,1.5,2.4828,M,8.326,M,00,0004*6F
$GPHPD,1957,31779.600,325.50,-0.32,13.82,31.5895574,120.7803275,2.483,13633393.669,24927929.782,2.483,0.685,-0.130,0.666,0.655,1.248,0.596,0.000,18,16,4*4B
$GPGGA,084922.00,3135.3735375,N,12046.8195702,E,4,18,1.5,2.4754,M,8.326,M,01,0004*6D
$GPHPD,1957,31779.800,325.30,0.58,13.86,31.5895590,120.7803262,2.475,13633392.145,24927928.265,2.475,0.731,-0.104,0.710,0.655,1.248,0.596,0.000,18,16,4*66
$GPGGA,084922.20,3135.3736385,N,12046.8194890,E,4,18,1.5,2.5033,M,8.326,M,01,0004*61
$GPHPD,1957,31780.000,325.54,1.31,13.85,31.5895606,120.7803248,2.503,13633390.545,24927926.698,2.503,0.799,-0.156,0.732,0.655,1.248,0.596,0.000,18,16,4*68
$GPGGA,084922.40,3135.3737435,N,12046.8194111,E,4,18,1.5,2.5097,M,8.326,M,01,0004*64
$GPHPD,1957,31780.200,325.59,-0.07,13.84,31.5895624,120.7803235,2.510,13633388.896,24927925.147,2.510,0.778,-0.058,0.839,0.655,1.248,0.596,0.000,18,16,4*4D
$GPGGA,084922.60,3135.3738482,N,12046.8193293,E,4,18,1.5,2.5051,M,8.326,M,01,0004*61
$GPHPD,1957,31780.400,324.77,0.77,13.82,31.5895641,120.7803222,2.505,13633387.243,24927923.551,2.505,0.816,-0.147,0.845,0.655,1.248,0.596,0.000,18,16,4*64
$GPGGA,084922.80,3135.3739524,N,12046.8192422,E,4,18,1.5,2.5043,M,8.326,M,00,0004*6C
$GPHPD,1957,31780.600,324.62,0.87,13.83,31.5895659,120.7803207,2.504,13633385.586,24927921.894,2.504,0.839,-0.130,0.805,0.655,1.248,0.596,0.000,18,16,4*61
$GPGGA,084923.00,3135.3740593,N,12046.8191532,E,4,18,1.5,2.5353,M,8.326,M,01,0004*67
$GPHPD,1957,31780.800,324.91,2.51,13.88,31.5895677,120.7803192,2.535,13633383.887,24927920.198,2.535,0.863,-0.128,0.812,0.655,1.248,0.596,0.000,18,16,4*6C
$GPGGA,084923.20,3135.3741717,N,12046.8190692,E,4,18,1.5,2.5308,M,8.326,M,01,0004*6C
$GPHPD,1957,31781.000,324.74,2.06,13.90,31.5895695,120.7803178,2.531,13633382.120,24927918.531,2.531,0.823,-0.021,0.865,0.655,1.248,0.596,0.000,18,16,4*68
$GPGGA,084923.40,3135.3742761,N,12046.8189765,E,4,18,1.5,2.5427,M,8.326,M,01,0004*63
$GPHPD,1957,31781.200,324.40,2.46,13.91,31.5895713,120.7803163,2.543,13633380.449,24927916.805,2.543,0.878,-0.158,0.869,0.655,1.248,0.596,0.000,18,16,4*6C
$GPGGA,084923.60,3135.3743872,N,12046.8188879,E,4,18,1.5,2.5436,M,8.326,M,00,0004*6F
$GPHPD,1957,31781.400,324.51,2.46,13.91,31.5895731,120.7803148,2.544,13633378.692,24927915.090,2.544,0.850,-0.039,0.851,0.655,1.248,0.596,0.000,18,16,4*60
$GPGGA,084923.80,3135.3744956,N,12046.8188011,E,4,18,1.5,2.5502,M,8.326,M,00,0004*61
$GPHPD,1957,31781.600,324.11,3.21,13.87,31.5895749,120.7803134,2.550,13633376.976,24927913.412,2.550,0.833,-0.029,0.894,0.655,1.248,0.596,0.000,18,15,4*68
$GPGGA,084924.00,3135.3745985,N,12046.8187157,E,4,18,1.5,2.5545,M,8.326,M,01,0004*6F
$GPHPD,1957,31781.800,323.94,2.07,13.87,31.5895766,120.7803119,2.555,13633375.341,24927911.783,2.555,0.841,-0.076,0.869,0.655,1.248,0.596,0.000,18,15,4*62
$GPGGA,084924.20,3135.3747030,N,12046.8186294,E,4,18,1.5,2.5623,M,8.326,M,01,0004*66
$GPHPD,1957,31782.000,323.52,2.30,13.88,31.5895784,120.7803105,2.562,13633373.682,24927910.134,2.562,0.826,-0.040,0.847,0.655,1.248,0.596,0.000,18,15,4*66
$GPGGA,084924.40,3135.3748050,N,12046.8185425,E,4,19,1.5,2.5679,M,8.326,M,01,0004*68
$GPHPD,1957,31782.200,323.55,1.12,13.90,31.5895801,120.7803090,2.568,13633372.057,24927908.492,2.568,0.850,-0.089,0.829,0.655,1.248,0.596,0.000,19,15,4*64
$GPGGA,084924.60,3135.3749070,N,12046.8184581,E,4,19,1.5,2.5631,M,8.326,M,01,0004*6B
$GPHPD,1957,31782.400,324.14,-0.21,13.94,31.5895818,120.7803076,2.563,13633370.437,24927906.880,2.563,0.811,-0.027,0.815,0.638,0.970,0.605,0.000,19,15,4*44
$GPGGA,084924.80,3135.3750094,N,12046.8183684,E,4,19,1.5,2.5627,M,8.326,M,00,0004*60
$GPHPD,1957,31782.600,324.92,-1.38,13.96,31.5895835,120.7803061,2.563,13633368.801,24927905.202,2.563,0.893,-0.097,0.744,0.638,0.970,0.605,0.000,19,15,4*43
$GPGGA,084925.00,3135.3751162,N,12046.8182783,E,4,19,1.5,2.5626,M,8.326,M,01,0004*67
$GPHPD,1957,31782.800,325.41,-1.72,13.98,31.5895853,120.7803046,2.563,13633367.101,24927903.494,2.563,0.854,-0.088,0.791,0.638,0.970,0.605,0.000,19,15,4*43
$GPGGA,084925.20,3135.3752203,N,12046.8181850,E,4,19,1.5,2.5805,M,8.326,M,01,0004*6F
$GPHPD,1957,31783.000,325.47,-1.88,13.99,31.5895870,120.7803031,2.581,13633365.433,24927901.763,2.581,0.870,-0.071,0.829,0.646,0.991,0.605,0.000,19,15,4*4C
$GPGGA,084925.40,3135.3753283,N,12046.8180983,E,4,19,1.5,2.5542,M,8.326,M,01,0004*60
$GPHPD,1957,31783.200,326.30,-3.59,14.02,31.5895888,120.7803016,2.554,13633363.724,24927900.088,2.554,0.858,-0.026,0.852,0.646,0.991,0.605,0.000,19,15,4*40
$GPGGA,084925.60,3135.3754420,N,12046.8180096,E,4,19,1.5,2.5616,M,8.326,M,00,0004*64
$GPHPD,1957,31783.400,326.11,-3.08,14.03,31.5895907,120.7803002,2.562,13633361.929,24927898.357,2.562,0.915,-0.183,0.784,0.646,0.990,0.605,0.000,19,15,4*40
$GPGGA,084925.80,3135.3755548,N,12046.8179274,E,4,18,1.5,2.5353,M,8.326,M,00,0004*69
$GPHPD,1957,31783.600,326.39,-3.33,14.04,31.5895926,120.7802988,2.535,13633360.160,24927896.709,2.535,0.867,-0.114,0.891,0.646,0.990,0.605,0.000,18,15,4*4B
$GPGGA,084926.00,3135.3756677,N,12046.8178365,E,4,19,1.5,2.5204,M,8.326,M,01,0004*6D
$GPHPD,1957,31783.800,326.06,-3.43,14.08,31.5895945,120.7802973,2.520,13633358.372,24927894.955,2.520,0.863,-0.133,0.855,0.646,0.990,0.605,0.000,19,15,4*44
$GPGGA,084926.20,3135.3757868,N,12046.8177516,E,4,17,1.5,2.5024,M,8.326,M,01,0004*6D
$GPHPD,1957,31784.000,326.28,-2.56,14.08,31.5895964,120.7802959,2.502,13633356.508,24927893.238,2.502,0.900,-0.153,0.859,0.646,0.990,0.605,0.000,17,15,4*4B
$GPGGA,084926.40,3135.3759024,N,12046.8176586,E,4,17,1.5,2.5032,M,8.326,M,01,0004*6A
$GPHPD,1957,31784.200,325.36,-1.56,14.06,31.5895984,120.7802943,2.503,13633354.677,24927891.443,2.503,0.928,-0.191,0.899,0.625,0.989,0.594,0.000,17,15,4*42
$GPGGA,084926.60,3135.3760153,N,12046.8175650,E,4,17,1.3,2.5339,M,8.326,M,01,0004*66
$GPHPD,1957,31784.400,325.71,-1.32,14.01,31.5896003,120.7802928,2.534,13633352.884,24927889.657,2.534,0.909,-0.135,0.916,0.625,0.989,0.594,0.000,17,15,4*4B
$GPGGA,084926.80,3135.3761363,N,12046.8174767,E,4,17,1.3,2.5260,M,8.326,M,00,0004*60
$GPHPD,1957,31784.600,325.83,-1.51,13.97,31.5896023,120.7802913,2.526,13633350.986,24927887.888,2.526,0.857,-0.030,0.949,0.625,0.988,0.594,0.000,17,15,4*45
$GPGGA,084927.00,3135.3762529,N,12046.8173800,E,4,17,1.3,2.5369,M,8.326,M,01,0004*62
$GPHPD,1957,31784.800,325.40,-0.17,13.97,31.5896042,120.7802897,2.537,13633349.133,24927886.043,2.537,0.921,-0.191,0.912,0.625,0.988,0.594,0.000,17,15,4*49
$GPGGA,084927.20,3135.3763732,N,12046.8172927,E,4,17,1.3,2.5260,M,8.326,M,01,0004*64
$GPHPD,1957,31785.000,325.46,0.32,13.96,31.5896062,120.7802882,2.526,13633347.248,24927884.290,2.526,0.942,-0.073,0.962,0.625,0.988,0.594,0.000,17,15,4*6B
$GPGGA,084927.40,3135.3764828,N,12046.8171931,E,4,18,1.3,2.5710,M,8.326,M,01,0004*68
$GPHPD,1957,31785.200,325.31,0.57,13.95,31.5896080,120.7802866,2.571,13633345.489,24927882.451,2.571,0.953,-0.200,0.891,0.625,0.988,0.594,0.000,18,15,4*6F
$GPGGA,084927.60,3135.3766077,N,12046.8171007,E,4,18,1.3,2.5702,M,8.326,M,00,0004*64
$GPHPD,1957,31785.400,325.80,1.52,13.93,31.5896101,120.7802850,2.570,13633343.527,24927880.609,2.570,0.878,-0.004,0.963,0.625,0.988,0.594,0.000,18,16,4*63
$GPGGA,084927.80,3135.3767282,N,12046.8170087,E,4,18,1.3,2.5632,M,8.326,M,00,0004*68
$GPHPD,1957,31785.600,326.00,1.07,13.90,31.5896121,120.7802835,2.563,13633341.629,24927878.798,2.563,0.924,-0.079,0.983,0.625,0.988,0.594,0.000,18,16,4*65
$GPGGA,084928.00,3135.3768465,N,12046.8169163,E,4,18,1.3,2.5607,M,8.326,M,01,0004*6B
$GPHPD,1957,31785.800,326.22,0.76,13.87,31.5896141,120.7802819,2.561,13633339.761,24927876.995,2.561,0.933,-0.162,0.946,0.625,0.988,0.594,0.000,18,16,4*69
$GPGGA,084928.20,3135.3769645,N,12046.8168250,E,4,18,1.3,2.5576,M,8.326,M,01,0004*6F
$GPHPD,1957,31786.000,326.29,0.59,13.85,31.5896161,120.7802804,2.558,13633337.900,24927875.207,2.558,0.901,-0.082,0.956,0.625,0.988,0.594,0.000,18,17,4*62
$GPGGA,084928.40,3135.3770868,N,12046.8167312,E,4,18,1.4,2.5643,M,8.326,M,01,0004*6A
$GPHPD,1957,31786.200,326.19,-0.20,13.85,31.5896181,120.7802789,2.564,13633335.973,24927873.364,2.564,0.922,-0.133,0.926,0.642,1.023,0.645,0.000,18,17,4*4A
$GPGGA,084928.60,3135.3772067,N,12046.8166423,E,4,18,1.3,2.5638,M,8.326,M,01,0004*62
$GPHPD,1957,31786.400,326.15,-0.96,13.87,31.5896201,120.7802774,2.564,13633334.089,24927871.594,2.564,0.949,-0.132,0.935,0.642,1.022,0.645,0.000,18,17,4*4F
$GPGGA,084928.80,3135.3773263,N,12046.8165517,E,4,18,1.3,2.5590,M,8.326,M,00,0004*6E
$GPHPD,1957,31786.600,325.79,-0.44,13.88,31.5896221,120.7802759,2.559,13633332.207,24927869.805,2.559,0.895,-0.117,0.966,0.625,0.988,0.594,0.000,18,16,4*41
$GPGGA,084929.00,3135.3774460,N,12046.8164557,E,4,18,1.3,2.5627,M,8.326,M,01,0004*6E
$GPHPD,1957,31786.800,325.61,-0.13,13.90,31.5896241,120.7802743,2.563,13633330.312,24927867.950,2.563,0.902,-0.118,0.954,0.625,0.988,0.594,0.000,18,16,4*49
$GPGGA,084929.20,3135.3775651,N,12046.8163655,E,4,18,1.3,2.5614,M,8.326,M,01,0004*6B
$GPHPD,1957,31787.000,325.66,-0.69,13.93,31.5896261,120.7802728,2.561,13633328.437,24927866.169,2.561,0.932,-0.098,0.949,0.625,0.988,0.594,0.000,18,16,4*4A
$GPGGA,084929.40,3135.3776793,N,12046.8162742,E,4,18,1.3,2.5543,M,8.326,M,01,0004*66
$GPHPD,1957,31787.200,325.48,-0.07,13.95,31.5896280,120.7802712,2.554,13633326.630,24927864.403,2.554,0.914,-0.080,0.934,0.625,0.988,0.594,0.000,18,16,4*4B
$GPGGA,084929.60,3135.3777947,N,12046.8161801,E,4,18,1.3,2.5681,M,8.326,M,00,0004*65
$GPHPD,1957,31787.400,325.55,-0.17,14.01,31.5896299,120.7802697,2.568,13633324.800,24927862.597,2.568,0.914,-0.131,0.902,0.646,0.990,0.605,0.000,18,16,4*42
$GPGGA,084929.80,3135.3779124,N,12046.8160886,E,4,18,1.3,2.5596,M,8.326,M,00,0004*63
$GPHPD,1957,31787.600,325.77,-1.14,14.04,31.5896319,120.7802681,2.560,13633322.942,24927860.808,2.560,0.906,-0.040,0.934,0.625,0.988,0.594,0.000,18,16,4*47
$GPGGA,084930.00,3135.3780266,N,12046.8159951,E,4,18,1.3,2.5766,M,8.326,M,01,0004*6D
$GPHPD,1957,31787.800,325.73,-0.79,14.07,31.5896338,120.7802666,2.577,13633321.131,24927859.016,2.577,0.934,-0.149,0.892,0.625,0.988,0.594,0.000,18,16,4*48
$GPGGA,084930.20,3135.3781436,N,12046.8159058,E,4,18,1.3,2.5605,M,8.326,M,01,0004*69
$GPHPD,1957,31788.000,325.57,-0.93,14.09,31.5896357,120.7802651,2.561,13633319.288,24927857.257,2.561,0.883,-0.030,0.941,0.625,0.988,0.594,0.000,18,16,4*40
$GPGGA,084930.40,3135.3782578,N,12046.8158096,E,4,18,1.3,2.5653,M,8.326,M,01,0004*67
$GPHPD,1957,31788.200,325.81,-0.35,14.10,31.5896376,120.7802635,2.565,13633317.471,24927855.432,2.565,0.898,-0.130,0.911,0.625,0.988,0.594,0.000,18,16,4*4B
$GPGGA,084930.60,3135.3783771,N,12046.8157194,E,4,18,1.3,2.5572,M,8.326,M,01,0004*63
$GPHPD,1957,31788.400,326.20,-0.69,14.08,31.5896396,120.7802620,2.557,13633315.593,24927853.650,2.557,0.921,-0.058,0.905,0.625,0.988,0.594,0.000,18,16,4*49
$GPGGA,084930.80,3135.3784975,N,12046.8156239,E,4,19,1.3,2.5530,M,8.326,M,00,0004*63
$GPHPD,1957,31788.600,326.16,-0.57,14.08,31.5896416,120.7802604,2.553,13633313.689,24927851.798,2.553,0.938,-0.165,0.922,0.625,0.988,0.594,0.000,19,16,4*40
$GPGGA,084931.00,3135.3786194,N,12046.8155325,E,4,19,1.3,2.5446,M,8.326,M,01,0004*61
$GPHPD,1957,31788.800,326.09,-0.82,14.07,31.5896437,120.7802589,2.545,13633311.772,24927849.986,2.545,0.951,-0.129,0.922,0.565,0.971,0.592,0.000,19,16,4*4D
$GPGGA,084931.20,3135.3787430,N,12046.8154364,E,4,19,1.3,2.5375,M,8.326,M,01,0004*6A
$GPHPD,1957,31789.000,325.81,-1.40,14.03,31.5896457,120.7802573,2.538,13633309.822,24927848.107,2.538,0.972,-0.206,0.925,0.572,0.995,0.638,0.000,19,16,4*4B
$GPGGA,084931.40,3135.3788695,N,12046.8153432,E,4,19,1.3,2.5338,M,8.326,M,01,0004*64
$GPHPD,1957,31789.200,325.75,-0.60,13.96,31.5896478,120.7802557,2.534,13633307.836,24927846.247,2.534,0.995,-0.209,0.923,0.572,0.995,0.638,0.000,19,16,4*43
$GPGGA,084931.60,3135.3789905,N,12046.8152440,E,4,19,1.2,2.5490,M,8.326,M,00,0004*60
$GPHPD,1957,31789.400,325.21,-0.16,13.92,31.5896498,120.7802541,2.549,13633305.916,24927844.346,2.549,1.006,-0.252,0.965,0.565,0.970,0.592,0.000,19,16,4*4B
$GPGGA,084931.80,3135.3791167,N,12046.8151489,E,4,19,1.2,2.5477,M,8.326,M,00,0004*64
$GPHPD,1957,31789.600,325.14,-0.26,13.86,31.5896519,120.7802525,2.548,13633303.931,24927842.464,2.548,0.921,-0.075,0.989,0.566,0.977,0.618,0.000,19,16,4*4C
$GPGGA,084932.00,3135.3792309,N,12046.8150509,E,4,19,1.2,2.5794,M,8.326,M,01,0004*61
$GPHPD,1957,31789.800,325.28,0.19,13.81,31.5896538,120.7802508,2.579,13633302.110,24927840.618,2.579,0.961,-0.100,0.991,0.565,0.970,0.592,0.000,19,16,4*6D
$GPGGA,084932.20,3135.3793527,N,12046.8149546,E,4,19,1.2,2.5990,M,8.326,M,01,0004*61
$GPHPD,1957,31790.000,324.99,0.76,13.78,31.5896559,120.7802492,2.599,13633300.185,24927838.747,2.599,0.908,-0.048,0.979,0.565,0.970,0.592,0.000,19,16,4*62
$GPGGA,084932.40,3135.3794717,N,12046.8148612,E,4,19,1.2,2.5824,M,8.326,M,01,0004*6C
$GPHPD,1957,31790.200,324.97,1.56,13.78,31.5896579,120.7802477,2.582,13633298.305,24927836.928,2.582,0.900,-0.015,0.987,0.565,0.970,0.592,0.000,19,16,4*66
$GPGGA,084932.60,3135.3795920,N,12046.8147665,E,4,19,1.2,2.5804,M,8.326,M,01,0004*68
$GPHPD,1957,31790.400,324.68,2.21,13.80,31.5896599,120.7802461,2.580,13633296.404,24927835.086,2.580,0.976,-0.167,0.908,0.566,0.977,0.618,0.000,19,16,4*6C
$GPGGA,084932.80,3135.3797105,N,12046.8146702,E,4,19,1.2,2.5897,M,8.326,M,00,0004*61
$GPHPD,1957,31790.600,324.62,1.65,13.82,31.5896618,120.7802445,2.590,13633294.526,24927833.234,2.590,0.964,-0.165,0.926,0.572,0.995,0.638,0.000,19,16,4*61
$GPGGA,084933.00,3135.3798325,N,12046.8145784,E,4,19,1.2,2.5617,M,8.325,M,01,0004*6E
$GPHPD,1957,31790.800,324.28,0.14,13.82,31.5896639,120.7802430,2.562,13633292.606,24927831.417,2.562,0.916,-0.039,0.961,0.554,0.950,0.592,0.000,19,16,4*65
$GPGGA,084933.20,3135.3799482,N,12046.8144791,E,4,19,1.2,2.5908,M,8.325,M,01,0004*63
$GPHPD,1957,31791.000,324.03,-0.53,13.82,31.5896658,120.7802413,2.591,13633290.762,24927829.546,2.591,0.980,-0.216,0.881,0.564,0.950,0.601,0.000,19,16,4*45
$GPGGA,084933.40,3135.3800651,N,12046.8143812,E,4,19,1.2,2.6094,M,8.325,M,01,0004*6A
$GPHPD,1957,31791.200,324.87,-1.11,13.82,31.5896678,120.7802397,2.609,13633288.903,24927827.685,2.609,0.928,-0.042,0.947,0.554,0.950,0.592,0.000,19,14,4*45
$GPGGA,084933.60,3135.3801810,N,12046.8142827,E,4,19,1.2,2.6098,M,8.325,M,01,0004*69
$GPHPD,1957,31791.400,324.71,-0.48,13.82,31.5896697,120.7802380,2.610,13633287.057,24927825.822,2.610,0.914,0.008,0.981,0.554,0.950,0.592,0.000,19,14,4*60
$GPGGA,084933.80,3135.3803035,N,12046.8141843,E,4,19,1.2,2.5935,M,8.325,M,01,0004*66
$GPHPD,1957,31791.600,325.50,-1.52,13.82,31.5896717,120.7802364,2.594,13633285.117,24927823.922,2.594,0.933,-0.018,0.943,0.554,0.950,0.592,0.000,19,14,4*4E
$GPGGA,084934.00,3135.3804223,N,12046.8140897,E,4,19,1.2,2.5901,M,8.325,M,02,0004*67
$GPHPD,1957,31791.800,325.07,-0.41,13.82,31.5896737,120.7802348,2.590,13633283.238,24927822.090,2.590,1.015,-0.147,0.900,0.554,0.950,0.592,0.000,19,14,4*44
$GPGGA,084934.20,3135.3805440,N,12046.8139938,E,4,19,1.2,2.5701,M,8.325,M,02,0004*63
$GPHPD,1957,31792.000,324.92,-0.41,13.81,31.5896757,120.7802332,2.570,13633281.315,24927820.225,2.570,0.973,-0.143,0.921,0.554,0.950,0.592,0.000,19,15,4*46
$GPGGA,084934.40,3135.3806666,N,12046.8139055,E,4,19,1.3,2.5447,M,8.325,M,02,0004*62
$GPHPD,1957,31792.200,325.20,-0.43,13.76,31.5896778,120.7802318,2.545,13633279.394,24927818.446,2.545,1.019,-0.286,0.874,0.564,0.969,0.638,0.000,19,16,4*43
$GPGGA,084934.60,3135.3807911,N,12046.8138040,E,4,19,1.2,2.5581,M,8.325,M,02,0004*61
$GPHPD,1957,31792.400,324.84,-0.93,13.75,31.5896799,120.7802301,2.558,13633277.420,24927816.497,2.558,0.976,-0.219,0.914,0.554,0.950,0.592,0.000,19,16,4*4D
$GPGGA,084934.80,3135.3809110,N,12046.8137059,E,4,19,1.2,2.5612,M,8.325,M,00,0004*64
$GPHPD,1957,31792.600,325.16,-1.41,13.72,31.5896819,120.7802284,2.561,13633275.518,24927814.616,2.561,0.956,-0.070,1.032,0.556,0.954,0.618,0.000,19,16,4*42
$GPGGA,084935.00,3135.3810349,N,12046.8136041,E,4,18,1.3,2.5774,M,8.325,M,01,0004*63
$GPHPD,1957,31792.800,324.82,-0.10,13.70,31.5896839,120.7802267,2.577,13633273.552,24927812.667,2.577,0.902,-0.023,0.965,0.556,0.954,0.618,0.000,18,16,4*4C
$GPGGA,084935.20,3135.3811498,N,12046.8135098,E,4,18,1.3,2.5500,M,8.325,M,01,0004*6D
$GPHPD,1957,31793.000,325.25,0.05,13.73,31.5896858,120.7802252,2.550,13633271.729,24927810.861,2.550,0.935,0.018,1.001,0.570,0.956,0.632,0.000,18,16,4*41
$GPGGA,084935.40,3135.3812719,N,12046.8134173,E,4,18,1.3,2.5573,M,8.325,M,01,0004*63
$GPHPD,1957,31793.200,325.12,0.66,13.74,31.5896879,120.7802236,2.557,13633269.807,24927809.035,2.557,0.947,-0.075,0.916,0.570,0.956,0.632,0.000,18,16,4*62
$GPGGA,084935.60,3135.3813934,N,12046.8133182,E,4,18,1.3,2.5596,M,8.325,M,00,0004*62
$GPHPD,1957,31793.400,324.84,0.55,13.75,31.5896899,120.7802220,2.560,13633267.880,24927807.132,2.560,0.924,-0.039,0.968,0.570,0.956,0.632,0.000,18,16,4*6F
$GPGGA,084935.80,3135.3815139,N,12046.8132231,E,4,18,1.3,2.5592,M,8.325,M,00,0004*61
$GPHPD,1957,31793.600,325.23,1.90,13.72,31.5896919,120.7802204,2.559,13633265.976,24927805.284,2.559,0.929,-0.055,0.995,0.569,0.951,0.605,0.000,18,16,4*69
$GPGGA,084936.00,3135.3816314,N,12046.8131281,E,4,19,1.3,2.5757,M,8.325,M,01,0004*67
$GPHPD,1957,31793.800,325.19,0.55,13.72,31.5896939,120.7802188,2.576,13633264.114,24927803.454,2.576,0.954,-0.096,0.970,0.577,0.971,0.653,0.000,19,16,4*62
$GPGGA,084936.20,3135.3817541,N,12046.8130343,E,4,19,1.3,2.5856,M,8.325,M,01,0004*62
$GPHPD,1957,31794.000,324.86,0.22,13.74,31.5896959,120.7802172,2.586,13633262.181,24927801.608,2.586,0.921,-0.034,0.972,0.554,0.950,0.592,0.000,19,17,4*69
$GPGGA,084936.40,3135.3818734,N,12046.8129305,E,4,19,1.3,2.5996,M,8.325,M,01,0004*6C
$GPHPD,1957,31794.200,324.69,-0.14,13.74,31.5896979,120.7802155,2.600,13633260.276,24927799.662,2.600,0.881,-0.063,0.992,0.554,0.950,0.592,0.000,19,15,4*4B
$GPGGA,084936.60,3135.3819907,N,12046.8128332,E,4,19,1.2,2.6004,M,8.325,M,01,0004*64
$GPHPD,1957,31794.400,324.54,-0.15,13.75,31.5896998,120.7802139,2.600,13633258.413,24927797.806,2.600,0.942,-0.042,0.995,0.554,0.950,0.592,0.000,19,16,4*43
$GPGGA,084936.80,3135.3821112,N,12046.8127398,E,4,19,1.2,2.6016,M,8.325,M,00,0004*60
$GPHPD,1957,31794.600,324.61,0.40,13.75,31.5897019,120.7802123,2.602,13633256.511,24927795.978,2.602,0.941,-0.091,0.902,0.554,0.950,0.592,0.000,19,16,4*64
$GPGGA,084937.00,3135.3822280,N,12046.8126460,E,4,19,1.2,2.5935,M,8.325,M,01,0004*69
$GPHPD,1957,31794.800,324.47,0.73,13.76,31.5897038,120.7802108,2.594,13633254.662,24927794.167,2.594,0.968,-0.088,0.930,0.556,0.954,0.617,0.000,19,16,4*6F
$GPGGA,084937.20,3135.3823434,N,12046.8125475,E,4,19,1.2,2.6086,M,8.325,M,01,0004*66
$GPHPD,1957,31795.000,324.39,1.27,13.74,31.5897057,120.7802091,2.609,13633252.823,24927792.307,2.609,0.931,-0.081,0.925,0.554,0.950,0.592,0.000,19,15,4*60
$GPGGA,084937.40,3135.3824599,N,12046.8124564,E,4,19,1.2,2.6057,M,8.325,M,01,0004*6D
$GPHPD,1957,31795.200,324.58,0.25,13.71,31.5897077,120.7802076,2.606,13633250.984,24927790.530,2.606,0.913,-0.033,0.940,0.569,0.951,0.605,0.000,19,15,4*6E
$GPGGA,084937.60,3135.3825768,N,12046.8123506,E,4,19,1.2,2.6169,M,8.325,M,00,0004*6C
$GPHPD,1957,31795.400,324.31,-0.58,13.72,31.5897096,120.7802058,2.617,13633249.109,24927788.574,2.617,0.905,-0.129,0.910,0.554,0.950,0.592,0.000,19,14,4*47
$GPGGA,084937.80,3135.3826952,N,12046.8122541,E,4,19,1.2,2.5991,M,8.325,M,00,0004*68
$GPHPD,1957,31795.600,324.80,-0.04,13.70,31.5897116,120.7802042,2.599,13633247.232,24927786.721,2.599,0.937,-0.007,0.963,0.564,0.969,0.638,0.000,19,15,4*4C
$GPGGA,084938.00,3135.3828171,N,12046.8121678,E,4,19,1.2,2.5909,M,8.325,M,01,0004*62
$GPHPD,1957,31795.800,324.36,0.12,13.68,31.5897136,120.7802028,2.591,13633245.325,24927784.970,2.591,0.955,-0.089,0.927,0.554,0.949,0.592,0.000,19,15,4*6F
$GPGGA,084938.20,3135.3829295,N,12046.8120663,E,4,19,1.2,2.6028,M,8.325,M,01,0004*6A
$GPHPD,1957,31796.000,323.63,-1.40,13.65,31.5897155,120.7802011,2.603,13633243.523,24927783.092,2.603,0.911,-0.041,1.016,0.554,0.949,0.592,0.000,19,15,4*40
$GPGGA,084938.40,3135.3830560,N,12046.8119704,E,4,19,1.2,2.5935,M,8.325,M,01,0004*65
$GPHPD,1957,31796.200,323.93,-2.95,13.65,31.5897176,120.7801995,2.594,13633241.532,24927781.199,2.594,0.931,0.014,0.908,0.554,0.949,0.592,0.000,19,15,4*63
$GPGGA,084938.60,3135.3831744,N,12046.8118818,E,4,19,1.2,2.5666,M,8.325,M,01,0004*68
$GPHPD,1957,31796.400,324.11,-1.46,13.66,31.5897196,120.7801980,2.567,13633239.670,24927779.441,2.567,1.004,-0.161,0.926,0.554,0.949,0.592,0.000,19,16,4*4E
$GPGGA,084938.80,3135.3832934,N,12046.8117791,E,4,19,1.3,2.5770,M,8.325,M,00,0004*6B
$GPHPD,1957,31796.600,324.19,-1.28,13.68,31.5897216,120.7801963,2.577,13633237.772,24927777.510,2.577,0.994,-0.227,0.899,0.554,0.949,0.592,0.000,19,16,4*47
$GPGGA,084939.00,3135.3834039,N,12046.8116811,E,4,18,1.2,2.5955,M,8.325,M,01,0004*6E
$GPHPD,1957,31796.800,324.72,-1.10,13.69,31.5897234,120.7801947,2.596,13633236.003,24927775.684,2.596,0.976,-0.101,0.914,0.564,0.969,0.638,0.000,18,16,4*48
$GPGGA,084939.20,3135.3835292,N,12046.8115798,E,4,19,1.2,2.5992,M,8.325,M,01,0004*69
$GPHPD,1957,31797.000,325.12,-1.15,13.72,31.5897255,120.7801930,2.599,13633234.018,24927773.733,2.599,0.891,0.002,0.901,0.564,0.969,0.638,0.000,19,16,4*6F
$GPGGA,084939.40,3135.3836246,N,12046.8114925,E,4,19,1.2,2.5292,M,8.325,M,01,0004*67
$GPHPD,1957,31797.200,325.44,-0.80,13.75,31.5897271,120.7801915,2.529,13633232.486,24927772.125,2.529,0.939,-0.141,0.930,0.564,0.969,0.638,0.000,19,16,4*4A
$GPGGA,084939.60,3135.3837635,N,12046.8113911,E,4,19,1.2,2.5327,M,8.325,M,00,0004*6A
$GPHPD,1957,31797.400,325.62,1.50,13.75,31.5897294,120.7801899,2.533,13633230.308,24927770.094,2.533,1.013,-0.261,0.770,0.564,0.969,0.638,0.000,19,16,4*66
$GPGGA,084939.80,3135.3838864,N,12046.8112990,E,4,19,1.2,2.5802,M,8.325,M,00,0004*65
$GPHPD,1957,31797.600,326.10,1.25,13.75,31.5897314,120.7801883,2.580,13633228.375,24927768.267,2.580,1.008,-0.229,0.955,0.564,0.969,0.638,0.000,19,16,4*69
$GPGGA,084940.00,3135.3840026,N,12046.8112090,E,4,19,1.2,2.5542,M,8.325,M,01,0004*63
$GPHPD,1957,31797.800,325.78,0.28,13.78,31.5897334,120.7801868,2.554,13633226.542,24927766.506,2.554,0.879,-0.010,0.969,0.564,0.969,0.638,0.000,19,16,4*66
$GPGGA,084940.20,3135.3841286,N,12046.8111129,E,4,19,1.2,2.5653,M,8.325,M,01,0004*6B
$GPHPD,1957,31798.000,325.56,1.03,13.79,31.5897355,120.7801852,2.565,13633224.557,24927764.613,2.565,0.947,-0.062,0.932,0.564,0.969,0.638,0.000,19,16,4*6E
$GPGGA,084940.40,3135.3842454,N,12046.8110190,E,4,19,1.2,2.5835,M,8.325,M,01,0004*6A
$GPHPD,1957,31798.200,325.87,0.69,13.77,31.5897374,120.7801837,2.584,13633222.708,24927762.801,2.584,0.917,-0.103,1.046,0.564,0.969,0.638,0.000,19,16,4*6E
$GPGGA,084940.60,3135.3843670,N,12046.8109167,E,4,19,1.2,2.5944,M,8.325,M,01,0004*6A
$GPHPD,1957,31798.400,325.48,1.77,13.76,31.5897395,120.7801819,2.594,13633220.773,24927760.859,2.594,0.906,-0.064,1.018,0.554,0.949,0.592,0.000,19,16,4*6F
$GPGGA,084940.80,3135.3844851,N,12046.8108182,E,4,19,1.2,2.6120,M,8.325,M,00,0004*6C
$GPHPD,1957,31798.600,325.86,1.57,13.73,31.5897414,120.7801803,2.612,13633218.896,24927758.984,2.612,0.946,0.035,1.012,0.616,0.967,0.593,0.000,19,16,4*47
$GPGGA,084941.00,3135.3846095,N,12046.8107238,E,4,19,1.2,2.6192,M,8.325,M,01,0004*62
$GPHPD,1957,31798.800,326.37,1.01,13.71,31.5897435,120.7801787,2.619,13633216.938,24927757.121,2.619,0.893,0.023,0.994,0.554,0.949,0.592,0.000,19,16,4*42
$GPGGA,084941.20,3135.3847264,N,12046.8106268,E,4,19,1.3,2.6216,M,8.325,M,01,0004*67
$GPHPD,1957,31799.000,325.44,0.79,13.65,31.5897454,120.7801771,2.622,13633215.081,24927755.271,2.622,0.939,-0.075,0.965,0.554,0.949,0.592,0.000,19,15,4*67
$GPGGA,084941.40,3135.3848427,N,12046.8105357,E,4,19,1.3,2.6281,M,8.325,M,01,0004*6F
$GPHPD,1957,31799.200,325.65,0.13,13.60,31.5897474,120.7801756,2.628,13633213.244,24927753.495,2.628,0.941,-0.047,0.955,0.616,0.967,0.593,0.000,19,15,4*6A
$GPGGA,084941.60,3135.3849629,N,12046.8104509,E,4,19,1.3,2.6083,M,8.325,M,01,0004*6C
$GPHPD,1957,31799.400,325.36,-0.71,13.59,31.5897494,120.7801742,2.608,13633211.365,24927751.773,2.608,0.899,-0.075,0.918,0.616,0.967,0.593,0.000,19,15,4*47
$GPGGA,084941.80,3135.3850822,N,12046.8103503,E,4,19,1.3,2.6198,M,8.325,M,00,0004*68
$GPHPD,1957,31799.600,324.84,-1.38,13.60,31.5897514,120.7801725,2.620,13633209.466,24927749.865,2.620,0.915,-0.209,0.915,0.640,0.967,0.605,0.000,19,15,4*41
$GPGGA,084942.00,3135.3852018,N,12046.8102635,E,4,19,1.3,2.6051,M,8.325,M,01,0004*62
$GPHPD,1957,31799.800,325.21,-1.03,13.60,31.5897534,120.7801711,2.605,13633207.591,24927748.122,2.605,0.926,-0.047,0.943,0.616,0.967,0.593,0.000,19,15,4*44
$GPGGA,084942.20,3135.3853160,N,12046.8101624,E,4,19,1.3,2.6169,M,8.325,M,01,0004*66
$GPHPD,1957,31800.000,324.48,-0.39,13.61,31.5897553,120.7801694,2.617,13633205.764,24927746.238,2.617,0.957,-0.213,0.913,0.625,0.988,0.593,0.000,19,16,4*47
$GPGGA,084942.40,3135.3854353,N,12046.8100694,E,4,19,1.3,2.6232,M,8.325,M,01,0004*62
$GPHPD,1957,31800.200,324.86,-1.84,13.67,31.5897573,120.7801678,2.623,13633203.881,24927744.422,2.623,0.942,-0.099,0.961,0.625,0.988,0.593,0.000,19,15,4*49
$GPGGA,084942.60,3135.3855489,N,12046.8099747,E,4,19,1.3,2.6172,M,8.325,M,01,0004*68
$GPHPD,1957,31800.400,324.73,-0.96,13.68,31.5897591,120.7801662,2.617,13633202.075,24927742.618,2.617,0.918,-0.104,0.888,0.625,0.988,0.593,0.000,19,15,4*4C
$GPGGA,084942.80,3135.3856609,N,12046.8098791,E,4,19,1.3,2.6299,M,8.325,M,00,0004*62
$GPHPD,1957,31800.600,324.78,-0.66,13.69,31.5897610,120.7801647,2.630,13633200.291,24927740.813,2.630,0.956,-0.104,0.860,0.625,0.988,0.593,0.000,19,15,4*47
$GPGGA,084943.00,3135.3857820,N,12046.8098036,E,4,19,1.3,2.5729,M,8.325,M,01,0004*69
$GPHPD,1957,31800.800,325.30,-0.89,13.70,31.5897630,120.7801634,2.573,13633198.417,24927739.198,2.573,0.878,0.019,0.921,0.625,0.988,0.593,0.000,19,15,4*6C
$GPGGA,084943.20,3135.3859069,N,12046.8097112,E,4,19,1.3,2.5683,M,8.325,M,01,0004*69
$GPHPD,1957,31801.000,325.26,-1.06,13.70,31.5897651,120.7801619,2.568,13633196.456,24927737.356,2.568,0.926,-0.354,0.847,0.625,0.988,0.593,0.000,19,15,4*45
$GPGGA,084943.40,3135.3860243,N,12046.8096007,E,4,18,1.3,2.5858,M,8.325,M,01,0004*62
$GPHPD,1957,31801.200,325.12,-1.51,13.70,31.5897671,120.7801600,2.586,13633194.564,24927735.340,2.586,0.962,-0.252,0.911,0.625,0.988,0.593,0.000,18,16,4*48
$GPGGA,084943.60,3135.3861451,N,12046.8095091,E,4,18,1.3,2.5626,M,8.325,M,00,0004*6E
$GPHPD,1957,31801.400,325.62,-0.55,13.69,31.5897691,120.7801585,2.563,13633192.663,24927733.532,2.563,0.985,-0.086,0.923,0.653,0.989,0.605,0.000,18,15,4*4F
$GPGGA,084943.80,3135.3862641,N,12046.8094124,E,4,18,1.3,2.5529,M,8.325,M,00,0004*62
$GPHPD,1957,31801.600,325.77,0.07,13.72,31.5897711,120.7801569,2.553,13633190.776,24927731.673,2.553,0.933,-0.156,0.967,0.653,0.989,0.605,0.000,18,15,4*60
$GPGGA,084944.00,3135.3863853,N,12046.8093197,E,4,18,1.3,2.5514,M,8.325,M,01,0004*61
$GPHPD,1957,31801.800,326.08,-0.13,13.74,31.5897731,120.7801553,2.551,13633188.867,24927729.850,2.551,1.013,-0.198,0.895,0.653,0.989,0.605,0.000,18,15,4*44
$GPGGA,084944.20,3135.3865039,N,12046.8092267,E,4,18,1.3,2.5686,M,8.325,M,01,0004*64
$GPHPD,1957,31802.000,326.11,-0.57,13.75,31.5897751,120.7801538,2.569,13633186.994,24927728.038,2.569,0.953,-0.193,0.910,0.653,0.989,0.605,0.000,18,15,4*42
$GPGGA,084944.40,3135.3866267,N,12046.8091354,E,4,19,1.3,2.5804,M,8.325,M,01,0004*6F
$GPHPD,1957,31802.200,326.02,-1.24,13.74,31.5897771,120.7801523,2.580,13633185.064,24927726.222,2.580,0.895,-0.109,0.959,0.653,0.989,0.605,0.000,19,15,4*48
$GPGGA,084944.60,3135.3867476,N,12046.8090341,E,4,19,1.3,2.5543,M,8.325,M,01,0004*61
$GPHPD,1957,31802.400,325.28,0.72,13.72,31.5897791,120.7801506,2.554,13633183.142,24927724.296,2.554,0.892,-0.069,1.023,0.625,0.987,0.593,0.000,19,16,4*6E
$GPGGA,084944.80,3135.3868685,N,12046.8089454,E,4,19,1.3,2.5910,M,8.325,M,00,0004*6E
$GPHPD,1957,31802.600,326.28,0.40,13.76,31.5897811,120.7801491,2.591,13633181.244,24927722.523,2.591,0.963,-0.104,0.926,0.625,0.987,0.593,0.000,19,16,4*62
$GPGGA,084945.00,3135.3869922,N,12046.8088505,E,4,19,1.3,2.5833,M,8.325,M,01,0004*61
$GPHPD,1957,31802.800,325.55,1.20,13.76,31.5897832,120.7801475,2.583,13633179.295,24927720.658,2.583,0.818,0.041,1.081,0.625,0.987,0.593,0.000,19,16,4*4A
$GPGGA,084945.20,3135.3871140,N,12046.8087547,E,4,19,1.3,2.5958,M,8.325,M,01,0004*63
$GPHPD,1957,31803.000,325.70,1.85,13.80,31.5897852,120.7801459,2.596,13633177.370,24927718.794,2.596,0.935,-0.089,0.992,0.625,0.987,0.593,0.000,19,16,4*69
$GPGGA,084945.40,3135.3872336,N,12046.8086605,E,4,19,1.3,2.6043,M,8.325,M,01,0004*61
$GPHPD,1957,31803.200,325.50,2.15,13.78,31.5897872,120.7801443,2.604,13633175.481,24927716.961,2.604,0.933,-0.141,0.962,0.625,0.987,0.593,0.000,19,15,4*63
$GPGGA,084945.60,3135.3873475,N,12046.8085617,E,4,19,1.2,2.6399,M,8.325,M,00,0004*66
$GPHPD,1957,31803.400,325.62,2.58,13.75,31.5897891,120.7801427,2.640,13633173.663,24927715.107,2.640,0.937,-0.127,0.947,0.625,0.987,0.593,0.000,19,16,4*6C
$GPGGA,084945.80,3135.3874696,N,12046.8084745,E,4,19,1.2,2.6268,M,8.325,M,00,0004*68
$GPHPD,1957,31803.600,325.68,0.52,13.70,31.5897912,120.7801412,2.627,13633171.751,24927713.344,2.627,0.898,-0.030,1.007,0.625,0.987,0.593,0.000,19,16,4*6B
$GPGGA,084946.00,3135.3875910,N,12046.8083756,E,4,19,1.2,2.6515,M,8.325,M,01,0004*6A
$GPHPD,1957,31803.800,325.22,0.99,13.62,31.5897932,120.7801396,2.652,13633169.826,24927711.445,2.652,0.960,-0.193,0.918,0.625,0.987,0.593,0.000,19,16,4*6C
$GPGGA,084946.20,3135.3877141,N,12046.8082815,E,4,19,1.2,2.6360,M,8.325,M,01,0004*6B
$GPHPD,1957,31804.000,325.33,-0.91,13.58,31.5897952,120.7801380,2.636,13633167.887,24927709.593,2.636,0.929,-0.034,1.010,0.625,0.987,0.593,0.000,19,16,4*49
$GPGGA,084946.40,3135.3878294,N,12046.8081848,E,4,19,1.2,2.6512,M,8.325,M,01,0004*61
$GPHPD,1957,31804.200,325.15,-0.92,13.56,31.5897972,120.7801364,2.651,13633166.053,24927707.756,2.651,0.965,-0.145,0.975,0.625,0.987,0.593,0.000,19,16,4*4B
$GPGGA,084946.60,3135.3879490,N,12046.8080938,E,4,19,1.2,2.6406,M,8.325,M,01,0004*63
$GPHPD,1957,31804.400,325.15,-1.95,13.52,31.5897992,120.7801349,2.641,13633164.170,24927705.962,2.641,0.921,-0.067,0.936,0.625,0.987,0.593,0.000,19,16,4*41
$GPGGA,084946.80,3135.3880639,N,12046.8079978,E,4,19,1.2,2.6373,M,8.325,M,00,0004*6C
$GPHPD,1957,31804.600,324.94,-1.55,13.49,31.5898011,120.7801333,2.637,13633162.343,24927704.136,2.637,0.930,-0.172,0.899,0.625,0.987,0.593,0.000,19,16,4*40
$GPGGA,084947.00,3135.3881872,N,12046.8079055,E,4,19,1.2,2.6275,M,8.325,M,01,0004*65
$GPHPD,1957,31804.800,325.33,-1.79,13.48,31.5898031,120.7801318,2.628,13633160.405,24927702.305,2.628,0.954,-0.112,0.932,0.625,0.987,0.593,0.000,19,16,4*41
$GPGGA,084947.20,3135.3883068,N,12046.8078090,E,4,19,1.2,2.6288,M,8.325,M,01,0004*6C
$GPHPD,1957,31805.000,324.97,-1.84,13.45,31.5898051,120.7801302,2.629,13633158.510,24927700.445,2.629,0.968,-0.180,0.925,0.640,0.967,0.605,0.000,19,16,4*49
$GPGGA,084947.40,3135.3884283,N,12046.8077114,E,4,18,1.2,2.6285,M,8.325,M,01,0004*64
$GPHPD,1957,31805.200,325.20,-1.75,13.38,31.5898071,120.7801285,2.629,13633156.586,24927698.560,2.629,0.934,-0.099,0.929,0.616,0.967,0.593,0.000,18,16,4*4B
$GPGGA,084947.60,3135.3885503,N,12046.8076172,E,4,18,1.2,2.6040,M,8.325,M,00,0004*63
$GPHPD,1957,31805.400,324.92,-1.20,13.41,31.5898092,120.7801270,2.604,13633154.663,24927696.714,2.604,0.978,-0.142,0.875,0.640,0.967,0.605,0.000,18,16,4*41
$GPGGA,084947.80,3135.3886735,N,12046.8075244,E,4,19,1.2,2.5736,M,8.325,M,00,0004*68
$GPHPD,1957,31805.600,324.67,-1.36,13.40,31.5898112,120.7801254,2.574,13633152.724,24927694.878,2.574,0.990,-0.165,0.931,0.640,0.967,0.605,0.000,19,17,4*41
$GPGGA,084948.00,3135.3887938,N,12046.8074253,E,4,19,1.2,2.5663,M,8.325,M,01,0004*6A
$GPHPD,1957,31805.800,324.98,-0.72,13.45,31.5898132,120.7801238,2.566,13633150.815,24927692.982,2.566,1.019,-0.247,0.936,0.653,0.988,0.605,0.000,19,17,4*40
$GPGGA,084948.20,3135.3889155,N,12046.8073220,E,4,19,1.2,2.5677,M,8.325,M,01,0004*63
$GPHPD,1957,31806.000,324.93,0.76,13.47,31.5898153,120.7801220,2.568,13633148.877,24927691.028,2.568,0.955,-0.069,0.928,0.625,0.987,0.593,0.000,19,17,4*61
$GPGGA,084948.40,3135.3890436,N,12046.8072228,E,4,19,1.3,2.5688,M,8.325,M,01,0004*65
$GPHPD,1957,31806.200,325.06,-0.77,13.50,31.5898174,120.7801204,2.569,13633146.856,24927689.086,2.569,0.996,-0.126,0.965,0.625,0.987,0.593,0.000,19,17,4*4B
$GPGGA,084948.60,3135.3891649,N,12046.8071219,E,4,19,1.2,2.5623,M,8.325,M,01,0004*6D
$GPHPD,1957,31806.400,324.62,-0.25,13.52,31.5898194,120.7801187,2.562,13633144.928,24927687.163,2.562,1.018,-0.187,1.023,0.625,0.987,0.593,0.000,19,17,4*4C
$GPGGA,084948.80,3135.3892860,N,12046.8070230,E,4,19,1.3,2.5801,M,8.325,M,00,0004*61
$GPHPD,1957,31806.600,325.07,-0.28,13.52,31.5898214,120.7801171,2.580,13633143.008,24927685.265,2.580,1.020,-0.111,0.895,0.625,0.987,0.593,0.000,19,17,4*48
$GPGGA,084949.00,3135.3894100,N,12046.8069235,E,4,18,1.2,2.5953,M,8.325,M,01,0004*6B
$GPHPD,1957,31806.800,324.92,0.42,13.48,31.5898235,120.7801154,2.595,13633141.045,24927683.343,2.595,0.988,-0.104,0.974,0.625,0.987,0.593,0.000,18,17,4*6C
$GPGGA,084949.20,3135.3895323,N,12046.8068276,E,4,18,1.2,2.6189,M,8.325,M,01,0004*61
$GPHPD,1957,31807.000,325.04,0.09,13.47,31.5898255,120.7801138,2.619,13633139.113,24927681.475,2.619,0.981,-0.064,1.011,0.625,0.987,0.593,0.000,18,17,4*6F
$GPGGA,084949.40,3135.3896595,N,12046.8067309,E,4,17,1.2,2.6155,M,8.325,M,01,0004*67
$GPHPD,1957,31807.200,324.84,-0.09,13.47,31.5898277,120.7801122,2.616,13633137.110,24927679.568,2.616,0.909,-0.020,1.010,0.625,0.987,0.593,0.000,17,17,4*4B
$GPGGA,084949.60,3135.3897751,N,12046.8066300,E,4,17,1.2,2.6363,M,8.325,M,00,0004*60
$GPHPD,1957,31807.400,324.83,0.22,13.46,31.5898296,120.7801105,2.636,13633135.264,24927677.678,2.636,0.955,-0.163,0.964,0.653,0.988,0.605,0.000,17,16,4*6C
$GPGGA,084949.80,3135.3898954,N,12046.8065356,E,4,17,1.2,2.6380,M,8.325,M,00,0004*67
$GPHPD,1957,31807.600,325.03,1.09,13.48,31.5898316,120.7801089,2.638,13633133.364,24927675.839,2.638,0.951,-0.143,0.947,0.653,0.988,0.605,0.000,17,16,4*64
$GPGGA,084950.00,3135.3900157,N,12046.8064343,E,4,17,1.2,2.6385,M,8.325,M,01,0004*6D
$GPHPD,1957,31807.800,325.08,0.77,13.50,31.5898336,120.7801072,2.639,13633131.450,24927673.917,2.639,0.974,-0.165,0.918,0.653,0.988,0.605,0.000,17,16,4*66
$GPGGA,084950.20,3135.3901360,N,12046.8063370,E,4,17,1.2,2.6239,M,8.325,M,01,0004*69
$GPHPD,1957,31808.000,324.72,0.17,13.47,31.5898356,120.7801056,2.624,13633129.544,24927672.043,2.624,0.960,-0.073,0.950,0.653,0.988,0.605,0.000,17,16,4*66
$GPGGA,084950.40,3135.3902574,N,12046.8062455,E,4,18,1.2,2.6172,M,8.325,M,01,0004*6D
$GPHPD,1957,31808.200,324.27,0.01,13.44,31.5898376,120.7801041,2.617,13633127.634,24927670.233,2.617,0.974,-0.140,0.968,0.653,0.988,0.605,0.000,18,16,4*69
$GPGGA,084950.60,3135.3903755,N,12046.8061436,E,4,18,1.2,2.6311,M,8.325,M,01,0004*6E
$GPHPD,1957,31808.400,323.91,0.42,13.42,31.5898396,120.7801024,2.631,13633125.750,24927668.317,2.631,0.953,-0.184,0.924,0.625,0.987,0.593,0.000,18,16,4*61
$GPGGA,084950.80,3135.3904969,N,12046.8060425,E,4,18,1.2,2.6350,M,8.325,M,01,0004*60
$GPHPD,1957,31808.600,323.56,-1.26,13.41,31.5898416,120.7801007,2.635,13633123.820,24927666.391,2.635,0.964,-0.100,0.928,0.625,0.987,0.593,0.000,18,16,4*41
$GPGGA,084951.00,3135.3906149,N,12046.8059455,E,4,18,1.2,2.6252,M,8.325,M,02,0004*6C
$GPHPD,1957,31808.800,323.55,-1.06,13.39,31.5898436,120.7800991,2.625,13633121.948,24927664.534,2.625,0.957,-0.072,0.949,0.638,0.968,0.604,0.000,18,16,4*41
$GPGGA,084951.20,3135.3907324,N,12046.8058461,E,4,18,1.2,2.6307,M,8.325,M,02,0004*61
$GPHPD,1957,31809.000,323.95,-0.89,13.37,31.5898455,120.7800974,2.631,13633120.077,24927662.651,2.631,0.937,-0.072,0.927,0.616,0.966,0.593,0.000,18,16,4*41
$GPGGA,084951.40,3135.3908490,N,12046.8057473,E,4,18,1.2,2.6334,M,8.325,M,02,0004*6C
$GPHPD,1957,31809.200,323.90,-0.33,13.39,31.5898475,120.7800958,2.633,13633118.221,24927660.781,2.633,0.953,0.010,0.982,0.638,0.968,0.604,0.000,18,17,4*6B
$GPGGA,084951.60,3135.3909648,N,12046.8056438,E,4,18,1.2,2.6307,M,8.325,M,02,0004*66
$GPHPD,1957,31809.400,324.20,-0.80,13.40,31.5898494,120.7800941,2.631,13633116.366,24927658.859,2.631,0.951,-0.077,0.943,0.616,0.966,0.593,0.000,18,17,4*41
$GPGGA,084951.80,3135.3910795,N,12046.8055509,E,4,18,1.2,2.6282,M,8.325,M,00,0004*6F
$GPHPD,1957,31809.600,324.88,-0.72,13.41,31.5898513,120.7800925,2.628,13633114.549,24927657.070,2.628,0.974,-0.106,0.874,0.616,0.966,0.593,0.000,18,17,4*41
$GPGGA,084952.00,3135.3911979,N,12046.8054539,E,4,18,1.3,2.6104,M,8.325,M,01,0004*66
$GPHPD,1957,31809.800,325.07,-1.10,13.41,31.5898533,120.7800909,2.610,13633112.670,24927655.211,2.610,0.923,-0.042,0.914,0.616,0.966,0.593,0.000,18,17,4*4C
$GPGGA,084952.20,3135.3913239,N,12046.8053604,E,4,18,1.3,2.6003,M,8.325,M,01,0004*65
$GPHPD,1957,31810.000,325.25,-1.66,13.44,31.5898554,120.7800893,2.600,13633110.691,24927653.350,2.600,0.978,-0.117,0.936,0.616,0.966,0.593,0.000,18,17,4*4B
$GPGGA,084952.40,3135.3914370,N,12046.8052656,E,4,18,1.3,2.6088,M,8.325,M,01,0004*6D
$GPHPD,1957,31810.200,325.04,-1.54,13.48,31.5898573,120.7800878,2.609,13633108.892,24927651.549,2.609,0.991,-0.197,0.942,0.636,0.994,0.644,0.000,18,17,4*45
$GPGGA,084952.60,3135.3915541,N,12046.8051720,E,4,18,1.3,2.5897,M,8.325,M,01,0004*6C
$GPHPD,1957,31810.400,325.03,-1.57,13.51,31.5898592,120.7800862,2.590,13633107.039,24927649.738,2.590,0.917,-0.053,0.916,0.616,0.966,0.593,0.000,18,17,4*40
$GPGGA,084952.80,3135.3916777,N,12046.8050774,E,4,18,1.3,2.5808,M,8.325,M,00,0004*61
$GPHPD,1957,31810.600,325.03,-1.53,13.53,31.5898613,120.7800846,2.581,13633105.092,24927647.878,2.581,0.980,-0.192,0.869,0.636,0.994,0.644,0.000,18,16,4*42
$GPGGA,084953.00,3135.3917974,N,12046.8049804,E,4,18,1.3,2.5855,M,8.325,M,01,0004*6D
$GPHPD,1957,31810.800,324.68,-0.88,13.55,31.5898633,120.7800830,2.586,13633103.195,24927646.011,2.586,0.971,-0.179,0.927,0.636,0.994,0.644,0.000,18,16,4*44
$GPGGA,084953.20,3135.3919145,N,12046.8048891,E,4,18,1.3,2.5797,M,8.325,M,01,0004*67
$GPHPD,1957,31811.000,324.71,-0.98,13.57,31.5898652,120.7800815,2.580,13633101.346,24927644.228,2.580,0.961,-0.132,0.944,0.636,0.994,0.644,0.000,18,16,4*49
$GPGGA,084953.40,3135.3920365,N,12046.8047929,E,4,18,1.3,2.5902,M,8.325,M,01,0004*64
$GPHPD,1957,31811.200,324.72,-0.15,13.56,31.5898673,120.7800799,2.590,13633099.418,24927642.358,2.590,0.920,-0.102,0.939,0.636,0.994,0.644,0.000,18,16,4*44
$GPGGA,084953.60,3135.3921507,N,12046.8046871,E,4,18,1.3,2.6367,M,8.325,M,00,0004*63
$GPHPD,1957,31811.400,324.57,0.23,13.55,31.5898692,120.7800781,2.637,13633097.582,24927640.417,2.637,0.944,-0.171,0.923,0.636,0.994,0.644,0.000,18,16,4*67
$GPGGA,084953.80,3135.3922749,N,12046.8045993,E,4,18,1.3,2.5929,M,8.325,M,00,0004*6B
$GPHPD,1957,31811.600,325.05,-0.11,13.51,31.5898712,120.7800767,2.593,13633095.639,24927638.635,2.593,0.838,0.138,1.025,0.616,0.966,0.593,0.000,18,16,4*64
$GPGGA,084954.00,3135.3923885,N,12046.8045018,E,4,18,1.3,2.6251,M,8.325,M,01,0004*66
$GPHPD,1957,31811.800,324.53,-0.05,13.49,31.5898731,120.7800750,2.625,13633093.828,24927636.798,2.625,0.970,-0.197,0.915,0.616,0.966,0.593,0.000,18,16,4*4F
$GPGGA,084954.20,3135.3925061,N,12046.8044029,E,4,18,1.3,2.6151,M,8.325,M,01,0004*60
$GPHPD,1957,31812.000,324.64,-0.11,13.48,31.5898751,120.7800734,2.615,13633091.957,24927634.921,2.615,0.915,-0.037,0.957,0.616,0.966,0.593,0.000,18,16,4*4B
$GPGGA,084954.40,3135.3926214,N,12046.8043129,E,4,18,1.3,2.6326,M,8.325,M,01,0004*61
$GPHPD,1957,31812.200,324.82,0.06,13.46,31.5898770,120.7800719,2.633,13633090.137,24927633.164,2.633,0.953,-0.082,0.929,0.616,0.966,0.593,0.000,18,16,4*6C
$GPGGA,084954.60,3135.3927374,N,12046.8042143,E,4,18,1.3,2.6274,M,8.325,M,01,0004*6E
$GPHPD,1957,31812.400,324.28,-0.27,13.43,31.5898790,120.7800702,2.627,13633088.290,24927631.300,2.627,0.838,0.051,1.013,0.636,0.994,0.644,0.000,18,16,4*68
$GPGGA,084954.80,3135.3928559,N,12046.8041171,E,4,18,1.3,2.6225,M,8.325,M,00,0004*61
$GPHPD,1957,31812.600,323.94,-1.07,13.41,31.5898809,120.7800686,2.623,13633086.409,24927629.437,2.623,0.899,-0.008,0.958,0.622,0.973,0.621,0.000,18,16,4*49
$GPGGA,084955.00,3135.3929716,N,12046.8040222,E,4,18,1.3,2.6081,M,8.325,M,01,0004*69
$GPHPD,1957,31812.800,324.04,-1.10,13.41,31.5898829,120.7800670,2.608,13633084.574,24927627.619,2.608,0.928,-0.060,0.930,0.616,0.966,0.593,0.000,18,16,4*4F
$GPGGA,084955.20,3135.3930873,N,12046.8039284,E,4,18,1.3,2.6091,M,8.325,M,01,0004*6C
$GPHPD,1957,31813.000,323.63,-0.64,13.42,31.5898848,120.7800655,2.609,13633082.740,24927625.815,2.609,0.962,-0.172,0.881,0.638,0.968,0.604,0.000,18,16,4*4A
$GPGGA,084955.40,3135.3932030,N,12046.8038310,E,4,18,1.3,2.6106,M,8.325,M,01,0004*65
$GPHPD,1957,31813.200,323.88,-0.72,13.44,31.5898867,120.7800639,2.611,13633080.899,24927623.966,2.611,0.957,-0.165,0.891,0.616,0.966,0.593,0.000,18,16,4*4F
$GPGGA,084955.60,3135.3933194,N,12046.8037321,E,4,18,1.3,2.6178,M,8.325,M,00,0004*6C
$GPHPD,1957,31813.400,324.00,-0.79,13.47,31.5898887,120.7800622,2.618,13633079.045,24927622.096,2.618,0.982,-0.125,0.899,0.616,0.966,0.593,0.000,18,16,4*4E
$GPGGA,084955.80,3135.3934296,N,12046.8036415,E,4,18,1.3,2.5968,M,8.325,M,00,0004*6F
$GPHPD,1957,31813.600,324.17,-0.93,13.48,31.5898905,120.7800607,2.597,13633077.297,24927620.362,2.597,0.949,-0.072,0.900,0.639,0.966,0.605,0.000,18,16,4*40
$GPGGA,084956.00,3135.3935516,N,12046.8035405,E,4,18,1.3,2.6047,M,8.325,M,01,0004*6E
$GPHPD,1957,31813.800,324.54,-0.75,13.48,31.5898925,120.7800590,2.605,13633075.359,24927618.434,2.605,0.923,-0.145,0.847,0.616,0.966,0.593,0.000,18,16,4*4A
$GPGGA,084956.20,3135.3936626,N,12046.8034420,E,4,18,1.3,2.6277,M,8.325,M,01,0004*68
$GPHPD,1957,31814.000,324.30,-0.86,13.51,31.5898944,120.7800574,2.628,13633073.583,24927616.600,2.628,0.967,-0.187,0.896,0.616,0.966,0.593,0.000,18,16,4*40
$GPGGA,084956.40,3135.3937852,N,12046.8033465,E,4,18,1.3,2.6115,M,8.325,M,01,0004*63
$GPHPD,1957,31814.200,325.02,-1.56,13.50,31.5898964,120.7800558,2.612,13633071.648,24927614.734,2.612,0.900,0.016,0.925,0.616,0.966,0.593,0.000,18,16,4*6D
$GPGGA,084956.60,3135.3939062,N,12046.8032533,E,4,18,1.3,2.5934,M,8.325,M,01,0004*6F
$GPHPD,1957,31814.400,324.97,-0.35,13.51,31.5898984,120.7800542,2.593,13633069.740,24927612.906,2.593,0.962,-0.117,0.934,0.636,0.994,0.643,0.000,18,16,4*47
$GPGGA,084956.80,3135.3940247,N,12046.8031549,E,4,18,1.3,2.5981,M,8.325,M,00,0004*6B
$GPHPD,1957,31814.600,324.54,-0.28,13.51,31.5899004,120.7800526,2.598,13633067.857,24927611.029,2.598,0.983,-0.195,0.918,0.636,0.994,0.643,0.000,18,16,4*4F
$GPGGA,084957.00,3135.3941466,N,12046.8030571,E,4,18,1.3,2.5893,M,8.325,M,01,0004*6F
$GPHPD,1957,31814.800,324.94,0.13,13.51,31.5899024,120.7800510,2.589,13633065.927,24927609.140,2.589,0.958,-0.123,0.911,0.671,1.001,0.670,0.000,18,16,4*69
$GPGGA,084957.20,3135.3942666,N,12046.8029606,E,4,18,1.3,2.5930,M,8.325,M,01,0004*6F
$GPHPD,1957,31815.000,325.13,0.01,13.51,31.5899044,120.7800493,2.593,13633064.027,24927607.278,2.593,0.960,-0.140,0.930,0.616,0.966,0.593,0.000,18,16,4*64
$GPGGA,084957.40,3135.3943879,N,12046.8028682,E,4,18,1.3,2.5890,M,8.325,M,01,0004*6E
$GPHPD,1957,31815.200,325.29,-0.40,13.49,31.5899065,120.7800478,2.589,13633062.117,24927605.457,2.589,0.939,-0.109,0.953,0.636,0.994,0.643,0.000,18,16,4*40
$GPGGA,084957.60,3135.3945101,N,12046.8027720,E,4,18,1.3,2.6043,M,8.325,M,00,0004*6E
$GPHPD,1957,31815.400,325.32,0.18,13.48,31.5899085,120.7800462,2.604,13633060.186,24927603.586,2.604,0.956,-0.105,0.969,0.636,0.994,0.643,0.000,18,16,4*65
$GPGGA,084957.80,3135.3946279,N,12046.8026711,E,4,18,1.3,2.6160,M,8.325,M,00,0004*6C
$GPHPD,1957,31815.600,324.74,0.09,13.49,31.5899105,120.7800445,2.616,13633058.308,24927601.683,2.616,0.927,-0.084,0.973,0.616,0.966,0.593,0.000,18,16,4*66
$GPGGA,084958.00,3135.3947490,N,12046.8025810,E,4,18,1.3,2.6301,M,8.325,M,01,0004*62
$GPHPD,1957,31815.800,325.42,-0.16,13.49,31.5899125,120.7800430,2.630,13633056.406,24927599.891,2.630,0.938,-0.062,0.932,0.616,0.966,0.593,0.000,18,16,4*44
$GPGGA,084958.20,3135.3948713,N,12046.8024852,E,4,18,1.3,2.6098,M,8.325,M,01,0004*63
$GPHPD,1957,31816.000,324.72,-0.56,13.49,31.5899145,120.7800414,2.610,13633054.474,24927598.024,2.610,0.907,-0.113,0.955,0.616,0.966,0.593,0.000,18,16,4*43
$GPGGA,084958.40,3135.3949893,N,12046.8023950,E,4,18,1.3,2.6062,M,8.325,M,01,0004*62
$GPHPD,1957,31816.200,324.66,0.59,13.48,31.5899165,120.7800399,2.606,13633052.615,24927596.249,2.606,0.982,-0.164,0.920,0.638,0.968,0.604,0.000,18,16,4*63
$GPGGA,084958.60,3135.3951058,N,12046.8022938,E,4,18,1.3,2.5938,M,8.325,M,01,0004*6C
$GPHPD,1957,31816.400,324.14,0.31,13.47,31.5899184,120.7800382,2.594,13633050.755,24927594.351,2.594,0.977,-0.172,0.914,0.616,0.966,0.593,0.000,18,15,4*6F
$GPGGA,084958.80,3135.3952215,N,12046.8021982,E,4,18,1.3,2.6152,M,8.325,M,00,0004*6E
$GPHPD,1957,31816.600,323.91,-0.03,13.46,31.5899204,120.7800366,2.615,13633048.918,24927592.524,2.615,1.032,-0.160,0.890,0.638,0.968,0.604,0.000,18,15,4*4F
$GPGGA,084959.00,3135.3953403,N,12046.8021045,E,4,18,1.3,2.6034,M,8.325,M,01,0004*65
$GPHPD,1957,31816.800,323.81,0.06,13.46,31.5899223,120.7800351,2.603,13633047.041,24927590.702,2.603,0.924,-0.110,0.920,0.616,0.966,0.593,0.000,18,15,4*6A
$GPGGA,084959.20,3135.3954555,N,12046.8020127,E,4,18,1.3,2.6057,M,8.325,M,01,0004*63
$GPHPD,1957,31817.000,323.99,0.04,13.47,31.5899243,120.7800335,2.606,13633045.218,24927588.925,2.606,0.967,-0.150,0.903,0.616,0.966,0.593,0.000,18,15,4*61
$GPGGA,084959.40,3135.3955700,N,12046.8019162,E,4,18,1.3,2.6091,M,8.325,M,01,0004*67
$GPHPD,1957,31817.200,323.92,-0.31,13.47,31.5899262,120.7800319,2.609,13633043.396,24927587.094,2.609,0.938,-0.110,0.927,0.616,0.966,0.593,0.000,18,15,4*4B
$GPGGA,084959.60,3135.3956853,N,12046.8018190,E,4,18,1.3,2.6232,M,8.325,M,00,0004*69
$GPHPD,1957,31817.400,324.46,-1.00,13.48,31.5899281,120.7800303,2.623,13633041.562,24927585.251,2.623,0.918,-0.045,0.918,0.616,0.966,0.593,0.000,18,15,4*40
$GPGGA,084959.80,3135.3958005,N,12046.8017187,E,4,18,1.3,2.6059,M,8.325,M,00,0004*64
$GPHPD,1957,31817.600,324.99,-1.02,13.49,31.5899300,120.7800286,2.606,13633039.722,24927583.371,2.606,0.873,0.008,0.956,0.616,0.966,0.593,0.000,18,16,4*6A
$GPGGA,085000.00,3135.3959219,N,12046.8016191,E,4,18,1.3,2.5981,M,8.325,M,01,0004*6E
$GPHPD,1957,31817.800,325.50,-0.62,13.48,31.5899320,120.7800270,2.598,13633037.796,24927581.463,2.598,0.953,-0.069,0.888,0.616,0.966,0.593,0.000,18,16,4*41
$GPGGA,085000.20,3135.3960380,N,12046.8015290,E,4,18,1.3,2.6033,M,8.325,M,01,0004*65
$GPHPD,1957,31818.000,325.55,-1.20,13.48,31.5899340,120.7800255,2.603,13633035.964,24927579.700,2.603,0.979,-0.101,0.912,0.639,0.966,0.605,0.000,18,16,4*41
$GPGGA,085000.40,3135.3961612,N,12046.8014291,E,4,19,1.3,2.5870,M,8.325,M,01,0004*61
$GPHPD,1957,31818.200,325.30,-1.28,13.46,31.5899360,120.7800238,2.587,13633034.011,24927577.778,2.587,0.915,-0.103,0.953,0.616,0.966,0.593,0.000,19,16,4*49
$GPGGA,085000.60,3135.3962837,N,12046.8013370,E,4,19,1.3,2.5752,M,8.325,M,01,0004*6F
$GPHPD,1957,31818.400,325.23,-2.00,13.43,31.5899381,120.7800223,2.575,13633032.085,24927575.954,2.575,1.005,-0.189,0.941,0.554,0.948,0.592,0.000,19,16,4*4D
$GPGGA,085000.80,3135.3964099,N,12046.8012428,E,4,19,1.3,2.5675,M,8.325,M,00,0004*65
$GPHPD,1957,31818.600,325.28,-1.22,13.42,31.5899402,120.7800207,2.568,13633030.101,24927574.084,2.568,0.950,-0.153,0.952,0.554,0.948,0.592,0.000,19,16,4*4B
