$GPGGA,084330.00,3135.3050884,N,12046.7364501,E,4,18,1.3,2.6047,M,8.321,M,01,0004*61
$GPHPD,1957,31427.800,238.32,-0.49,13.96,31.5884181,120.7789408,2.605,13634197.821,24927324.176,2.605,0.587,0.670,-0.417,0.567,0.986,0.640,0.000,18,18,4*41
$GPGGA,084330.20,3135.3050402,N,12046.7363585,E,4,18,1.3,2.5998,M,8.321,M,01,0004*62
$GPHPD,1957,31428.000,238.07,-0.94,13.88,31.5884173,120.7789393,2.600,13634198.321,24927323.351,2.600,0.548,0.652,-0.395,0.558,0.968,0.596,0.000,18,18,4*49
$GPGGA,084330.40,3135.3049930,N,12046.7362707,E,4,18,1.3,2.5949,M,8.321,M,01,0004*65
$GPHPD,1957,31428.200,238.00,-1.22,13.81,31.5884166,120.7789378,2.595,13634198.815,24927322.567,2.595,0.489,0.592,-0.375,0.558,0.968,0.596,0.000,18,18,4*4B
$GPGGA,084330.60,3135.3049486,N,12046.7361872,E,4,18,1.3,2.5965,M,8.321,M,00,0004*66
$GPHPD,1957,31428.400,237.97,-1.28,13.75,31.5884158,120.7789365,2.597,13634199.278,24927321.818,2.597,0.491,0.528,-0.382,0.561,0.975,0.626,0.000,18,18,4*44
$GPGGA,084330.80,3135.3049054,N,12046.7361060,E,4,18,1.3,2.6016,M,8.321,M,00,0004*66
$GPHPD,1957,31428.600,237.89,-1.35,13.72,31.5884151,120.7789351,2.602,13634199.729,24927321.090,2.602,0.449,0.516,-0.352,0.561,0.975,0.626,0.000,18,18,4*40
$GPGGA,084331.00,3135.3048650,N,12046.7360264,E,4,18,1.3,2.6022,M,8.321,M,01,0004*6D
$GPHPD,1957,31428.800,237.66,-1.87,13.69,31.5884144,120.7789338,2.602,13634200.143,24927320.366,2.602,0.431,0.453,-0.360,0.558,0.968,0.596,0.000,18,18,4*45
$GPGGA,084331.20,3135.3048219,N,12046.7359485,E,4,18,1.3,2.6036,M,8.321,M,01,0004*60
$GPHPD,1957,31429.000,237.67,-1.01,13.66,31.5884137,120.7789325,2.604,13634200.599,24927319.677,2.604,0.425,0.528,-0.301,0.558,0.968,0.596,0.000,18,18,4*47
$GPGGA,084331.40,3135.3047860,N,12046.7358774,E,4,19,1.3,2.5995,M,8.321,M,01,0004*63
$GPHPD,1957,31429.200,237.62,-0.74,13.64,31.5884131,120.7789313,2.600,13634200.966,24927319.028,2.600,0.425,0.505,-0.316,0.567,0.986,0.640,0.000,19,18,4*4E
$GPGGA,084331.60,3135.3047513,N,12046.7358079,E,4,19,1.3,2.6069,M,8.321,M,01,0004*6B
$GPHPD,1957,31429.400,237.18,-0.83,13.63,31.5884125,120.7789301,2.607,13634201.319,24927318.392,2.607,0.401,0.417,-0.302,0.561,0.975,0.626,0.000,19,19,4*46
$GPGGA,084331.80,3135.3047115,N,12046.7357427,E,4,19,1.3,2.5996,M,8.321,M,00,0004*6C
$GPHPD,1957,31429.600,237.37,-0.72,13.61,31.5884119,120.7789290,2.600,13634201.754,24927317.837,2.600,0.384,0.435,-0.283,0.567,0.986,0.640,0.000,19,19,4*4D
$GPGGA,084332.00,3135.3046759,N,12046.7356737,E,4,19,1.3,2.6051,M,8.321,M,01,0004*6B
$GPHPD,1957,31429.800,237.40,-0.06,13.60,31.5884113,120.7789279,2.605,13634202.121,24927317.212,2.605,0.359,0.403,-0.306,0.567,0.986,0.640,0.000,19,19,4*4F
$GPGGA,084332.20,3135.3046418,N,12046.7356080,E,4,19,1.3,2.5966,M,8.321,M,01,0004*6A
$GPHPD,1957,31430.000,237.16,-0.37,13.61,31.5884107,120.7789268,2.597,13634202.473,24927316.618,2.597,0.361,0.438,-0.270,0.558,0.968,0.596,0.000,19,19,4*40
$GPGGA,084332.40,3135.3046061,N,12046.7355427,E,4,19,1.3,2.5964,M,8.321,M,01,0004*6E
$GPHPD,1957,31430.200,237.01,-0.49,13.63,31.5884101,120.7789257,2.596,13634202.849,24927316.039,2.596,0.379,0.402,-0.293,0.567,0.986,0.640,0.000,19,19,4*4C
$GPGGA,084332.60,3135.3045684,N,12046.7354769,E,4,19,1.3,2.5915,M,8.321,M,00,0004*6D
$GPHPD,1957,31430.400,236.71,-0.84,13.65,31.5884095,120.7789246,2.592,13634203.253,24927315.464,2.592,0.365,0.424,-0.287,0.558,0.968,0.596,0.000,19,18,4*41
$GPGGA,084332.80,3135.3045321,N,12046.7354127,E,4,19,1.3,2.5880,M,8.321,M,00,0004*68
$GPHPD,1957,31430.600,236.73,-0.59,13.65,31.5884089,120.7789235,2.588,13634203.639,24927314.901,2.588,0.391,0.368,-0.320,0.558,0.968,0.596,0.000,19,18,4*47
$GPGGA,084333.00,3135.3045003,N,12046.7353495,E,4,19,1.3,2.5904,M,8.321,M,01,0004*65
$GPHPD,1957,31430.800,236.83,-0.06,13.62,31.5884083,120.7789225,2.590,13634203.964,24927314.324,2.590,0.361,0.391,-0.302,0.558,0.968,0.596,0.000,19,18,4*43
$GPGGA,084333.20,3135.3044697,N,12046.7352948,E,4,19,1.3,2.5954,M,8.321,M,01,0004*64
$GPHPD,1957,31431.000,236.58,-0.17,13.56,31.5884078,120.7789216,2.595,13634204.289,24927313.842,2.595,0.344,0.389,-0.264,0.558,0.968,0.596,0.000,19,18,4*43
$GPGGA,084333.40,3135.3044437,N,12046.7352470,E,4,19,1.3,2.6031,M,8.321,M,01,0004*65
$GPHPD,1957,31431.200,236.68,-0.93,13.45,31.5884074,120.7789208,2.603,13634204.562,24927313.417,2.603,0.300,0.353,-0.240,0.558,0.968,0.596,0.000,19,18,4*40
$GPGGA,084333.60,3135.3044257,N,12046.7352077,E,4,19,1.2,2.6033,M,8.321,M,01,0004*67
$GPHPD,1957,31431.400,236.41,-1.03,13.34,31.5884071,120.7789201,2.603,13634204.739,24927313.048,2.603,0.247,0.303,-0.200,0.567,0.986,0.640,0.000,19,18,4*4A
$GPGGA,084333.80,3135.3044127,N,12046.7351806,E,4,19,1.2,2.6091,M,8.321,M,00,0004*69
$GPHPD,1957,31431.600,236.43,-1.06,13.24,31.5884069,120.7789197,2.609,13634204.869,24927312.797,2.609,0.215,0.232,-0.156,0.574,0.999,0.688,0.000,19,18,4*49
$GPGGA,084334.00,3135.3044031,N,12046.7351630,E,4,19,1.2,2.6111,M,8.321,M,01,0004*63
$GPHPD,1957,31431.800,236.18,-1.82,13.15,31.5884067,120.7789194,2.611,13634204.970,24927312.640,2.611,0.148,0.183,-0.099,0.574,0.999,0.688,0.000,19,18,4*48
$GPGGA,084334.20,3135.3043961,N,12046.7351515,E,4,19,1.2,2.6128,M,8.321,M,01,0004*64
$GPHPD,1957,31432.000,236.61,-1.07,13.09,31.5884066,120.7789192,2.613,13634205.047,24927312.542,2.613,0.090,0.128,-0.074,0.574,0.999,0.688,0.000,19,18,4*41
$GPGGA,084334.40,3135.3043908,N,12046.7351409,E,4,19,1.2,2.6127,M,8.321,M,01,0004*6E
$GPHPD,1957,31432.200,236.71,-1.23,13.06,31.5884065,120.7789190,2.613,13634205.101,24927312.445,2.613,0.068,0.095,-0.060,0.574,0.999,0.688,0.000,19,18,4*4A
$GPGGA,084334.60,3135.3043883,N,12046.7351378,E,4,19,1.2,2.6101,M,8.321,M,00,0004*6A
$GPHPD,1957,31432.400,236.85,-1.06,13.03,31.5884065,120.7789190,2.610,13634205.130,24927312.423,2.610,0.050,0.059,-0.043,0.574,0.999,0.688,0.000,19,18,4*4D
$GPGGA,084334.80,3135.3043849,N,12046.7351339,E,4,19,1.2,2.6113,M,8.321,M,00,0004*64
$GPHPD,1957,31432.600,236.76,-1.08,13.02,31.5884064,120.7789189,2.611,13634205.171,24927312.395,2.611,0.014,0.039,-0.021,0.574,0.999,0.688,0.000,19,18,4*48
$GPGGA,084335.00,3135.3043802,N,12046.7351281,E,4,19,1.2,2.6166,M,8.321,M,01,0004*63
$GPHPD,1957,31432.800,236.60,-1.36,13.05,31.5884063,120.7789188,2.617,13634205.226,24927312.353,2.617,0.016,0.013,-0.016,0.574,0.999,0.688,0.000,19,18,4*48
$GPGGA,084335.20,3135.3043782,N,12046.7351212,E,4,19,1.2,2.6086,M,8.321,M,01,0004*63
$GPHPD,1957,31433.000,236.79,-0.50,13.12,31.5884063,120.7789187,2.609,13634205.240,24927312.281,2.609,0.015,0.040,-0.024,0.574,0.999,0.688,0.000,19,18,4*4B
$GPGGA,084335.40,3135.3043704,N,12046.7351081,E,4,19,1.2,2.6072,M,8.321,M,01,0004*68
$GPHPD,1957,31433.200,236.81,-0.60,13.23,31.5884062,120.7789185,2.607,13634205.325,24927312.169,2.607,0.051,0.036,-0.038,0.574,0.999,0.688,0.000,19,18,4*47
$GPGGA,084335.60,3135.3043583,N,12046.7350864,E,4,19,1.3,2.5992,M,8.321,M,01,0004*60
$GPHPD,1957,31433.400,236.81,-0.31,13.34,31.5884060,120.7789181,2.599,13634205.453,24927311.977,2.599,0.078,0.081,-0.068,0.574,0.999,0.688,0.000,19,18,4*45
$GPGGA,084335.80,3135.3043409,N,12046.7350565,E,4,19,1.3,2.5945,M,8.321,M,00,0004*6A
$GPHPD,1957,31433.600,236.64,-0.61,13.44,31.5884057,120.7789176,2.595,13634205.640,24927311.718,2.595,0.135,0.101,-0.102,0.574,0.999,0.688,0.000,19,18,4*49
$GPGGA,084336.00,3135.3043185,N,12046.7350170,E,4,19,1.3,2.5974,M,8.321,M,01,0004*63
$GPHPD,1957,31433.800,236.71,-0.44,13.57,31.5884053,120.7789170,2.597,13634205.879,24927311.372,2.597,0.171,0.184,-0.131,0.574,0.999,0.688,0.000,19,18,4*45
$GPGGA,084336.20,3135.3042917,N,12046.7349674,E,4,19,1.3,2.5949,M,8.321,M,01,0004*66
$GPHPD,1957,31434.000,236.86,-0.56,13.70,31.5884049,120.7789161,2.595,13634206.160,24927310.930,2.595,0.204,0.237,-0.165,0.574,0.999,0.688,0.000,19,18,4*4B
$GPGGA,084336.40,3135.3042567,N,12046.7349063,E,4,19,1.3,2.5962,M,8.321,M,01,0004*62
$GPHPD,1957,31434.200,236.93,-0.16,13.82,31.5884043,120.7789151,2.596,13634206.535,24927310.396,2.596,0.281,0.315,-0.228,0.574,0.999,0.688,0.000,19,18,4*49
$GPGGA,084336.60,3135.3042188,N,12046.7348358,E,4,19,1.3,2.5945,M,8.321,M,00,0004*6B
$GPHPD,1957,31434.400,236.94,-0.20,13.93,31.5884036,120.7789139,2.595,13634206.931,24927309.767,2.595,0.318,0.405,-0.272,0.574,0.999,0.688,0.000,19,18,4*43
$GPGGA,084336.80,3135.3041759,N,12046.7347540,E,4,19,1.3,2.5994,M,8.321,M,00,0004*60
$GPHPD,1957,31434.600,237.15,-0.40,14.02,31.5884029,120.7789126,2.599,13634207.376,24927309.030,2.599,0.389,0.454,-0.303,0.574,0.999,0.688,0.000,19,18,4*46
$GPGGA,084337.00,3135.3041287,N,12046.7346691,E,4,19,1.3,2.6003,M,8.321,M,01,0004*64
$GPHPD,1957,31434.800,236.91,0.14,14.08,31.5884021,120.7789112,2.600,13634207.876,24927308.281,2.600,0.422,0.506,-0.333,0.574,0.999,0.688,0.000,19,18,4*6D
$GPGGA,084337.20,3135.3040768,N,12046.7345771,E,4,19,1.3,2.5959,M,8.321,M,01,0004*6A
$GPHPD,1957,31435.000,237.05,-0.32,14.14,31.5884013,120.7789096,2.596,13634208.429,24927307.473,2.596,0.476,0.530,-0.388,0.574,0.999,0.688,0.000,19,18,4*49
$GPGGA,084337.40,3135.3040183,N,12046.7344774,E,4,19,1.3,2.5925,M,8.321,M,01,0004*60
$GPHPD,1957,31435.200,237.09,-0.15,14.19,31.5884003,120.7789080,2.593,13634209.060,24927306.611,2.593,0.517,0.545,-0.433,0.574,0.999,0.688,0.000,19,18,4*45
$GPGGA,084337.60,3135.3039604,N,12046.7343640,E,4,18,1.3,2.5998,M,8.321,M,01,0004*62
$GPHPD,1957,31435.400,237.18,-0.12,14.23,31.5883993,120.7789061,2.600,13634209.655,24927305.580,2.600,0.550,0.651,-0.453,0.579,1.032,0.692,0.000,18,17,4*4F
$GPGGA,084337.80,3135.3038987,N,12046.7342542,E,4,18,1.3,2.5918,M,8.321,M,00,0004*60
$GPHPD,1957,31435.600,237.22,0.25,14.26,31.5883983,120.7789042,2.592,13634210.310,24927304.615,2.592,0.586,0.723,-0.436,0.579,1.032,0.692,0.000,18,18,4*69
$GPGGA,084338.00,3135.3038367,N,12046.7341389,E,4,18,1.3,2.6039,M,8.321,M,01,0004*69
$GPHPD,1957,31435.800,237.12,0.49,14.27,31.5883973,120.7789023,2.604,13634210.960,24927303.585,2.604,0.609,0.688,-0.508,0.579,1.032,0.692,0.000,18,18,4*6F
$GPGGA,084338.20,3135.3037694,N,12046.7340206,E,4,18,1.3,2.5980,M,8.321,M,01,0004*62
$GPHPD,1957,31436.000,237.06,-0.04,14.27,31.5883962,120.7789003,2.598,13634211.678,24927302.550,2.598,0.608,0.782,-0.473,0.579,1.032,0.692,0.000,18,18,4*4E
$GPGGA,084338.40,3135.3037061,N,12046.7338947,E,4,18,1.3,2.6126,M,8.321,M,01,0004*6E
$GPHPD,1957,31436.200,236.98,0.08,14.27,31.5883951,120.7788982,2.613,13634212.324,24927301.400,2.613,0.642,0.724,-0.526,0.595,1.043,0.947,0.000,18,18,4*62
$GPGGA,084338.60,3135.3036371,N,12046.7337703,E,4,17,1.3,2.6169,M,8.321,M,00,0004*6B
$GPHPD,1957,31436.400,236.85,-0.09,14.26,31.5883940,120.7788962,2.617,13634213.055,24927300.301,2.617,0.647,0.809,-0.502,0.579,1.037,0.838,0.000,17,18,4*4C
$GPGGA,084338.80,3135.3035687,N,12046.7336477,E,4,17,1.3,2.6116,M,8.321,M,00,0004*63
$GPHPD,1957,31436.600,236.66,-0.38,14.25,31.5883928,120.7788941,2.612,13634213.780,24927299.221,2.612,0.658,0.823,-0.528,0.579,1.037,0.838,0.000,17,18,4*4E
$GPGGA,084339.00,3135.3034973,N,12046.7335209,E,4,17,1.3,2.6091,M,8.321,M,01,0004*6C
$GPHPD,1957,31436.800,236.62,-0.39,14.23,31.5883916,120.7788920,2.609,13634214.540,24927298.107,2.609,0.680,0.792,-0.548,0.595,1.040,0.900,0.000,17,17,4*47
$GPGGA,084339.20,3135.3034245,N,12046.7333933,E,4,17,1.3,2.6085,M,8.321,M,01,0004*61
$GPHPD,1957,31437.000,236.60,-0.32,14.20,31.5883904,120.7788899,2.609,13634215.318,24927296.992,2.609,0.698,0.792,-0.563,0.579,1.037,0.838,0.000,17,17,4*4C
$GPGGA,084339.40,3135.3033550,N,12046.7332649,E,4,18,1.3,2.6074,M,8.321,M,01,0004*61
$GPHPD,1957,31437.200,236.90,-0.07,14.18,31.5883893,120.7788877,2.607,13634216.047,24927295.848,2.607,0.690,0.820,-0.560,0.579,1.037,0.838,0.000,18,17,4*4E
$GPGGA,084339.60,3135.3032830,N,12046.7331337,E,4,18,1.3,2.6129,M,8.321,M,01,0004*6F
$GPHPD,1957,31437.400,236.78,-0.18,14.13,31.5883881,120.7788856,2.613,13634216.806,24927294.684,2.613,0.697,0.810,-0.566,0.579,1.037,0.838,0.000,18,17,4*4B
$GPGGA,084339.80,3135.3032157,N,12046.7330049,E,4,18,1.3,2.6047,M,8.321,M,00,0004*6A
$GPHPD,1957,31437.600,236.95,-0.70,14.08,31.5883869,120.7788834,2.605,13634217.504,24927293.522,2.605,0.700,0.843,-0.549,0.591,1.005,0.895,0.000,18,18,4*41
$GPGGA,084340.00,3135.3031424,N,12046.7328799,E,4,18,1.3,2.6035,M,8.321,M,01,0004*69
$GPHPD,1957,31437.800,237.03,-0.23,14.06,31.5883857,120.7788813,2.604,13634218.294,24927292.441,2.604,0.718,0.792,-0.570,0.591,1.005,0.895,0.000,18,18,4*45
$GPGGA,084340.20,3135.3030734,N,12046.7327524,E,4,18,1.3,2.6052,M,8.321,M,01,0004*62
$GPHPD,1957,31438.000,237.12,-0.76,14.03,31.5883846,120.7788792,2.605,13634219.018,24927291.305,2.605,0.697,0.758,-0.578,0.591,1.005,0.895,0.000,18,18,4*4A
$GPGGA,084340.40,3135.3030012,N,12046.7326252,E,4,18,1.3,2.5898,M,8.321,M,01,0004*6D
$GPHPD,1957,31438.200,237.28,-0.47,14.01,31.5883834,120.7788771,2.590,13634219.788,24927290.191,2.590,0.700,0.782,-0.554,0.591,1.005,0.895,0.000,18,18,4*4F
$GPGGA,084340.60,3135.3029309,N,12046.7324910,E,4,18,1.3,2.6039,M,8.321,M,00,0004*60
$GPHPD,1957,31438.400,237.49,-0.05,14.00,31.5883822,120.7788749,2.604,13634220.517,24927288.982,2.604,0.702,0.791,-0.576,0.573,1.004,0.836,0.000,18,18,4*4C
$GPGGA,084340.80,3135.3028611,N,12046.7323617,E,4,18,1.3,2.5936,M,8.321,M,00,0004*69
$GPHPD,1957,31438.600,237.37,-0.82,13.98,31.5883810,120.7788727,2.594,13634221.249,24927287.829,2.594,0.693,0.870,-0.528,0.573,1.004,0.836,0.000,18,18,4*47
$GPGGA,084341.00,3135.3027873,N,12046.7322245,E,4,18,1.3,2.6005,M,8.321,M,01,0004*6C
$GPHPD,1957,31438.800,237.37,-0.40,13.96,31.5883798,120.7788704,2.601,13634222.022,24927286.603,2.601,0.725,0.812,-0.563,0.573,1.004,0.836,0.000,18,18,4*4B
$GPGGA,084341.20,3135.3027163,N,12046.7320927,E,4,19,1.3,2.6055,M,8.321,M,01,0004*6F
$GPHPD,1957,31439.000,237.22,-0.37,13.97,31.5883786,120.7788682,2.606,13634222.766,24927285.427,2.606,0.731,0.847,-0.559,0.568,0.995,0.752,0.000,19,18,4*4D
$GPGGA,084341.40,3135.3026433,N,12046.7319576,E,4,19,1.3,2.6011,M,8.321,M,01,0004*6A
$GPHPD,1957,31439.200,237.31,-0.32,13.97,31.5883774,120.7788660,2.601,13634223.532,24927284.222,2.601,0.728,0.851,-0.548,0.567,0.985,0.640,0.000,19,19,4*4B
$GPGGA,084341.60,3135.3025714,N,12046.7318258,E,4,19,1.3,2.5974,M,8.321,M,01,0004*6E
$GPHPD,1957,31439.400,237.15,-0.48,13.95,31.5883762,120.7788638,2.597,13634224.288,24927283.051,2.597,0.738,0.856,-0.574,0.567,0.985,0.640,0.000,19,19,4*47
$GPGGA,084341.80,3135.3024975,N,12046.7316894,E,4,19,1.3,2.5984,M,8.321,M,00,0004*62
$GPHPD,1957,31439.600,237.19,-0.31,13.96,31.5883750,120.7788615,2.598,13634225.064,24927281.836,2.598,0.746,0.833,-0.576,0.573,0.999,0.688,0.000,19,19,4*44
$GPGGA,084342.00,3135.3024250,N,12046.7315543,E,4,19,1.3,2.5956,M,8.321,M,01,0004*6F
$GPHPD,1957,31439.800,237.32,-0.06,13.95,31.5883738,120.7788592,2.596,13634225.823,24927280.629,2.596,0.749,0.855,-0.576,0.573,0.999,0.688,0.000,19,19,4*43
$GPGGA,084342.20,3135.3023506,N,12046.7314159,E,4,19,1.3,2.5952,M,8.321,M,01,0004*64
$GPHPD,1957,31440.000,237.36,0.20,13.94,31.5883725,120.7788569,2.595,13634226.602,24927279.393,2.595,0.748,0.837,-0.586,0.573,0.999,0.688,0.000,19,19,4*67
$GPGGA,084342.40,3135.3022771,N,12046.7312774,E,4,19,1.3,2.5971,M,8.321,M,01,0004*6F
$GPHPD,1957,31440.200,237.56,0.37,13.91,31.5883713,120.7788546,2.597,13634227.367,24927278.150,2.597,0.740,0.876,-0.580,0.573,0.999,0.688,0.000,19,19,4*68
$GPGGA,084342.60,3135.3022017,N,12046.7311364,E,4,19,1.3,2.5986,M,8.321,M,00,0004*65
$GPHPD,1957,31440.400,237.40,-0.03,13.90,31.5883700,120.7788523,2.599,13634228.155,24927276.888,2.599,0.742,0.887,-0.563,0.573,0.999,0.688,0.000,19,18,4*4D
$GPGGA,084342.80,3135.3021260,N,12046.7309964,E,4,19,1.3,2.6004,M,8.321,M,00,0004*69
$GPHPD,1957,31440.600,237.38,-0.44,13.91,31.5883688,120.7788499,2.600,13634228.950,24927275.640,2.600,0.758,0.861,-0.588,0.573,1.004,0.836,0.000,19,18,4*46
$GPGGA,084343.00,3135.3020499,N,12046.7308562,E,4,19,1.3,2.6020,M,8.321,M,01,0004*6D
$GPHPD,1957,31440.800,237.56,-0.66,13.90,31.5883675,120.7788476,2.602,13634229.749,24927274.392,2.602,0.759,0.915,-0.590,0.573,0.999,0.688,0.000,19,18,4*43
$GPGGA,084343.20,3135.3019763,N,12046.7307137,E,4,19,1.3,2.6079,M,8.321,M,01,0004*64
$GPHPD,1957,31441.000,237.49,-0.98,13.89,31.5883663,120.7788452,2.608,13634230.508,24927273.102,2.608,0.766,0.878,-0.598,0.573,0.999,0.688,0.000,19,18,4*41
$GPGGA,084343.40,3135.3019024,N,12046.7305761,E,4,18,1.3,2.6027,M,8.321,M,01,0004*6B
$GPHPD,1957,31441.200,237.35,-1.06,13.87,31.5883650,120.7788429,2.603,13634231.282,24927271.872,2.603,0.760,0.774,-0.683,0.573,0.999,0.688,0.000,18,17,4*46
$GPGGA,084343.60,3135.3018288,N,12046.7304332,E,4,18,1.3,2.6027,M,8.321,M,01,0004*6F
$GPHPD,1957,31441.400,237.64,-0.91,13.87,31.5883638,120.7788406,2.603,13634232.040,24927270.577,2.603,0.763,0.944,-0.557,0.583,1.004,0.713,0.000,18,17,4*4A
$GPGGA,084343.80,3135.3017523,N,12046.7302898,E,4,17,1.3,2.6054,M,8.321,M,00,0004*6F
$GPHPD,1957,31441.600,237.73,-0.87,13.86,31.5883625,120.7788382,2.605,13634232.839,24927269.293,2.605,0.780,0.850,-0.597,0.579,1.037,0.838,0.000,17,17,4*45
$GPGGA,084344.00,3135.3016786,N,12046.7301500,E,4,17,1.3,2.6008,M,8.321,M,01,0004*6B
$GPHPD,1957,31441.800,237.97,-0.59,13.83,31.5883613,120.7788358,2.601,13634233.605,24927268.036,2.601,0.769,0.869,-0.603,0.573,1.004,0.836,0.000,17,17,4*4E
$GPGGA,084344.20,3135.3016005,N,12046.7300104,E,4,17,1.3,2.5925,M,8.321,M,01,0004*61
$GPHPD,1957,31442.000,237.83,-0.31,13.85,31.5883600,120.7788335,2.593,13634234.434,24927266.807,2.593,0.786,0.881,-0.600,0.573,1.004,0.836,0.000,17,17,4*46
$GPGGA,084344.40,3135.3015219,N,12046.7298676,E,4,17,1.3,2.5966,M,8.321,M,01,0004*6E
$GPHPD,1957,31442.200,238.08,-0.43,13.85,31.5883587,120.7788311,2.597,13634235.264,24927265.542,2.597,0.774,0.854,-0.635,0.573,1.004,0.836,0.000,17,17,4*49
$GPGGA,084344.60,3135.3014477,N,12046.7297237,E,4,17,1.3,2.5955,M,8.321,M,00,0004*6C
$GPHPD,1957,31442.400,238.33,-0.06,13.86,31.5883575,120.7788287,2.596,13634236.029,24927264.238,2.596,0.771,0.898,-0.609,0.568,0.994,0.752,0.000,17,17,4*49
$GPGGA,084344.80,3135.3013756,N,12046.7295850,E,4,17,1.3,2.5924,M,8.321,M,00,0004*6A
$GPHPD,1957,31442.600,238.22,0.06,13.84,31.5883563,120.7788264,2.592,13634236.774,24927262.985,2.592,0.794,0.909,-0.586,0.568,0.994,0.752,0.000,17,17,4*6C
$GPGGA,084345.00,3135.3012996,N,12046.7294432,E,4,17,1.3,2.5922,M,8.321,M,01,0004*6E
$GPHPD,1957,31442.800,238.24,-0.30,13.84,31.5883550,120.7788241,2.592,13634237.569,24927261.717,2.592,0.802,0.854,-0.579,0.568,0.994,0.752,0.000,17,17,4*4B
$GPGGA,084345.20,3135.3012249,N,12046.7292973,E,4,17,1.3,2.6006,M,8.321,M,01,0004*67
$GPHPD,1957,31443.000,238.22,-0.08,13.84,31.5883537,120.7788216,2.601,13634238.337,24927260.392,2.601,0.783,0.861,-0.596,0.568,0.994,0.752,0.000,17,17,4*47
$GPGGA,084345.40,3135.3011482,N,12046.7291512,E,4,17,1.3,2.5940,M,8.321,M,01,0004*63
$GPHPD,1957,31443.200,238.05,-0.50,13.83,31.5883525,120.7788192,2.594,13634239.133,24927259.076,2.594,0.780,0.886,-0.579,0.568,0.994,0.752,0.000,17,17,4*49
$GPGGA,084345.60,3135.3010718,N,12046.7290075,E,4,17,1.3,2.5998,M,8.321,M,01,0004*60
$GPHPD,1957,31443.400,237.97,-0.03,13.82,31.5883512,120.7788168,2.600,13634239.930,24927257.788,2.600,0.802,0.902,-0.596,0.568,0.994,0.752,0.000,17,17,4*47
$GPGGA,084345.80,3135.3009945,N,12046.7288644,E,4,17,1.3,2.6031,M,8.321,M,00,0004*65
$GPHPD,1957,31443.600,238.09,-0.22,13.81,31.5883499,120.7788144,2.603,13634240.741,24927256.512,2.603,0.806,0.933,-0.591,0.568,0.994,0.752,0.000,17,17,4*46
$GPGGA,084346.00,3135.3009236,N,12046.7287249,E,4,18,1.3,2.5895,M,8.321,M,01,0004*6C
$GPHPD,1957,31443.800,237.97,-0.41,13.81,31.5883487,120.7788121,2.590,13634241.468,24927255.242,2.590,0.785,0.916,-0.599,0.568,0.994,0.752,0.000,18,17,4*45
$GPGGA,084346.20,3135.3008484,N,12046.7285824,E,4,18,1.3,2.6050,M,8.321,M,01,0004*61
$GPHPD,1957,31444.000,237.67,-0.22,13.84,31.5883475,120.7788097,2.605,13634242.250,24927253.961,2.605,0.809,0.882,-0.578,0.567,0.985,0.640,0.000,18,18,4*4C
$GPGGA,084346.40,3135.3007725,N,12046.7284400,E,4,18,1.3,2.5984,M,8.321,M,01,0004*68
$GPHPD,1957,31444.200,237.64,0.10,13.86,31.5883462,120.7788073,2.598,13634243.042,24927252.685,2.598,0.763,0.876,-0.586,0.567,0.985,0.640,0.000,18,18,4*62
$GPGGA,084346.60,3135.3007001,N,12046.7282994,E,4,18,1.3,2.5977,M,8.321,M,00,0004*60
$GPHPD,1957,31444.400,237.91,0.40,13.86,31.5883450,120.7788050,2.598,13634243.788,24927251.411,2.598,0.771,0.876,-0.631,0.567,0.985,0.640,0.000,18,17,4*65
$GPGGA,084346.80,3135.3006252,N,12046.7281634,E,4,18,1.3,2.5840,M,8.321,M,00,0004*68
$GPHPD,1957,31444.600,237.44,-0.30,13.85,31.5883438,120.7788027,2.584,13634244.579,24927250.206,2.584,0.765,0.889,-0.592,0.567,0.985,0.640,0.000,18,17,4*4D
$GPGGA,084347.00,3135.3005489,N,12046.7280141,E,4,18,1.3,2.5948,M,8.321,M,01,0004*6E
$GPHPD,1957,31444.800,237.66,-0.32,13.84,31.5883425,120.7788002,2.595,13634245.363,24927248.850,2.595,0.798,0.867,-0.578,0.567,0.985,0.640,0.000,18,17,4*41
$GPGGA,084347.20,3135.3004727,N,12046.7278725,E,4,18,1.3,2.6000,M,8.321,M,01,0004*6F
$GPHPD,1957,31445.000,237.64,-0.02,13.83,31.5883412,120.7787979,2.600,13634246.161,24927247.585,2.600,0.789,0.862,-0.590,0.567,0.985,0.640,0.000,18,17,4*4A
$GPGGA,084347.40,3135.3003982,N,12046.7277293,E,4,18,1.3,2.6050,M,8.321,M,01,0004*6D
$GPHPD,1957,31445.200,237.44,-0.57,13.83,31.5883400,120.7787955,2.605,13634246.931,24927246.292,2.605,0.758,0.928,-0.586,0.567,0.985,0.640,0.000,18,17,4*4E
$GPGGA,084347.60,3135.3003231,N,12046.7275869,E,4,17,1.2,2.6047,M,8.321,M,01,0004*69
$GPHPD,1957,31445.400,237.55,-0.27,13.83,31.5883387,120.7787931,2.605,13634247.712,24927245.011,2.605,0.766,0.950,-0.581,0.567,0.985,0.640,0.000,17,17,4*4B
$GPGGA,084347.80,3135.3002485,N,12046.7274384,E,4,17,1.2,2.6165,M,8.321,M,00,0004*66
$GPHPD,1957,31445.600,237.59,-0.22,13.80,31.5883375,120.7787906,2.617,13634248.474,24927243.654,2.617,0.777,0.867,-0.594,0.575,1.011,0.640,0.000,17,17,4*40
$GPGGA,084348.00,3135.3001684,N,12046.7272992,E,4,17,1.3,2.5933,M,8.321,M,01,0004*62
$GPHPD,1957,31445.800,237.55,-0.07,13.78,31.5883361,120.7787883,2.593,13634249.332,24927242.442,2.593,0.788,0.923,-0.577,0.575,1.011,0.640,0.000,17,17,4*47
$GPGGA,084348.20,3135.3000936,N,12046.7271548,E,4,16,1.3,2.5975,M,8.321,M,01,0004*6C
$GPHPD,1957,31446.000,237.30,0.00,13.78,31.5883349,120.7787859,2.598,13634250.104,24927241.135,2.598,0.780,0.943,-0.566,0.589,1.018,0.662,0.000,16,17,4*64
$GPGGA,084348.40,3135.3000154,N,12046.7270139,E,4,16,1.3,2.5997,M,8.321,M,01,0004*69
$GPHPD,1957,31446.200,237.56,-0.03,13.73,31.5883336,120.7787836,2.600,13634250.932,24927239.891,2.600,0.807,0.914,-0.594,0.589,1.018,0.662,0.000,16,16,4*49
$GPGGA,084348.60,3135.2999371,N,12046.7268715,E,4,16,1.3,2.6046,M,8.321,M,00,0004*60
$GPHPD,1957,31446.400,237.82,0.03,13.68,31.5883323,120.7787812,2.605,13634251.759,24927238.629,2.605,0.769,0.929,-0.594,0.589,1.018,0.662,0.000,16,16,4*64
$GPGGA,084348.80,3135.2998631,N,12046.7267271,E,4,16,1.3,2.6052,M,8.321,M,00,0004*63
$GPHPD,1957,31446.600,237.71,-0.23,13.65,31.5883311,120.7787788,2.605,13634252.520,24927237.319,2.605,0.735,0.936,-0.590,0.589,1.018,0.662,0.000,16,16,4*40
$GPGGA,084349.00,3135.2997865,N,12046.7265864,E,4,16,1.3,2.6110,M,8.321,M,01,0004*60
$GPHPD,1957,31446.800,237.68,-0.16,13.69,31.5883298,120.7787764,2.611,13634253.325,24927236.067,2.611,0.812,0.864,-0.596,0.589,1.018,0.662,0.000,16,16,4*4D
$GPGGA,084349.20,3135.2997084,N,12046.7264414,E,4,16,1.3,2.6052,M,8.321,M,01,0004*68
$GPHPD,1957,31447.000,237.83,-0.35,13.71,31.5883285,120.7787740,2.605,13634254.144,24927234.773,2.605,0.762,0.910,-0.589,0.584,0.993,0.613,0.000,16,16,4*45
$GPGGA,084349.40,3135.2996337,N,12046.7262968,E,4,17,1.3,2.6127,M,8.321,M,01,0004*66
$GPHPD,1957,31447.200,237.62,-0.30,13.69,31.5883272,120.7787716,2.613,13634254.914,24927233.464,2.613,0.765,0.981,-0.579,0.568,0.989,0.596,0.000,17,16,4*46
$GPGGA,084349.60,3135.2995561,N,12046.7261523,E,4,17,1.3,2.6140,M,8.321,M,01,0004*63
$GPHPD,1957,31447.400,237.58,-0.36,13.71,31.5883259,120.7787692,2.614,13634255.726,24927232.173,2.614,0.765,0.928,-0.563,0.568,0.989,0.596,0.000,17,17,4*47
$GPGGA,084349.80,3135.2994795,N,12046.7260127,E,4,17,1.3,2.6043,M,8.321,M,00,0004*67
$GPHPD,1957,31447.600,237.41,-0.35,13.71,31.5883247,120.7787669,2.604,13634256.534,24927230.935,2.604,0.786,0.940,-0.590,0.584,0.993,0.613,0.000,17,17,4*47
$GPGGA,084350.00,3135.2994011,N,12046.7258669,E,4,16,1.3,2.6102,M,8.321,M,01,0004*6E
$GPHPD,1957,31447.800,237.59,0.06,13.72,31.5883234,120.7787644,2.610,13634257.355,24927229.633,2.610,0.795,0.867,-0.600,0.568,0.989,0.596,0.000,16,17,4*6E
$GPGGA,084350.20,3135.2993250,N,12046.7257242,E,4,16,1.3,2.6088,M,8.321,M,01,0004*6D
$GPHPD,1957,31448.000,237.49,-0.21,13.71,31.5883221,120.7787621,2.609,13634258.149,24927228.354,2.609,0.778,0.945,-0.597,0.584,0.993,0.613,0.000,16,16,4*48
$GPGGA,084350.40,3135.2992474,N,12046.7255788,E,4,16,1.3,2.6107,M,8.321,M,01,0004*6D
$GPHPD,1957,31448.200,237.51,-0.10,13.70,31.5883208,120.7787596,2.611,13634258.960,24927227.052,2.611,0.771,0.883,-0.609,0.584,0.993,0.613,0.000,16,16,4*4B
$GPGGA,084350.60,3135.2991710,N,12046.7254349,E,4,16,1.3,2.6129,M,8.321,M,00,0004*68
$GPHPD,1957,31448.400,237.58,-0.31,13.72,31.5883195,120.7787572,2.613,13634259.756,24927225.761,2.613,0.799,0.886,-0.602,0.584,0.993,0.613,0.000,16,16,4*4F
$GPGGA,084350.80,3135.2990927,N,12046.7252936,E,4,16,1.3,2.6105,M,8.321,M,00,0004*67
$GPHPD,1957,31448.600,237.51,-0.27,13.71,31.5883182,120.7787549,2.611,13634260.584,24927224.513,2.611,0.765,0.922,-0.610,0.584,0.993,0.613,0.000,16,16,4*40
$GPGGA,084351.00,3135.2990152,N,12046.7251498,E,4,16,1.3,2.6093,M,8.321,M,01,0004*61
$GPHPD,1957,31448.800,237.51,-0.30,13.70,31.5883169,120.7787525,2.609,13634261.397,24927223.230,2.609,0.780,0.886,-0.617,0.584,0.993,0.613,0.000,16,16,4*41
$GPGGA,084351.20,3135.2989393,N,12046.7250098,E,4,16,1.3,2.6147,M,8.321,M,01,0004*69
$GPHPD,1957,31449.000,237.56,-0.04,13.70,31.5883157,120.7787502,2.615,13634262.194,24927221.983,2.615,0.777,0.914,-0.600,0.568,0.989,0.596,0.000,16,16,4*40
$GPGGA,084351.40,3135.2988634,N,12046.7248653,E,4,17,1.3,2.6132,M,8.321,M,01,0004*6D
$GPHPD,1957,31449.200,237.56,-0.22,13.69,31.5883144,120.7787478,2.613,13634262.982,24927220.682,2.613,0.760,0.915,-0.592,0.568,0.989,0.596,0.000,17,16,4*4E
$GPGGA,084351.60,3135.2987862,N,12046.7247233,E,4,17,1.2,2.6058,M,8.320,M,01,0004*6D
$GPHPD,1957,31449.400,237.44,-0.22,13.69,31.5883131,120.7787454,2.606,13634263.793,24927219.418,2.606,0.758,0.924,-0.607,0.568,0.989,0.596,0.000,17,17,4*44
$GPGGA,084351.80,3135.2987065,N,12046.7245831,E,4,17,1.2,2.6091,M,8.320,M,00,0004*62
$GPHPD,1957,31449.600,237.34,-0.36,13.69,31.5883118,120.7787431,2.609,13634264.644,24927218.191,2.609,0.779,0.897,-0.600,0.568,0.989,0.596,0.000,17,17,4*48
$GPGGA,084352.00,3135.2986322,N,12046.7244417,E,4,17,1.2,2.6000,M,8.320,M,01,0004*68
$GPHPD,1957,31449.800,237.57,-0.34,13.71,31.5883105,120.7787407,2.600,13634265.415,24927216.918,2.600,0.764,0.893,-0.604,0.568,0.989,0.596,0.000,17,17,4*4D
$GPGGA,084352.20,3135.2985577,N,12046.7242985,E,4,17,1.2,2.6078,M,8.320,M,01,0004*60
$GPHPD,1957,31450.000,237.66,-0.16,13.71,31.5883093,120.7787383,2.608,13634266.186,24927215.625,2.608,0.766,0.862,-0.609,0.568,0.989,0.596,0.000,17,17,4*45
$GPGGA,084352.40,3135.2984809,N,12046.7241545,E,4,17,1.2,2.6141,M,8.320,M,01,0004*6B
$GPHPD,1957,31450.200,237.52,-0.45,13.71,31.5883080,120.7787359,2.614,13634266.987,24927214.335,2.614,0.772,0.856,-0.598,0.568,0.989,0.596,0.000,17,17,4*46
$GPGGA,084352.60,3135.2984064,N,12046.7240137,E,4,17,1.2,2.6227,M,8.320,M,00,0004*68
$GPHPD,1957,31450.400,237.64,-0.41,13.73,31.5883068,120.7787336,2.623,13634267.763,24927213.070,2.623,0.784,0.882,-0.604,0.568,0.989,0.596,0.000,17,17,4*4A
$GPGGA,084352.80,3135.2983309,N,12046.7238721,E,4,17,1.2,2.6073,M,8.320,M,00,0004*64
$GPHPD,1957,31450.600,237.77,-0.68,13.73,31.5883055,120.7787312,2.607,13634268.551,24927211.802,2.607,0.762,0.887,-0.592,0.568,0.989,0.596,0.000,17,17,4*4B
$GPGGA,084353.00,3135.2982543,N,12046.7237312,E,4,17,1.2,2.6023,M,8.320,M,01,0004*6B
$GPHPD,1957,31450.800,237.82,-0.23,13.74,31.5883042,120.7787289,2.602,13634269.356,24927210.548,2.602,0.806,0.836,-0.616,0.568,0.989,0.596,0.000,17,17,4*48
$GPGGA,084353.20,3135.2981801,N,12046.7235844,E,4,17,1.2,2.6058,M,8.320,M,01,0004*67
$GPHPD,1957,31451.000,237.76,-0.63,13.73,31.5883030,120.7787264,2.606,13634270.115,24927209.210,2.606,0.778,0.836,-0.603,0.568,0.988,0.596,0.000,17,17,4*43
$GPGGA,084353.40,3135.2981019,N,12046.7234429,E,4,17,1.2,2.6034,M,8.320,M,01,0004*6C
$GPHPD,1957,31451.200,237.82,-0.16,13.73,31.5883017,120.7787240,2.603,13634270.942,24927207.958,2.603,0.807,0.857,-0.591,0.568,0.988,0.596,0.000,17,17,4*40
$GPGGA,084353.60,3135.2980255,N,12046.7232983,E,4,17,1.2,2.6092,M,8.320,M,01,0004*62
$GPHPD,1957,31451.400,237.93,-0.18,13.74,31.5883004,120.7787216,2.609,13634271.737,24927206.659,2.609,0.799,0.852,-0.611,0.568,0.988,0.596,0.000,17,17,4*4A
$GPGGA,084353.80,3135.2979514,N,12046.7231549,E,4,17,1.2,2.6080,M,8.320,M,00,0004*63
$GPHPD,1957,31451.600,237.91,-0.42,13.72,31.5882992,120.7787192,2.608,13634272.501,24927205.361,2.608,0.765,0.926,-0.590,0.568,0.988,0.596,0.000,17,17,4*49
$GPGGA,084354.00,3135.2978748,N,12046.7230144,E,4,17,1.2,2.6040,M,8.320,M,01,0004*63
$GPHPD,1957,31451.800,237.93,-0.30,13.72,31.5882979,120.7787169,2.604,13634273.307,24927204.112,2.604,0.795,0.916,-0.592,0.568,0.988,0.596,0.000,17,17,4*49
$GPGGA,084354.20,3135.2977988,N,12046.7228695,E,4,18,1.2,2.6019,M,8.320,M,01,0004*6D
$GPHPD,1957,31452.000,238.01,-0.38,13.71,31.5882966,120.7787145,2.602,13634274.096,24927202.806,2.602,0.759,0.919,-0.598,0.568,0.988,0.596,0.000,18,17,4*41
$GPGGA,084354.40,3135.2977266,N,12046.7227259,E,4,18,1.2,2.6046,M,8.320,M,01,0004*61
$GPHPD,1957,31452.200,238.08,-0.01,13.70,31.5882954,120.7787121,2.605,13634274.833,24927201.495,2.605,0.801,0.888,-0.599,0.558,0.967,0.596,0.000,18,18,4*47
$GPGGA,084354.60,3135.2976498,N,12046.7225836,E,4,18,1.2,2.6020,M,8.320,M,00,0004*65
$GPHPD,1957,31452.400,237.88,-0.28,13.68,31.5882942,120.7787097,2.602,13634275.638,24927200.225,2.602,0.821,0.893,-0.587,0.558,0.967,0.596,0.000,18,18,4*40
$GPGGA,084354.80,3135.2975728,N,12046.7224403,E,4,18,1.2,2.6038,M,8.320,M,00,0004*62
$GPHPD,1957,31452.600,237.92,0.05,13.66,31.5882929,120.7787073,2.604,13634276.444,24927198.945,2.604,0.799,0.879,-0.600,0.558,0.967,0.596,0.000,18,18,4*63
$GPGGA,084355.00,3135.2974976,N,12046.7222941,E,4,18,1.2,2.6100,M,8.320,M,01,0004*69
$GPHPD,1957,31452.800,237.89,-0.16,13.64,31.5882916,120.7787049,2.610,13634277.219,24927197.620,2.610,0.776,0.923,-0.596,0.558,0.967,0.596,0.000,18,18,4*40
$GPGGA,084355.20,3135.2974205,N,12046.7221511,E,4,18,1.2,2.6072,M,8.320,M,01,0004*6A
$GPHPD,1957,31453.000,237.98,-0.15,13.64,31.5882903,120.7787025,2.607,13634278.027,24927196.344,2.607,0.793,0.920,-0.592,0.558,0.967,0.596,0.000,18,18,4*4E
$GPGGA,084355.40,3135.2973442,N,12046.7220029,E,4,19,1.2,2.6196,M,8.320,M,01,0004*6B
$GPHPD,1957,31453.200,237.89,-0.14,13.63,31.5882891,120.7787000,2.620,13634278.813,24927195.000,2.620,0.800,0.878,-0.611,0.558,0.967,0.596,0.000,19,18,4*48
$GPGGA,084355.60,3135.2972698,N,12046.7218616,E,4,19,1.2,2.6152,M,8.320,M,01,0004*64
$GPHPD,1957,31453.400,237.88,-0.42,13.63,31.5882878,120.7786977,2.615,13634279.586,24927193.729,2.615,0.770,0.952,-0.592,0.558,0.967,0.596,0.000,19,19,4*41
$GPGGA,084355.80,3135.2971911,N,12046.7217172,E,4,19,1.2,2.6173,M,8.320,M,00,0004*6F
$GPHPD,1957,31453.600,237.82,-0.39,13.64,31.5882865,120.7786953,2.617,13634280.414,24927192.445,2.617,0.782,0.889,-0.595,0.558,0.967,0.596,0.000,19,19,4*41
$GPGGA,084356.00,3135.2971139,N,12046.7215770,E,4,19,1.2,2.6112,M,8.320,M,01,0004*66
$GPHPD,1957,31453.800,237.87,-0.45,13.64,31.5882852,120.7786930,2.611,13634281.229,24927191.204,2.611,0.789,0.883,-0.598,0.558,0.967,0.596,0.000,19,19,4*45
$GPGGA,084356.20,3135.2970408,N,12046.7214330,E,4,19,1.2,2.6104,M,8.320,M,01,0004*64
$GPHPD,1957,31454.000,237.99,-0.04,13.64,31.5882840,120.7786906,2.610,13634281.978,24927189.892,2.610,0.776,0.906,-0.607,0.558,0.967,0.596,0.000,19,19,4*4C
$GPGGA,084356.40,3135.2969632,N,12046.7212924,E,4,19,1.2,2.6086,M,8.320,M,01,0004*63
$GPHPD,1957,31454.200,237.81,0.11,13.66,31.5882827,120.7786882,2.609,13634282.798,24927188.648,2.609,0.799,0.854,-0.609,0.558,0.967,0.596,0.000,19,19,4*62
$GPGGA,084356.60,3135.2968897,N,12046.7211486,E,4,19,1.2,2.6104,M,8.320,M,00,0004*6D
$GPHPD,1957,31454.400,237.86,-0.19,13.67,31.5882815,120.7786858,2.610,13634283.553,24927187.342,2.610,0.791,0.858,-0.607,0.558,0.967,0.596,0.000,19,19,4*4F
$GPGGA,084356.80,3135.2968127,N,12046.7210045,E,4,19,1.2,2.6108,M,8.320,M,00,0004*67
$GPHPD,1957,31454.600,237.86,0.01,13.69,31.5882802,120.7786834,2.611,13634284.358,24927186.052,2.611,0.786,0.903,-0.593,0.558,0.967,0.596,0.000,19,19,4*65
$GPGGA,084357.00,3135.2967371,N,12046.7208603,E,4,19,1.2,2.6066,M,8.320,M,01,0004*65
$GPHPD,1957,31454.800,237.83,-0.20,13.71,31.5882790,120.7786810,2.607,13634285.142,24927184.753,2.607,0.786,0.904,-0.599,0.558,0.967,0.596,0.000,19,19,4*4A
$GPGGA,084357.20,3135.2966621,N,12046.7207138,E,4,19,1.2,2.6069,M,8.320,M,01,0004*69
$GPHPD,1957,31455.000,237.91,-0.10,13.71,31.5882777,120.7786786,2.607,13634285.913,24927183.422,2.607,0.780,0.913,-0.595,0.558,0.967,0.596,0.000,19,19,4*48
$GPGGA,084357.40,3135.2965867,N,12046.7205686,E,4,19,1.2,2.6103,M,8.320,M,01,0004*6D
$GPHPD,1957,31455.200,237.67,-0.19,13.72,31.5882764,120.7786761,2.610,13634286.693,24927182.110,2.610,0.804,0.897,-0.598,0.558,0.967,0.596,0.000,19,19,4*40
$GPGGA,084357.60,3135.2965084,N,12046.7204262,E,4,19,1.2,2.6120,M,8.320,M,01,0004*64
$GPHPD,1957,31455.400,237.73,-0.42,13.70,31.5882751,120.7786738,2.612,13634287.519,24927180.848,2.612,0.799,0.901,-0.586,0.558,0.967,0.596,0.000,19,19,4*49
$GPGGA,084357.80,3135.2964335,N,12046.7202801,E,4,19,1.2,2.6201,M,8.320,M,00,0004*6A
$GPHPD,1957,31455.600,237.77,-0.48,13.65,31.5882739,120.7786713,2.620,13634288.289,24927179.522,2.620,0.777,0.921,-0.594,0.558,0.967,0.596,0.000,19,19,4*41
$GPGGA,084358.00,3135.2963596,N,12046.7201390,E,4,19,1.2,2.6159,M,8.320,M,01,0004*6A
$GPHPD,1957,31455.800,237.75,-0.52,13.65,31.5882727,120.7786690,2.616,13634289.056,24927178.250,2.616,0.781,0.901,-0.591,0.558,0.967,0.596,0.000,19,19,4*4F
$GPGGA,084358.20,3135.2962804,N,12046.7199939,E,4,19,1.2,2.6153,M,8.320,M,01,0004*6E
$GPHPD,1957,31456.000,237.91,-0.19,13.65,31.5882713,120.7786666,2.615,13634289.889,24927176.961,2.615,0.788,0.879,-0.588,0.558,0.967,0.596,0.000,19,19,4*4D
$GPGGA,084358.40,3135.2962060,N,12046.7198537,E,4,19,1.2,2.6185,M,8.320,M,01,0004*6A
$GPHPD,1957,31456.200,237.81,-0.25,13.67,31.5882701,120.7786642,2.619,13634290.665,24927175.703,2.619,0.788,0.893,-0.607,0.558,0.967,0.596,0.000,19,19,4*4B
$GPGGA,084358.60,3135.2961296,N,12046.7197115,E,4,19,1.2,2.6107,M,8.320,M,00,0004*60
$GPHPD,1957,31456.400,237.95,-0.20,13.67,31.5882688,120.7786619,2.611,13634291.464,24927174.433,2.611,0.768,0.910,-0.592,0.558,0.967,0.596,0.000,19,19,4*4B
$GPGGA,084358.80,3135.2960538,N,12046.7195704,E,4,19,1.2,2.6165,M,8.320,M,00,0004*6C
$GPHPD,1957,31456.600,237.88,-0.18,13.69,31.5882676,120.7786595,2.617,13634292.258,24927173.172,2.617,0.776,0.883,-0.622,0.558,0.967,0.596,0.000,19,19,4*47
$GPGGA,084359.00,3135.2959777,N,12046.7194278,E,4,19,1.2,2.6105,M,8.320,M,01,0004*6E
$GPHPD,1957,31456.800,238.01,-0.26,13.71,31.5882663,120.7786571,2.611,13634293.052,24927171.895,2.611,0.764,0.906,-0.586,0.558,0.967,0.596,0.000,19,19,4*44
$GPGGA,084359.20,3135.2959025,N,12046.7192836,E,4,19,1.2,2.6196,M,8.320,M,01,0004*60
$GPHPD,1957,31457.000,237.74,-0.07,13.73,31.5882650,120.7786547,2.620,13634293.831,24927170.593,2.620,0.780,0.890,-0.599,0.558,0.967,0.596,0.000,19,19,4*49
$GPGGA,084359.40,3135.2958275,N,12046.7191406,E,4,19,1.2,2.6128,M,8.320,M,01,0004*69
$GPHPD,1957,31457.200,237.92,-0.33,13.71,31.5882638,120.7786523,2.613,13634294.609,24927169.305,2.613,0.775,0.890,-0.592,0.557,0.967,0.596,0.000,19,19,4*47
$GPGGA,084359.60,3135.2957503,N,12046.7189982,E,4,19,1.2,2.6176,M,8.320,M,01,0004*61
$GPHPD,1957,31457.400,237.86,-0.20,13.70,31.5882625,120.7786500,2.618,13634295.420,24927168.037,2.618,0.794,0.891,-0.591,0.557,0.967,0.596,0.000,19,19,4*4C
$GPGGA,084359.80,3135.2956770,N,12046.7188537,E,4,19,1.2,2.6163,M,8.320,M,00,0004*6E
$GPHPD,1957,31457.600,237.93,-0.35,13.72,31.5882613,120.7786476,2.616,13634296.171,24927166.721,2.616,0.782,0.904,-0.598,0.557,0.967,0.596,0.000,19,19,4*46
$GPGGA,084400.00,3135.2956015,N,12046.7187133,E,4,19,1.2,2.6155,M,8.320,M,01,0004*62
$GPHPD,1957,31457.800,237.91,-0.15,13.73,31.5882600,120.7786452,2.616,13634296.961,24927165.467,2.616,0.791,0.877,-0.594,0.557,0.967,0.596,0.000,19,19,4*4D
$GPGGA,084400.20,3135.2955258,N,12046.7185697,E,4,19,1.2,2.6167,M,8.320,M,01,0004*62
$GPHPD,1957,31458.000,238.00,-0.30,13.71,31.5882588,120.7786428,2.617,13634297.748,24927164.176,2.617,0.782,0.893,-0.589,0.557,0.967,0.596,0.000,19,19,4*42
$GPGGA,084400.40,3135.2954511,N,12046.7184260,E,4,19,1.2,2.6137,M,8.320,M,01,0004*67
$GPHPD,1957,31458.200,237.87,-0.12,13.72,31.5882575,120.7786404,2.614,13634298.521,24927162.877,2.614,0.783,0.895,-0.592,0.557,0.967,0.596,0.000,19,19,4*4E
$GPGGA,084400.60,3135.2953743,N,12046.7182827,E,4,19,1.2,2.6147,M,8.320,M,00,0004*6E
$GPHPD,1957,31458.400,238.03,0.03,13.68,31.5882562,120.7786380,2.615,13634299.324,24927161.596,2.615,0.796,0.868,-0.599,0.557,0.967,0.596,0.000,19,19,4*6E
$GPGGA,084400.80,3135.2952988,N,12046.7181412,E,4,19,1.2,2.6184,M,8.320,M,00,0004*6E
$GPHPD,1957,31458.600,237.97,0.10,13.66,31.5882550,120.7786357,2.618,13634300.112,24927160.329,2.618,0.794,0.889,-0.601,0.557,0.967,0.596,0.000,19,19,4*63
$GPGGA,084401.00,3135.2952216,N,12046.7179973,E,4,19,1.2,2.6254,M,8.320,M,01,0004*69
$GPHPD,1957,31458.800,237.94,-0.11,13.66,31.5882537,120.7786333,2.625,13634300.920,24927159.042,2.625,0.776,0.899,-0.592,0.557,0.967,0.596,0.000,19,19,4*48
$GPGGA,084401.20,3135.2951480,N,12046.7178525,E,4,19,1.2,2.6267,M,8.320,M,01,0004*6F
$GPHPD,1957,31459.000,237.98,-0.09,13.63,31.5882525,120.7786309,2.627,13634301.674,24927157.724,2.627,0.772,0.912,-0.593,0.557,0.967,0.596,0.000,19,19,4*4A
$GPGGA,084401.40,3135.2950742,N,12046.7177149,E,4,19,1.2,2.6285,M,8.320,M,01,0004*68
$GPHPD,1957,31459.200,238.03,-0.32,13.62,31.5882512,120.7786286,2.629,13634302.446,24927156.494,2.629,0.787,0.903,-0.586,0.557,0.967,0.596,0.000,19,19,4*49
$GPGGA,084401.60,3135.2950010,N,12046.7175777,E,4,19,1.2,2.6214,M,8.320,M,01,0004*6B
$GPHPD,1957,31459.400,237.99,-0.17,13.58,31.5882500,120.7786263,2.621,13634303.211,24927155.265,2.621,0.772,0.866,-0.581,0.557,0.967,0.596,0.000,19,19,4*44
$GPGGA,084401.80,3135.2949316,N,12046.7174449,E,4,19,1.2,2.6272,M,8.320,M,00,0004*66
$GPHPD,1957,31459.600,238.01,-0.34,13.53,31.5882489,120.7786241,2.627,13634303.930,24927154.068,2.627,0.754,0.831,-0.573,0.557,0.967,0.596,0.000,19,19,4*4F
$GPGGA,084402.00,3135.2948637,N,12046.7173175,E,4,19,1.2,2.6203,M,8.320,M,01,0004*60
$GPHPD,1957,31459.800,238.06,-0.10,13.46,31.5882477,120.7786220,2.620,13634304.638,24927152.926,2.620,0.726,0.841,-0.551,0.557,0.967,0.596,0.000,19,19,4*45
$GPGGA,084402.20,3135.2947991,N,12046.7171964,E,4,19,1.2,2.6213,M,8.320,M,01,0004*65
$GPHPD,1957,31460.000,238.05,-0.28,13.39,31.5882467,120.7786199,2.621,13634305.313,24927151.842,2.621,0.698,0.783,-0.538,0.557,0.967,0.596,0.000,19,19,4*40
$GPGGA,084402.40,3135.2947392,N,12046.7170821,E,4,19,1.2,2.6205,M,8.320,M,01,0004*6C
$GPHPD,1957,31460.200,238.10,-0.15,13.32,31.5882457,120.7786180,2.621,13634305.934,24927150.812,2.621,0.667,0.763,-0.507,0.557,0.967,0.596,0.000,19,19,4*41
$GPGGA,084402.60,3135.2946837,N,12046.7169768,E,4,19,1.2,2.6278,M,8.320,M,00,0004*6A
$GPHPD,1957,31460.400,237.96,-0.16,13.24,31.5882447,120.7786163,2.628,13634306.511,24927149.865,2.628,0.632,0.683,-0.483,0.557,0.967,0.596,0.000,19,19,4*4C
$GPGGA,084402.80,3135.2946341,N,12046.7168836,E,4,19,1.2,2.6254,M,8.320,M,00,0004*65
$GPHPD,1957,31460.600,238.04,-0.41,13.16,31.5882439,120.7786147,2.625,13634307.028,24927149.029,2.625,0.562,0.683,-0.422,0.557,0.967,0.596,0.000,19,19,4*45
$GPGGA,084403.00,3135.2945897,N,12046.7167998,E,4,19,1.2,2.6225,M,8.320,M,01,0004*62
$GPHPD,1957,31460.800,238.07,-0.27,13.09,31.5882432,120.7786133,2.623,13634307.491,24927148.277,2.623,0.523,0.574,-0.395,0.557,0.967,0.596,0.000,19,19,4*45
$GPGGA,084403.20,3135.2945479,N,12046.7167242,E,4,19,1.2,2.6186,M,8.320,M,01,0004*6A
$GPHPD,1957,31461.000,238.05,-0.28,13.02,31.5882425,120.7786121,2.619,13634307.933,24927147.608,2.619,0.476,0.529,-0.366,0.557,0.967,0.596,0.000,19,19,4*4C
$GPGGA,084403.40,3135.2945125,N,12046.7166568,E,4,19,1.2,2.6213,M,8.320,M,01,0004*61
$GPHPD,1957,31461.200,238.15,-0.58,12.95,31.5882419,120.7786109,2.621,13634308.300,24927147.002,2.621,0.427,0.483,-0.321,0.557,0.967,0.596,0.000,19,19,4*4D
$GPGGA,084403.60,3135.2944855,N,12046.7166037,E,4,19,1.2,2.6256,M,8.320,M,01,0004*62
$GPHPD,1957,31461.400,238.12,-0.29,12.84,31.5882414,120.7786101,2.626,13634308.577,24927146.518,2.626,0.360,0.410,-0.278,0.557,0.967,0.596,0.000,19,19,4*45
$GPGGA,084403.80,3135.2944648,N,12046.7165614,E,4,19,1.2,2.6243,M,8.320,M,00,0004*6F
$GPHPD,1957,31461.600,238.04,-0.27,12.73,31.5882411,120.7786094,2.624,13634308.786,24927146.128,2.624,0.292,0.348,-0.209,0.557,0.967,0.596,0.000,19,19,4*45
$GPGGA,084404.00,3135.2944481,N,12046.7165301,E,4,19,1.2,2.6282,M,8.320,M,01,0004*6A
$GPHPD,1957,31461.800,238.10,-0.32,12.64,31.5882408,120.7786088,2.628,13634308.961,24927145.848,2.628,0.232,0.247,-0.179,0.557,0.967,0.596,0.000,19,19,4*42
$GPGGA,084404.20,3135.2944374,N,12046.7165109,E,4,19,1.2,2.6251,M,8.320,M,01,0004*61
$GPHPD,1957,31462.000,238.09,-0.15,12.56,31.5882406,120.7786085,2.625,13634309.074,24927145.679,2.625,0.168,0.199,-0.130,0.557,0.967,0.596,0.000,19,19,4*47
$GPGGA,084404.40,3135.2944339,N,12046.7165029,E,4,19,1.2,2.6249,M,8.320,M,01,0004*64
$GPHPD,1957,31462.200,238.11,0.09,12.48,31.5882406,120.7786084,2.625,13634309.108,24927145.603,2.625,0.116,0.098,-0.094,0.557,0.967,0.596,0.000,19,19,4*63
$GPGGA,084404.60,3135.2944346,N,12046.7165033,E,4,19,1.2,2.6263,M,8.320,M,00,0004*6C
$GPHPD,1957,31462.400,238.11,-0.09,12.42,31.5882406,120.7786084,2.626,13634309.098,24927145.604,2.626,0.050,0.044,-0.031,0.557,0.967,0.596,0.000,19,19,4*40
$GPGGA,084404.80,3135.2944363,N,12046.7165040,E,4,19,1.2,2.6279,M,8.320,M,00,0004*6A
$GPHPD,1957,31462.600,237.98,-0.05,12.47,31.5882406,120.7786084,2.628,13634309.076,24927145.602,2.628,0.001,0.002,0.012,0.557,0.967,0.596,0.000,19,19,4*69
$GPGGA,084405.00,3135.2944373,N,12046.7165050,E,4,19,1.2,2.6230,M,8.320,M,01,0004*6F
$GPHPD,1957,31462.800,238.07,-0.20,12.52,31.5882406,120.7786084,2.623,13634309.064,24927145.608,2.623,-0.000,0.014,0.009,0.557,0.967,0.596,0.000,19,19,4*45
$GPGGA,084405.20,3135.2944364,N,12046.7165022,E,4,19,1.2,2.6298,M,8.320,M,01,0004*6C
$GPHPD,1957,31463.000,237.96,0.09,12.55,31.5882406,120.7786084,2.630,13634309.071,24927145.580,2.630,0.008,-0.018,0.004,0.557,0.967,0.596,0.000,19,19,4*64
$GPGGA,084405.40,3135.2944365,N,12046.7165053,E,4,19,1.2,2.6243,M,8.320,M,01,0004*6B
$GPHPD,1957,31463.200,237.94,-0.32,12.59,31.5882406,120.7786084,2.624,13634309.075,24927145.617,2.624,0.003,0.017,0.008,0.557,0.967,0.596,0.000,19,19,4*61
$GPGGA,084405.60,3135.2944363,N,12046.7165038,E,4,19,1.2,2.6294,M,8.320,M,01,0004*68
$GPHPD,1957,31463.400,238.04,-0.17,12.63,31.5882406,120.7786084,2.629,13634309.075,24927145.600,2.629,0.001,-0.013,-0.001,0.557,0.967,0.596,0.000,19,19,4*66
