$GPGGA,085959.40,3135.3624067,N,12046.8172453,E,4,19,1.2,2.6585,M,8.326,M,01,0004*61
$GPHPD,1957,32417.200,323.74,0.08,13.25,31.5893734,120.7802874,2.659,13633545.697,24927965.017,2.659,0.405,-0.035,0.405,0.545,0.929,0.581,0.000,19,19,4*65
$GPGGA,085959.60,3135.3624565,N,12046.8172020,E,4,19,1.2,2.6644,M,8.326,M,00,0004*6B
$GPHPD,1957,32417.400,323.78,-0.31,13.28,31.5893743,120.7802867,2.664,13633544.901,24927964.205,2.664,0.419,-0.056,0.393,0.545,0.929,0.581,0.000,19,19,4*46
$GPGGA,085959.80,3135.3625110,N,12046.8171573,E,4,19,1.2,2.6636,M,8.326,M,00,0004*67
$GPHPD,1957,32417.600,323.83,-0.30,13.33,31.5893752,120.7802860,2.664,13633544.037,24927963.348,2.664,0.405,-0.021,0.407,0.545,0.929,0.581,0.000,19,19,4*48
$GPGGA,090000.00,3135.3625678,N,12046.8171105,E,4,19,1.2,2.6625,M,8.326,M,01,0004*61
$GPHPD,1957,32417.800,323.68,0.08,13.38,31.5893761,120.7802852,2.663,13633543.135,24927962.453,2.663,0.441,-0.047,0.432,0.545,0.929,0.581,0.000,19,19,4*61
$GPGGA,090000.20,3135.3626246,N,12046.8170621,E,4,19,1.2,2.6688,M,8.326,M,01,0004*6E
$GPHPD,1957,32418.000,323.80,-0.23,13.42,31.5893771,120.7802844,2.669,13633542.230,24927961.539,2.669,0.452,-0.046,0.450,0.545,0.929,0.581,0.000,19,19,4*41
$GPGGA,090000.40,3135.3626846,N,12046.8170114,E,4,19,1.2,2.6658,M,8.326,M,01,0004*6E
$GPHPD,1957,32418.200,323.77,-0.13,13.45,31.5893781,120.7802835,2.666,13633541.275,24927960.578,2.666,0.455,-0.006,0.466,0.545,0.929,0.581,0.000,19,19,4*46
$GPGGA,090000.60,3135.3627467,N,12046.8169577,E,4,19,1.2,2.6680,M,8.326,M,00,0004*6F
$GPHPD,1957,32418.400,323.72,-0.33,13.49,31.5893791,120.7802826,2.668,13633540.284,24927959.569,2.668,0.496,-0.050,0.465,0.545,0.929,0.581,0.000,19,19,4*42
$GPGGA,090000.80,3135.3628133,N,12046.8169016,E,4,19,1.2,2.6736,M,8.326,M,00,0004*64
$GPHPD,1957,32418.600,323.71,-0.09,13.53,31.5893802,120.7802817,2.674,13633539.224,24927958.505,2.674,0.514,-0.023,0.493,0.545,0.929,0.581,0.000,19,19,4*4F
$GPGGA,090001.00,3135.3628857,N,12046.8168408,E,4,19,1.2,2.6701,M,8.326,M,01,0004*69
$GPHPD,1957,32418.800,323.66,-0.33,13.59,31.5893814,120.7802807,2.670,13633538.073,24927957.350,2.670,0.544,-0.022,0.540,0.545,0.929,0.581,0.000,19,19,4*41
$GPGGA,090001.20,3135.3629618,N,12046.8167768,E,4,19,1.2,2.6700,M,8.326,M,01,0004*64
$GPHPD,1957,32419.000,323.58,-0.02,13.67,31.5893827,120.7802796,2.670,13633536.862,24927956.135,2.670,0.593,-0.059,0.555,0.545,0.929,0.581,0.000,19,19,4*49
$GPGGA,090001.40,3135.3630432,N,12046.8167076,E,4,19,1.2,2.6778,M,8.326,M,01,0004*67
$GPHPD,1957,32419.200,323.65,-0.13,13.75,31.5893841,120.7802785,2.678,13633535.566,24927954.827,2.678,0.630,-0.049,0.609,0.545,0.929,0.581,0.000,19,19,4*47
$GPGGA,090001.60,3135.3631319,N,12046.8166334,E,4,19,1.2,2.6666,M,8.326,M,00,0004*61
$GPHPD,1957,32419.400,323.79,-0.42,13.82,31.5893855,120.7802772,2.667,13633534.155,24927953.415,2.667,0.660,-0.032,0.657,0.545,0.929,0.581,0.000,19,19,4*40
$GPGGA,090001.80,3135.3632238,N,12046.8165543,E,4,19,1.2,2.6675,M,8.326,M,00,0004*69
$GPHPD,1957,32419.600,323.62,0.00,13.88,31.5893871,120.7802759,2.668,13633532.690,24927951.927,2.668,0.742,-0.102,0.675,0.545,0.929,0.581,0.000,19,19,4*63
$GPGGA,090002.00,3135.3633166,N,12046.8164759,E,4,19,1.2,2.6739,M,8.326,M,01,0004*6B
$GPHPD,1957,32419.800,323.66,-0.37,13.96,31.5893886,120.7802746,2.674,13633531.212,24927950.441,2.674,0.756,-0.063,0.713,0.545,0.929,0.581,0.000,19,19,4*4A
$GPGGA,090002.20,3135.3634152,N,12046.8163932,E,4,19,1.2,2.6683,M,8.326,M,01,0004*6D
$GPHPD,1957,32420.000,323.48,-0.10,14.00,31.5893903,120.7802732,2.668,13633529.644,24927948.869,2.668,0.780,-0.068,0.741,0.545,0.929,0.581,0.000,19,19,4*40
$GPGGA,090002.40,3135.3635138,N,12046.8163067,E,4,19,1.2,2.6754,M,8.326,M,01,0004*64
$GPHPD,1957,32420.200,323.45,0.03,14.04,31.5893919,120.7802718,2.675,13633528.068,24927947.252,2.675,0.809,-0.082,0.764,0.545,0.929,0.581,0.000,19,19,4*6E
$GPGGA,090002.60,3135.3636187,N,12046.8162204,E,4,19,1.2,2.6721,M,8.326,M,00,0004*64
$GPHPD,1957,32420.400,323.71,-0.59,14.04,31.5893936,120.7802703,2.672,13633526.403,24927945.601,2.672,0.814,-0.034,0.798,0.545,0.929,0.581,0.000,19,19,4*4F
$GPGGA,090002.80,3135.3637227,N,12046.8161347,E,4,19,1.2,2.6731,M,8.326,M,00,0004*66
$GPHPD,1957,32420.600,323.77,-0.34,14.03,31.5893954,120.7802689,2.673,13633524.752,24927943.962,2.673,0.837,-0.093,0.818,0.545,0.929,0.581,0.000,19,19,4*42
$GPGGA,090003.00,3135.3638293,N,12046.8160449,E,4,19,1.2,2.6682,M,8.326,M,01,0004*6F
$GPHPD,1957,32420.800,323.45,0.06,13.99,31.5893972,120.7802674,2.668,13633523.056,24927942.258,2.668,0.849,-0.098,0.829,0.612,0.953,0.583,0.000,19,19,4*6A
$GPGGA,090003.20,3135.3639343,N,12046.8159526,E,4,19,1.2,2.6869,M,8.326,M,01,0004*69
$GPHPD,1957,32421.000,323.52,0.36,13.92,31.5893989,120.7802659,2.687,13633521.378,24927940.534,2.687,0.890,-0.101,0.821,0.545,0.929,0.581,0.000,19,19,4*67
$GPGGA,090003.40,3135.3640474,N,12046.8158579,E,4,19,1.2,2.6869,M,8.326,M,01,0004*69
$GPHPD,1957,32421.200,323.78,0.31,13.91,31.5894008,120.7802643,2.687,13633519.579,24927938.733,2.687,0.857,-0.023,0.860,0.545,0.929,0.581,0.000,19,19,4*6C
$GPGGA,090003.60,3135.3641523,N,12046.8157690,E,4,19,1.2,2.6780,M,8.326,M,00,0004*6B
$GPHPD,1957,32421.400,323.76,0.14,13.86,31.5894025,120.7802628,2.678,13633517.909,24927937.051,2.678,0.900,-0.069,0.877,0.545,0.929,0.581,0.000,19,19,4*65
$GPGGA,090003.80,3135.3642644,N,12046.8156816,E,4,19,1.2,2.6784,M,8.326,M,00,0004*61
$GPHPD,1957,32421.600,323.82,0.18,13.84,31.5894044,120.7802614,2.678,13633516.139,24927935.344,2.678,0.898,-0.087,0.826,0.545,0.929,0.581,0.000,19,19,4*61
$GPGGA,090004.00,3135.3643656,N,12046.8155891,E,4,19,1.2,2.6823,M,8.326,M,01,0004*63
$GPHPD,1957,32421.800,324.02,0.17,13.82,31.5894061,120.7802598,2.682,13633514.515,24927933.639,2.682,0.873,-0.096,0.864,0.545,0.929,0.581,0.000,19,19,4*6B
$GPGGA,090004.20,3135.3644740,N,12046.8154981,E,4,19,1.2,2.6938,M,8.326,M,01,0004*6A
$GPHPD,1957,32422.000,324.36,0.88,13.81,31.5894079,120.7802583,2.694,13633512.790,24927931.911,2.694,0.853,-0.043,0.831,0.545,0.929,0.581,0.000,19,19,4*65
$GPGGA,090004.40,3135.3645763,N,12046.8154109,E,4,19,1.2,2.7005,M,8.326,M,01,0004*62
$GPHPD,1957,32422.200,324.50,0.35,13.80,31.5894096,120.7802568,2.701,13633511.160,24927930.264,2.701,0.857,-0.040,0.848,0.545,0.929,0.581,0.000,19,19,4*6F
$GPGGA,090004.60,3135.3646857,N,12046.8153245,E,4,19,1.2,2.7104,M,8.326,M,00,0004*66
$GPHPD,1957,32422.400,324.52,0.14,13.81,31.5894114,120.7802554,2.710,13633509.431,24927928.585,2.710,0.871,-0.093,0.820,0.612,0.953,0.583,0.000,19,19,4*6E
$GPGGA,090004.80,3135.3647960,N,12046.8152369,E,4,19,1.2,2.6980,M,8.326,M,00,0004*67
$GPHPD,1957,32422.600,324.50,0.16,13.84,31.5894133,120.7802539,2.698,13633507.687,24927926.886,2.698,0.837,-0.068,0.893,0.612,0.953,0.583,0.000,19,19,4*68
$GPGGA,090005.00,3135.3649074,N,12046.8151519,E,4,19,1.2,2.6915,M,8.326,M,01,0004*63
$GPHPD,1957,32422.800,324.64,-0.25,13.88,31.5894151,120.7802525,2.692,13633505.932,24927925.213,2.692,0.889,-0.138,0.834,0.612,0.953,0.583,0.000,19,18,4*42
$GPGGA,090005.20,3135.3650178,N,12046.8150628,E,4,19,1.2,2.6935,M,8.326,M,01,0004*66
$GPHPD,1957,32423.000,324.36,0.12,13.89,31.5894170,120.7802510,2.694,13633504.183,24927923.495,2.694,0.868,-0.115,0.863,0.612,0.953,0.583,0.000,19,19,4*6F
$GPGGA,090005.40,3135.3651367,N,12046.8149720,E,4,19,1.2,2.6858,M,8.326,M,01,0004*66
$GPHPD,1957,32423.200,324.53,-0.31,13.92,31.5894189,120.7802495,2.686,13633502.310,24927921.708,2.686,0.877,-0.089,0.897,0.545,0.929,0.581,0.000,19,19,4*46
$GPGGA,090005.60,3135.3652491,N,12046.8148778,E,4,19,1.2,2.7045,M,8.326,M,00,0004*61
$GPHPD,1957,32423.400,324.33,0.37,13.95,31.5894208,120.7802480,2.705,13633500.523,24927919.918,2.705,0.924,-0.170,0.887,0.545,0.929,0.581,0.000,19,19,4*65
$GPGGA,090005.80,3135.3653676,N,12046.8147845,E,4,19,1.2,2.6927,M,8.326,M,00,0004*67
$GPHPD,1957,32423.600,324.87,-0.56,13.96,31.5894228,120.7802464,2.693,13633498.650,24927918.103,2.693,0.893,-0.055,0.935,0.545,0.929,0.581,0.000,19,19,4*4E
$GPGGA,090006.00,3135.3654846,N,12046.8146890,E,4,19,1.2,2.6960,M,8.326,M,01,0004*6D
$GPHPD,1957,32423.800,324.61,0.44,13.95,31.5894247,120.7802448,2.696,13633496.795,24927916.270,2.696,0.916,-0.117,0.912,0.545,0.929,0.581,0.000,19,19,4*63
$GPGGA,090006.20,3135.3656023,N,12046.8145931,E,4,19,1.2,2.7011,M,8.326,M,01,0004*61
$GPHPD,1957,32424.000,324.51,1.01,13.90,31.5894267,120.7802432,2.701,13633494.929,24927914.428,2.701,0.941,-0.108,0.909,0.545,0.929,0.581,0.000,19,19,4*61
$GPGGA,090006.40,3135.3657217,N,12046.8144980,E,4,19,1.2,2.6957,M,8.326,M,01,0004*62
$GPHPD,1957,32424.200,324.67,0.53,13.85,31.5894287,120.7802416,2.696,13633493.040,24927912.586,2.696,0.926,-0.063,0.948,0.545,0.929,0.581,0.000,19,19,4*66
$GPGGA,090006.60,3135.3658408,N,12046.8143996,E,4,19,1.2,2.6876,M,8.326,M,00,0004*64
$GPHPD,1957,32424.400,324.62,0.39,13.81,31.5894307,120.7802400,2.688,13633491.148,24927910.706,2.688,0.950,-0.080,0.957,0.545,0.929,0.581,0.000,19,19,4*62
$GPGGA,090006.80,3135.3659551,N,12046.8143099,E,4,19,1.2,2.7032,M,8.326,M,00,0004*69
$GPHPD,1957,32424.600,325.00,-0.04,13.71,31.5894326,120.7802385,2.703,13633489.343,24927908.959,2.703,0.973,-0.116,0.920,0.593,1.245,0.589,0.000,19,19,4*41
$GPGGA,090007.00,3135.3660673,N,12046.8142158,E,4,19,1.2,2.7092,M,8.326,M,01,0004*6F
$GPHPD,1957,32424.800,324.71,0.15,13.66,31.5894345,120.7802369,2.709,13633487.559,24927907.171,2.709,0.905,-0.075,0.937,0.545,0.929,0.581,0.000,19,19,4*6A
$GPGGA,090007.20,3135.3661815,N,12046.8141274,E,4,19,1.2,2.7036,M,8.326,M,01,0004*62
$GPHPD,1957,32425.000,324.86,-0.17,13.64,31.5894364,120.7802355,2.704,13633485.757,24927905.440,2.704,0.883,-0.068,0.889,0.593,1.245,0.589,0.000,19,19,4*45
$GPGGA,090007.40,3135.3662919,N,12046.8140372,E,4,19,1.2,2.6986,M,8.326,M,01,0004*6F
$GPHPD,1957,32425.200,324.87,-0.30,13.66,31.5894382,120.7802340,2.699,13633484.006,24927903.710,2.699,0.890,-0.136,0.880,0.545,0.929,0.581,0.000,19,18,4*4C
$GPGGA,090007.60,3135.3663926,N,12046.8139552,E,4,19,1.2,2.7112,M,8.326,M,00,0004*6F
$GPHPD,1957,32425.400,324.79,0.33,13.71,31.5894399,120.7802326,2.711,13633482.409,24927902.134,2.711,0.906,-0.125,0.864,0.545,0.929,0.581,0.000,19,18,4*63
$GPGGA,090007.80,3135.3665019,N,12046.8138739,E,4,19,1.2,2.6914,M,8.326,M,00,0004*63
$GPHPD,1957,32425.600,324.81,0.24,13.74,31.5894417,120.7802312,2.691,13633480.692,24927900.518,2.691,0.796,-0.055,0.828,0.545,0.929,0.581,0.000,19,18,4*60
$GPGGA,090008.00,3135.3666043,N,12046.8137857,E,4,19,1.2,2.7028,M,8.326,M,01,0004*66
$GPHPD,1957,32425.800,324.65,0.83,13.77,31.5894434,120.7802298,2.703,13633479.059,24927898.858,2.703,0.844,-0.168,0.805,0.612,0.953,0.583,0.000,19,18,4*68
$GPGGA,090008.20,3135.3667085,N,12046.8137005,E,4,19,1.2,2.7167,M,8.326,M,01,0004*6A
$GPHPD,1957,32426.000,324.91,0.50,13.77,31.5894451,120.7802283,2.717,13633477.406,24927897.224,2.717,0.834,-0.084,0.842,0.612,0.953,0.583,0.000,19,17,4*69
$GPGGA,090008.40,3135.3668103,N,12046.8136200,E,4,19,1.2,2.7122,M,8.326,M,01,0004*6B
$GPHPD,1957,32426.200,325.01,0.43,13.74,31.5894468,120.7802270,2.712,13633475.797,24927895.660,2.712,0.817,-0.046,0.862,0.545,0.929,0.581,0.000,19,17,4*68
$GPGGA,090008.60,3135.3669152,N,12046.8135381,E,4,18,1.2,2.7002,M,8.326,M,01,0004*65
$GPHPD,1957,32426.400,325.01,0.16,13.76,31.5894486,120.7802256,2.700,13633474.141,24927894.062,2.700,0.844,-0.071,0.826,0.564,0.930,0.587,0.000,18,18,4*60
$GPGGA,090008.80,3135.3670199,N,12046.8134503,E,4,18,1.2,2.7168,M,8.326,M,01,0004*64
$GPHPD,1957,32426.600,325.04,-0.11,13.79,31.5894503,120.7802242,2.717,13633472.475,24927892.394,2.717,0.809,-0.067,0.823,0.564,0.930,0.587,0.000,18,17,4*47
$GPGGA,090009.00,3135.3671268,N,12046.8133616,E,4,18,1.2,2.7173,M,8.326,M,02,0004*68
$GPHPD,1957,32426.800,325.18,-0.41,13.82,31.5894521,120.7802227,2.717,13633470.777,24927890.701,2.717,0.831,-0.076,0.834,0.564,0.930,0.587,0.000,18,17,4*42
$GPGGA,090009.20,3135.3672351,N,12046.8132752,E,4,18,1.2,2.7065,M,8.326,M,02,0004*64
$GPHPD,1957,32427.000,325.31,-1.13,13.83,31.5894539,120.7802213,2.707,13633469.064,24927889.029,2.707,0.853,-0.054,0.857,0.641,0.953,0.588,0.000,18,17,4*4E
$GPGGA,090009.40,3135.3673409,N,12046.8131853,E,4,17,1.2,2.7228,M,8.326,M,02,0004*60
$GPHPD,1957,32427.200,325.06,-0.62,13.81,31.5894557,120.7802198,2.723,13633467.379,24927887.329,2.723,0.884,-0.133,0.827,0.688,1.306,0.600,0.000,17,17,4*46
$GPGGA,090009.60,3135.3674537,N,12046.8131017,E,4,18,1.2,2.7193,M,8.326,M,02,0004*6D
$GPHPD,1957,32427.400,325.33,-1.50,13.76,31.5894576,120.7802184,2.719,13633465.607,24927885.664,2.719,0.850,-0.055,0.859,0.641,0.953,0.588,0.000,18,17,4*43
$GPGGA,090009.80,3135.3675661,N,12046.8130104,E,4,18,1.2,2.7131,M,8.326,M,02,0004*68
$GPHPD,1957,32427.600,325.49,-1.91,13.71,31.5894594,120.7802168,2.713,13633463.825,24927883.909,2.713,0.860,-0.118,0.873,0.612,0.953,0.583,0.000,18,18,4*43
$GPGGA,090010.00,3135.3676788,N,12046.8129197,E,4,18,1.2,2.7121,M,8.325,M,01,0004*6E
$GPHPD,1957,32427.800,325.43,-1.58,13.62,31.5894613,120.7802153,2.712,13633462.040,24927882.159,2.712,0.895,-0.120,0.884,0.612,0.953,0.583,0.000,18,18,4*4B
$GPGGA,090010.20,3135.3677907,N,12046.8128346,E,4,18,1.2,2.7055,M,8.325,M,01,0004*69
$GPHPD,1957,32428.000,325.01,-0.63,13.55,31.5894632,120.7802139,2.706,13633460.278,24927880.481,2.706,0.924,-0.163,0.860,0.612,0.953,0.583,0.000,18,18,4*47
$GPGGA,090010.40,3135.3679037,N,12046.8127391,E,4,18,1.2,2.7163,M,8.325,M,01,0004*6A
$GPHPD,1957,32428.200,324.89,-0.20,13.53,31.5894651,120.7802123,2.716,13633458.480,24927878.671,2.716,0.906,-0.162,0.860,0.612,0.953,0.583,0.000,18,18,4*4A
$GPGGA,090010.60,3135.3680155,N,12046.8126478,E,4,18,1.2,2.7109,M,8.325,M,00,0004*67
$GPHPD,1957,32428.400,324.76,-0.45,13.56,31.5894669,120.7802108,2.711,13633456.706,24927876.920,2.711,0.909,-0.119,0.877,0.612,0.953,0.583,0.000,18,18,4*4B
$GPGGA,090010.80,3135.3681285,N,12046.8125546,E,4,18,1.2,2.7133,M,8.325,M,00,0004*60
$GPHPD,1957,32428.600,325.17,-1.23,13.61,31.5894688,120.7802092,2.713,13633454.912,24927875.138,2.713,0.895,-0.100,0.878,0.612,0.953,0.583,0.000,18,18,4*4F
$GPGGA,090011.00,3135.3682455,N,12046.8124586,E,4,18,1.2,2.7114,M,8.325,M,01,0004*68
$GPHPD,1957,32428.800,325.19,-0.89,13.63,31.5894708,120.7802076,2.711,13633453.056,24927873.299,2.711,0.907,-0.083,0.891,0.612,0.953,0.583,0.000,18,18,4*48
$GPGGA,090011.20,3135.3683623,N,12046.8123634,E,4,18,1.2,2.7028,M,8.325,M,01,0004*6B
$GPHPD,1957,32429.000,325.57,-1.40,13.62,31.5894727,120.7802061,2.703,13633451.204,24927871.471,2.703,0.926,-0.088,0.923,0.612,0.953,0.583,0.000,18,18,4*40
$GPGGA,090011.40,3135.3684789,N,12046.8122698,E,4,18,1.2,2.7172,M,8.325,M,01,0004*62
$GPHPD,1957,32429.200,325.62,-0.24,13.67,31.5894746,120.7802045,2.717,13633449.358,24927869.663,2.717,0.960,-0.141,0.885,0.612,0.953,0.583,0.000,18,18,4*41
$GPGGA,090011.60,3135.3686003,N,12046.8121696,E,4,18,1.2,2.7111,M,8.325,M,00,0004*6E
$GPHPD,1957,32429.400,325.55,-0.52,13.72,31.5894767,120.7802028,2.711,13633447.430,24927867.748,2.711,0.925,-0.056,0.942,0.612,0.953,0.583,0.000,18,18,4*43
$GPGGA,090011.80,3135.3687235,N,12046.8120716,E,4,18,1.2,2.7048,M,8.325,M,00,0004*63
$GPHPD,1957,32429.600,325.64,0.17,13.77,31.5894787,120.7802012,2.705,13633445.482,24927865.849,2.705,0.975,-0.082,0.950,0.612,0.953,0.583,0.000,18,18,4*65
$GPGGA,090012.00,3135.3688449,N,12046.8119719,E,4,19,1.4,2.7267,M,8.325,M,01,0004*66
$GPHPD,1957,32429.800,325.82,-0.17,13.82,31.5894807,120.7801995,2.727,13633443.555,24927863.940,2.727,0.968,-0.095,0.967,0.612,0.953,0.583,0.000,19,18,4*4A
$GPGGA,090012.20,3135.3689703,N,12046.8118713,E,4,19,1.2,2.7173,M,8.325,M,01,0004*63
$GPHPD,1957,32430.000,325.65,0.42,13.84,31.5894828,120.7801979,2.717,13633441.570,24927861.997,2.717,0.941,-0.050,1.014,0.674,1.294,0.592,0.000,19,19,4*64
$GPGGA,090012.40,3135.3691009,N,12046.8117735,E,4,19,1.2,2.7113,M,8.325,M,01,0004*6C
$GPHPD,1957,32430.200,325.67,0.62,13.87,31.5894850,120.7801962,2.711,13633439.516,24927860.057,2.711,0.984,-0.096,0.990,0.612,0.953,0.583,0.000,19,19,4*6D
$GPGGA,090012.60,3135.3692268,N,12046.8116756,E,4,19,1.2,2.7106,M,8.325,M,00,0004*69
$GPHPD,1957,32430.400,325.52,0.18,13.87,31.5894871,120.7801946,2.711,13633437.529,24927858.143,2.711,1.028,-0.171,1.003,0.612,0.953,0.583,0.000,19,19,4*6C
$GPGGA,090012.80,3135.3693511,N,12046.8115769,E,4,19,1.2,2.7269,M,8.325,M,00,0004*6A
$GPHPD,1957,32430.600,324.74,1.72,13.87,31.5894892,120.7801929,2.727,13633435.564,24927856.229,2.727,0.989,-0.169,0.981,0.674,1.294,0.592,0.000,19,19,4*61
$GPGGA,090013.00,3135.3694789,N,12046.8114802,E,4,19,1.2,2.7127,M,8.325,M,01,0004*6C
$GPHPD,1957,32430.800,325.10,-0.15,13.88,31.5894913,120.7801913,2.713,13633433.552,24927854.319,2.713,0.926,-0.085,1.025,0.612,0.953,0.583,0.000,19,19,4*4D
$GPGGA,090013.20,3135.3696051,N,12046.8113773,E,4,19,1.2,2.7129,M,8.325,M,01,0004*6E
$GPHPD,1957,32431.000,325.07,-0.08,13.86,31.5894934,120.7801896,2.713,13633431.551,24927852.344,2.713,0.970,-0.085,0.996,0.612,0.953,0.583,0.000,19,19,4*45
$GPGGA,090013.40,3135.3697314,N,12046.8112835,E,4,19,1.2,2.7139,M,8.325,M,01,0004*66
$GPHPD,1957,32431.200,325.06,-0.71,13.84,31.5894955,120.7801881,2.714,13633429.567,24927850.477,2.714,1.018,-0.123,0.998,0.612,0.953,0.583,0.000,19,19,4*47
$GPGGA,090013.60,3135.3698531,N,12046.8111764,E,4,19,1.2,2.7419,M,8.325,M,00,0004*64
$GPHPD,1957,32431.400,325.24,-1.04,13.84,31.5894976,120.7801863,2.742,13633427.621,24927848.477,2.742,0.978,-0.182,0.968,0.612,0.953,0.583,0.000,19,19,4*43
$GPGGA,090013.80,3135.3699797,N,12046.8110729,E,4,19,1.2,2.7547,M,8.325,M,00,0004*67
$GPHPD,1957,32431.600,325.57,-1.42,13.83,31.5894997,120.7801845,2.755,13633425.613,24927846.492,2.755,0.945,0.015,1.027,0.612,0.953,0.583,0.000,19,19,4*62
$GPGGA,090014.00,3135.3701086,N,12046.8109746,E,4,19,1.2,2.7345,M,8.325,M,01,0004*6B
$GPHPD,1957,32431.800,326.02,-2.77,13.80,31.5895018,120.7801829,2.735,13633423.583,24927844.556,2.735,0.992,-0.080,1.007,0.612,0.953,0.583,0.000,19,19,4*42
$GPGGA,090014.20,3135.3702364,N,12046.8108711,E,4,19,1.2,2.7280,M,8.325,M,01,0004*6E
$GPHPD,1957,32432.000,325.59,-1.31,13.79,31.5895039,120.7801812,2.728,13633421.558,24927842.564,2.728,1.021,-0.188,0.958,0.644,0.964,0.602,0.000,19,19,4*4D
$GPGGA,090014.40,3135.3703620,N,12046.8107739,E,4,19,1.2,2.7268,M,8.325,M,01,0004*6F
$GPHPD,1957,32432.200,325.77,-1.41,13.80,31.5895060,120.7801796,2.727,13633419.576,24927840.660,2.727,1.028,-0.160,0.988,0.644,0.964,0.602,0.000,19,19,4*4D
$GPGGA,090014.60,3135.3704860,N,12046.8106746,E,4,19,1.2,2.7337,M,8.325,M,00,0004*63
$GPHPD,1957,32432.400,325.54,-0.49,13.79,31.5895081,120.7801779,2.734,13633417.614,24927838.741,2.734,0.974,-0.108,0.994,0.644,0.964,0.602,0.000,19,18,4*4C
$GPGGA,090014.80,3135.3706117,N,12046.8105796,E,4,19,1.2,2.7226,M,8.325,M,00,0004*69
$GPHPD,1957,32432.600,325.62,-0.47,13.78,31.5895102,120.7801763,2.723,13633415.635,24927836.863,2.723,0.965,-0.091,0.974,0.644,0.964,0.602,0.000,19,19,4*4B
$GPGGA,090015.00,3135.3707351,N,12046.8104868,E,4,19,1.2,2.7148,M,8.325,M,01,0004*64
$GPHPD,1957,32432.800,325.60,-0.62,13.77,31.5895123,120.7801748,2.715,13633413.694,24927835.026,2.715,0.985,-0.160,0.965,0.644,0.964,0.602,0.000,19,19,4*43
$GPGGA,090015.20,3135.3708603,N,12046.8103870,E,4,19,1.2,2.7133,M,8.325,M,01,0004*69
$GPHPD,1957,32433.000,325.47,-0.06,13.80,31.5895143,120.7801731,2.713,13633411.714,24927833.094,2.713,0.970,-0.147,0.955,0.644,0.964,0.602,0.000,19,19,4*45
$GPGGA,090015.40,3135.3709851,N,12046.8102918,E,4,19,1.2,2.7047,M,8.325,M,01,0004*6B
$GPHPD,1957,32433.200,325.42,0.27,13.86,31.5895164,120.7801715,2.705,13633409.748,24927831.219,2.705,1.000,-0.127,0.977,0.644,0.964,0.602,0.000,19,19,4*65
$GPGGA,090015.60,3135.3711108,N,12046.8101913,E,4,19,1.2,2.7185,M,8.325,M,00,0004*63
$GPHPD,1957,32433.400,325.52,0.47,13.87,31.5895185,120.7801699,2.719,13633407.759,24927829.275,2.719,0.982,-0.139,0.965,0.644,0.964,0.602,0.000,19,18,4*6D
$GPGGA,090015.80,3135.3712352,N,12046.8100960,E,4,19,1.2,2.7103,M,8.325,M,00,0004*68
$GPHPD,1957,32433.600,325.58,0.33,13.89,31.5895206,120.7801683,2.710,13633405.798,24927827.402,2.710,0.948,-0.126,1.004,0.677,0.964,0.605,0.000,19,19,4*6D
$GPGGA,090016.00,3135.3713648,N,12046.8099975,E,4,19,1.2,2.7137,M,8.325,M,01,0004*6F
$GPHPD,1957,32433.800,325.75,0.50,13.92,31.5895227,120.7801666,2.714,13633403.758,24927825.459,2.714,0.979,-0.161,0.944,0.612,0.952,0.583,0.000,19,18,4*6A
$GPGGA,090016.20,3135.3714915,N,12046.8098971,E,4,19,1.2,2.7258,M,8.325,M,01,0004*62
$GPHPD,1957,32434.000,325.73,1.32,13.91,31.5895249,120.7801650,2.726,13633401.754,24927823.511,2.726,0.975,-0.127,1.016,0.612,0.952,0.583,0.000,19,18,4*6C
$GPGGA,090016.40,3135.3716170,N,12046.8098000,E,4,19,1.2,2.7270,M,8.325,M,01,0004*68
$GPHPD,1957,32434.200,325.99,0.30,13.93,31.5895270,120.7801633,2.727,13633399.775,24927821.609,2.727,0.982,-0.110,1.038,0.612,0.952,0.583,0.000,19,18,4*69
$GPGGA,090016.60,3135.3717474,N,12046.8097013,E,4,19,1.2,2.7256,M,8.325,M,00,0004*62
$GPHPD,1957,32434.400,326.07,0.86,13.93,31.5895291,120.7801617,2.726,13633397.722,24927819.660,2.726,0.967,-0.134,0.993,0.612,0.952,0.583,0.000,19,18,4*63
$GPGGA,090016.80,3135.3718737,N,12046.8096009,E,4,19,1.2,2.7386,M,8.325,M,00,0004*61
$GPHPD,1957,32434.600,326.10,1.04,13.93,31.5895312,120.7801600,2.739,13633395.725,24927817.714,2.739,0.993,-0.183,0.997,0.601,1.265,0.598,0.000,19,18,4*6C
$GPGGA,090017.00,3135.3720010,N,12046.8095176,E,4,19,1.2,2.7123,M,8.325,M,01,0004*67
$GPHPD,1957,32434.800,326.18,0.43,13.89,31.5895334,120.7801586,2.712,13633393.747,24927815.968,2.712,0.986,-0.116,1.017,0.564,0.929,0.587,0.000,19,18,4*6B
$GPGGA,090017.20,3135.3721283,N,12046.8094178,E,4,19,1.2,2.7170,M,8.325,M,01,0004*65
$GPHPD,1957,32435.000,325.95,0.06,13.88,31.5895355,120.7801570,2.717,13633391.737,24927814.023,2.717,0.984,-0.160,0.977,0.564,0.929,0.587,0.000,19,19,4*64
$GPGGA,090017.40,3135.3722537,N,12046.8093206,E,4,19,1.2,2.7107,M,8.325,M,01,0004*65
$GPHPD,1957,32435.200,325.93,0.13,13.87,31.5895376,120.7801553,2.711,13633389.758,24927812.121,2.711,0.994,-0.249,0.964,0.545,0.928,0.581,0.000,19,19,4*61
$GPGGA,090017.60,3135.3723776,N,12046.8092226,E,4,19,1.2,2.7276,M,8.325,M,00,0004*66
$GPHPD,1957,32435.400,325.79,-0.43,13.86,31.5895396,120.7801537,2.728,13633387.800,24927810.218,2.728,0.937,-0.132,0.988,0.545,0.928,0.581,0.000,19,19,4*45
$GPGGA,090017.80,3135.3725059,N,12046.8091248,E,4,19,1.2,2.7222,M,8.325,M,00,0004*6E
$GPHPD,1957,32435.600,326.04,-1.36,13.85,31.5895418,120.7801521,2.722,13633385.779,24927808.292,2.722,0.953,-0.075,1.025,0.545,0.928,0.581,0.000,19,19,4*4F
$GPGGA,090018.00,3135.3726286,N,12046.8090231,E,4,19,1.2,2.7300,M,8.325,M,01,0004*65
$GPHPD,1957,32435.800,325.77,-1.85,13.83,31.5895438,120.7801504,2.730,13633383.830,24927806.351,2.730,0.973,-0.091,0.992,0.545,0.928,0.581,0.000,19,18,4*44
$GPGGA,090018.20,3135.3727529,N,12046.8089258,E,4,19,1.2,2.7274,M,8.325,M,01,0004*61
$GPHPD,1957,32436.000,326.05,-1.87,13.83,31.5895459,120.7801488,2.727,13633381.867,24927804.454,2.727,0.964,-0.073,0.995,0.545,0.928,0.581,0.000,19,19,4*45
$GPGGA,090018.40,3135.3728774,N,12046.8088329,E,4,19,1.2,2.7121,M,8.325,M,01,0004*67
$GPHPD,1957,32436.200,325.88,-1.34,13.79,31.5895480,120.7801472,2.712,13633379.910,24927802.609,2.712,0.969,-0.092,0.979,0.545,0.928,0.581,0.000,19,19,4*47
$GPGGA,090018.60,3135.3729988,N,12046.8087371,E,4,19,1.2,2.7098,M,8.325,M,00,0004*69
$GPHPD,1957,32436.400,325.72,-1.25,13.75,31.5895500,120.7801456,2.710,13633377.992,24927800.747,2.710,0.993,-0.192,0.933,0.545,0.928,0.581,0.000,19,19,4*40
$GPGGA,090018.80,3135.3731181,N,12046.8086479,E,4,19,1.2,2.7007,M,8.325,M,00,0004*67
$GPHPD,1957,32436.600,325.93,-1.16,13.73,31.5895520,120.7801441,2.701,13633376.116,24927798.976,2.701,0.963,-0.165,0.935,0.545,0.928,0.581,0.000,19,19,4*49
$GPGGA,090019.00,3135.3732369,N,12046.8085396,E,4,19,1.2,2.7338,M,8.325,M,01,0004*62
$GPHPD,1957,32436.800,325.61,-0.02,13.70,31.5895539,120.7801423,2.734,13633374.209,24927796.979,2.734,0.933,-0.199,0.908,0.545,0.928,0.581,0.000,19,19,4*47
$GPGGA,090019.20,3135.3733532,N,12046.8084504,E,4,19,1.2,2.7328,M,8.325,M,01,0004*64
$GPHPD,1957,32437.000,325.61,0.24,13.67,31.5895559,120.7801408,2.733,13633372.376,24927795.226,2.733,0.934,-0.049,0.962,0.545,0.928,0.581,0.000,19,19,4*64
$GPGGA,090019.40,3135.3734644,N,12046.8083555,E,4,19,1.2,2.7566,M,8.325,M,01,0004*68
$GPHPD,1957,32437.200,325.71,0.04,13.61,31.5895577,120.7801393,2.757,13633370.604,24927793.434,2.757,0.902,-0.120,0.918,0.545,0.928,0.581,0.000,19,19,4*6D
$GPGGA,090019.60,3135.3735798,N,12046.8082669,E,4,19,1.2,2.7488,M,8.325,M,00,0004*66
$GPHPD,1957,32437.400,325.50,-0.23,13.57,31.5895597,120.7801378,2.749,13633368.786,24927791.694,2.749,0.858,0.003,0.947,0.593,1.245,0.589,0.000,19,18,4*6C
$GPGGA,090019.80,3135.3736921,N,12046.8081759,E,4,19,1.2,2.7587,M,8.325,M,00,0004*68
$GPHPD,1957,32437.600,325.27,0.14,13.55,31.5895615,120.7801363,2.759,13633367.006,24927789.943,2.759,0.868,-0.093,0.887,0.545,0.928,0.581,0.000,19,18,4*62
$GPGGA,090020.00,3135.3737979,N,12046.8080862,E,4,19,1.2,2.7658,M,8.325,M,01,0004*60
$GPHPD,1957,32437.800,325.01,0.79,13.51,31.5895633,120.7801348,2.766,13633365.321,24927788.245,2.766,0.874,-0.088,0.903,0.545,0.928,0.581,0.000,19,18,4*68
$GPGGA,090020.20,3135.3739087,N,12046.8080008,E,4,19,1.2,2.7716,M,8.325,M,01,0004*6B
$GPHPD,1957,32438.000,325.18,0.45,13.49,31.5895651,120.7801333,2.772,13633363.574,24927786.570,2.772,0.848,-0.104,0.846,0.545,0.928,0.581,0.000,19,18,4*6C
$GPGGA,090020.40,3135.3740170,N,12046.8079188,E,4,19,1.2,2.7517,M,8.325,M,01,0004*66
$GPHPD,1957,32438.200,325.42,-0.63,13.48,31.5895670,120.7801320,2.752,13633361.870,24927784.951,2.752,0.840,-0.056,0.876,0.545,0.928,0.581,0.000,19,18,4*43
$GPGGA,090020.60,3135.3741226,N,12046.8078367,E,4,19,1.2,2.7564,M,8.325,M,00,0004*62
$GPHPD,1957,32438.400,324.58,1.07,13.46,31.5895687,120.7801306,2.756,13633360.203,24927783.346,2.756,0.868,-0.169,0.820,0.545,0.928,0.581,0.000,19,19,4*62
$GPGGA,090020.80,3135.3742287,N,12046.8077555,E,4,19,1.2,2.7512,M,8.325,M,00,0004*6D
$GPHPD,1957,32438.600,325.04,-0.04,13.44,31.5895705,120.7801293,2.751,13633358.531,24927781.749,2.751,0.845,-0.132,0.818,0.545,0.928,0.581,0.000,19,19,4*4D
$GPGGA,090021.00,3135.3743327,N,12046.8076694,E,4,19,1.2,2.7645,M,8.325,M,01,0004*61
$GPHPD,1957,32438.800,324.84,0.64,13.45,31.5895722,120.7801278,2.765,13633356.880,24927780.105,2.765,0.816,-0.113,0.819,0.545,0.928,0.581,0.000,19,19,4*62
$GPGGA,090021.20,3135.3744387,N,12046.8075850,E,4,19,1.2,2.7615,M,8.325,M,01,0004*6E
$GPHPD,1957,32439.000,325.13,0.42,13.44,31.5895740,120.7801264,2.762,13633355.203,24927778.470,2.762,0.808,-0.035,0.853,0.545,0.928,0.581,0.000,19,19,4*6E
$GPGGA,090021.40,3135.3745428,N,12046.8075035,E,4,19,1.2,2.7678,M,8.325,M,01,0004*6B
$GPHPD,1957,32439.200,325.32,0.58,13.42,31.5895757,120.7801251,2.768,13633353.559,24927776.881,2.768,0.825,-0.117,0.830,0.545,0.990,0.584,0.000,19,19,4*6D
$GPGGA,090021.60,3135.3746482,N,12046.8074164,E,4,19,1.1,2.7700,M,8.325,M,00,0004*62
$GPHPD,1957,32439.400,325.02,0.56,13.44,31.5895775,120.7801236,2.770,13633351.885,24927775.217,2.770,0.792,-0.083,0.823,0.593,1.245,0.589,0.000,19,19,4*60
$GPGGA,090021.80,3135.3747523,N,12046.8073318,E,4,19,1.1,2.7825,M,8.325,M,00,0004*61
$GPHPD,1957,32439.600,325.48,0.11,13.44,31.5895792,120.7801222,2.783,13633350.235,24927773.591,2.783,0.810,-0.059,0.858,0.545,0.928,0.581,0.000,19,18,4*61
$GPGGA,090022.00,3135.3748560,N,12046.8072475,E,4,19,1.1,2.7896,M,8.325,M,01,0004*66
$GPHPD,1957,32439.800,325.66,-0.33,13.45,31.5895809,120.7801208,2.790,13633348.591,24927771.971,2.790,0.834,-0.094,0.823,0.593,1.245,0.589,0.000,19,18,4*43
$GPGGA,090022.20,3135.3749637,N,12046.8071650,E,4,19,1.1,2.7856,M,8.325,M,01,0004*6E
$GPHPD,1957,32440.000,325.44,0.20,13.50,31.5895827,120.7801194,2.786,13633346.894,24927770.349,2.786,0.808,-0.092,0.835,0.593,1.245,0.589,0.000,19,18,4*6C
$GPGGA,090022.40,3135.3750710,N,12046.8070771,E,4,19,1.1,2.7879,M,8.325,M,01,0004*6A
$GPHPD,1957,32440.200,325.58,-0.41,13.52,31.5895845,120.7801180,2.788,13633345.192,24927768.664,2.788,0.835,-0.120,0.829,0.593,1.245,0.589,0.000,19,18,4*4E
$GPGGA,090022.60,3135.3751808,N,12046.8069978,E,4,19,1.1,2.7744,M,8.325,M,00,0004*60
$GPHPD,1957,32440.400,325.94,-1.25,13.55,31.5895863,120.7801166,2.774,13633343.471,24927767.068,2.774,0.868,-0.113,0.855,0.593,1.245,0.589,0.000,19,18,4*48
$GPGGA,090022.80,3135.3752907,N,12046.8069045,E,4,19,1.1,2.7840,M,8.325,M,00,0004*6F
$GPHPD,1957,32440.600,325.60,-0.91,13.62,31.5895882,120.7801151,2.784,13633341.721,24927765.303,2.784,0.857,-0.154,0.844,0.545,0.928,0.581,0.000,19,18,4*45
$GPGGA,090023.00,3135.3754049,N,12046.8068224,E,4,18,1.2,2.7747,M,8.325,M,01,0004*6C
$GPHPD,1957,32440.800,326.25,-2.21,13.64,31.5895901,120.7801137,2.775,13633339.932,24927763.648,2.775,0.875,-0.070,0.874,0.545,0.928,0.581,0.000,18,18,4*46
$GPGGA,090023.20,3135.3755203,N,12046.8067352,E,4,18,1.2,2.7682,M,8.325,M,01,0004*64
$GPHPD,1957,32441.000,326.08,-1.70,13.70,31.5895920,120.7801123,2.768,13633338.116,24927761.925,2.768,0.878,-0.169,0.848,0.564,0.929,0.587,0.000,18,18,4*42
$GPGGA,090023.40,3135.3756371,N,12046.8066433,E,4,18,1.2,2.7703,M,8.325,M,01,0004*6C
$GPHPD,1957,32441.200,325.94,-1.60,13.71,31.5895940,120.7801107,2.770,13633336.271,24927760.137,2.770,0.895,-0.150,0.889,0.564,0.929,0.587,0.000,18,18,4*44
$GPGGA,090023.60,3135.3757538,N,12046.8065493,E,4,18,1.2,2.7672,M,8.325,M,00,0004*6B
$GPHPD,1957,32441.400,325.74,-1.16,13.70,31.5895959,120.7801092,2.767,13633334.423,24927758.324,2.767,0.909,-0.108,0.920,0.564,0.929,0.587,0.000,18,18,4*4A
$GPGGA,090023.80,3135.3758699,N,12046.8064587,E,4,18,1.2,2.7678,M,8.325,M,00,0004*6D
$GPHPD,1957,32441.600,325.69,-0.93,13.73,31.5895978,120.7801076,2.768,13633332.590,24927756.555,2.768,0.926,-0.130,0.915,0.564,0.929,0.587,0.000,18,18,4*43
$GPGGA,090024.00,3135.3759888,N,12046.8063689,E,4,18,1.2,2.7682,M,8.325,M,01,0004*63
$GPHPD,1957,32441.800,325.38,-0.05,13.70,31.5895998,120.7801061,2.768,13633330.719,24927754.780,2.768,0.917,-0.112,0.916,0.564,0.929,0.587,0.000,18,18,4*45
$GPGGA,090024.20,3135.3761043,N,12046.8062753,E,4,18,1.2,2.7668,M,8.325,M,01,0004*66
$GPHPD,1957,32442.000,325.55,-0.38,13.68,31.5896017,120.7801046,2.767,13633328.888,24927752.979,2.767,0.912,-0.125,0.930,0.545,0.928,0.581,0.000,18,18,4*4B
$GPGGA,090024.40,3135.3762241,N,12046.8061826,E,4,18,1.2,2.7613,M,8.325,M,01,0004*61
$GPHPD,1957,32442.200,325.64,-0.48,13.67,31.5896037,120.7801030,2.761,13633326.999,24927751.164,2.761,0.907,-0.082,0.936,0.564,0.929,0.587,0.000,18,18,4*42
$GPGGA,090024.60,3135.3763398,N,12046.8060904,E,4,18,1.2,2.7650,M,8.325,M,00,0004*61
$GPHPD,1957,32442.400,325.48,0.07,13.62,31.5896057,120.7801015,2.765,13633325.168,24927749.378,2.765,0.933,-0.122,0.928,0.593,1.245,0.589,0.000,18,18,4*6E
$GPGGA,090024.80,3135.3764570,N,12046.8059957,E,4,19,1.2,2.7671,M,8.325,M,00,0004*66
$GPHPD,1957,32442.600,325.58,-0.68,13.61,31.5896076,120.7800999,2.767,13633323.312,24927747.554,2.767,0.910,-0.101,0.924,0.545,0.928,0.581,0.000,19,18,4*45
$GPGGA,090025.00,3135.3765740,N,12046.8059043,E,4,19,1.2,2.7678,M,8.325,M,01,0004*6B
$GPHPD,1957,32442.800,325.31,0.58,13.58,31.5896096,120.7800984,2.768,13633321.464,24927745.770,2.768,0.910,-0.061,0.938,0.545,0.928,0.581,0.000,19,19,4*6B
$GPGGA,090025.20,3135.3766931,N,12046.8058153,E,4,19,1.2,2.7578,M,8.325,M,01,0004*60
$GPHPD,1957,32443.000,325.90,-0.64,13.57,31.5896116,120.7800969,2.758,13633319.592,24927744.004,2.758,0.902,-0.105,0.921,0.545,0.928,0.581,0.000,19,19,4*40
$GPGGA,090025.40,3135.3768084,N,12046.8057241,E,4,18,1.2,2.7625,M,8.325,M,01,0004*6A
$GPHPD,1957,32443.200,325.51,0.31,13.57,31.5896135,120.7800954,2.763,13633317.769,24927742.233,2.763,0.930,-0.170,0.906,0.593,1.245,0.589,0.000,18,19,4*60
$GPGGA,090025.60,3135.3769250,N,12046.8056337,E,4,18,1.2,2.7637,M,8.325,M,00,0004*61
$GPHPD,1957,32443.400,325.77,-0.52,13.58,31.5896154,120.7800939,2.764,13633315.930,24927740.464,2.764,0.899,-0.117,0.919,0.641,0.952,0.588,0.000,18,18,4*42
$GPGGA,090025.80,3135.3770440,N,12046.8055384,E,4,18,1.2,2.7726,M,8.325,M,00,0004*6A
$GPHPD,1957,32443.600,325.91,0.33,13.60,31.5896174,120.7800923,2.773,13633314.046,24927738.622,2.773,0.904,-0.138,0.923,0.564,0.929,0.587,0.000,18,18,4*60
$GPGGA,090026.00,3135.3771579,N,12046.8054456,E,4,18,1.2,2.7795,M,8.325,M,01,0004*6B
$GPHPD,1957,32443.800,326.08,0.28,13.62,31.5896193,120.7800908,2.780,13633312.240,24927736.839,2.780,0.905,-0.094,0.946,0.564,0.929,0.587,0.000,18,18,4*68
$GPGGA,090026.20,3135.3772760,N,12046.8053594,E,4,18,1.2,2.7603,M,8.325,M,01,0004*66
$GPHPD,1957,32444.000,326.23,-0.11,13.67,31.5896213,120.7800893,2.760,13633310.388,24927735.112,2.760,0.902,-0.048,0.946,0.564,0.929,0.587,0.000,18,18,4*46
$GPGGA,090026.40,3135.3773898,N,12046.8052683,E,4,19,1.2,2.7737,M,8.325,M,01,0004*6A
$GPHPD,1957,32444.200,325.86,0.15,13.67,31.5896232,120.7800878,2.774,13633308.587,24927733.351,2.774,0.927,-0.198,0.882,0.601,1.265,0.598,0.000,19,18,4*6B
$GPGGA,090026.60,3135.3775063,N,12046.8051824,E,4,19,1.2,2.7615,M,8.325,M,00,0004*62
$GPHPD,1957,32444.400,326.21,-0.58,13.62,31.5896251,120.7800864,2.762,13633306.758,24927731.637,2.762,0.882,-0.093,0.921,0.593,1.245,0.589,0.000,19,19,4*44
$GPGGA,090026.80,3135.3776161,N,12046.8050940,E,4,19,1.1,2.7813,M,8.325,M,00,0004*65
$GPHPD,1957,32444.600,326.05,-0.09,13.60,31.5896269,120.7800849,2.781,13633305.019,24927729.932,2.781,0.911,-0.158,0.877,0.612,0.952,0.583,0.000,19,19,4*43
$GPGGA,090027.00,3135.3777253,N,12046.8050094,E,4,19,1.2,2.7864,M,8.325,M,01,0004*6D
$GPHPD,1957,32444.800,325.87,-0.63,13.58,31.5896288,120.7800835,2.786,13633303.296,24927728.276,2.786,0.837,-0.112,0.869,0.674,1.294,0.592,0.000,19,19,4*4A
$GPGGA,090027.20,3135.3778271,N,12046.8049236,E,4,19,1.2,2.7887,M,8.325,M,01,0004*6F
$GPHPD,1957,32445.000,325.81,-1.32,13.53,31.5896305,120.7800821,2.789,13633301.676,24927726.648,2.789,0.843,-0.110,0.864,0.612,0.952,0.583,0.000,19,19,4*49
$GPGGA,090027.40,3135.3779312,N,12046.8048418,E,4,19,1.2,2.7833,M,8.325,M,01,0004*68
$GPHPD,1957,32445.200,325.83,-1.17,13.47,31.5896322,120.7800807,2.783,13633300.032,24927725.056,2.783,0.815,-0.082,0.822,0.612,0.952,0.583,0.000,19,19,4*4C
$GPGGA,090027.60,3135.3780377,N,12046.8047638,E,4,19,1.2,2.7864,M,8.325,M,00,0004*63
$GPHPD,1957,32445.400,325.56,-0.71,13.46,31.5896340,120.7800794,2.786,13633298.361,24927723.495,2.786,0.803,-0.119,0.798,0.612,0.952,0.583,0.000,19,19,4*41
$GPGGA,090027.80,3135.3781330,N,12046.8046854,E,4,19,1.2,2.7888,M,8.325,M,00,0004*68
$GPHPD,1957,32445.600,325.39,-0.24,13.44,31.5896356,120.7800781,2.789,13633296.848,24927721.995,2.789,0.793,-0.115,0.825,0.612,0.952,0.583,0.000,19,19,4*49
$GPGGA,090028.00,3135.3782307,N,12046.8046129,E,4,19,1.2,2.7695,M,8.325,M,01,0004*68
$GPHPD,1957,32445.800,325.56,-0.91,13.41,31.5896372,120.7800769,2.770,13633295.313,24927720.552,2.770,0.768,-0.085,0.793,0.612,0.952,0.583,0.000,19,19,4*4B
$GPGGA,090028.20,3135.3783252,N,12046.8045365,E,4,19,1.2,2.7857,M,8.325,M,01,0004*63
$GPHPD,1957,32446.000,325.31,-0.18,13.38,31.5896388,120.7800756,2.786,13633293.816,24927719.080,2.786,0.764,-0.085,0.751,0.612,0.952,0.583,0.000,19,19,4*4D
$GPGGA,090028.40,3135.3784244,N,12046.8044634,E,4,18,1.4,2.7634,M,8.325,M,01,0004*69
$GPHPD,1957,32446.200,325.91,-1.01,13.37,31.5896404,120.7800744,2.763,13633292.259,24927717.621,2.763,0.704,-0.006,0.793,0.674,1.294,0.592,0.000,18,19,4*42
$GPGGA,090028.60,3135.3785149,N,12046.8043911,E,4,18,1.4,2.7633,M,8.325,M,00,0004*6D
$GPHPD,1957,32446.400,325.45,0.60,13.36,31.5896419,120.7800732,2.763,13633290.827,24927716.222,2.763,0.765,-0.116,0.745,0.674,1.294,0.592,0.000,18,18,4*60
$GPGGA,090028.80,3135.3786105,N,12046.8043139,E,4,18,1.4,2.7694,M,8.325,M,00,0004*67
$GPHPD,1957,32446.600,325.17,0.95,13.37,31.5896435,120.7800719,2.769,13633289.312,24927714.735,2.769,0.720,-0.054,0.722,0.674,1.294,0.593,0.000,18,18,4*6B
$GPGGA,090029.00,3135.3787095,N,12046.8042418,E,4,18,1.4,2.7752,M,8.325,M,01,0004*6A
$GPHPD,1957,32446.800,325.84,-0.03,13.41,31.5896452,120.7800707,2.775,13633287.760,24927713.289,2.775,0.748,-0.085,0.747,0.674,1.294,0.593,0.000,18,18,4*49
$GPGGA,090029.20,3135.3788011,N,12046.8041660,E,4,18,1.4,2.7788,M,8.325,M,01,0004*62
$GPHPD,1957,32447.000,325.72,0.00,13.45,31.5896467,120.7800694,2.779,13633286.305,24927711.842,2.779,0.750,-0.112,0.798,0.674,1.294,0.593,0.000,18,18,4*63
$GPGGA,090029.40,3135.3789015,N,12046.8040844,E,4,18,1.4,2.7803,M,8.325,M,01,0004*64
$GPHPD,1957,32447.200,326.14,-0.62,13.50,31.5896484,120.7800681,2.780,13633284.713,24927710.273,2.780,0.723,-0.021,0.732,0.674,1.294,0.593,0.000,18,18,4*4B
$GPGGA,090029.60,3135.3790041,N,12046.8040062,E,4,19,1.4,2.7833,M,8.325,M,00,0004*60
$GPHPD,1957,32447.400,326.39,-0.54,13.54,31.5896501,120.7800668,2.783,13633283.097,24927708.733,2.783,0.771,-0.077,0.785,0.612,0.951,0.583,0.000,19,18,4*47
$GPGGA,090029.80,3135.3791096,N,12046.8039228,E,4,18,1.7,2.7887,M,8.325,M,00,0004*6A
$GPHPD,1957,32447.600,326.48,-2.11,13.59,31.5896518,120.7800654,2.789,13633281.430,24927707.113,2.789,0.789,-0.102,0.801,0.612,0.951,0.583,0.000,18,19,4*4D
$GPGGA,090030.00,3135.3792114,N,12046.8038427,E,4,19,1.7,2.7743,M,8.325,M,01,0004*6D
$GPHPD,1957,32447.800,326.76,-2.68,13.65,31.5896535,120.7800640,2.774,13633279.821,24927705.554,2.774,0.832,-0.157,0.829,0.612,1.009,0.586,0.000,19,18,4*4E
$GPGGA,090030.20,3135.3793203,N,12046.8037551,E,4,18,1.7,2.7890,M,8.325,M,01,0004*64
$GPHPD,1957,32448.000,327.03,-2.98,13.69,31.5896553,120.7800626,2.789,13633278.097,24927703.864,2.789,0.841,-0.118,0.785,0.674,1.294,0.593,0.000,18,19,4*41
$GPGGA,090030.40,3135.3794310,N,12046.8036668,E,4,18,1.7,2.7837,M,8.325,M,01,0004*63
$GPHPD,1957,32448.200,326.14,-1.99,13.72,31.5896572,120.7800611,2.784,13633276.345,24927702.154,2.784,0.805,-0.025,0.896,0.612,1.009,0.586,0.000,18,17,4*4C
$GPGGA,090030.60,3135.3795399,N,12046.8035801,E,4,17,1.7,2.7926,M,8.325,M,00,0004*6C
$GPHPD,1957,32448.400,325.58,-1.88,13.75,31.5896590,120.7800597,2.793,13633274.623,24927700.475,2.793,0.907,-0.125,0.879,0.693,1.643,0.608,0.000,17,17,4*4C
$GPGGA,090030.80,3135.3796511,N,12046.8034902,E,4,17,1.7,2.7775,M,8.325,M,00,0004*6C
$GPHPD,1957,32448.600,325.67,-2.22,13.78,31.5896609,120.7800582,2.778,13633272.861,24927698.743,2.778,0.842,-0.025,0.877,0.693,1.643,0.608,0.000,17,17,4*4C
$GPGGA,090031.00,3135.3797678,N,12046.8033966,E,4,17,1.7,2.7820,M,8.325,M,01,0004*63
$GPHPD,1957,32448.800,325.97,0.04,13.79,31.5896628,120.7800566,2.782,13633271.014,24927696.935,2.782,0.887,-0.125,0.822,0.693,1.643,0.608,0.000,17,15,4*6C
$GPGGA,090031.20,3135.3798889,N,12046.8033083,E,4,18,1.7,2.7471,M,8.325,M,01,0004*6B
$GPHPD,1957,32449.000,326.16,-0.35,13.82,31.5896648,120.7800551,2.747,13633269.114,24927695.165,2.747,0.926,-0.112,0.915,0.693,1.643,0.608,0.000,18,15,4*44
$GPGGA,090031.40,3135.3800021,N,12046.8032078,E,4,18,1.7,2.7885,M,8.325,M,01,0004*6B
$GPHPD,1957,32449.200,325.23,2.14,13.82,31.5896667,120.7800535,2.789,13633267.303,24927693.294,2.789,0.970,-0.246,0.885,0.674,1.294,0.593,0.000,18,16,4*6D
$GPGGA,090031.60,3135.3801192,N,12046.8031182,E,4,18,1.7,2.7859,M,8.325,M,00,0004*66
$GPHPD,1957,32449.400,325.72,0.91,13.77,31.5896687,120.7800520,2.786,13633265.458,24927691.532,2.786,0.904,-0.040,0.982,0.674,1.294,0.593,0.000,18,16,4*63
$GPGGA,090031.80,3135.3802275,N,12046.8030298,E,4,18,1.7,2.7711,M,8.325,M,00,0004*6B
$GPHPD,1957,32449.600,325.35,-0.49,13.65,31.5896705,120.7800505,2.771,13633263.740,24927689.835,2.771,0.888,-0.042,0.927,0.674,1.294,0.593,0.000,18,16,4*42
$GPGGA,090032.00,3135.3803176,N,12046.8029491,E,4,19,1.7,2.8063,M,8.325,M,01,0004*6B
$GPHPD,1957,32449.800,325.27,-0.40,13.46,31.5896720,120.7800492,2.806,13633262.297,24927688.338,2.806,0.929,-0.219,0.784,0.612,0.951,0.583,0.000,19,16,4*44
$GPGGA,090032.20,3135.3804055,N,12046.8028831,E,4,19,1.7,2.8026,M,8.325,M,01,0004*68
$GPHPD,1957,32450.000,325.20,-2.23,13.34,31.5896734,120.7800481,2.803,13633260.914,24927687.030,2.803,0.738,-0.007,0.778,0.612,0.951,0.583,0.000,19,16,4*40
$GPGGA,090032.40,3135.3804837,N,12046.8028243,E,4,19,1.7,2.7704,M,8.325,M,01,0004*65
$GPHPD,1957,32450.200,324.30,-1.66,13.24,31.5896747,120.7800471,2.770,13633259.684,24927685.866,2.770,0.658,-0.035,0.704,0.612,0.951,0.583,0.000,19,16,4*42
$GPGGA,090032.60,3135.3805464,N,12046.8027684,E,4,19,1.7,2.7864,M,8.325,M,00,0004*64
$GPHPD,1957,32450.400,323.32,1.06,13.12,31.5896758,120.7800461,2.786,13633258.681,24927684.826,2.786,0.645,-0.175,0.546,0.612,0.951,0.583,0.000,19,16,4*6C
$GPGGA,090032.80,3135.3806030,N,12046.8027252,E,4,19,1.7,2.7897,M,8.325,M,00,0004*6F
$GPHPD,1957,32450.600,323.59,0.05,13.00,31.5896767,120.7800454,2.790,13633257.789,24927683.976,2.790,0.541,-0.033,0.509,0.612,0.951,0.583,0.000,19,17,4*63
$GPGGA,090033.00,3135.3806477,N,12046.8026842,E,4,19,1.7,2.7894,M,8.325,M,01,0004*69
$GPHPD,1957,32450.800,323.63,-1.56,12.91,31.5896775,120.7800447,2.789,13633257.071,24927683.221,2.789,0.452,-0.045,0.465,0.612,1.009,0.586,0.000,19,17,4*46
$GPGGA,090033.20,3135.3806854,N,12046.8026570,E,4,19,1.7,2.7816,M,8.325,M,01,0004*60
$GPHPD,1957,32451.000,323.70,-1.65,12.86,31.5896781,120.7800443,2.782,13633256.480,24927682.674,2.782,0.400,-0.057,0.339,0.674,1.294,0.593,0.000,19,18,4*4D
$GPGGA,090033.40,3135.3807191,N,12046.8026243,E,4,19,1.7,2.7924,M,8.325,M,01,0004*60
$GPHPD,1957,32451.200,322.95,-0.59,12.86,31.5896787,120.7800437,2.792,13633255.935,24927682.083,2.792,0.315,-0.064,0.294,0.612,0.951,0.583,0.000,19,18,4*47
$GPGGA,090033.60,3135.3807494,N,12046.8025969,E,4,19,1.7,2.8045,M,8.325,M,00,0004*62
$GPHPD,1957,32451.400,323.31,-1.21,12.91,31.5896792,120.7800433,2.805,13633255.450,24927681.576,2.805,0.269,0.010,0.283,0.674,1.294,0.593,0.000,19,18,4*64
$GPGGA,090033.80,3135.3807838,N,12046.8025675,E,4,19,1.7,2.7925,M,8.325,M,00,0004*64
$GPHPD,1957,32451.600,323.16,-1.38,13.00,31.5896797,120.7800428,2.793,13633254.901,24927681.022,2.793,0.238,0.029,0.268,0.612,0.951,0.583,0.000,19,18,4*68
$GPGGA,090034.00,3135.3808231,N,12046.8025332,E,4,19,1.7,2.7757,M,8.325,M,01,0004*6B
$GPHPD,1957,32451.800,323.11,-0.66,13.13,31.5896804,120.7800422,2.776,13633254.274,24927680.379,2.776,0.280,-0.036,0.259,0.612,0.951,0.583,0.000,19,18,4*41
$GPGGA,090034.20,3135.3808682,N,12046.8025005,E,4,18,1.7,2.7717,M,8.325,M,01,0004*67
$GPHPD,1957,32452.000,323.43,0.06,13.22,31.5896811,120.7800417,2.772,13633253.567,24927679.722,2.772,0.377,-0.097,0.283,0.674,1.294,0.593,0.000,18,18,4*6E
$GPGGA,090034.40,3135.3809120,N,12046.8024555,E,4,18,1.7,2.7929,M,8.325,M,01,0004*6D
$GPHPD,1957,32452.200,323.27,-0.28,13.27,31.5896819,120.7800409,2.793,13633252.853,24927678.925,2.793,0.362,-0.072,0.306,0.686,1.296,0.640,0.000,18,17,4*40
$GPGGA,090034.60,3135.3809633,N,12046.8024173,E,4,18,1.7,2.7876,M,8.325,M,00,0004*60
$GPHPD,1957,32452.400,323.59,-1.60,13.30,31.5896827,120.7800403,2.788,13633252.047,24927678.165,2.788,0.369,0.011,0.399,0.674,1.294,0.593,0.000,18,17,4*65
$GPGGA,090034.80,3135.3810088,N,12046.8023774,E,4,18,1.7,2.7771,M,8.325,M,00,0004*6E
$GPHPD,1957,32452.600,323.29,-0.87,13.32,31.5896835,120.7800396,2.777,13633251.320,24927677.419,2.777,0.393,-0.043,0.396,0.674,1.294,0.593,0.000,18,17,4*42
$GPGGA,090035.00,3135.3810546,N,12046.8023334,E,4,18,1.7,2.8067,M,8.325,M,01,0004*6E
$GPHPD,1957,32452.800,323.49,0.14,13.33,31.5896842,120.7800389,2.807,13633250.580,24927676.622,2.807,0.412,-0.078,0.330,0.674,1.294,0.593,0.000,18,17,4*6E
$GPGGA,090035.20,3135.3811069,N,12046.8022915,E,4,18,1.7,2.7918,M,8.325,M,01,0004*63
$GPHPD,1957,32453.000,323.72,-0.11,13.33,31.5896851,120.7800382,2.792,13633249.753,24927675.812,2.792,0.354,0.056,0.434,0.674,1.294,0.593,0.000,18,17,4*63
$GPGGA,090035.40,3135.3811559,N,12046.8022454,E,4,18,1.7,2.8072,M,8.325,M,01,0004*61
$GPHPD,1957,32453.200,324.10,-0.78,13.35,31.5896859,120.7800374,2.807,13633248.963,24927674.971,2.807,0.428,-0.069,0.387,0.674,1.294,0.593,0.000,18,17,4*41
$GPGGA,090035.60,3135.3812083,N,12046.8022000,E,4,18,1.4,2.8128,M,8.325,M,00,0004*6B
$GPHPD,1957,32453.400,324.57,-1.38,13.40,31.5896868,120.7800367,2.813,13633248.127,24927674.118,2.813,0.390,0.057,0.425,0.674,1.293,0.593,0.000,18,17,4*60
$GPGGA,090035.80,3135.3812641,N,12046.8021542,E,4,18,1.4,2.8127,M,8.325,M,00,0004*62
$GPHPD,1957,32453.600,324.93,-1.45,13.46,31.5896877,120.7800359,2.813,13633247.241,24927673.241,2.813,0.432,-0.027,0.442,0.674,1.293,0.593,0.000,18,17,4*45
$GPGGA,090036.00,3135.3813306,N,12046.8021080,E,4,18,1.4,2.7720,M,8.325,M,01,0004*6A
$GPHPD,1957,32453.800,325.15,-1.73,13.53,31.5896888,120.7800351,2.772,13633246.203,24927672.297,2.772,0.444,-0.043,0.422,0.674,1.293,0.593,0.000,18,17,4*45
$GPGGA,090036.20,3135.3813952,N,12046.8020544,E,4,18,1.4,2.7886,M,8.325,M,01,0004*6C
$GPHPD,1957,32454.000,325.19,-1.26,13.62,31.5896899,120.7800342,2.789,13633245.177,24927671.274,2.789,0.528,-0.094,0.454,0.674,1.293,0.593,0.000,18,17,4*4B
$GPGGA,090036.40,3135.3814660,N,12046.8020004,E,4,19,1.4,2.7819,M,8.325,M,01,0004*65
$GPHPD,1957,32454.200,325.91,-1.99,13.70,31.5896911,120.7800333,2.782,13633244.062,24927670.211,2.782,0.524,-0.073,0.507,0.674,1.293,0.593,0.000,19,17,4*4C
$GPGGA,090036.60,3135.3815404,N,12046.8019382,E,4,19,1.4,2.7862,M,8.325,M,00,0004*6C
$GPHPD,1957,32454.400,325.95,-1.82,13.78,31.5896923,120.7800323,2.786,13633242.879,24927669.028,2.786,0.553,-0.064,0.550,0.612,0.951,0.583,0.000,19,18,4*46
$GPGGA,090036.80,3135.3816221,N,12046.8018710,E,4,19,1.4,2.7933,M,8.325,M,00,0004*6B
$GPHPD,1957,32454.600,325.77,-1.22,13.84,31.5896937,120.7800312,2.793,13633241.582,24927667.742,2.793,0.586,-0.062,0.592,0.612,0.951,0.583,0.000,19,18,4*49
$GPGGA,090037.00,3135.3817098,N,12046.8018034,E,4,18,1.4,2.7906,M,8.325,M,01,0004*64
$GPHPD,1957,32454.800,326.13,-1.47,13.90,31.5896952,120.7800301,2.791,13633240.199,24927666.416,2.791,0.646,-0.041,0.662,0.674,1.293,0.593,0.000,18,18,4*4B
$GPGGA,090037.20,3135.3818049,N,12046.8017321,E,4,19,1.4,2.7862,M,8.325,M,01,0004*6F
$GPHPD,1957,32455.000,326.16,-0.77,13.93,31.5896967,120.7800289,2.786,13633238.704,24927665.002,2.786,0.665,-0.088,0.694,0.545,0.927,0.581,0.000,19,18,4*45
$GPGGA,090037.40,3135.3819009,N,12046.8016556,E,4,19,1.4,2.7793,M,8.325,M,01,0004*6A
$GPHPD,1957,32455.200,326.16,-1.20,13.93,31.5896983,120.7800276,2.779,13633237.185,24927663.521,2.779,0.721,-0.104,0.762,0.545,0.927,0.581,0.000,19,18,4*40
$GPGGA,090037.60,3135.3820017,N,12046.8015787,E,4,19,1.4,2.7766,M,8.325,M,00,0004*6B
$GPHPD,1957,32455.400,326.14,-0.91,13.93,31.5897000,120.7800263,2.777,13633235.597,24927662.007,2.777,0.763,-0.082,0.760,0.545,0.927,0.581,0.000,19,19,4*47
$GPGGA,090037.80,3135.3821057,N,12046.8015006,E,4,19,1.4,2.7823,M,8.325,M,00,0004*60
$GPHPD,1957,32455.600,325.86,-0.60,13.89,31.5897018,120.7800250,2.782,13633233.962,24927660.459,2.782,0.776,-0.095,0.802,0.594,1.245,0.589,0.000,19,19,4*4F
$GPGGA,090038.00,3135.3822086,N,12046.8014170,E,4,19,1.4,2.7945,M,8.325,M,01,0004*69
$GPHPD,1957,32455.800,325.80,-0.83,13.87,31.5897035,120.7800236,2.795,13633232.331,24927658.852,2.795,0.779,-0.076,0.842,0.545,0.927,0.581,0.000,19,19,4*46
$GPGGA,090038.20,3135.3823176,N,12046.8013347,E,4,19,1.4,2.7884,M,8.325,M,01,0004*69
$GPHPD,1957,32456.000,325.96,-0.60,13.86,31.5897053,120.7800222,2.788,13633230.615,24927657.225,2.788,0.790,-0.065,0.842,0.545,0.927,0.581,0.000,19,19,4*42
$GPGGA,090038.40,3135.3824219,N,12046.8012466,E,4,19,1.4,2.8019,M,8.325,M,01,0004*64
$GPHPD,1957,32456.200,325.70,-0.84,13.85,31.5897070,120.7800208,2.802,13633228.955,24927655.555,2.802,0.823,-0.130,0.843,0.545,0.927,0.581,0.000,19,19,4*4F
$GPGGA,090038.60,3135.3825357,N,12046.8011643,E,4,19,1.4,2.7900,M,8.325,M,00,0004*65
$GPHPD,1957,32456.400,325.41,-0.29,13.83,31.5897089,120.7800194,2.790,13633227.172,24927653.900,2.790,0.838,-0.034,0.836,0.545,0.927,0.581,0.000,19,18,4*4E
$GPGGA,090038.80,3135.3826438,N,12046.8010796,E,4,19,1.4,2.7813,M,8.325,M,00,0004*6D
$GPHPD,1957,32456.600,325.27,0.29,13.78,31.5897107,120.7800180,2.781,13633225.465,24927652.250,2.781,0.875,-0.184,0.876,0.545,0.927,0.581,0.000,19,18,4*6E
$GPGGA,090039.00,3135.3827526,N,12046.8009902,E,4,19,1.4,2.7879,M,8.325,M,01,0004*6D
$GPHPD,1957,32456.800,325.36,-0.21,13.73,31.5897125,120.7800165,2.788,13633223.738,24927650.538,2.788,0.883,-0.138,0.835,0.545,0.927,0.581,0.000,19,18,4*4A
$GPGGA,090039.20,3135.3828638,N,12046.8009032,E,4,19,1.1,2.7921,M,8.325,M,01,0004*6F
$GPHPD,1957,32457.000,325.08,0.66,13.68,31.5897144,120.7800151,2.792,13633221.982,24927648.842,2.792,0.873,-0.154,0.847,0.545,0.927,0.581,0.000,19,18,4*6E
$GPGGA,090039.40,3135.3829748,N,12046.8008166,E,4,19,1.1,2.7970,M,8.325,M,01,0004*6B
$GPHPD,1957,32457.200,325.23,-0.29,13.63,31.5897162,120.7800136,2.797,13633220.230,24927647.151,2.797,0.854,-0.115,0.894,0.545,0.927,0.581,0.000,19,18,4*44
$GPGGA,090039.60,3135.3830866,N,12046.8007302,E,4,19,1.1,2.7944,M,8.325,M,00,0004*6B
$GPHPD,1957,32457.400,324.77,-0.45,13.60,31.5897181,120.7800122,2.794,13633218.467,24927645.458,2.794,0.851,-0.119,0.876,0.545,0.927,0.581,0.000,19,18,4*47
$GPGGA,090039.80,3135.3831930,N,12046.8006388,E,4,19,1.1,2.8112,M,8.325,M,00,0004*61
$GPHPD,1957,32457.600,324.85,-0.76,13.60,31.5897199,120.7800106,2.811,13633216.770,24927643.736,2.811,0.865,-0.148,0.869,0.545,0.927,0.581,0.000,19,19,4*4D
$GPGGA,090040.00,3135.3833088,N,12046.8005463,E,4,19,1.2,2.8050,M,8.325,M,01,0004*6B
$GPHPD,1957,32457.800,324.82,-1.59,13.61,31.5897218,120.7800091,2.805,13633214.938,24927641.947,2.805,0.845,-0.060,0.884,0.612,0.951,0.583,0.000,19,19,4*4E
$GPGGA,090040.20,3135.3834178,N,12046.8004596,E,4,19,1.2,2.8021,M,8.325,M,01,0004*6C
$GPHPD,1957,32458.000,324.42,-0.40,13.61,31.5897236,120.7800077,2.802,13633213.214,24927640.267,2.802,0.906,-0.101,0.878,0.612,0.951,0.583,0.000,19,19,4*41
$GPGGA,090040.40,3135.3835284,N,12046.8003668,E,4,19,1.2,2.7970,M,8.325,M,01,0004*6C
$GPHPD,1957,32458.200,324.75,-0.93,13.64,31.5897255,120.7800061,2.797,13633211.455,24927638.504,2.797,0.880,-0.090,0.859,0.612,0.951,0.583,0.000,19,19,4*47
$GPGGA,090040.60,3135.3836418,N,12046.8002774,E,4,19,1.2,2.7859,M,8.325,M,00,0004*68
$GPHPD,1957,32458.400,324.59,-0.32,13.62,31.5897274,120.7800046,2.786,13633209.663,24927636.765,2.786,0.914,-0.083,0.855,0.612,0.951,0.583,0.000,19,19,4*43
$GPGGA,090040.80,3135.3837563,N,12046.8001811,E,4,19,1.2,2.7803,M,8.325,M,00,0004*6A
$GPHPD,1957,32458.600,325.16,-1.49,13.63,31.5897293,120.7800030,2.780,13633207.841,24927634.937,2.780,0.917,-0.089,0.855,0.674,1.293,0.593,0.000,19,19,4*48
$GPGGA,090041.00,3135.3838720,N,12046.8000875,E,4,19,1.2,2.7690,M,8.325,M,01,0004*6F
$GPHPD,1957,32458.800,324.97,-0.50,13.61,31.5897312,120.7800015,2.769,13633206.008,24927633.135,2.769,0.969,-0.152,0.863,0.612,0.951,0.583,0.000,19,19,4*4D
$GPGGA,090041.20,3135.3839900,N,12046.7999916,E,4,19,1.2,2.7794,M,8.325,M,01,0004*67
$GPHPD,1957,32459.000,325.14,-0.43,13.61,31.5897332,120.7799999,2.779,13633204.137,24927631.292,2.779,0.965,-0.158,0.898,0.612,0.951,0.583,0.000,19,18,4*4C
$GPGGA,090041.40,3135.3841127,N,12046.7998941,E,4,19,1.2,2.7727,M,8.325,M,01,0004*68
$GPHPD,1957,32459.200,324.71,0.01,13.63,31.5897352,120.7799982,2.773,13633202.197,24927629.401,2.773,0.925,-0.028,0.957,0.612,0.951,0.583,0.000,19,18,4*60
$GPGGA,090041.60,3135.3842356,N,12046.7997961,E,4,19,1.2,2.7917,M,8.325,M,00,0004*6C
$GPHPD,1957,32459.400,324.71,0.27,13.63,31.5897373,120.7799966,2.792,13633200.252,24927627.504,2.792,0.960,-0.093,0.964,0.612,0.951,0.583,0.000,19,17,4*67
$GPGGA,090041.80,3135.3843585,N,12046.7996956,E,4,19,1.2,2.7826,M,8.325,M,00,0004*6D
$GPHPD,1957,32459.600,325.46,-1.65,13.63,31.5897393,120.7799949,2.783,13633198.303,24927625.577,2.783,0.907,-0.009,1.042,0.674,1.293,0.593,0.000,19,18,4*4C
$GPGGA,090042.00,3135.3844870,N,12046.7995914,E,4,19,1.2,2.7804,M,8.325,M,01,0004*62
$GPHPD,1957,32459.800,325.47,-2.08,13.65,31.5897415,120.7799932,2.780,13633196.266,24927623.572,2.780,0.983,-0.082,1.013,0.612,0.951,0.583,0.000,19,17,4*46
$GPGGA,090042.20,3135.3846085,N,12046.7994917,E,4,18,1.4,2.7901,M,8.324,M,01,0004*60
$GPHPD,1957,32460.000,325.36,-1.98,13.67,31.5897435,120.7799915,2.790,13633194.339,24927621.662,2.790,1.012,-0.073,1.009,0.612,0.951,0.583,0.000,18,17,4*40
$GPGGA,090042.40,3135.3847299,N,12046.7993882,E,4,18,1.4,2.8009,M,8.324,M,01,0004*6C
$GPHPD,1957,32460.200,324.71,-0.56,13.69,31.5897455,120.7799898,2.801,13633192.404,24927619.707,2.801,0.947,-0.022,1.002,0.674,1.293,0.593,0.000,18,16,4*4A
$GPGGA,090042.60,3135.3848521,N,12046.7992870,E,4,18,1.4,2.8013,M,8.324,M,00,0004*63
$GPHPD,1957,32460.400,324.89,-1.42,13.67,31.5897475,120.7799881,2.801,13633190.464,24927617.775,2.801,0.953,0.023,1.015,0.674,1.293,0.593,0.000,18,16,4*6B
$GPGGA,090042.80,3135.3849768,N,12046.7991923,E,4,18,1.7,2.7913,M,8.324,M,00,0004*62
$GPHPD,1957,32460.600,324.80,-0.87,13.70,31.5897496,120.7799865,2.791,13633188.500,24927615.907,2.791,0.958,-0.022,0.985,0.674,1.293,0.593,0.000,18,16,4*4C
$GPGGA,090043.00,3135.3851005,N,12046.7990896,E,4,18,1.7,2.7801,M,8.324,M,01,0004*63
$GPHPD,1957,32460.800,324.61,-0.46,13.72,31.5897517,120.7799848,2.780,13633186.535,24927613.949,2.780,0.982,-0.107,0.983,0.694,1.644,0.608,0.000,18,16,4*47
$GPGGA,090043.20,3135.3852256,N,12046.7989848,E,4,19,1.7,2.7798,M,8.324,M,01,0004*63
$GPHPD,1957,32461.000,324.74,-0.29,13.74,31.5897538,120.7799831,2.780,13633184.546,24927611.957,2.780,1.019,-0.137,0.952,0.674,1.293,0.593,0.000,19,16,4*48
$GPGGA,090043.40,3135.3853499,N,12046.7988900,E,4,19,1.2,2.7694,M,8.324,M,01,0004*65
$GPHPD,1957,32461.200,324.84,-0.88,13.75,31.5897558,120.7799815,2.769,13633182.588,24927610.090,2.769,1.036,-0.113,0.960,0.612,0.950,0.583,0.000,19,19,4*49
$GPGGA,090043.60,3135.3854750,N,12046.7987829,E,4,19,1.2,2.7847,M,8.324,M,00,0004*62
$GPHPD,1957,32461.400,324.32,-0.11,13.76,31.5897579,120.7799797,2.785,13633180.594,24927608.070,2.785,0.980,-0.120,0.977,0.612,0.950,0.583,0.000,19,18,4*4D
$GPGGA,090043.80,3135.3856027,N,12046.7986791,E,4,19,1.2,2.7824,M,8.324,M,00,0004*61
$GPHPD,1957,32461.600,324.48,0.06,13.76,31.5897600,120.7799780,2.782,13633178.569,24927606.075,2.782,1.014,-0.098,0.995,0.612,0.950,0.583,0.000,19,18,4*67
$GPGGA,090044.00,3135.3857212,N,12046.7985759,E,4,19,1.2,2.8084,M,8.324,M,01,0004*60
$GPHPD,1957,32461.800,324.18,0.11,13.72,31.5897620,120.7799763,2.808,13633176.677,24927604.140,2.808,1.032,-0.126,0.996,0.612,0.950,0.583,0.000,19,18,4*65
$GPGGA,090044.20,3135.3858474,N,12046.7984740,E,4,19,1.7,2.7939,M,8.324,M,01,0004*67
$GPHPD,1957,32462.000,325.04,-2.34,13.66,31.5897641,120.7799746,2.794,13633174.678,24927602.177,2.794,0.961,0.033,1.010,0.612,0.950,0.583,0.000,19,17,4*6F
$GPGGA,090044.40,3135.3859743,N,12046.7983658,E,4,19,1.2,2.7903,M,8.324,M,01,0004*64
$GPHPD,1957,32462.200,324.78,-1.21,13.63,31.5897662,120.7799728,2.790,13633172.656,24927600.133,2.790,0.975,-0.004,1.007,0.674,1.293,0.593,0.000,19,17,4*4A
$GPGGA,090044.60,3135.3860965,N,12046.7982711,E,4,18,1.4,2.7805,M,8.324,M,00,0004*6A
$GPHPD,1957,32462.400,325.03,-0.80,13.58,31.5897683,120.7799712,2.781,13633170.728,24927598.280,2.781,1.044,-0.089,0.968,0.674,1.293,0.593,0.000,18,18,4*46
$GPGGA,090044.80,3135.3862190,N,12046.7981594,E,4,18,1.4,2.8135,M,8.324,M,00,0004*6D
$GPHPD,1957,32462.600,325.71,-1.87,13.55,31.5897703,120.7799693,2.814,13633168.762,24927596.219,2.814,0.995,-0.212,0.908,0.674,1.293,0.593,0.000,18,17,4*4F
$GPGGA,090045.00,3135.3863477,N,12046.7980574,E,4,18,1.4,2.8053,M,8.324,M,01,0004*66
$GPHPD,1957,32462.800,325.38,-1.13,13.51,31.5897725,120.7799676,2.805,13633166.727,24927594.240,2.805,0.996,-0.087,0.988,0.688,1.306,0.600,0.000,18,17,4*49
$GPGGA,090045.20,3135.3864796,N,12046.7979520,E,4,18,1.4,2.8032,M,8.324,M,01,0004*6F
$GPHPD,1957,32463.000,326.15,-2.46,13.49,31.5897747,120.7799659,2.803,13633164.640,24927592.201,2.803,0.997,-0.120,1.009,0.707,1.307,0.613,0.000,18,17,4*47
$GPGGA,090045.40,3135.3866098,N,12046.7978464,E,4,18,1.4,2.8008,M,8.324,M,01,0004*6B
$GPHPD,1957,32463.200,325.45,-1.63,13.44,31.5897768,120.7799641,2.801,13633162.577,24927590.170,2.801,1.047,-0.113,1.056,0.724,1.317,0.618,0.000,18,17,4*4C
$GPGGA,090045.60,3135.3867419,N,12046.7977413,E,4,19,1.4,2.7866,M,8.324,M,00,0004*65
$GPHPD,1957,32463.400,325.99,-2.52,13.43,31.5897790,120.7799624,2.787,13633160.487,24927588.133,2.787,1.053,-0.202,0.999,0.707,1.307,0.613,0.000,19,17,4*4C
$GPGGA,090045.80,3135.3868735,N,12046.7976379,E,4,19,1.4,2.8064,M,8.324,M,00,0004*66
$GPHPD,1957,32463.600,325.09,-1.45,13.43,31.5897812,120.7799606,2.806,13633158.408,24927586.120,2.806,1.101,-0.252,0.991,0.644,0.962,0.603,0.000,19,17,4*43
$GPGGA,090046.00,3135.3870057,N,12046.7975361,E,4,19,1.5,2.7879,M,8.324,M,01,0004*66
$GPHPD,1957,32463.800,324.69,-0.94,13.43,31.5897834,120.7799589,2.788,13633156.324,24927584.123,2.788,1.015,-0.120,1.046,0.644,0.962,0.603,0.000,19,18,4*4E
$GPGGA,090046.20,3135.3871364,N,12046.7974347,E,4,19,1.5,2.7852,M,8.324,M,01,0004*6A
$GPHPD,1957,32464.000,324.54,-0.51,13.40,31.5897856,120.7799572,2.785,13633154.262,24927582.139,2.785,1.064,-0.220,0.990,0.677,0.962,0.606,0.000,19,17,4*45
$GPGGA,090046.40,3135.3872611,N,12046.7973238,E,4,18,1.5,2.8158,M,8.324,M,01,0004*6B
$GPHPD,1957,32464.200,324.43,-0.81,13.40,31.5897877,120.7799554,2.816,13633152.266,24927580.075,2.816,1.026,-0.137,1.013,0.677,0.962,0.606,0.000,18,18,4*4C
$GPGGA,090046.60,3135.3873920,N,12046.7972223,E,4,18,1.5,2.8004,M,8.324,M,00,0004*67
$GPHPD,1957,32464.400,324.42,-0.90,13.41,31.5897899,120.7799537,2.800,13633150.201,24927578.089,2.800,0.989,-0.038,1.048,0.677,0.962,0.606,0.000,18,17,4*4A
$GPGGA,090046.80,3135.3875230,N,12046.7971249,E,4,18,1.9,2.7796,M,8.324,M,00,0004*65
$GPHPD,1957,32464.600,324.77,-1.18,13.41,31.5897921,120.7799521,2.780,13633148.142,24927576.152,2.780,1.049,-0.199,0.991,0.677,0.962,0.606,0.000,18,17,4*4C
$GPGGA,090047.00,3135.3876488,N,12046.7970177,E,4,17,1.9,2.7811,M,8.324,M,01,0004*6B
$GPHPD,1957,32464.800,324.49,-0.53,13.41,31.5897941,120.7799503,2.781,13633146.138,24927574.127,2.781,1.008,-0.051,1.022,0.684,1.020,0.609,0.000,17,18,4*49
$GPGGA,090047.20,3135.3877740,N,12046.7969128,E,4,17,1.9,2.7818,M,8.324,M,01,0004*64
$GPHPD,1957,32465.000,324.91,-0.80,13.42,31.5897962,120.7799485,2.782,13633144.147,24927572.133,2.782,1.035,-0.109,1.021,0.684,1.020,0.609,0.000,17,17,4*41
$GPGGA,090047.40,3135.3878984,N,12046.7968056,E,4,18,1.9,2.8027,M,8.324,M,01,0004*66
$GPHPD,1957,32465.200,324.98,-0.54,13.44,31.5897983,120.7799468,2.803,13633142.163,24927570.116,2.803,1.028,-0.084,0.993,0.684,1.020,0.609,0.000,18,17,4*4A
$GPGGA,090047.60,3135.3880238,N,12046.7967030,E,4,18,1.9,2.7892,M,8.324,M,00,0004*68
$GPHPD,1957,32465.400,325.38,-1.18,13.45,31.5898004,120.7799451,2.789,13633140.174,24927568.149,2.789,0.970,-0.013,1.035,0.645,1.016,0.604,0.000,18,17,4*41
$GPGGA,090047.80,3135.3881537,N,12046.7966011,E,4,18,1.9,2.7856,M,8.324,M,00,0004*65
$GPHPD,1957,32465.600,325.31,-0.61,13.45,31.5898026,120.7799434,2.786,13633138.122,24927566.164,2.786,1.017,-0.139,0.969,0.612,1.007,0.586,0.000,18,17,4*41
$GPGGA,090048.00,3135.3882763,N,12046.7964946,E,4,19,1.9,2.7990,M,8.324,M,01,0004*60
$GPHPD,1957,32465.800,325.51,-1.29,13.47,31.5898046,120.7799416,2.799,13633136.165,24927564.165,2.799,1.046,-0.147,0.997,0.612,1.007,0.586,0.000,19,17,4*43
$GPGGA,090048.20,3135.3884043,N,12046.7963973,E,4,19,1.9,2.7856,M,8.324,M,01,0004*6B
$GPHPD,1957,32466.000,326.35,-2.30,13.49,31.5898067,120.7799400,2.786,13633134.149,24927562.247,2.786,1.017,-0.086,1.003,0.612,0.950,0.583,0.000,19,17,4*43
$GPGGA,090048.40,3135.3885310,N,12046.7962861,E,4,19,1.7,2.8019,M,8.324,M,01,0004*68
$GPHPD,1957,32466.200,326.10,-1.11,13.48,31.5898089,120.7799381,2.802,13633132.124,24927560.168,2.802,1.000,-0.144,0.995,0.612,0.950,0.583,0.000,19,18,4*49
$GPGGA,090048.60,3135.3886566,N,12046.7961801,E,4,19,1.4,2.8145,M,8.324,M,00,0004*61
$GPHPD,1957,32466.400,325.77,-0.26,13.46,31.5898109,120.7799363,2.815,13633130.126,24927558.159,2.815,1.001,-0.088,1.003,0.674,1.293,0.593,0.000,19,18,4*49
