$GPGGA,090619.80,3135.3776499,N,12046.8014445,E,4,17,1.5,2.6691,M,8.325,M,00,0004*6A
$GPHPD,1957,32797.600,144.14,-0.22,14.20,31.5896275,120.7800241,2.669,13633297.191,24927685.720,2.669,-0.691,0.119,-0.664,0.717,1.309,0.743,0.000,17,17,4*60
$GPGGA,090620.00,3135.3775557,N,12046.8015247,E,4,17,1.5,2.6656,M,8.325,M,01,0004*67
$GPHPD,1957,32797.800,143.95,-0.24,14.25,31.5896259,120.7800254,2.666,13633298.691,24927687.236,2.666,-0.729,0.108,-0.728,0.678,1.286,0.707,0.000,17,17,4*64
$GPGGA,090620.20,3135.3774561,N,12046.8016053,E,4,17,1.5,2.6653,M,8.325,M,01,0004*60
$GPHPD,1957,32798.000,144.19,-0.08,14.26,31.5896243,120.7800268,2.665,13633300.269,24927688.787,2.665,-0.747,0.056,-0.776,0.595,1.237,0.705,0.000,17,17,4*6B
$GPGGA,090620.40,3135.3773570,N,12046.8016914,E,4,17,1.5,2.6654,M,8.325,M,01,0004*6C
$GPHPD,1957,32798.200,144.13,0.10,14.26,31.5896226,120.7800282,2.665,13633301.851,24927690.403,2.665,-0.797,0.061,-0.784,0.595,1.237,0.705,0.000,17,17,4*42
$GPGGA,090620.60,3135.3772577,N,12046.8017705,E,4,17,1.5,2.6505,M,8.325,M,00,0004*61
$GPHPD,1957,32798.400,144.39,0.12,14.21,31.5896210,120.7800295,2.651,13633303.422,24927691.935,2.651,-0.797,0.038,-0.779,0.596,1.242,0.749,0.000,17,17,4*4E
$GPGGA,090620.80,3135.3771617,N,12046.8018496,E,4,17,1.5,2.6574,M,8.325,M,00,0004*69
$GPHPD,1957,32798.600,144.36,0.79,14.13,31.5896194,120.7800308,2.657,13633304.946,24927693.448,2.657,-0.785,0.060,-0.803,0.595,1.237,0.705,0.000,17,17,4*4D
$GPGGA,090621.00,3135.3770664,N,12046.8019225,E,4,17,1.5,2.6672,M,8.325,M,01,0004*6E
$GPHPD,1957,32798.800,144.09,0.30,14.05,31.5896178,120.7800320,2.667,13633306.448,24927694.881,2.667,-0.739,0.005,-0.771,0.595,1.237,0.705,0.000,17,17,4*4C
$GPGGA,090621.20,3135.3769782,N,12046.8019970,E,4,17,1.5,2.6585,M,8.325,M,01,0004*6D
$GPHPD,1957,32799.000,143.72,-0.28,13.96,31.5896163,120.7800333,2.659,13633307.852,24927696.293,2.659,-0.762,0.142,-0.697,0.595,1.237,0.705,0.000,17,17,4*67
$GPGGA,090621.40,3135.3768887,N,12046.8020695,E,4,17,1.5,2.6704,M,8.325,M,01,0004*65
$GPHPD,1957,32799.200,143.83,0.17,13.92,31.5896148,120.7800345,2.670,13633309.270,24927697.689,2.670,-0.699,0.065,-0.712,0.595,1.237,0.705,0.000,17,17,4*41
$GPGGA,090621.60,3135.3768026,N,12046.8021436,E,4,17,1.5,2.6637,M,8.325,M,00,0004*6E
$GPHPD,1957,32799.400,144.14,-0.19,13.88,31.5896134,120.7800357,2.664,13633310.643,24927699.084,2.664,-0.744,0.135,-0.671,0.595,1.237,0.705,0.000,17,17,4*66
$GPGGA,090621.80,3135.3767181,N,12046.8022131,E,4,17,1.5,2.6589,M,8.325,M,00,0004*64
$GPHPD,1957,32799.600,143.97,0.22,13.85,31.5896120,120.7800369,2.659,13633311.984,24927700.414,2.659,-0.701,0.045,-0.706,0.595,1.237,0.705,0.000,17,17,4*47
$GPGGA,090622.00,3135.3766331,N,12046.8022832,E,4,17,1.5,2.6622,M,8.325,M,01,0004*6E
$GPHPD,1957,32799.800,143.95,0.35,13.81,31.5896106,120.7800381,2.662,13633313.334,24927701.754,2.662,-0.668,0.031,-0.710,0.678,1.286,0.707,0.000,17,17,4*4C
$GPGGA,090622.20,3135.3765486,N,12046.8023521,E,4,17,1.5,2.6685,M,8.325,M,01,0004*67
$GPHPD,1957,32800.000,143.69,0.05,13.77,31.5896091,120.7800392,2.669,13633314.674,24927703.077,2.669,-0.691,0.038,-0.680,0.678,1.286,0.707,0.000,17,17,4*4A
$GPGGA,090622.40,3135.3764616,N,12046.8024210,E,4,17,1.5,2.6736,M,8.325,M,01,0004*60
$GPHPD,1957,32800.200,143.61,0.52,13.75,31.5896077,120.7800404,2.674,13633316.049,24927704.414,2.674,-0.699,0.071,-0.643,0.678,1.286,0.707,0.000,17,17,4*46
$GPGGA,090622.60,3135.3763787,N,12046.8024923,E,4,17,1.5,2.6758,M,8.325,M,00,0004*6E
$GPHPD,1957,32800.400,143.74,0.14,13.75,31.5896063,120.7800415,2.676,13633317.371,24927705.757,2.676,-0.691,0.100,-0.660,0.678,1.286,0.707,0.000,17,17,4*41
$GPGGA,090622.80,3135.3762929,N,12046.8025628,E,4,17,1.5,2.6760,M,8.325,M,00,0004*65
$GPHPD,1957,32800.600,143.91,-0.22,13.75,31.5896049,120.7800427,2.676,13633318.733,24927707.106,2.676,-0.707,0.117,-0.645,0.678,1.286,0.707,0.000,17,17,4*6B
$GPGGA,090623.00,3135.3762052,N,12046.8026345,E,4,17,1.5,2.6762,M,8.325,M,01,0004*67
$GPHPD,1957,32800.800,143.67,0.19,13.77,31.5896034,120.7800439,2.676,13633320.124,24927708.482,2.676,-0.674,0.107,-0.689,0.717,1.309,0.743,0.000,17,17,4*49
$GPGGA,090623.20,3135.3761124,N,12046.8027080,E,4,17,1.5,2.6627,M,8.325,M,01,0004*6D
$GPHPD,1957,32801.000,143.89,0.27,13.77,31.5896019,120.7800451,2.663,13633321.591,24927709.908,2.663,-0.723,0.108,-0.688,0.717,1.309,0.743,0.000,17,17,4*44
$GPGGA,090623.40,3135.3760190,N,12046.8027894,E,4,17,1.5,2.6744,M,8.325,M,01,0004*6C
$GPHPD,1957,32801.200,143.75,0.50,13.79,31.5896003,120.7800465,2.674,13633323.083,24927711.434,2.674,-0.711,0.058,-0.744,0.717,1.309,0.743,0.000,17,17,4*4C
$GPGGA,090623.60,3135.3759241,N,12046.8028715,E,4,17,1.5,2.6684,M,8.325,M,00,0004*6E
$GPHPD,1957,32801.400,143.82,-0.21,13.82,31.5895987,120.7800479,2.668,13633324.597,24927712.976,2.668,-0.769,0.098,-0.738,0.678,1.281,0.595,0.000,17,17,4*61
$GPGGA,090623.80,3135.3758220,N,12046.8029542,E,4,17,1.5,2.6689,M,8.325,M,00,0004*6A
$GPHPD,1957,32801.600,144.12,-0.10,13.82,31.5895970,120.7800492,2.669,13633326.215,24927714.568,2.669,-0.767,0.034,-0.780,0.678,1.286,0.707,0.000,17,17,4*6D
$GPGGA,090624.00,3135.3757165,N,12046.8030409,E,4,17,1.5,2.6792,M,8.325,M,01,0004*64
$GPHPD,1957,32801.800,143.99,-0.31,13.83,31.5895953,120.7800507,2.679,13633327.889,24927716.228,2.679,-0.808,0.077,-0.802,0.717,1.302,0.619,0.000,17,17,4*69
$GPGGA,090624.20,3135.3756179,N,12046.8031291,E,4,17,1.5,2.6663,M,8.325,M,01,0004*63
$GPHPD,1957,32802.000,144.00,-0.19,13.84,31.5895936,120.7800522,2.666,13633329.468,24927717.865,2.666,-0.846,0.104,-0.814,0.678,1.286,0.707,0.000,17,17,4*60
$GPGGA,090624.40,3135.3755084,N,12046.8032184,E,4,17,1.5,2.6655,M,8.325,M,01,0004*64
$GPHPD,1957,32802.200,144.22,-0.14,13.83,31.5895918,120.7800536,2.666,13633331.205,24927719.580,2.666,-0.833,0.054,-0.815,0.678,1.281,0.595,0.000,17,17,4*64
$GPGGA,090624.60,3135.3753970,N,12046.8033080,E,4,17,1.5,2.6702,M,8.325,M,00,0004*64
$GPHPD,1957,32802.400,144.24,-0.06,13.81,31.5895900,120.7800551,2.670,13633332.969,24927721.309,2.670,-0.839,0.046,-0.862,0.678,1.281,0.595,0.000,17,17,4*6A
$GPGGA,090624.80,3135.3752939,N,12046.8033934,E,4,17,1.5,2.6701,M,8.325,M,00,0004*63
$GPHPD,1957,32802.600,144.35,-0.24,13.76,31.5895882,120.7800566,2.670,13633334.606,24927722.939,2.670,-0.889,0.098,-0.856,0.678,1.286,0.707,0.000,17,17,4*64
$GPGGA,090625.00,3135.3751867,N,12046.8034827,E,4,17,1.5,2.6708,M,8.325,M,01,0004*6F
$GPHPD,1957,32802.800,144.41,-0.50,13.74,31.5895864,120.7800580,2.671,13633336.310,24927724.640,2.671,-0.851,0.079,-0.859,0.596,1.231,0.591,0.000,17,17,4*68
$GPGGA,090625.20,3135.3750773,N,12046.8035718,E,4,17,1.5,2.6748,M,8.325,M,01,0004*60
$GPHPD,1957,32803.000,144.32,-0.65,13.72,31.5895846,120.7800595,2.675,13633338.045,24927726.351,2.675,-0.848,0.045,-0.852,0.596,1.231,0.591,0.000,17,17,4*67
$GPGGA,090625.40,3135.3749691,N,12046.8036585,E,4,18,1.5,2.6771,M,8.325,M,01,0004*63
$GPHPD,1957,32803.200,144.00,-0.56,13.71,31.5895828,120.7800610,2.677,13633339.757,24927728.027,2.677,-0.872,0.101,-0.846,0.596,1.231,0.591,0.000,18,17,4*6A
$GPGGA,090625.60,3135.3748618,N,12046.8037486,E,4,18,1.5,2.6654,M,8.325,M,00,0004*65
$GPHPD,1957,32803.400,144.43,-0.80,13.70,31.5895810,120.7800625,2.665,13633341.464,24927729.738,2.665,-0.869,0.110,-0.847,0.596,1.231,0.591,0.000,18,18,4*6C
$GPGGA,090625.80,3135.3747516,N,12046.8038372,E,4,18,1.5,2.6684,M,8.325,M,00,0004*67
$GPHPD,1957,32803.600,143.87,-0.27,13.70,31.5895792,120.7800640,2.668,13633343.209,24927731.448,2.668,-0.854,0.037,-0.877,0.596,1.231,0.591,0.000,18,18,4*61
$GPGGA,090626.00,3135.3746409,N,12046.8039289,E,4,18,1.5,2.6570,M,8.325,M,01,0004*6F
$GPHPD,1957,32803.800,144.14,-0.29,13.69,31.5895773,120.7800655,2.657,13633344.967,24927733.198,2.657,-0.888,0.100,-0.866,0.678,1.281,0.595,0.000,18,18,4*69
$GPGGA,090626.20,3135.3745283,N,12046.8040201,E,4,17,1.5,2.6499,M,8.325,M,01,0004*6D
$GPHPD,1957,32804.000,144.54,-0.18,13.70,31.5895755,120.7800670,2.650,13633346.752,24927734.954,2.650,-0.888,0.070,-0.878,0.684,1.297,0.755,0.000,17,16,4*6C
$GPGGA,090626.40,3135.3744141,N,12046.8041111,E,4,16,1.5,2.6522,M,8.325,M,01,0004*64
$GPHPD,1957,32804.200,144.17,0.43,13.72,31.5895736,120.7800685,2.652,13633348.558,24927736.716,2.652,-0.890,0.064,-0.896,0.678,1.286,0.707,0.000,16,17,4*43
$GPGGA,090626.60,3135.3743010,N,12046.8042046,E,4,16,1.5,2.6471,M,8.325,M,00,0004*62
$GPHPD,1957,32804.400,144.70,0.30,13.72,31.5895717,120.7800701,2.647,13633350.354,24927738.502,2.647,-0.900,0.099,-0.888,0.678,1.286,0.707,0.000,16,17,4*41
$GPGGA,090626.80,3135.3741850,N,12046.8043008,E,4,16,1.5,2.6600,M,8.325,M,00,0004*6D
$GPHPD,1957,32804.600,144.51,0.95,13.71,31.5895698,120.7800717,2.660,13633352.197,24927740.338,2.660,-0.904,0.080,-0.904,0.678,1.286,0.707,0.000,16,16,4*4A
$GPGGA,090627.00,3135.3740706,N,12046.8043955,E,4,16,1.5,2.6548,M,8.325,M,01,0004*66
$GPHPD,1957,32804.800,144.58,0.77,13.73,31.5895678,120.7800733,2.655,13633354.014,24927742.146,2.655,-0.941,0.120,-0.895,0.678,1.286,0.707,0.000,16,16,4*4D
$GPGGA,090627.20,3135.3739522,N,12046.8044872,E,4,16,1.5,2.6572,M,8.325,M,01,0004*64
$GPHPD,1957,32805.000,144.31,0.39,13.73,31.5895659,120.7800748,2.657,13633355.882,24927743.941,2.657,-0.950,0.121,-0.893,0.678,1.286,0.707,0.000,16,16,4*41
$GPGGA,090627.40,3135.3738354,N,12046.8045838,E,4,16,1.5,2.6620,M,8.325,M,01,0004*6F
$GPHPD,1957,32805.200,144.03,-0.36,13.73,31.5895639,120.7800764,2.662,13633357.737,24927745.786,2.662,-0.925,0.127,-0.919,0.678,1.286,0.707,0.000,16,16,4*6F
$GPGGA,090627.60,3135.3737174,N,12046.8046780,E,4,16,1.5,2.6662,M,8.325,M,00,0004*6A
$GPHPD,1957,32805.400,144.34,-0.04,13.71,31.5895620,120.7800780,2.666,13633359.604,24927747.609,2.666,-0.974,0.140,-0.901,0.678,1.286,0.707,0.000,16,16,4*6B
$GPGGA,090627.80,3135.3735966,N,12046.8047771,E,4,16,1.5,2.6706,M,8.325,M,00,0004*61
$GPHPD,1957,32805.600,144.53,0.28,13.71,31.5895599,120.7800796,2.671,13633361.520,24927749.507,2.671,-0.959,0.151,-0.903,0.678,1.286,0.707,0.000,16,16,4*4D
$GPGGA,090628.00,3135.3734770,N,12046.8048750,E,4,16,1.5,2.6680,M,8.325,M,01,0004*6C
$GPHPD,1957,32805.800,144.39,-0.84,13.71,31.5895580,120.7800813,2.668,13633363.418,24927751.384,2.668,-0.972,0.125,-0.928,0.678,1.286,0.707,0.000,16,16,4*61
$GPGGA,090628.20,3135.3733556,N,12046.8049754,E,4,16,1.5,2.6539,M,8.325,M,01,0004*6B
$GPHPD,1957,32806.000,144.72,-0.07,13.68,31.5895559,120.7800829,2.654,13633365.346,24927753.301,2.654,-0.961,0.071,-0.958,0.678,1.286,0.707,0.000,16,16,4*6B
$GPGGA,090628.40,3135.3732335,N,12046.8050758,E,4,16,1.5,2.6480,M,8.325,M,01,0004*68
$GPHPD,1957,32806.200,144.95,-0.03,13.64,31.5895539,120.7800846,2.648,13633367.284,24927755.223,2.648,-0.953,0.078,-0.974,0.678,1.286,0.707,0.000,16,16,4*6B
$GPGGA,090628.60,3135.3731085,N,12046.8051716,E,4,16,1.5,2.6606,M,8.325,M,00,0004*67
$GPHPD,1957,32806.400,144.88,0.05,13.64,31.5895518,120.7800862,2.661,13633369.253,24927757.106,2.661,-0.960,0.091,-0.976,0.678,1.286,0.707,0.000,16,16,4*48
$GPGGA,090628.80,3135.3729845,N,12046.8052666,E,4,16,1.5,2.6677,M,8.325,M,00,0004*67
$GPHPD,1957,32806.600,144.83,-0.50,13.61,31.5895497,120.7800878,2.668,13633371.207,24927758.974,2.668,-0.981,0.143,-0.961,0.678,1.286,0.707,0.000,16,16,4*69
$GPGGA,090629.00,3135.3728617,N,12046.8053660,E,4,16,1.5,2.6596,M,8.325,M,01,0004*6C
$GPHPD,1957,32806.800,144.63,-1.30,13.58,31.5895477,120.7800894,2.660,13633373.153,24927760.887,2.660,-0.960,0.072,-0.990,0.678,1.286,0.707,0.000,16,16,4*6C
$GPGGA,090629.20,3135.3727395,N,12046.8054658,E,4,16,1.5,2.6461,M,8.325,M,01,0004*6B
$GPHPD,1957,32807.000,144.89,-0.63,13.56,31.5895457,120.7800911,2.646,13633375.091,24927762.802,2.646,-0.977,0.064,-0.994,0.678,1.286,0.707,0.000,16,16,4*65
$GPGGA,090629.40,3135.3726122,N,12046.8055644,E,4,16,1.5,2.6598,M,8.325,M,01,0004*69
$GPHPD,1957,32807.200,145.03,-0.01,13.55,31.5895435,120.7800927,2.660,13633377.099,24927764.732,2.660,-0.960,0.053,-1.004,0.678,1.286,0.707,0.000,16,16,4*61
$GPGGA,090629.60,3135.3724892,N,12046.8056650,E,4,16,1.5,2.6486,M,8.325,M,00,0004*62
$GPHPD,1957,32807.400,144.94,-1.05,13.54,31.5895415,120.7800944,2.649,13633379.051,24927766.662,2.649,-1.000,0.142,-0.977,0.678,1.286,0.707,0.000,16,16,4*64
$GPGGA,090629.80,3135.3723628,N,12046.8057644,E,4,16,1.5,2.6492,M,8.325,M,00,0004*65
$GPHPD,1957,32807.600,145.16,-0.36,13.51,31.5895394,120.7800961,2.649,13633381.048,24927768.596,2.649,-0.989,0.128,-0.985,0.678,1.286,0.707,0.000,16,16,4*61
$GPGGA,090630.00,3135.3722348,N,12046.8058638,E,4,16,1.5,2.6523,M,8.325,M,01,0004*69
$GPHPD,1957,32807.800,145.12,-0.05,13.50,31.5895372,120.7800977,2.652,13633383.067,24927770.540,2.652,-0.973,0.095,-1.013,0.684,1.297,0.756,0.000,16,16,4*6A
$GPGGA,090630.20,3135.3721110,N,12046.8059613,E,4,16,1.5,2.6417,M,8.325,M,01,0004*69
$GPHPD,1957,32808.000,145.36,-0.11,13.51,31.5895352,120.7800994,2.642,13633385.023,24927772.437,2.642,-1.019,0.194,-0.982,0.684,1.297,0.756,0.000,16,16,4*61
$GPGGA,090630.40,3135.3719858,N,12046.8060631,E,4,16,1.9,2.6414,M,8.325,M,01,0004*64
$GPHPD,1957,32808.200,145.20,-0.17,13.50,31.5895331,120.7801011,2.641,13633387.008,24927774.393,2.641,-0.957,0.109,-1.007,0.684,1.297,0.756,0.000,16,16,4*64
$GPGGA,090630.60,3135.3718634,N,12046.8061634,E,4,16,1.5,2.6282,M,8.325,M,00,0004*63
$GPHPD,1957,32808.400,145.05,-0.45,13.48,31.5895311,120.7801027,2.628,13633388.950,24927776.315,2.628,-0.988,0.134,-0.988,0.684,1.297,0.756,0.000,16,16,4*68
$GPGGA,090630.80,3135.3717360,N,12046.8062616,E,4,16,1.5,2.6379,M,8.325,M,00,0004*60
$GPHPD,1957,32808.600,145.36,0.28,13.48,31.5895289,120.7801044,2.638,13633390.959,24927778.241,2.638,-0.963,0.070,-0.990,0.684,1.297,0.756,0.000,16,16,4*4A
$GPGGA,090631.00,3135.3716122,N,12046.8063570,E,4,16,1.5,2.6414,M,8.325,M,01,0004*63
$GPHPD,1957,32808.800,145.45,0.53,13.47,31.5895269,120.7801060,2.641,13633392.911,24927780.113,2.641,-0.992,0.120,-0.991,0.684,1.297,0.756,0.000,16,16,4*4D
$GPGGA,090631.20,3135.3714839,N,12046.8064570,E,4,16,1.5,2.6591,M,8.325,M,01,0004*6B
$GPHPD,1957,32809.000,145.28,-0.13,13.47,31.5895247,120.7801076,2.659,13633394.936,24927782.065,2.659,-0.975,0.129,-0.977,0.684,1.297,0.756,0.000,16,16,4*64
$GPGGA,090631.40,3135.3713622,N,12046.8065607,E,4,16,1.5,2.6319,M,8.325,M,01,0004*6A
$GPHPD,1957,32809.200,145.21,-0.59,13.48,31.5895227,120.7801093,2.632,13633396.875,24927784.025,2.632,-1.010,0.122,-0.981,0.711,1.694,0.789,0.000,16,16,4*64
$GPGGA,090631.60,3135.3712357,N,12046.8066609,E,4,16,1.5,2.6345,M,8.325,M,00,0004*6B
$GPHPD,1957,32809.400,145.12,-0.39,13.49,31.5895206,120.7801110,2.635,13633398.875,24927785.969,2.635,-0.957,0.019,-1.019,0.711,1.694,0.789,0.000,16,16,4*69
$GPGGA,090631.80,3135.3711082,N,12046.8067539,E,4,16,1.5,2.6480,M,8.325,M,00,0004*62
$GPHPD,1957,32809.600,145.45,-0.20,13.49,31.5895185,120.7801126,2.648,13633400.875,24927787.833,2.648,-0.979,0.137,-0.987,0.684,1.297,0.756,0.000,16,16,4*60
$GPGGA,090632.00,3135.3709830,N,12046.8068514,E,4,16,1.5,2.6463,M,8.325,M,01,0004*6D
$GPHPD,1957,32809.800,144.97,-1.43,13.50,31.5895164,120.7801142,2.646,13633402.851,24927789.738,2.646,-0.988,0.174,-0.970,0.684,1.297,0.756,0.000,16,16,4*6E
$GPGGA,090632.20,3135.3708590,N,12046.8069548,E,4,16,1.5,2.6440,M,8.325,M,01,0004*60
$GPHPD,1957,32810.000,144.83,-1.61,13.51,31.5895143,120.7801159,2.644,13633404.822,24927791.707,2.644,-0.964,0.106,-0.992,0.737,1.335,0.824,0.000,16,16,4*63
$GPGGA,090632.40,3135.3707342,N,12046.8070534,E,4,16,1.5,2.6364,M,8.325,M,01,0004*62
$GPHPD,1957,32810.200,144.99,-0.83,13.52,31.5895122,120.7801176,2.636,13633406.794,24927793.622,2.636,-0.987,0.093,-0.989,0.684,1.297,0.756,0.000,16,16,4*6A
$GPGGA,090632.60,3135.3706107,N,12046.8071495,E,4,16,1.5,2.6324,M,8.325,M,00,0004*6C
$GPHPD,1957,32810.400,144.84,-1.35,13.51,31.5895102,120.7801192,2.632,13633408.744,24927795.500,2.632,-0.989,0.114,-0.988,0.684,1.297,0.756,0.000,16,16,4*60
$GPGGA,090632.80,3135.3704883,N,12046.8072492,E,4,16,1.5,2.6164,M,8.325,M,00,0004*67
$GPHPD,1957,32810.600,144.97,-0.75,13.52,31.5895081,120.7801208,2.616,13633410.684,24927797.415,2.616,-0.942,0.119,-1.019,0.737,1.335,0.824,0.000,16,16,4*6F
$GPGGA,090633.00,3135.3703667,N,12046.8073513,E,4,16,1.5,2.6153,M,8.325,M,01,0004*61
$GPHPD,1957,32810.800,145.13,-0.45,13.54,31.5895061,120.7801225,2.615,13633412.618,24927799.354,2.615,-0.950,0.059,-1.005,0.684,1.297,0.756,0.000,16,16,4*62
$GPGGA,090633.20,3135.3702446,N,12046.8074459,E,4,16,1.5,2.6214,M,8.325,M,01,0004*6B
$GPHPD,1957,32811.000,145.84,0.40,13.54,31.5895041,120.7801241,2.621,13633414.545,24927801.206,2.621,-0.984,0.077,-0.995,0.684,1.297,0.756,0.000,16,16,4*4C
$GPGGA,090633.40,3135.3701238,N,12046.8075466,E,4,16,1.9,2.6026,M,8.325,M,01,0004*63
$GPHPD,1957,32811.200,145.72,0.29,13.55,31.5895021,120.7801258,2.603,13633416.465,24927803.124,2.603,-0.976,0.123,-0.941,0.684,1.297,0.756,0.000,16,16,4*43
$GPGGA,090633.60,3135.3700010,N,12046.8076430,E,4,16,1.5,2.6070,M,8.325,M,00,0004*66
$GPHPD,1957,32811.400,145.62,-0.04,13.55,31.5895000,120.7801274,2.607,13633418.404,24927805.001,2.607,-0.933,0.023,-0.989,0.684,1.297,0.756,0.000,16,16,4*66
$GPGGA,090633.80,3135.3698755,N,12046.8077295,E,4,16,1.5,2.6300,M,8.325,M,00,0004*62
$GPHPD,1957,32811.600,145.88,0.13,13.56,31.5894979,120.7801288,2.630,13633420.363,24927806.775,2.630,-0.956,0.135,-0.960,0.684,1.297,0.756,0.000,16,16,4*45
$GPGGA,090634.00,3135.3697576,N,12046.8078296,E,4,16,1.5,2.6211,M,8.325,M,01,0004*6D
$GPHPD,1957,32811.800,145.51,-0.75,13.56,31.5894960,120.7801305,2.621,13633422.240,24927808.668,2.621,-0.951,0.213,-0.939,0.684,1.297,0.756,0.000,16,16,4*63
$GPGGA,090634.20,3135.3696342,N,12046.8079228,E,4,16,1.5,2.6282,M,8.325,M,01,0004*61
$GPHPD,1957,32812.000,145.72,-0.47,13.57,31.5894939,120.7801320,2.628,13633424.182,24927810.511,2.628,-0.956,0.134,-0.942,0.684,1.297,0.756,0.000,16,16,4*60
$GPGGA,090634.40,3135.3695140,N,12046.8080162,E,4,16,1.5,2.6219,M,8.325,M,01,0004*6D
$GPHPD,1957,32812.200,145.74,0.55,13.57,31.5894919,120.7801336,2.622,13633426.079,24927812.337,2.622,-0.955,0.139,-0.952,0.684,1.297,0.756,0.000,16,16,4*47
$GPGGA,090634.60,3135.3693933,N,12046.8081117,E,4,16,1.5,2.6040,M,8.325,M,00,0004*69
$GPHPD,1957,32812.400,145.61,-0.54,13.58,31.5894899,120.7801352,2.604,13633427.987,24927814.191,2.604,-0.944,0.126,-0.950,0.684,1.297,0.756,0.000,16,16,4*60
$GPGGA,090634.80,3135.3692675,N,12046.8082007,E,4,16,1.5,2.6353,M,8.325,M,00,0004*69
$GPHPD,1957,32812.600,145.75,0.96,13.58,31.5894878,120.7801367,2.635,13633429.955,24927815.997,2.635,-0.921,0.056,-0.990,0.684,1.297,0.756,0.000,16,16,4*4A
$GPGGA,090635.00,3135.3691502,N,12046.8082996,E,4,16,1.5,2.6179,M,8.325,M,01,0004*6A
$GPHPD,1957,32812.800,145.34,0.03,13.58,31.5894858,120.7801383,2.618,13633431.821,24927817.873,2.618,-0.965,0.210,-0.931,0.684,1.297,0.756,0.000,16,16,4*4C
$GPGGA,090635.20,3135.3690309,N,12046.8083922,E,4,16,1.5,2.6081,M,8.325,M,01,0004*6C
$GPHPD,1957,32813.000,145.41,0.13,13.58,31.5894838,120.7801399,2.608,13633433.704,24927819.684,2.608,-0.956,0.121,-0.950,0.684,1.297,0.756,0.000,16,16,4*4F
$GPGGA,090635.40,3135.3689090,N,12046.8084880,E,4,16,1.5,2.6290,M,8.325,M,01,0004*6D
$GPHPD,1957,32813.200,145.13,-0.12,13.58,31.5894818,120.7801415,2.629,13633435.629,24927821.549,2.629,-0.896,0.064,-0.967,0.684,1.297,0.756,0.000,16,16,4*6F
$GPGGA,090635.60,3135.3687906,N,12046.8085831,E,4,16,1.5,2.6167,M,8.325,M,00,0004*66
$GPHPD,1957,32813.400,145.24,-0.11,13.53,31.5894798,120.7801431,2.617,13633437.504,24927823.385,2.617,-0.963,0.135,-0.926,0.684,1.297,0.756,0.000,16,16,4*65
$GPGGA,090635.80,3135.3686687,N,12046.8086752,E,4,16,1.5,2.6391,M,8.325,M,00,0004*6D
$GPHPD,1957,32813.600,145.21,0.90,13.50,31.5894778,120.7801446,2.639,13633439.422,24927825.205,2.639,-0.924,0.042,-0.957,0.684,1.297,0.756,0.000,16,16,4*4B
$GPGGA,090636.00,3135.3685519,N,12046.8087704,E,4,16,1.5,2.6342,M,8.325,M,01,0004*6C
$GPHPD,1957,32813.800,144.96,-0.31,13.55,31.5894759,120.7801462,2.634,13633441.274,24927827.033,2.634,-0.968,0.207,-0.897,0.684,1.297,0.756,0.000,16,16,4*67
$GPGGA,090636.20,3135.3684342,N,12046.8088697,E,4,16,1.5,2.6092,M,8.325,M,01,0004*6D
$GPHPD,1957,32814.000,144.87,-0.38,13.56,31.5894739,120.7801478,2.609,13633443.147,24927828.916,2.609,-0.937,0.116,-0.928,0.684,1.297,0.756,0.000,16,16,4*63
$GPGGA,090636.40,3135.3683194,N,12046.8089630,E,4,16,1.5,2.6029,M,8.325,M,01,0004*69
$GPHPD,1957,32814.200,145.02,0.11,13.56,31.5894720,120.7801494,2.603,13633444.967,24927830.710,2.603,-0.921,0.045,-0.973,0.737,1.335,0.824,0.000,16,16,4*49
$GPGGA,090636.60,3135.3682005,N,12046.8090567,E,4,16,1.9,2.6106,M,8.325,M,00,0004*6B
$GPHPD,1957,32814.400,145.26,0.29,13.61,31.5894700,120.7801509,2.611,13633446.846,24927832.532,2.611,-0.886,0.055,-0.927,0.684,1.297,0.756,0.000,16,16,4*47
$GPGGA,090636.80,3135.3680833,N,12046.8091516,E,4,16,1.9,2.6231,M,8.325,M,00,0004*6A
$GPHPD,1957,32814.600,145.04,-0.62,13.65,31.5894681,120.7801525,2.623,13633448.703,24927834.358,2.623,-0.916,0.086,-0.950,0.711,1.694,0.789,0.000,16,15,4*64
$GPGGA,090637.00,3135.3679648,N,12046.8092419,E,4,16,1.9,2.6215,M,8.325,M,01,0004*6D
$GPHPD,1957,32814.800,145.06,-0.55,13.68,31.5894661,120.7801540,2.622,13633450.570,24927836.137,2.622,-0.962,0.125,-0.912,0.684,1.297,0.756,0.000,16,15,4*6F
$GPGGA,090637.20,3135.3678476,N,12046.8093348,E,4,16,1.9,2.6165,M,8.325,M,01,0004*67
$GPHPD,1957,32815.000,145.07,-0.41,13.69,31.5894641,120.7801556,2.617,13633452.423,24927837.940,2.617,-0.932,0.153,-0.904,0.737,1.335,0.824,0.000,16,15,4*63
$GPGGA,090637.40,3135.3677312,N,12046.8094286,E,4,16,1.9,2.6201,M,8.325,M,01,0004*6E
$GPHPD,1957,32815.200,145.13,-0.68,13.73,31.5894622,120.7801571,2.620,13633454.266,24927839.749,2.620,-0.943,0.124,-0.929,0.684,1.297,0.756,0.000,16,15,4*6F
$GPGGA,090637.60,3135.3676120,N,12046.8095181,E,4,16,1.9,2.6067,M,8.325,M,00,0004*68
$GPHPD,1957,32815.400,145.25,-0.42,13.82,31.5894602,120.7801586,2.607,13633456.141,24927841.522,2.607,-0.934,0.108,-0.919,0.684,1.297,0.756,0.000,16,15,4*69
$GPGGA,090637.80,3135.3674911,N,12046.8096058,E,4,16,1.9,2.6217,M,8.325,M,00,0004*6D
$GPHPD,1957,32815.600,145.18,-0.45,13.92,31.5894582,120.7801601,2.622,13633458.036,24927843.284,2.622,-0.895,0.136,-0.927,0.684,1.297,0.756,0.000,16,15,4*68
$GPGGA,090638.00,3135.3673733,N,12046.8097051,E,4,15,1.9,2.6134,M,8.325,M,01,0004*6B
$GPHPD,1957,32815.800,145.23,-0.66,13.91,31.5894562,120.7801618,2.613,13633459.911,24927845.167,2.613,-0.891,0.266,-0.921,0.692,1.305,0.757,0.000,15,15,4*64
$GPGGA,090638.20,3135.3672520,N,12046.8097986,E,4,15,1.9,2.6211,M,8.325,M,01,0004*6F
$GPHPD,1957,32816.000,145.38,-0.33,13.84,31.5894542,120.7801633,2.621,13633461.824,24927847.001,2.621,-0.926,0.097,-0.941,0.692,1.305,0.757,0.000,15,15,4*62
$GPGGA,090638.40,3135.3671312,N,12046.8098918,E,4,15,1.9,2.6270,M,8.325,M,01,0004*62
$GPHPD,1957,32816.200,145.64,-0.29,13.83,31.5894522,120.7801649,2.627,13633463.728,24927848.828,2.627,-0.943,0.153,-0.942,0.692,1.305,0.757,0.000,15,15,4*6A
$GPGGA,090638.60,3135.3670109,N,12046.8099866,E,4,15,1.5,2.6229,M,8.325,M,00,0004*61
$GPHPD,1957,32816.400,145.53,-0.19,13.80,31.5894502,120.7801664,2.623,13633465.629,24927850.671,2.623,-0.952,0.168,-0.935,0.692,1.305,0.757,0.000,15,15,4*60
$GPGGA,090638.80,3135.3668941,N,12046.8100782,E,4,15,1.5,2.6187,M,8.325,M,00,0004*61
$GPHPD,1957,32816.600,145.76,-0.26,13.76,31.5894482,120.7801680,2.619,13633467.474,24927852.456,2.619,-0.934,0.103,-0.967,0.692,1.305,0.757,0.000,15,15,4*64
$GPGGA,090639.00,3135.3667732,N,12046.8101749,E,4,15,1.5,2.6141,M,8.325,M,01,0004*60
$GPHPD,1957,32816.800,145.67,-0.17,13.75,31.5894462,120.7801696,2.614,13633469.388,24927854.326,2.614,-0.922,0.102,-0.931,0.692,1.305,0.757,0.000,15,15,4*6B
$GPGGA,090639.20,3135.3666535,N,12046.8102680,E,4,15,1.5,2.6206,M,8.325,M,01,0004*61
$GPHPD,1957,32817.000,145.90,0.43,13.78,31.5894442,120.7801711,2.621,13633471.277,24927856.146,2.621,-0.914,0.103,-0.945,0.692,1.305,0.757,0.000,15,15,4*4E
$GPGGA,090639.40,3135.3665321,N,12046.8103639,E,4,15,1.5,2.6118,M,8.325,M,01,0004*68
$GPHPD,1957,32817.200,145.81,-0.05,13.78,31.5894422,120.7801727,2.612,13633473.196,24927858.009,2.612,-0.933,0.110,-0.947,0.692,1.305,0.757,0.000,15,15,4*6F
$GPGGA,090639.60,3135.3664109,N,12046.8104593,E,4,15,1.5,2.6196,M,8.325,M,00,0004*60
$GPHPD,1957,32817.400,145.41,0.30,13.71,31.5894402,120.7801743,2.620,13633475.111,24927859.865,2.620,-0.945,0.126,-0.945,0.692,1.305,0.757,0.000,15,15,4*4B
$GPGGA,090639.80,3135.3662901,N,12046.8105547,E,4,15,1.5,2.6056,M,8.325,M,00,0004*6D
$GPHPD,1957,32817.600,145.42,0.03,13.58,31.5894382,120.7801759,2.606,13633477.020,24927861.719,2.606,-0.976,0.138,-0.933,0.692,1.305,0.757,0.000,15,15,4*45
$GPGGA,090640.00,3135.3661671,N,12046.8106521,E,4,16,1.5,2.6171,M,8.325,M,01,0004*65
$GPHPD,1957,32817.800,145.37,0.55,13.53,31.5894361,120.7801775,2.617,13633478.965,24927863.609,2.617,-0.901,0.030,-1.008,0.692,1.305,0.757,0.000,16,15,4*4D
$GPGGA,090640.20,3135.3660411,N,12046.8107451,E,4,16,1.5,2.6283,M,8.325,M,01,0004*6B
$GPHPD,1957,32818.000,145.21,0.18,13.54,31.5894340,120.7801791,2.628,13633480.943,24927865.465,2.628,-0.963,0.072,-0.979,0.692,1.296,0.623,0.000,16,15,4*42
$GPGGA,090640.40,3135.3659177,N,12046.8108449,E,4,16,1.5,2.6178,M,8.325,M,01,0004*63
$GPHPD,1957,32818.200,144.90,-0.20,13.54,31.5894320,120.7801807,2.618,13633482.898,24927867.386,2.618,-0.970,0.155,-0.971,0.692,1.305,0.757,0.000,16,15,4*61
$GPGGA,090640.60,3135.3657939,N,12046.8109461,E,4,16,1.5,2.6255,M,8.325,M,00,0004*6B
$GPHPD,1957,32818.400,144.99,-0.06,13.53,31.5894299,120.7801824,2.626,13633484.862,24927869.328,2.626,-0.967,0.123,-0.983,0.692,1.296,0.623,0.000,16,15,4*65
$GPGGA,090640.80,3135.3656705,N,12046.8110444,E,4,16,1.5,2.6348,M,8.325,M,00,0004*67
$GPHPD,1957,32818.600,145.13,-0.47,13.50,31.5894278,120.7801841,2.635,13633486.814,24927871.231,2.635,-0.995,0.154,-0.955,0.692,1.296,0.623,0.000,16,15,4*6B
$GPGGA,090641.00,3135.3655476,N,12046.8111436,E,4,16,1.5,2.6381,M,8.325,M,01,0004*6A
$GPHPD,1957,32818.800,145.04,0.11,13.48,31.5894258,120.7801857,2.638,13633488.761,24927873.143,2.638,-0.994,0.138,-0.956,0.692,1.296,0.623,0.000,16,15,4*4E
$GPGGA,090641.20,3135.3654229,N,12046.8112450,E,4,16,1.5,2.6313,M,8.325,M,01,0004*6D
$GPHPD,1957,32819.000,145.12,-0.23,13.43,31.5894237,120.7801874,2.631,13633490.738,24927875.092,2.631,-1.010,0.177,-0.933,0.692,1.296,0.623,0.000,16,15,4*6D
$GPGGA,090641.40,3135.3652998,N,12046.8113423,E,4,16,1.5,2.6218,M,8.325,M,01,0004*63
$GPHPD,1957,32819.200,145.47,-0.18,13.39,31.5894217,120.7801890,2.622,13633492.684,24927876.982,2.622,-1.007,0.141,-0.959,0.692,1.296,0.623,0.000,16,15,4*62
$GPGGA,090641.60,3135.3651733,N,12046.8114397,E,4,16,1.5,2.6364,M,8.325,M,00,0004*69
$GPHPD,1957,32819.400,145.44,0.39,13.39,31.5894196,120.7801907,2.636,13633494.678,24927878.893,2.636,-0.948,0.065,-0.998,0.692,1.296,0.623,0.000,16,15,4*4F
$GPGGA,090641.80,3135.3650467,N,12046.8115386,E,4,16,1.5,2.6330,M,8.325,M,00,0004*64
$GPHPD,1957,32819.600,145.57,0.29,13.40,31.5894174,120.7801923,2.633,13633496.677,24927880.823,2.633,-0.992,0.164,-0.966,0.692,1.296,0.623,0.000,16,16,4*4E
$GPGGA,090642.00,3135.3649195,N,12046.8116409,E,4,16,1.5,2.6350,M,8.325,M,01,0004*6B
$GPHPD,1957,32819.800,145.37,0.25,13.41,31.5894153,120.7801940,2.635,13633498.691,24927882.797,2.635,-0.987,0.094,-1.004,0.692,1.296,0.623,0.000,16,16,4*49
$GPGGA,090642.20,3135.3647928,N,12046.8117420,E,4,16,1.5,2.6328,M,8.325,M,01,0004*6C
$GPHPD,1957,32820.000,145.39,-0.81,13.41,31.5894132,120.7801957,2.633,13633500.696,24927884.754,2.633,-1.001,0.122,-1.006,0.692,1.296,0.623,0.000,16,16,4*61
$GPGGA,090642.40,3135.3646635,N,12046.8118408,E,4,16,1.5,2.6410,M,8.325,M,01,0004*61
$GPHPD,1957,32820.200,145.56,-0.35,13.39,31.5894111,120.7801973,2.641,13633502.733,24927886.698,2.641,-1.000,0.112,-1.004,0.692,1.296,0.623,0.000,16,16,4*62
$GPGGA,090642.60,3135.3645374,N,12046.8119396,E,4,16,1.5,2.6299,M,8.325,M,00,0004*67
$GPHPD,1957,32820.400,145.18,-0.93,13.34,31.5894090,120.7801990,2.630,13633504.724,24927888.624,2.630,-1.015,0.160,-0.986,0.692,1.296,0.623,0.000,16,16,4*60
$GPGGA,090642.80,3135.3644102,N,12046.8120416,E,4,16,1.5,2.6391,M,8.325,M,00,0004*67
$GPHPD,1957,32820.600,145.00,-0.71,13.31,31.5894068,120.7802007,2.639,13633506.738,24927890.594,2.639,-0.965,0.095,-1.026,0.692,1.296,0.623,0.000,16,16,4*69
$GPGGA,090643.00,3135.3642867,N,12046.8121485,E,4,16,1.5,2.6350,M,8.325,M,01,0004*65
$GPHPD,1957,32820.800,145.18,-0.76,13.28,31.5894048,120.7802025,2.635,13633508.709,24927892.603,2.635,-1.024,0.173,-0.978,0.692,1.296,0.623,0.000,16,16,4*67
$GPGGA,090643.20,3135.3641609,N,12046.8122454,E,4,16,1.5,2.6289,M,8.325,M,01,0004*68
$GPHPD,1957,32821.000,145.33,-0.44,13.24,31.5894027,120.7802041,2.629,13633510.692,24927894.504,2.629,-0.994,0.113,-1.006,0.709,1.655,0.636,0.000,16,16,4*61
$GPGGA,090643.40,3135.3640349,N,12046.8123429,E,4,17,1.5,2.6326,M,8.325,M,01,0004*60
$GPHPD,1957,32821.200,145.18,-0.55,13.24,31.5894006,120.7802057,2.633,13633512.680,24927896.413,2.633,-0.970,0.083,-0.986,0.684,1.288,0.622,0.000,17,16,4*6C
$GPGGA,090643.60,3135.3639080,N,12046.8124406,E,4,17,1.5,2.6299,M,8.325,M,00,0004*64
$GPHPD,1957,32821.400,144.88,-1.04,13.24,31.5893985,120.7802073,2.630,13633514.680,24927898.330,2.630,-0.980,0.140,-0.979,0.684,1.288,0.622,0.000,17,17,4*6A
$GPGGA,090643.80,3135.3637831,N,12046.8125464,E,4,17,1.5,2.6191,M,8.326,M,00,0004*6B
$GPHPD,1957,32821.600,144.98,-0.79,13.27,31.5893964,120.7802091,2.619,13633516.669,24927900.333,2.619,-0.966,0.116,-1.014,0.684,1.288,0.622,0.000,17,17,4*6C
$GPGGA,090644.00,3135.3636559,N,12046.8126379,E,4,17,1.5,2.6306,M,8.326,M,01,0004*63
$GPHPD,1957,32821.800,145.11,-0.82,13.26,31.5893943,120.7802106,2.631,13633518.661,24927902.177,2.631,-1.002,0.127,-1.000,0.684,1.288,0.622,0.000,17,17,4*66
$GPGGA,090644.20,3135.3635342,N,12046.8127420,E,4,17,1.9,2.6034,M,8.326,M,01,0004*6A
$GPHPD,1957,32822.000,144.87,-0.87,13.27,31.5893922,120.7802124,2.603,13633520.601,24927904.141,2.603,-0.989,0.165,-0.967,0.684,1.288,0.622,0.000,17,17,4*6A
$GPGGA,090644.40,3135.3634079,N,12046.8128373,E,4,17,1.5,2.6201,M,8.326,M,01,0004*60
$GPHPD,1957,32822.200,145.02,-0.40,13.27,31.5893901,120.7802140,2.620,13633522.588,24927906.025,2.620,-0.958,0.050,-1.009,0.684,1.288,0.622,0.000,17,17,4*66
$GPGGA,090644.60,3135.3632853,N,12046.8129384,E,4,17,1.5,2.6078,M,8.326,M,00,0004*60
$GPHPD,1957,32822.400,145.07,-0.10,13.26,31.5893881,120.7802156,2.608,13633524.535,24927907.958,2.608,-0.986,0.145,-0.957,0.684,1.288,0.622,0.000,17,17,4*68
$GPGGA,090644.80,3135.3631633,N,12046.8130419,E,4,17,1.5,2.6040,M,8.326,M,00,0004*65
$GPHPD,1957,32822.600,144.75,-0.49,13.25,31.5893861,120.7802174,2.604,13633526.478,24927909.917,2.604,-0.946,0.086,-0.963,0.684,1.288,0.622,0.000,17,17,4*65
$GPGGA,090645.00,3135.3630395,N,12046.8131414,E,4,17,1.5,2.6091,M,8.326,M,01,0004*65
$GPHPD,1957,32822.800,144.94,-0.42,13.25,31.5893840,120.7802190,2.609,13633528.438,24927911.837,2.609,-0.976,0.048,-0.977,0.678,1.280,0.595,0.000,17,17,4*66
$GPGGA,090645.20,3135.3629166,N,12046.8132410,E,4,17,1.5,2.6067,M,8.326,M,01,0004*6F
$GPHPD,1957,32823.000,144.72,-0.27,13.24,31.5893819,120.7802207,2.607,13633530.385,24927913.754,2.607,-0.996,0.086,-0.957,0.678,1.280,0.595,0.000,17,17,4*6A
$GPGGA,090645.40,3135.3627943,N,12046.8133415,E,4,17,1.5,2.6037,M,8.326,M,01,0004*69
$GPHPD,1957,32823.200,144.69,-0.23,13.24,31.5893799,120.7802224,2.604,13633532.326,24927915.678,2.604,-0.962,0.140,-0.965,0.678,1.280,0.595,0.000,17,17,4*63
$GPGGA,090645.60,3135.3626719,N,12046.8134406,E,4,17,1.5,2.5999,M,8.326,M,00,0004*61
$GPHPD,1957,32823.400,144.49,-0.59,13.24,31.5893779,120.7802240,2.600,13633534.266,24927917.586,2.600,-0.980,0.124,-0.944,0.678,1.280,0.595,0.000,17,17,4*68
$GPGGA,090645.80,3135.3625504,N,12046.8135419,E,4,17,1.5,2.5969,M,8.326,M,00,0004*62
$GPHPD,1957,32823.600,144.52,-0.23,13.25,31.5893758,120.7802257,2.597,13633536.197,24927919.515,2.597,-0.975,0.085,-0.960,0.678,1.280,0.595,0.000,17,17,4*64
$GPGGA,090646.00,3135.3624292,N,12046.8136388,E,4,17,1.5,2.5963,M,8.326,M,01,0004*67
$GPHPD,1957,32823.800,144.41,-0.20,13.28,31.5893738,120.7802273,2.596,13633538.115,24927921.389,2.596,-0.957,0.064,-0.979,0.678,1.280,0.595,0.000,17,17,4*6D
$GPGGA,090646.20,3135.3623119,N,12046.8137400,E,4,17,1.5,2.5955,M,8.326,M,01,0004*61
$GPHPD,1957,32824.000,144.39,-0.30,13.27,31.5893719,120.7802290,2.596,13633539.986,24927923.292,2.596,-0.964,0.094,-0.960,0.678,1.280,0.595,0.000,17,17,4*60
$GPGGA,090646.40,3135.3621921,N,12046.8138373,E,4,17,1.5,2.5966,M,8.326,M,01,0004*6A
$GPHPD,1957,32824.200,144.61,-0.34,13.32,31.5893699,120.7802306,2.597,13633541.885,24927925.163,2.597,-0.968,0.063,-0.937,0.678,1.280,0.595,0.000,17,17,4*68
$GPGGA,090646.60,3135.3620730,N,12046.8139319,E,4,17,1.5,2.5967,M,8.326,M,01,0004*6B
$GPHPD,1957,32824.400,144.45,-0.31,13.36,31.5893679,120.7802322,2.597,13633543.769,24927926.997,2.597,-0.945,0.073,-0.945,0.678,1.280,0.595,0.000,17,17,4*65
$GPGGA,090646.80,3135.3619559,N,12046.8140312,E,4,17,1.5,2.5898,M,8.326,M,00,0004*67
$GPHPD,1957,32824.600,144.53,-0.64,13.38,31.5893659,120.7802339,2.590,13633545.634,24927928.876,2.590,-0.947,0.102,-0.938,0.678,1.280,0.595,0.000,17,17,4*66
$GPGGA,090647.00,3135.3618369,N,12046.8141313,E,4,17,1.5,2.5914,M,8.326,M,01,0004*6E
$GPHPD,1957,32824.800,144.43,-0.37,13.41,31.5893639,120.7802355,2.591,13633547.527,24927930.776,2.591,-0.936,0.068,-0.938,0.678,1.280,0.595,0.000,17,17,4*63
$GPGGA,090647.20,3135.3617178,N,12046.8142261,E,4,17,1.5,2.5951,M,8.326,M,01,0004*67
$GPHPD,1957,32825.000,144.45,-0.37,13.41,31.5893620,120.7802371,2.595,13633549.411,24927932.613,2.595,-0.978,0.118,-0.930,0.678,1.280,0.595,0.000,17,17,4*6C
$GPGGA,090647.40,3135.3615983,N,12046.8143226,E,4,17,1.5,2.5887,M,8.326,M,01,0004*67
$GPHPD,1957,32825.200,144.31,-0.60,13.42,31.5893600,120.7802387,2.589,13633551.304,24927934.472,2.589,-0.953,0.112,-0.934,0.678,1.280,0.595,0.000,17,17,4*69
$GPGGA,090647.60,3135.3614769,N,12046.8144225,E,4,17,1.4,2.5841,M,8.326,M,00,0004*60
$GPHPD,1957,32825.400,144.46,-0.20,13.40,31.5893579,120.7802404,2.584,13633553.231,24927936.384,2.584,-0.945,0.096,-0.946,0.678,1.280,0.595,0.000,17,17,4*6E
$GPGGA,090647.80,3135.3613557,N,12046.8145206,E,4,17,1.4,2.5908,M,8.326,M,00,0004*6A
$GPHPD,1957,32825.600,144.35,0.01,13.37,31.5893559,120.7802420,2.591,13633555.151,24927938.273,2.591,-0.959,0.073,-0.979,0.678,1.280,0.595,0.000,17,17,4*4C
$GPGGA,090648.00,3135.3612382,N,12046.8146197,E,4,17,1.4,2.5828,M,8.326,M,01,0004*68
$GPHPD,1957,32825.800,144.37,-0.35,13.35,31.5893540,120.7802437,2.583,13633557.021,24927940.152,2.583,-0.965,0.123,-0.948,0.678,1.280,0.595,0.000,17,17,4*64
$GPGGA,090648.20,3135.3611159,N,12046.8147201,E,4,17,1.4,2.5855,M,8.326,M,01,0004*6A
$GPHPD,1957,32826.000,144.53,-0.23,13.33,31.5893519,120.7802453,2.586,13633558.962,24927942.075,2.586,-0.957,0.085,-0.949,0.678,1.280,0.595,0.000,17,17,4*68
$GPGGA,090648.40,3135.3609966,N,12046.8148160,E,4,17,1.4,2.5911,M,8.326,M,01,0004*6B
$GPHPD,1957,32826.200,144.38,-0.15,13.30,31.5893499,120.7802469,2.591,13633560.851,24927943.926,2.591,-0.979,0.098,-0.953,0.678,1.280,0.595,0.000,17,17,4*6E
$GPGGA,090648.60,3135.3608763,N,12046.8149149,E,4,17,1.4,2.5903,M,8.326,M,00,0004*6B
$GPHPD,1957,32826.400,144.49,-0.14,13.27,31.5893479,120.7802486,2.590,13633562.760,24927945.819,2.590,-0.966,0.119,-0.939,0.678,1.280,0.595,0.000,17,17,4*68
$GPGGA,090648.80,3135.3607556,N,12046.8150132,E,4,17,1.4,2.5903,M,8.326,M,00,0004*6A
$GPHPD,1957,32826.600,144.54,-0.25,13.27,31.5893459,120.7802502,2.590,13633564.674,24927947.707,2.590,-0.964,0.095,-0.947,0.678,1.280,0.595,0.000,17,17,4*65
$GPGGA,090649.00,3135.3606371,N,12046.8151117,E,4,17,1.4,2.5843,M,8.326,M,01,0004*63
$GPHPD,1957,32826.800,144.55,-0.08,13.26,31.5893440,120.7802519,2.584,13633566.557,24927949.585,2.584,-0.967,0.102,-0.948,0.678,1.280,0.595,0.000,17,17,4*63
$GPGGA,090649.20,3135.3605168,N,12046.8152098,E,4,17,1.4,2.5797,M,8.326,M,01,0004*6B
$GPHPD,1957,32827.000,144.51,-0.05,13.26,31.5893419,120.7802535,2.580,13633568.465,24927951.468,2.580,-0.959,0.088,-0.944,0.678,1.280,0.595,0.000,17,17,4*66
$GPGGA,090649.40,3135.3603959,N,12046.8153062,E,4,17,1.4,2.5882,M,8.326,M,01,0004*6E
$GPHPD,1957,32827.200,144.66,-0.06,13.28,31.5893399,120.7802551,2.588,13633570.377,24927953.334,2.588,-0.948,0.050,-0.963,0.678,1.280,0.595,0.000,17,17,4*61
$GPGGA,090649.60,3135.3602754,N,12046.8154048,E,4,18,1.4,2.5851,M,8.326,M,00,0004*61
$GPHPD,1957,32827.400,144.42,-0.21,13.30,31.5893379,120.7802567,2.585,13633572.289,24927955.225,2.585,-0.972,0.119,-0.939,0.678,1.280,0.595,0.000,18,17,4*66
$GPGGA,090649.80,3135.3601546,N,12046.8155067,E,4,18,1.4,2.5827,M,8.326,M,00,0004*60
$GPHPD,1957,32827.600,144.66,-0.07,13.35,31.5893359,120.7802584,2.583,13633574.211,24927957.157,2.583,-0.970,0.109,-0.964,0.678,1.280,0.595,0.000,18,17,4*64
$GPGGA,090650.00,3135.3600332,N,12046.8156022,E,4,18,1.4,2.5757,M,8.326,M,01,0004*6F
$GPHPD,1957,32827.800,144.62,-0.04,13.37,31.5893339,120.7802600,2.576,13633576.129,24927959.016,2.576,-0.976,0.090,-0.957,0.678,1.280,0.595,0.000,18,17,4*61
$GPGGA,090650.20,3135.3599107,N,12046.8156989,E,4,18,1.4,2.5847,M,8.326,M,01,0004*6C
$GPHPD,1957,32828.000,144.77,-0.24,13.41,31.5893318,120.7802616,2.585,13633578.066,24927960.895,2.585,-0.961,0.097,-0.962,0.678,1.280,0.595,0.000,18,17,4*6F
$GPGGA,090650.40,3135.3597885,N,12046.8157955,E,4,18,1.4,2.5812,M,8.326,M,01,0004*67
$GPHPD,1957,32828.200,144.78,-0.40,13.38,31.5893298,120.7802633,2.581,13633579.997,24927962.771,2.581,-0.970,0.128,-0.957,0.678,1.280,0.595,0.000,18,17,4*62
$GPGGA,090650.60,3135.3596673,N,12046.8158942,E,4,18,1.4,2.5857,M,8.326,M,00,0004*6A
$GPHPD,1957,32828.400,144.49,-0.63,13.38,31.5893278,120.7802649,2.586,13633581.919,24927964.667,2.586,-0.960,0.094,-0.966,0.678,1.280,0.595,0.000,18,18,4*6F
$GPGGA,090650.80,3135.3595472,N,12046.8159923,E,4,18,1.4,2.5800,M,8.326,M,00,0004*60
$GPHPD,1957,32828.600,144.67,-0.34,13.36,31.5893258,120.7802665,2.580,13633583.824,24927966.549,2.580,-0.973,0.140,-0.929,0.678,1.280,0.595,0.000,18,18,4*60
$GPGGA,090651.00,3135.3594297,N,12046.8160899,E,4,18,1.4,2.5806,M,8.326,M,01,0004*68
$GPHPD,1957,32828.800,144.71,-0.39,13.37,31.5893238,120.7802682,2.581,13633585.691,24927968.410,2.581,-0.959,0.087,-0.953,0.678,1.280,0.595,0.000,18,18,4*60
$GPGGA,090651.20,3135.3593139,N,12046.8161844,E,4,18,1.4,2.5733,M,8.326,M,01,0004*62
$GPHPD,1957,32829.000,144.64,-0.61,13.36,31.5893219,120.7802697,2.573,13633587.527,24927970.224,2.573,-0.954,0.102,-0.933,0.678,1.280,0.595,0.000,18,18,4*65
$GPGGA,090651.40,3135.3592011,N,12046.8162757,E,4,18,1.4,2.5769,M,8.326,M,01,0004*6F
$GPHPD,1957,32829.200,144.86,-0.24,13.32,31.5893200,120.7802713,2.577,13633589.314,24927971.982,2.577,-0.915,0.073,-0.923,0.678,1.280,0.595,0.000,18,18,4*66
$GPGGA,090651.60,3135.3590954,N,12046.8163607,E,4,18,1.4,2.5726,M,8.326,M,00,0004*68
$GPHPD,1957,32829.400,144.75,-0.39,13.30,31.5893183,120.7802727,2.573,13633590.988,24927973.622,2.573,-0.889,0.082,-0.891,0.678,1.280,0.595,0.000,18,18,4*6F
$GPGGA,090651.80,3135.3589899,N,12046.8164466,E,4,18,1.4,2.5790,M,8.326,M,00,0004*61
$GPHPD,1957,32829.600,144.82,-0.28,13.30,31.5893165,120.7802741,2.579,13633592.661,24927975.272,2.579,-0.849,0.082,-0.856,0.678,1.280,0.595,0.000,18,18,4*67
$GPGGA,090652.00,3135.3588915,N,12046.8165274,E,4,18,1.4,2.5715,M,8.326,M,01,0004*66
$GPHPD,1957,32829.800,144.72,-0.53,13.27,31.5893149,120.7802755,2.572,13633594.222,24927976.820,2.572,-0.839,0.116,-0.797,0.678,1.280,0.595,0.000,18,18,4*65
$GPGGA,090652.20,3135.3587941,N,12046.8166038,E,4,18,1.4,2.5746,M,8.326,M,01,0004*65
$GPHPD,1957,32830.000,144.96,-0.09,13.23,31.5893132,120.7802767,2.575,13633595.761,24927978.308,2.575,-0.774,0.055,-0.792,0.678,1.280,0.595,0.000,18,18,4*60
$GPGGA,090652.40,3135.3587021,N,12046.8166754,E,4,18,1.4,2.5773,M,8.326,M,01,0004*67
$GPHPD,1957,32830.200,144.94,-0.25,13.16,31.5893117,120.7802779,2.577,13633597.213,24927979.707,2.577,-0.755,0.081,-0.759,0.678,1.280,0.595,0.000,18,18,4*65
$GPGGA,090652.60,3135.3586181,N,12046.8167439,E,4,18,1.4,2.5728,M,8.326,M,00,0004*69
$GPHPD,1957,32830.400,144.91,-0.37,13.16,31.5893103,120.7802791,2.573,13633598.545,24927981.022,2.573,-0.715,0.092,-0.718,0.678,1.280,0.595,0.000,18,18,4*69
$GPGGA,090652.80,3135.3585361,N,12046.8168090,E,4,18,1.4,2.5713,M,8.326,M,00,0004*68
$GPHPD,1957,32830.600,144.97,-0.20,13.16,31.5893089,120.7802802,2.571,13633599.842,24927982.285,2.571,-0.682,0.072,-0.686,0.596,1.229,0.591,0.000,18,18,4*69
$GPGGA,090653.00,3135.3584604,N,12046.8168690,E,4,18,1.4,2.5657,M,8.326,M,01,0004*60
$GPHPD,1957,32830.800,145.06,0.09,13.11,31.5893077,120.7802812,2.566,13633601.039,24927983.449,2.566,-0.629,0.054,-0.655,0.596,1.229,0.591,0.000,18,18,4*45
$GPGGA,090653.20,3135.3583939,N,12046.8169236,E,4,18,1.4,2.5702,M,8.326,M,01,0004*6C
$GPHPD,1957,32831.000,145.07,0.01,13.04,31.5893066,120.7802821,2.570,13633602.094,24927984.495,2.570,-0.585,0.049,-0.613,0.596,1.229,0.591,0.000,18,18,4*48
$GPGGA,090653.40,3135.3583339,N,12046.8169710,E,4,18,1.4,2.5711,M,8.326,M,01,0004*63
$GPHPD,1957,32831.200,145.25,0.12,12.94,31.5893056,120.7802829,2.571,13633603.042,24927985.416,2.571,-0.538,0.052,-0.523,0.596,1.229,0.591,0.000,18,18,4*47
$GPGGA,090653.60,3135.3582838,N,12046.8170112,E,4,18,1.4,2.5678,M,8.326,M,00,0004*69
$GPHPD,1957,32831.400,145.08,0.08,12.84,31.5893047,120.7802835,2.568,13633603.836,24927986.192,2.568,-0.461,0.053,-0.462,0.596,1.229,0.591,0.000,18,18,4*40
