.901,0.570,-0.060,0.601,0.555,0.977,0.589,0.000,18,17,4*42
$GPGGA,081533.60,3135.3016192,N,12046.7012434,E,4,18,1.7,1.8973,M,8.319,M,00,0004*63
$GPHPD,1957,29751.400,324.28,0.05,14.86,31.5883603,120.7783541,1.897,13634176.234,24926919.753,1.897,0.657,-0.095,0.594,0.555,0.977,0.589,0.000,18,17,4*64
$GPGGA,081533.80,3135.3023990,N,12046.7006439,E,1,19,0.6,3.1696,M,8.319,M,01,0004*63
$GPHPD,1957,29751.600,324.37,0.18,14.82,31.5883733,120.7783441,3.170,13634163.942,24926907.985,3.170,0.721,-0.132,0.671,0.555,0.977,0.589,0.000,19,17,1*67
$GPGGA,081534.00,3135.3021736,N,12046.7012081,E,5,16,1.5,2.6783,M,8.319,M,01,0004*64
$GPHPD,1957,29751.800,324.44,0.11,14.79,31.5883696,120.7783535,2.678,13634168.282,24926916.101,2.678,0.707,-0.068,0.723,0.555,0.977,0.589,0.000,16,17,5*63
$GPGGA,081534.20,3135.3022871,N,12046.7011366,E,5,17,1.4,2.8131,M,8.319,M,01,0004*61
$GPHPD,1957,29752.000,324.18,-0.59,14.76,31.5883715,120.7783523,2.813,13634166.525,24926914.578,2.813,0.001,0.014,0.012,0.555,0.977,0.589,0.000,17,17,5*6D
$GPGGA,081534.40,3135.3023779,N,12046.7010632,E,5,17,1.3,2.7799,M,8.319,M,01,0004*68
$GPHPD,1957,29752.200,324.23,-0.06,14.72,31.5883730,120.7783511,2.780,13634165.086,24926913.165,2.780,0.673,-0.080,0.664,0.555,0.977,0.589,0.000,17,17,5*4B
$GPGGA,081534.60,3135.3024659,N,12046.7009833,E,5,16,1.5,2.7462,M,8.319,M,00,0004*68
$GPHPD,1957,29752.400,324.24,-0.16,14.62,31.5883744,120.7783497,2.746,13634163.674,24926911.689,2.746,0.718,-0.065,0.769,0.555,0.977,0.589,0.000,16,17,5*46
$GPGGA,081534.80,3135.3025751,N,12046.7009136,E,5,16,1.5,2.7120,M,8.319,M,00,0004*61
$GPHPD,1957,29752.600,324.24,-0.05,14.55,31.5883763,120.7783486,2.712,13634161.982,24926910.213,2.712,0.790,-0.108,0.770,0.555,0.977,0.589,0.000,16,17,5*47
$GPGGA,081535.00,3135.3026873,N,12046.7008362,E,5,17,1.4,2.6519,M,8.319,M,01,0004*68
$GPHPD,1957,29752.800,324.45,0.25,14.50,31.5883781,120.7783473,2.652,13634160.231,24926908.626,2.652,0.779,-0.067,0.773,0.555,0.977,0.589,0.000,17,17,5*66
$GPGGA,081535.20,3135.3027915,N,12046.7007669,E,5,17,1.3,2.6195,M,8.319,M,01,0004*6C
$GPHPD,1957,29753.000,324.60,-0.05,14.46,31.5883799,120.7783461,2.620,13634158.610,24926907.184,2.620,0.828,-0.097,0.788,0.555,0.977,0.589,0.000,17,17,5*46
$GPGGA,081535.40,3135.3028895,N,12046.7006739,E,5,17,1.3,2.6376,M,8.319,M,01,0004*66
$GPHPD,1957,29753.200,324.36,-0.21,14.40,31.5883815,120.7783446,2.638,13634157.030,24926905.492,2.638,0.795,-0.074,0.822,0.555,0.977,0.589,0.000,17,17,5*49
$GPGGA,081535.60,3135.3029845,N,12046.7005814,E,5,17,1.3,2.6940,M,8.319,M,00,0004*65
$GPHPD,1957,29753.400,324.47,0.07,14.39,31.5883831,120.7783430,2.694,13634155.493,24926903.824,2.694,0.850,-0.052,0.799,0.616,0.996,0.593,0.000,17,17,5*6C
$GPGGA,081535.80,3135.3030887,N,12046.7004957,E,5,17,1.4,2.7285,M,8.319,M,00,0004*6E
$GPHPD,1957,29753.600,324.25,0.18,14.46,31.5883848,120.7783416,2.729,13634153.839,24926902.184,2.729,0.833,-0.064,0.817,0.555,0.977,0.589,0.000,17,17,5*67
$GPGGA,081536.00,3135.3032055,N,12046.7004077,E,5,17,1.3,2.7167,M,8.319,M,01,0004*62
$GPHPD,1957,29753.800,324.38,0.61,14.44,31.5883868,120.7783401,2.717,13634152.001,24926900.443,2.717,0.878,-0.104,0.829,0.555,0.977,0.589,0.000,17,17,5*66
$GPGGA,081536.20,3135.3033207,N,12046.7003168,E,5,17,1.3,2.6788,M,8.319,M,01,0004*6A
$GPHPD,1957,29754.000,324.34,0.52,14.42,31.5883887,120.7783386,2.679,13634150.181,24926898.676,2.679,0.865,-0.077,0.881,0.555,0.977,0.589,0.000,17,17,5*6E
$GPGGA,081536.40,3135.3034343,N,12046.7002232,E,5,17,1.4,2.6611,M,8.319,M,01,0004*61
$GPHPD,1957,29754.200,324.61,-0.21,14.41,31.5883906,120.7783371,2.661,13634148.377,24926896.886,2.661,0.864,-0.036,0.891,0.616,0.997,0.593,0.000,17,17,5*4F
$GPGGA,081536.60,3135.3035453,N,12046.7001336,E,5,17,1.4,2.6807,M,8.319,M,00,0004*6A
$GPHPD,1957,29754.400,324.70,0.02,14.28,31.5883924,120.7783356,2.681,13634146.619,24926895.160,2.681,0.877,-0.065,0.891,0.555,0.977,0.589,0.000,17,17,5*6B
$GPGGA,081536.80,3135.3036522,N,12046.7000476,E,5,16,1.5,2.7105,M,8.319,M,00,0004*68
$GPHPD,1957,29754.600,324.87,-0.02,14.19,31.5883942,120.7783341,2.711,13634144.926,24926893.501,2.711,0.905,-0.105,0.870,0.555,0.977,0.589,0.000,16,17,5*41
$GPGGA,081537.00,3135.3037644,N,12046.6999980,E,4,17,1.9,2.6288,M,8.319,M,01,0004*65
$GPHPD,1957,29754.800,324.90,-0.24,14.17,31.5883961,120.7783333,2.629,13634143.231,24926892.249,2.629,0.866,-0.099,0.870,0.555,0.977,0.589,0.000,17,17,4*47
$GPGGA,081537.20,3135.3038792,N,12046.6999145,E,4,18,1.2,2.6431,M,8.319,M,01,0004*63
$GPHPD,1957,29755.000,324.97,-0.81,14.11,31.5883980,120.7783319,2.643,13634141.431,24926890.574,2.643,0.873,-0.110,0.881,0.555,0.977,0.589,0.000,18,17,4*4D
$GPGGA,081537.40,3135.3039914,N,12046.6998197,E,4,18,1.2,2.6396,M,8.319,M,01,0004*60
$GPHPD,1957,29755.200,324.66,-0.52,14.01,31.5883999,120.7783303,2.640,13634139.645,24926888.778,2.640,0.831,-0.299,0.813,0.555,0.977,0.589,0.000,18,17,4*4B
$GPGGA,081537.60,3135.3040999,N,12046.6997282,E,4,18,1.2,2.6445,M,8.319,M,00,0004*69
$GPHPD,1957,29755.400,324.56,-0.59,14.00,31.5884017,120.7783288,2.645,13634137.919,24926887.043,2.645,0.932,-0.125,0.854,0.555,0.977,0.589,0.000,18,17,4*43
$GPGGA,081537.80,3135.3042114,N,12046.6996405,E,4,18,1.2,2.6368,M,8.319,M,00,0004*68
$GPHPD,1957,29755.600,324.52,-0.81,13.96,31.5884035,120.7783273,2.637,13634136.157,24926885.337,2.637,0.863,-0.030,0.868,0.555,0.977,0.589,0.000,18,17,4*42
$GPGGA,081538.00,3135.3043236,N,12046.6995483,E,4,18,1.2,2.6312,M,8.319,M,01,0004*6C
$GPHPD,1957,29755.800,324.54,-0.94,13.96,31.5884054,120.7783258,2.631,13634134.377,24926883.572,2.631,0.895,-0.147,0.861,0.555,0.977,0.589,0.000,18,17,4*42
$GPGGA,081538.20,3135.3044350,N,12046.6994570,E,4,18,1.2,2.6180,M,8.319,M,01,0004*6D
$GPHPD,1957,29756.000,324.54,-0.67,13.93,31.5884073,120.7783243,2.618,13634132.609,24926881.822,2.618,0.905,-0.126,0.881,0.609,0.977,0.604,0.000,18,17,4*42
$GPGGA,081538.40,3135.3045417,N,12046.6993664,E,4,18,1.2,2.6295,M,8.319,M,01,0004*68
$GPHPD,1957,29756.200,324.70,-0.48,13.93,31.5884090,120.7783228,2.630,13634130.910,24926880.109,2.630,0.863,-0.084,0.866,0.609,0.977,0.604,0.000,18,17,4*4E
$GPGGA,081538.60,3135.3046514,N,12046.6992801,E,4,18,1.2,2.6396,M,8.319,M,00,0004*64
$GPHPD,1957,29756.400,324.62,-1.05,13.93,31.5884109,120.7783213,2.640,13634129.177,24926878.430,2.640,0.835,-0.025,0.883,0.555,0.977,0.590,0.000,18,17,4*44
$GPGGA,081538.80,3135.3047641,N,12046.6991899,E,4,18,1.2,2.6349,M,8.319,M,00,0004*68
$GPHPD,1957,29756.600,324.55,-0.94,13.96,31.5884127,120.7783198,2.635,13634127.393,24926876.686,2.635,0.857,-0.074,0.884,0.555,0.977,0.590,0.000,18,17,4*42
$GPGGA,081539.00,3135.3048758,N,12046.6991004,E,4,18,1.2,2.6327,M,8.319,M,01,0004*62
$GPHPD,1957,29756.800,324.69,-0.78,13.98,31.5884146,120.7783183,2.633,13634125.625,24926874.957,2.633,0.870,-0.102,0.895,0.555,0.977,0.590,0.000,18,17,4*4C
$GPGGA,081539.20,3135.3049915,N,12046.6990082,E,4,18,1.2,2.6385,M,8.319,M,01,0004*61
$GPHPD,1957,29757.000,324.69,-0.42,13.99,31.5884165,120.7783168,2.639,13634123.794,24926873.171,2.639,0.879,-0.113,0.892,0.555,0.977,0.590,0.000,18,17,4*41
$GPGGA,081539.40,3135.3051086,N,12046.6989215,E,4,18,1.2,2.6294,M,8.319,M,01,0004*68
$GPHPD,1957,29757.200,324.82,-0.76,14.12,31.5884185,120.7783154,2.629,13634121.955,24926871.444,2.629,0.877,-0.076,0.895,0.555,0.977,0.590,0.000,18,17,4*4F
$GPGGA,081539.60,3135.3052211,N,12046.6988261,E,4,18,1.2,2.6401,M,8.319,M,00,0004*6C
$GPHPD,1957,29757.400,324.75,-0.52,14.17,31.5884204,120.7783138,2.640,13634120.164,24926869.639,2.640,0.907,-0.147,0.882,0.555,0.977,0.590,0.000,18,17,4*4B
$GPGGA,081539.80,3135.3053320,N,12046.6987294,E,4,18,1.3,2.6365,M,8.319,M,00,0004*61
$GPHPD,1957,29757.600,324.75,-0.34,14.03,31.5884222,120.7783122,2.637,13634118.393,24926867.827,2.637,0.877,-0.033,0.922,0.555,0.977,0.590,0.000,18,17,4*42
$GPGGA,081540.00,3135.3054484,N,12046.6986400,E,4,18,1.3,2.6412,M,8.319,M,01,0004*65
$GPHPD,1957,29757.800,325.16,-0.13,14.01,31.5884241,120.7783107,2.641,13634116.558,24926866.072,2.641,0.933,-0.076,0.890,0.616,0.997,0.593,0.000,18,17,4*4A
$GPGGA,081540.20,3135.3055643,N,12046.6985468,E,4,18,1.3,2.6439,M,8.319,M,01,0004*6B
$GPHPD,1957,29758.000,324.79,-0.04,14.01,31.5884261,120.7783091,2.644,13634114.723,24926864.273,2.644,0.915,-0.125,0.893,0.616,0.997,0.593,0.000,18,17,4*42
$GPGGA,081540.40,3135.3056802,N,12046.6984562,E,4,18,1.3,2.6351,M,8.319,M,01,0004*66
$GPHPD,1957,29758.200,324.83,0.29,13.97,31.5884280,120.7783076,2.635,13634112.893,24926862.506,2.635,0.913,-0.104,0.915,0.616,0.997,0.593,0.000,18,17,4*62
$GPGGA,081540.60,3135.3057968,N,12046.6983605,E,4,18,1.3,2.6360,M,8.319,M,00,0004*6E
$GPHPD,1957,29758.400,324.73,0.08,13.94,31.5884299,120.7783060,2.636,13634111.042,24926860.674,2.636,0.902,-0.140,0.919,0.694,0.998,0.612,0.000,18,17,4*64
$GPGGA,081540.80,3135.3059123,N,12046.6982649,E,4,18,1.3,2.6341,M,8.319,M,00,0004*63
$GPHPD,1957,29758.600,324.82,0.06,13.89,31.5884319,120.7783044,2.634,13634109.208,24926858.848,2.634,0.944,-0.117,0.902,0.616,0.997,0.593,0.000,18,17,4*6F
$GPGGA,081541.00,3135.3060290,N,12046.6981736,E,4,18,1.3,2.6402,M,8.319,M,01,0004*60
$GPHPD,1957,29758.800,324.61,-0.59,13.87,31.5884338,120.7783029,2.640,13634107.365,24926857.068,2.640,0.954,-0.120,0.894,0.616,0.997,0.593,0.000,18,17,4*47
$GPGGA,081541.20,3135.3061442,N,12046.6980826,E,4,18,1.3,2.6507,M,8.319,M,01,0004*61
$GPHPD,1957,29759.000,324.19,-0.30,13.86,31.5884357,120.7783014,2.651,13634105.544,24926855.300,2.651,0.919,-0.110,0.906,0.616,0.997,0.593,0.000,18,17,4*40
$GPGGA,081541.40,3135.3062551,N,12046.6979899,E,4,18,1.3,2.6502,M,8.319,M,01,0004*60
$GPHPD,1957,29759.200,324.30,-1.02,13.86,31.5884376,120.7782998,2.650,13634103.781,24926853.537,2.650,0.901,-0.076,0.930,0.616,0.997,0.593,0.000,18,17,4*42
$GPGGA,081541.60,3135.3063697,N,12046.6978986,E,4,18,1.3,2.6576,M,8.319,M,00,0004*66
$GPHPD,1957,29759.400,324.35,-0.68,13.83,31.5884395,120.7782983,2.658,13634101.968,24926851.769,2.658,0.876,-0.052,0.891,0.616,0.997,0.593,0.000,18,17,4*43
$GPGGA,081541.80,3135.3064847,N,12046.6978022,E,4,18,1.3,2.6505,M,8.319,M,00,0004*6F
$GPHPD,1957,29759.600,324.65,-0.61,13.81,31.5884414,120.7782967,2.651,13634100.139,24926849.937,2.651,0.873,-0.058,0.927,0.616,0.997,0.593,0.000,18,17,4*49
$GPGGA,081542.00,3135.3065967,N,12046.6977106,E,4,18,1.3,2.6534,M,8.319,M,01,0004*6D
$GPHPD,1957,29759.800,324.70,-0.84,13.80,31.5884433,120.7782952,2.653,13634098.363,24926848.181,2.653,0.948,-0.131,0.890,0.616,0.997,0.593,0.000,18,17,4*49
$GPGGA,081542.20,3135.3067085,N,12046.6976190,E,4,18,1.3,2.6606,M,8.319,M,01,0004*64
$GPHPD,1957,29760.000,325.15,-0.28,13.79,31.5884451,120.7782937,2.661,13634096.589,24926846.425,2.661,0.913,-0.102,0.850,0.616,0.997,0.593,0.000,18,17,4*45
$GPGGA,081542.40,3135.3068227,N,12046.6975261,E,4,18,1.3,2.6655,M,8.319,M,01,0004*6F
$GPHPD,1957,29760.200,325.20,-0.37,13.80,31.5884470,120.7782921,2.666,13634094.779,24926844.640,2.666,0.891,-0.079,0.888,0.616,0.997,0.593,0.000,18,17,4*42
$GPGGA,081542.60,3135.3069409,N,12046.6974330,E,4,18,1.3,2.6611,M,8.319,M,00,0004*63
$GPHPD,1957,29760.400,325.43,0.04,13.81,31.5884490,120.7782906,2.661,13634092.911,24926842.830,2.661,0.907,-0.091,0.912,0.616,0.997,0.593,0.000,18,17,4*65
$GPGGA,081542.80,3135.3070617,N,12046.6973388,E,4,18,1.3,2.6680,M,8.319,M,00,0004*64
$GPHPD,1957,29760.600,325.68,-0.80,13.82,31.5884510,120.7782890,2.668,13634091.004,24926840.991,2.668,0.914,-0.094,0.959,0.616,0.997,0.593,0.000,18,17,4*45
$GPGGA,081543.00,3135.3071814,N,12046.6972380,E,4,18,1.3,2.6267,M,8.319,M,01,0004*64
$GPHPD,1957,29760.800,325.48,-0.51,13.81,31.5884530,120.7782873,2.627,13634089.099,24926839.078,2.627,0.921,-0.090,0.955,0.616,0.997,0.593,0.000,18,17,4*4A
$GPGGA,081543.20,3135.3073026,N,12046.6971459,E,4,18,1.3,2.6135,M,8.319,M,01,0004*69
$GPHPD,1957,29761.000,325.84,-0.40,13.77,31.5884550,120.7782858,2.614,13634087.191,24926837.262,2.614,1.048,-0.226,0.861,0.616,0.997,0.593,0.000,18,17,4*4B
$GPGGA,081543.40,3135.3074205,N,12046.6970473,E,4,18,1.3,2.6042,M,8.319,M,01,0004*63
$GPHPD,1957,29761.200,325.40,0.05,13.75,31.5884570,120.7782841,2.604,13634085.317,24926835.387,2.604,0.986,-0.212,0.896,0.616,0.997,0.593,0.000,18,17,4*66
$GPGGA,081543.60,3135.3075399,N,12046.6969600,E,4,18,1.3,2.6261,M,8.319,M,00,0004*68
$GPHPD,1957,29761.400,326.02,0.04,13.74,31.5884590,120.7782827,2.626,13634083.443,24926833.639,2.626,0.933,-0.099,0.948,0.616,0.997,0.593,0.000,18,17,4*60
$GPGGA,081543.80,3135.3076596,N,12046.6968657,E,4,18,1.3,2.6087,M,8.319,M,00,0004*65
$GPHPD,1957,29761.600,325.60,0.24,13.74,31.5884610,120.7782811,2.609,13634081.552,24926831.806,2.609,0.869,-0.081,0.987,0.616,0.997,0.593,0.000,18,17,4*6E
$GPGGA,081544.00,3135.3077778,N,12046.6967671,E,4,18,1.3,2.6027,M,8.319,M,01,0004*69
$GPHPD,1957,29761.800,325.43,-0.82,13.71,31.5884630,120.7782795,2.603,13634079.673,24926829.929,2.603,0.931,-0.120,0.928,0.616,0.997,0.593,0.000,18,17,4*45
$GPGGA,081544.20,3135.3078991,N,12046.6966760,E,4,18,1.3,2.5917,M,8.319,M,01,0004*64
$GPHPD,1957,29762.000,325.30,0.01,13.69,31.5884650,120.7782779,2.592,13634077.765,24926828.124,2.592,0.954,-0.108,0.921,0.616,0.997,0.593,0.000,18,17,4*6D
$GPGGA,081544.40,3135.3080146,N,12046.6965844,E,4,18,1.3,2.6232,M,8.319,M,01,0004*62
$GPHPD,1957,29762.200,325.08,0.07,13.69,31.5884669,120.7782764,2.623,13634075.939,24926826.347,2.623,0.969,-0.168,0.925,0.616,0.997,0.593,0.000,18,17,4*64
$GPGGA,081544.60,3135.3081331,N,12046.6964994,E,4,18,1.3,2.6352,M,8.319,M,00,0004*68
$GPHPD,1957,29762.400,325.32,-0.70,13.66,31.5884689,120.7782750,2.635,13634074.083,24926824.632,2.635,0.824,0.029,0.985,0.616,0.997,0.593,0.000,18,17,4*67
$GPGGA,081544.80,3135.3082528,N,12046.6964034,E,4,18,1.3,2.6328,M,8.319,M,00,0004*65
$GPHPD,1957,29762.600,324.96,-0.70,13.65,31.5884709,120.7782734,2.633,13634072.188,24926822.778,2.633,0.827,-0.063,0.969,0.616,0.997,0.593,0.000,18,17,4*45
$GPGGA,081545.00,3135.3083608,N,12046.6963089,E,4,18,1.3,2.6656,M,8.319,M,01,0004*60
$GPHPD,1957,29762.800,324.81,-0.39,13.63,31.5884727,120.7782718,2.666,13634070.463,24926821.010,2.666,0.893,-0.091,0.945,0.616,0.997,0.593,0.000,18,17,4*40
$GPGGA,081545.20,3135.3084811,N,12046.6962141,E,4,17,1.5,2.6582,M,8.319,M,01,0004*64
$GPHPD,1957,29763.000,324.96,-1.65,13.61,31.5884747,120.7782702,2.658,13634068.562,24926819.167,2.658,0.802,0.044,0.963,0.616,0.997,0.593,0.000,17,17,4*6D
$GPGGA,081545.40,3135.3085964,N,12046.6961232,E,4,17,1.5,2.6736,M,8.319,M,01,0004*69
$GPHPD,1957,29763.200,324.71,0.93,13.61,31.5884766,120.7782687,2.674,13634066.740,24926817.399,2.674,0.947,-0.113,0.931,0.808,1.189,0.597,0.000,17,16,4*66
$GPGGA,081545.60,3135.3087117,N,12046.6960325,E,4,17,1.5,2.6823,M,8.319,M,00,0004*69
$GPHPD,1957,29763.400,324.40,0.64,13.58,31.5884785,120.7782672,2.682,13634064.918,24926815.634,2.682,0.869,-0.057,0.937,1.080,1.278,0.639,0.000,17,16,4*6F
$GPGGA,081545.80,3135.3088310,N,12046.6959345,E,4,17,1.5,2.6604,M,8.319,M,00,0004*6A
$GPHPD,1957,29763.600,324.39,0.04,13.55,31.5884805,120.7782656,2.660,13634063.025,24926813.758,2.660,0.849,-0.064,0.933,0.808,1.189,0.597,0.000,17,15,4*62
$GPGGA,081546.00,3135.3089485,N,12046.6958369,E,4,17,1.5,2.6655,M,8.319,M,01,0004*61
$GPHPD,1957,29763.800,323.89,-0.61,13.56,31.5884825,120.7782639,2.666,13634061.158,24926811.897,2.666,0.957,-0.119,0.896,0.808,1.189,0.597,0.000,17,15,4*4A
$GPGGA,081546.20,3135.3090635,N,12046.6957454,E,4,18,1.3,2.6727,M,8.319,M,01,0004*69
$GPHPD,1957,29764.000,323.68,-0.05,13.55,31.5884844,120.7782624,2.673,13634059.339,24926810.125,2.673,1.027,-0.173,0.892,0.808,1.189,0.597,0.000,18,15,4*47
$GPGGA,081546.40,3135.3091760,N,12046.6956511,E,4,18,1.3,2.6821,M,8.319,M,01,0004*67
$GPHPD,1957,29764.200,324.02,-0.13,13.51,31.5884863,120.7782609,2.682,13634057.550,24926808.333,2.682,0.939,-0.100,0.926,0.616,0.997,0.593,0.000,18,16,4*41
$GPGGA,081546.60,3135.3092871,N,12046.6955574,E,4,18,1.3,2.6943,M,8.319,M,00,0004*6D
$GPHPD,1957,29764.400,324.68,-1.18,13.51,31.5884881,120.7782593,2.694,13634055.782,24926806.556,2.694,0.930,-0.117,0.890,0.616,0.997,0.593,0.000,18,16,4*4A
$GPGGA,081546.80,3135.3094021,N,12046.6954656,E,4,18,1.3,2.6985,M,8.319,M,00,0004*60
$GPHPD,1957,29764.600,324.77,-0.97,13.50,31.5884900,120.7782578,2.699,13634053.962,24926804.780,2.699,0.932,-0.113,0.878,0.616,0.997,0.593,0.000,18,16,4*41
$GPGGA,081547.00,3135.3095154,N,12046.6953670,E,4,18,1.3,2.7003,M,8.319,M,01,0004*6F
$GPHPD,1957,29764.800,325.43,0.20,13.46,31.5884919,120.7782561,2.700,13634052.153,24926802.931,2.700,0.917,-0.088,0.897,0.616,0.997,0.593,0.000,18,16,4*63
$GPGGA,081547.20,3135.3096325,N,12046.6952687,E,4,18,1.3,2.6963,M,8.319,M,01,0004*6D
$GPHPD,1957,29765.000,325.38,-0.32,13.43,31.5884939,120.7782545,2.696,13634050.291,24926801.064,2.696,0.900,-0.063,0.886,0.624,1.019,0.593,0.000,18,15,4*43
$GPGGA,081547.40,3135.3097598,N,12046.6951727,E,4,18,1.2,2.7122,M,8.319,M,01,0004*6F
$GPHPD,1957,29765.200,325.33,-0.19,13.43,31.5884960,120.7782529,2.712,13634048.288,24926799.166,2.712,0.943,-0.091,0.900,0.616,0.997,0.593,0.000,18,15,4*43
$GPGGA,081547.60,3135.3098885,N,12046.6950747,E,4,18,1.2,2.6682,M,8.319,M,00,0004*69
$GPHPD,1957,29765.400,324.71,-2.09,13.42,31.5884981,120.7782512,2.668,13634046.261,24926797.235,2.668,0.949,-0.162,1.117,0.558,0.979,0.699,0.000,18,15,4*4D
$GPGGA,081547.80,3135.3100046,N,12046.6949756,E,4,18,1.2,2.6603,M,8.319,M,00,0004*61
$GPHPD,1957,29765.600,324.76,-1.31,13.39,31.5885001,120.7782496,2.660,13634044.411,24926795.364,2.660,1.028,-0.147,0.918,0.565,0.999,0.590,0.000,18,15,4*41
$GPGGA,081548.00,3135.3101308,N,12046.6948824,E,4,18,1.2,2.6494,M,8.319,M,01,0004*68
$GPHPD,1957,29765.800,325.28,-1.20,13.38,31.5885022,120.7782480,2.649,13634042.429,24926793.506,2.649,0.967,-0.106,0.916,0.556,0.977,0.590,0.000,18,15,4*43
$GPGGA,081548.20,3135.310283,N,12046.6947900,E,4,18,1.4,2.6767,M,8.318,M,01,0004*6A
$GPHPD,1957,29766.000,325.19,-0.71,13.38,31.5885040,120.7782465,2.677,13634040.715,24926791.766,2.677,0.929,-0.177,0.956,0.556,0.977,0.590,0.000,18,15,4*40
$GPGGA,081548.40,3135.3103575,N,12046.6946854,E,4,18,1.3,2.6312,M,8.318,M,01,0004*62
$GPHPD,1957,29766.200,325.51,-0.69,13.39,31.5885060,120.7782448,2.631,13634038.810,24926789.811,2.631,0.843,0.019,0.916,0.621,0.998,0.652,0.000,18,15,4*6A
$GPGGA,081548.60,3135.3104751,N,12046.6945993,E,4,17,1.4,2.6769,M,8.318,M,00,0004*6B
$GPHPD,1957,29766.400,325.53,-1.14,13.37,31.5885079,120.7782433,2.677,13634036.965,24926788.088,2.677,1.119,-0.299,0.814,0.569,1.012,0.684,0.000,17,15,4*49
$GPGGA,081548.80,3135.3105926,N,12046.6945130,E,4,18,1.3,2.6931,M,8.318,M,00,0004*60
$GPHPD,1957,29766.600,325.47,-0.36,13.40,31.5885099,120.7782419,2.693,13634035.121,24926786.363,2.693,0.802,-0.008,1.031,0.697,1.115,0.697,0.000,18,15,4*45
$GPGGA,081549.00,3135.3107080,N,12046.6944191,E,4,18,1.3,2.7114,M,8.318,M,01,0004*6B
$GPHPD,1957,29766.800,325.22,0.16,13.44,31.5885118,120.7782403,2.711,13634033.291,24926784.559,2.711,0.899,-0.071,0.977,0.635,1.026,0.643,0.000,18,15,4*65
$GPGGA,081549.20,3135.3108287,N,12046.6943302,E,4,18,1.3,2.7206,M,8.318,M,01,0004*6C
$GPHPD,1957,29767.000,325.55,-1.01,13.46,31.5885138,120.7782388,2.721,13634031.396,24926782.785,2.721,0.901,-0.023,0.979,0.635,1.026,0.643,0.000,18,15,4*4A
$GPGGA,081549.40,3135.3109446,N,12046.6942341,E,4,18,1.3,2.7128,M,8.318,M,01,0004*69
$GPHPD,1957,29767.200,324.81,-0.15,13.47,31.5885157,120.7782372,2.713,13634029.555,24926780.951,2.713,0.896,-0.064,0.965,0.616,0.997,0.593,0.000,18,16,4*43
$GPGGA,081549.60,3135.3110639,N,12046.6941390,E,4,18,1.3,2.7203,M,8.318,M,00,0004*6D
$GPHPD,1957,29767.400,325.13,0.33,13.48,31.5885177,120.7782357,2.720,13634027.668,24926779.110,2.720,0.903,-0.050,0.957,0.616,0.997,0.593,0.000,18,16,4*6F
$GPGGA,081549.80,3135.3111835,N,12046.6940447,E,4,18,1.3,2.6767,M,8.318,M,00,0004*6A
$GPHPD,1957,29767.600,324.95,0.10,13.49,31.5885197,120.7782341,2.677,13634025.778,24926777.277,2.677,0.865,-0.035,1.007,0.635,1.026,0.643,0.000,18,16,4*67
$GPGGA,081550.00,3135.3112997,N,12046.6939518,E,4,18,1.3,2.6983,M,8.318,M,01,0004*60
$GPHPD,1957,29767.800,324.93,0.61,13.49,31.5885217,120.7782325,2.698,13634023.939,24926775.480,2.698,0.950,-0.134,0.859,0.635,1.026,0.643,0.000,18,16,4*64
$GPGGA,081550.20,3135.3114195,N,12046.6938584,E,4,18,1.3,2.6664,M,8.318,M,01,0004*6C
$GPHPD,1957,29768.000,324.74,0.36,13.48,31.5885237,120.7782310,2.666,13634022.048,24926773.657,2.666,0.913,-0.075,0.948,0.635,1.026,0.643,0.000,18,16,4*6F
$GPGGA,081550.40,3135.3115331,N,12046.6937616,E,4,18,1.3,2.6936,M,8.318,M,01,0004*68
$GPHPD,1957,29768.200,324.57,0.03,13.49,31.5885256,120.7782294,2.694,13634020.238,24926771.828,2.694,0.947,-0.218,0.871,0.616,0.997,0.593,0.000,18,16,4*6C
$GPGGA,081550.60,3135.3116491,N,12046.6936714,E,4,18,1.3,2.7021,M,8.318,M,00,0004*69
$GPHPD,1957,29768.400,324.65,0.02,13.49,31.5885275,120.7782279,2.702,13634018.407,24926770.065,2.702,0.955,-0.122,0.909,0.635,1.026,0.643,0.000,18,16,4*63
$GPGGA,081550.80,3135.3117646,N,12046.6935777,E,4,18,1.3,2.6894,M,8.318,M,00,0004*6F
$GPHPD,1957,29768.600,324.28,-0.84,13.51,31.5885294,120.7782263,2.689,13634016.577,24926768.263,2.689,0.890,-0.095,0.950,0.635,1.026,0.643,0.000,18,15,4*49
$GPGGA,081551.00,3135.3118786,N,12046.6934836,E,4,18,1.3,2.6840,M,8.318,M,01,0004*67
$GPHPD,1957,29768.800,324.48,-1.74,13.49,31.5885313,120.7782247,2.684,13634014.767,24926766.465,2.684,0.902,-0.078,0.922,0.722,1.029,0.670,0.000,18,16,4*46
$GPGGA,081551.20,3135.3119947,N,12046.6933894,E,4,18,1.3,2.6760,M,8.318,M,01,0004*65
$GPHPD,1957,29769.000,324.46,-1.17,13.50,31.5885332,120.7782232,2.676,13634012.927,24926764.653,2.676,0.857,-0.020,0.904,0.635,1.026,0.643,0.000,18,16,4*44
$GPGGA,081551.40,3135.3121085,N,12046.6932998,E,4,18,1.3,2.6663,M,8.318,M,01,0004*61
$GPHPD,1957,29769.200,325.03,-1.86,13.51,31.5885351,120.7782217,2.666,13634011.129,24926762.910,2.666,0.953,-0.123,0.886,0.635,1.026,0.643,0.000,18,16,4*4A
$GPGGA,081551.60,3135.3122190,N,12046.6932099,E,4,18,1.3,2.6706,M,8.318,M,00,0004*6E
$GPHPD,1957,29769.400,324.96,-0.60,13.51,31.5885370,120.7782202,2.671,13634009.377,24926761.183,2.671,0.900,-0.108,0.901,0.635,1.026,0.643,0.000,18,15,4*4C
$GPGGA,081551.80,3135.3123295,N,12046.6931147,E,4,18,1.3,2.6552,M,8.318,M,00,0004*65
$GPHPD,1957,29769.600,325.20,-1.00,13.48,31.5885388,120.7782186,2.655,13634007.614,24926759.392,2.655,0.886,-0.135,0.896,0.722,1.029,0.670,0.000,18,15,4*44
$GPGGA,081552.00,3135.3124514,N,12046.6930194,E,4,18,1.3,2.6486,M,8.318,M,01,0004*61
$GPHPD,1957,29769.800,325.75,-0.29,13.49,31.5885409,120.7782170,2.649,13634005.690,24926757.533,2.649,0.937,-0.124,0.858,0.616,0.997,0.593,0.000,18,15,4*47
$GPGGA,081552.20,3135.3125666,N,12046.6929269,E,4,18,1.3,2.6539,M,8.318,M,01,0004*68
$GPHPD,1957,29770.000,325.58,0.35,13.49,31.5885428,120.7782154,2.654,13634003.866,24926755.747,2.654,0.953,-0.136,0.928,0.616,0.997,0.593,0.000,18,15,4*68
$GPGGA,081552.40,3135.3126904,N,12046.6928346,E,4,18,1.3,2.6366,M,8.318,M,01,0004*67
$GPHPD,1957,29770.200,325.58,-0.59,13.49,31.5885448,120.7782139,2.637,13634001.920,24926753.914,2.637,0.901,-0.046,0.919,0.616,0.997,0.593,0.000,18,14,4*4D
$GPGGA,081552.60,3135.3128073,N,12046.6927407,E,4,18,1.3,2.6418,M,8.318,M,00,0004*60
$GPHPD,1957,29770.400,325.38,0.24,13.50,31.5885468,120.7782123,2.642,13634000.069,24926752.101,2.642,0.950,-0.186,0.926,0.616,0.997,0.593,0.000,18,15,4*67
$GPGGA,081552.80,3135.3129252,N,12046.6926403,E,4,18,1.3,2.6463,M,8.318,M,00,0004*67
$GPHPD,1957,29770.600,325.28,-0.30,13.50,31.5885488,120.7782107,2.646,13633998.191,24926750.204,2.646,0.966,-0.139,0.925,0.628,1.004,0.630,0.000,18,15,4*4E
$GPGGA,081553.00,3135.3130437,N,12046.6925468,E,4,17,1.3,2.6523,M,8.318,M,01,0004*66
$GPHPD,1957,29770.800,325.24,-0.68,13.51,31.5885507,120.7782091,2.652,13633996.318,24926748.387,2.652,0.926,-0.060,0.927,0.628,1.004,0.630,0.000,17,15,4*42
$GPGGA,081553.20,3135.3131633,N,12046.6924536,E,4,17,1.3,2.6462,M,8.318,M,01,0004*6C
$GPHPD,1957,29771.000,325.19,-0.68,13.52,31.5885527,120.7782076,2.646,13633994.430,24926746.567,2.646,0.932,-0.101,0.951,0.628,1.004,0.630,0.000,17,15,4*46
$GPGGA,081553.40,3135.3132775,N,12046.6923615,E,4,17,1.3,2.6535,M,8.318,M,01,0004*6C
$GPHPD,1957,29771.200,324.84,-0.32,13.53,31.5885546,120.7782060,2.654,13633992.622,24926744.791,2.654,0.938,-0.163,0.909,0.628,1.004,0.630,0.000,17,15,4*42
$GPGGA,081553.60,3135.3133951,N,12046.6922712,E,4,17,1.3,2.6618,M,8.318,M,00,0004*6D
$GPHPD,1957,29771.400,325.04,-0.02,13.54,31.5885566,120.7782045,2.662,13633990.768,24926743.018,2.662,0.930,-0.121,0.904,0.628,1.004,0.630,0.000,17,15,4*43
$GPGGA,081553.80,3135.3135071,N,12046.6921847,E,4,17,1.3,2.6446,M,8.318,M,00,0004*6B
$GPHPD,1957,29771.600,324.69,-0.76,13.56,31.5885585,120.7782031,2.645,13633989.002,24926741.323,2.645,0.906,-0.092,0.942,0.628,1.004,0.630,0.000,17,15,4*40
$GPGGA,081554.00,3135.3136274,N,12046.6920941,E,4,17,1.3,2.6605,M,8.318,M,01,0004*62
$GPHPD,1957,29771.800,324.77,-0.60,13.55,31.5885605,120.7782016,2.661,13633987.109,24926739.530,2.661,0.914,-0.151,0.862,0.628,1.004,0.630,0.000,17,15,4*4A
$GPGGA,081554.20,3135.3137436,N,12046.6919986,E,4,17,1.3,2.6716,M,8.318,M,01,0004*63
$GPHPD,1957,29772.000,324.72,-0.68,13.57,31.5885624,120.7782000,2.672,13633985.265,24926737.702,2.672,0.881,-0.091,0.956,0.616,0.997,0.593,0.000,17,15,4*4F
$GPGGA,081554.40,3135.3138590,N,12046.6919034,E,4,17,1.3,2.6806,M,8.318,M,01,0004*69
$GPHPD,1957,29772.200,324.43,-0.64,13.58,31.5885643,120.7781984,2.681,13633983.433,24926735.883,2.681,0.912,-0.037,0.943,0.616,0.997,0.593,0.000,17,15,4*4F
$GPGGA,081554.60,3135.3139754,N,12046.6918121,E,4,17,1.3,2.6636,M,8.318,M,00,0004*68
$GPHPD,1957,29772.400,324.35,-0.66,13.60,31.5885663,120.7781969,2.664,13633981.594,24926734.104,2.664,0.896,-0.042,0.946,0.616,0.997,0.593,0.000,17,15,4*43
$GPGGA,081554.80,3135.3140889,N,12046.6917164,E,4,17,1.3,2.6772,M,8.318,M,00,0004*68
$GPHPD,1957,29772.600,323.90,0.02,13.57,31.5885681,120.7781953,2.677,13633979.788,24926732.289,2.677,0.914,-0.111,0.931,0.616,0.997,0.593,0.000,17,15,4*63
$GPGGA,081555.00,3135.3142009,N,12046.6916218,E,4,17,1.3,2.6940,M,8.318,M,01,0004*64
$GPHPD,1957,29772.800,324.06,-0.22,13.60,31.5885700,120.7781937,2.694,13633978.006,24926730.497,2.694,0.901,-0.040,0.934,0.616,0.997,0.593,0.000,17,14,4*4A
$GPGGA,081555.20,3135.3143150,N,12046.6915325,E,4,17,1.3,2.6744,M,8.318,M,01,0004*6C
$GPHPD,1957,29773.000,323.83,-0.02,13.61,31.5885719,120.7781922,2.674,13633976.204,24926728.756,2.674,0.871,0.013,0.906,0.616,0.997,0.593,0.000,17,14,4*63
$GPGGA,081555.40,3135.3144268,N,12046.6914356,E,4,18,1.3,2.6664,M,8.318,M,01,0004*6C
$GPHPD,1957,29773.200,324.08,-0.74,13.63,31.5885738,120.7781906,2.666,13633974.419,24926726.937,2.666,0.892,-0.090,0.891,0.616,0.997,0.593,0.000,18,14,4*47
$GPGGA,081555.60,3135.3145373,N,12046.6913476,E,4,18,1.3,2.6550,M,8.318,M,00,0004*63
$GPHPD,1957,29773.400,324.39,-0.35,13.64,31.5885756,120.7781891,2.655,13633972.671,24926725.232,2.655,0.932,-0.145,0.821,0.616,0.997,0.593,0.000,18,15,4*49
$GPGGA,081555.80,3135.3146470,N,12046.6912520,E,4,18,1.3,2.6422,M,8.318,M,00,0004*6D
$GPHPD,1957,29773.600,324.54,-0.21,13.68,31.5885775,120.7781875,2.642,13633970.920,24926723.441,2.642,0.920,-0.101,0.855,0.616,0.997,0.593,0.000,18,15,4*4F
$GPGGA,081556.00,3135.3147595,N,12046.6911606,E,4,18,1.3,2.6343,M,8.318,M,01,0004*68
$GPHPD,1957,29773.800,325.03,-0.19,13.70,31.5885793,120.7781860,2.634,13633969.136,24926721.684,2.634,0.938,-0.081,0.849,0.694,0.998,0.612,0.000,18,16,4*43
$GPGGA,081556.20,3135.3148788,N,12046.6910669,E,4,18,1.3,2.6475,M,8.318,M,01,0004*61
$GPHPD,1957,29774.000,325.11,0.39,13.70,31.5885813,120.7781844,2.648,13633967.252,24926719.860,2.648,0.936,-0.141,0.830,0.616,0.997,0.593,0.000,18,16,4*63
$GPGGA,081556.40,3135.3149999,N,12046.6909685,E,4,18,1.3,2.6712,M,8.318,M,01,0004*60
$GPHPD,1957,29774.200,325.42,-0.07,13.68,31.5885833,120.7781828,2.671,13633965.332,24926717.968,2.671,0.892,-0.160,0.965,0.626,1.028,0.708,0.000,18,16,4*46
$GPGGA,081556.60,3135.3151169,N,12046.6908698,E,4,18,1.3,2.6583,M,8.318,M,00,0004*6A
$GPHPD,1957,29774.400,325.77,-0.08,13.66,31.5885853,120.7781812,2.658,13633963.470,24926716.097,2.658,0.906,-0.024,0.995,0.624,1.019,0.593,0.000,18,16,4*45
$GPGGA,081556.80,3135.3152332,N,12046.6907744,E,4,18,1.3,2.6672,M,8.318,M,00,0004*69
$GPHPD,1957,29774.600,325.68,0.14,13.72,31.5885872,120.7781796,2.667,13633961.625,24926714.270,2.667,0.999,-0.148,0.869,0.624,1.019,0.593,0.000,18,16,4*6A
$GPGGA,081557.00,3135.3153470,N,12046.6906836,E,4,18,1.3,2.6723,M,8.318,M,01,0004*6F
$GPHPD,1957,29774.800,325.71,0.32,13.72,31.5885891,120.7781781,2.672,13633959.824,24926712.512,2.672,0.934,-0.054,0.928,0.624,1.019,0.593,0.000,18,16,4*6D
$GPGGA,081557.20,3135.3154630,N,12046.6905927,E,4,18,1.3,2.6780,M,8.318,M,01,0004*67
$GPHPD,1957,29775.000,325.74,0.25,13.73,31.5885911,120.7781765,2.678,13633957.992,24926710.741,2.678,0.925,-0.131,0.888,0.625,1.125,0.596,0.000,18,16,4*62
$GPGGA,081557.40,3135.3155850,N,12046.6904914,E,4,18,1.3,2.6689,M,8.318,M,01,0004*61
$GPHPD,1957,29775.200,325.72,-0.58,13.72,31.5885931,120.7781749,2.669,13633956.054,24926708.809,2.669,0.886,-0.075,0.928,0.624,1.019,0.593,0.000,18,16,4*4C
$GPGGA,081557.60,3135.3157044,N,12046.6904015,E,4,18,1.3,2.6804,M,8.318,M,00,0004*6E
$GPHPD,1957,29775.400,325.28,-0.60,13.72,31.5885951,120.7781734,2.680,13633954.176,24926707.030,2.680,0.995,-0.151,0.905,0.624,1.019,0.593,0.000,18,16,4*47
$GPGGA,081557.80,3135.3158158,N,12046.6903078,E,4,18,1.4,2.6693,M,8.318,M,00,0004*68
$GPHPD,1957,29775.600,324.93,-0.37,13.73,31.5885969,120.7781718,2.669,13633952.403,24926705.252,2.669,0.954,-0.185,0.918,0.624,1.019,0.593,0.000,18,16,4*4F
$GPGGA,081558.00,3135.3159328,N,12046.6902233,E,4,18,1.3,2.6964,M,8.318,M,01,0004*66
$GPHPD,1957,29775.800,325.08,-0.28,13.72,31.5885989,120.7781704,2.696,13633950.570,24926703.552,2.696,0.951,-0.113,0.879,0.565,1.000,0.590,0.000,18,16,4*49
$GPGGA,081558.20,3135.3160485,N,12046.6901331,E,4,18,1.3,2.6775,M,8.318,M,01,0004*60
$GPHPD,1957,29776.000,324.53,-0.66,13.75,31.5886008,120.7781689,2.678,13633948.744,24926701.791,2.678,0.850,-0.078,0.977,0.624,1.019,0.593,0.000,18,16,4*4A
$GPGGA,081558.40,3135.3161630,N,12046.6900442,E,4,18,1.3,2.6893,M,8.318,M,01,0004*6E
$GPHPD,1957,29776.200,324.15,-0.53,13.82,31.5886027,120.7781674,2.689,13633946.937,24926700.052,2.689,0.897,-0.097,0.900,0.624,1.019,0.593,0.000,18,16,4*4C
$GPGGA,081558.60,3135.3162800,N,12046.6899473,E,4,18,1.3,2.6965,M,8.318,M,00,0004*68
$GPHPD,1957,29776.400,324.24,-0.11,13.86,31.5886047,120.7781658,2.697,13633945.079,24926698.203,2.697,0.887,-0.109,0.909,0.624,1.019,0.593,0.000,18,16,4*4A
$GPGGA,081558.80,3135.3163944,N,12046.6898559,E,4,18,1.3,2.7024,M,8.318,M,00,0004*63
$GPHPD,1957,29776.600,324.41,-0.33,13.87,31.5886066,120.7781643,2.702,13633943.269,24926696.435,2.702,0.910,-0.038,0.941,0.616,0.997,0.593,0.000,18,16,4*44
$GPGGA,081559.00,3135.3165088,N,12046.6897602,E,4,18,1.3,2.7142,M,8.318,M,01,0004*67
$GPHPD,1957,29776.800,324.68,0.84,13.77,31.5886085,120.7781627,2.714,13633941.450,24926694.615,2.714,0.926,-0.040,0.908,0.616,0.997,0.593,0.000,18,16,4*6B
$GPGGA,081559.20,3135.3166222,N,12046.6896625,E,4,18,1.2,2.7104,M,8.318,M,01,0004*63
$GPHPD,1957,29777.000,324.65,-0.03,13.77,31.5886104,120.7781610,2.710,13633939.641,24926692.777,2.710,0.905,-0.107,0.912,0.556,0.978,0.590,0.000,18,16,4*42
$GPGGA,081559.40,3135.3167372,N,12046.6895656,E,4,18,1.2,2.7198,M,8.318,M,01,0004*62
$GPHPD,1957,29777.200,325.22,0.53,13.77,31.5886123,120.7781594,2.720,13633937.811,24926690.939,2.720,0.952,-0.125,0.883,0.565,0.998,0.634,0.000,18,16,4*6B
$GPGGA,081559.60,3135.3168537,N,12046.6894764,E,4,18,1.2,2.7008,M,8.318,M,00,0004*60
$GPHPD,1957,29777.400,325.38,0.35,13.77,31.5886142,120.7781579,2.701,13633935.975,24926689.185,2.701,0.927,-0.042,0.917,0.565,0.998,0.634,0.000,18,16,4*6A
$GPGGA,081559.80,3135.3169670,N,12046.6893887,E,4,18,1.3,2.6853,M,8.318,M,00,0004*6C
$GPHPD,1957,29777.600,325.53,-0.21,13.78,31.5886161,120.7781565,2.685,13633934.188,24926687.468,2.685,0.919,-0.127,0.894,0.565,0.998,0.634,0.000,18,16,4*48
$GPGGA,081600.00,3135.3170875,N,12046.6892939,E,4,18,1.2,2.7031,M,8.318,M,01,0004*60
$GPHPD,1957,29777.800,325.59,0.11,13.80,31.5886181,120.7781549,2.703,13633932.284,24926685.624,2.703,0.936,-0.144,0.889,0.621,0.998,0.652,0.000,18,15,4*60
$GPGGA,081600.20,3135.3172057,N,12046.6892018,E,4,18,1.2,2.7140,M,8.318,M,01,0004*65
$GPHPD,1957,29778.000,325.55,-1.35,13.79,31.5886201,120.7781534,2.714,13633930.419,24926683.825,2.714,0.911,-0.129,0.941,0.565,0.998,0.634,0.000,18,15,4*47
$GPGGA,081600.40,3135.3173220,N,12046.6891062,E,4,18,1.2,2.7227,M,8.318,M,01,0004*6C
$GPHPD,1957,29778.200,325.20,-0.77,13.78,31.5886220,120.7781518,2.723,13633928.573,24926681.995,2.723,0.906,-0.084,0.954,0.565,0.998,0.634,0.000,18,14,4*45
$GPGGA,081600.60,3135.3174408,N,12046.6890065,E,4,18,1.2,2.7261,M,8.318,M,00,0004*60
$GPHPD,1957,29778.400,325.16,-1.56,13.76,31.5886240,120.7781501,2.726,13633926.683,24926680.102,2.726,0.916,-0.085,0.937,0.565,0.998,0.634,0.000,18,14,4*44
$GPGGA,081600.80,3135.3175598,N,12046.6889141,E,4,18,1.2,2.7274,M,8.318,M,00,0004*6C
$GPHPD,1957,29778.600,325.41,-0.66,13.75,31.5886260,120.7781486,2.727,13633924.806,24926678.295,2.727,0.935,-0.027,0.959,0.565,0.998,0.634,0.000,18,14,4*43
$GPGGA,081601.00,3135.3176792,N,12046.6888261,E,4,18,1.2,2.7022,M,8.318,M,01,0004*6E
$GPHPD,1957,29778.800,325.30,-0.98,13.75,31.5886280,120.7781471,2.702,13633922.931,24926676.539,2.702,0.890,-0.082,0.925,0.572,1.026,0.635,0.000,18,14,4*40
$GPGGA,081601.20,3135.3178026,N,12046.6887298,E,4,18,1.2,2.7208,M,8.318,M,01,0004*69
$GPHPD,1957,29779.000,325.22,-0.59,13.72,31.5886300,120.7781455,2.721,13633920.983,24926674.659,2.721,0.942,-0.225,0.894,0.572,1.026,0.635,0.000,18,14,4*49
$GPGGA,081601.40,3135.3179127,N,12046.6886341,E,4,18,1.2,2.7335,M,8.318,M,01,0004*65
$GPHPD,1957,29779.200,325.10,0.19,13.72,31.5886319,120.7781439,2.734,13633919.225,24926672.864,2.734,0.916,-0.112,1.001,0.572,1.026,0.635,0.000,18,14,4*69
$GPGGA,081601.60,3135.3180314,N,12046.6885469,E,4,18,1.2,2.7120,M,8.318,M,00,0004*6A
$GPHPD,1957,29779.400,325.35,-0.76,13.70,31.5886339,120.7781424,2.712,13633917.362,24926671.122,2.712,0.899,0.016,0.961,0.572,1.026,0.635,0.000,18,15,4*65
$GPGGA,081601.80,3135.3181492,N,12046.6884518,E,4,18,1.2,2.7264,M,8.318,M,00,0004*69
$GPHPD,1957,29779.600,325.47,-0.61,13.69,31.5886358,120.7781409,2.726,13633915.496,24926669.289,2.726,0.907,-0.153,0.870,0.572,1.026,0.635,0.000,18,14,4*4A
$GPGGA,081602.00,3135.3182685,N,12046.6883586,E,4,18,1.2,2.7409,M,8.318,M,01,0004*69
$GPHPD,1957,29779.800,325.28,-0.66,13.68,31.5886378,120.7781393,2.741,13633913.613,24926667.471,2.741,0.912,-0.078,0.931,0.572,1.026,0.635,0.000,18,15,4*42
$GPGGA,081602.20,3135.3183866,N,12046.6882687,E,4,18,1.2,2.7268,M,8.318,M,01,0004*6B
$GPHPD,1957,29780.000,325.29,-0.09,13.67,31.5886398,120.7781378,2.727,13633911.753,24926665.700,2.727,0.881,-0.019,0.975,0.572,1.026,0.635,0.000,18,14,4*4D
$GPGGA,081602.40,3135.3185047,N,12046.6881756,E,4,18,1.2,2.7280,M,8.318,M,01,0004*68
$GPHPD,1957,29780.200,325.28,0.32,13.66,31.5886417,120.7781363,2.728,13633909.887,24926663.890,2.728,0.920,-0.138,0.909,0.572,1.026,0.635,0.000,18,14,4*6C
$GPGGA,081602.60,3135.3186233,N,12046.6880774,E,4,18,1.3,2.7303,M,8.318,M,00,0004*63
$GPHPD,1957,29780.400,325.51,-0.33,13.66,31.5886437,120.7781346,2.730,13633908.003,24926662.015,2.730,0.907,-0.114,0.929,0.640,1.056,0.644,0.000,18,15,4*47
$GPGGA,081602.80,3135.3187415,N,12046.6879867,E,4,18,1.3,2.7216,M,8.318,M,00,0004*60
$GPHPD,1957,29780.600,325.40,-0.03,13.65,31.5886457,120.7781331,2.722,13633906.140,24926660.233,2.722,0.953,-0.128,0.945,0.640,1.056,0.644,0.000,18,15,4*4B
$GPGGA,081603.00,3135.3188572,N,12046.6878915,E,4,18,1.3,2.7240,M,8.318,M,01,0004*61
$GPHPD,1957,29780.800,325.19,0.42,13.64,31.5886476,120.7781315,2.724,13633904.304,24926658.412,2.724,0.951,-0.147,0.905,0.640,1.056,0.644,0.000,18,15,4*64
$GPGGA,081603.20,3135.3189748,N,12046.6877981,E,4,18,1.3,2.7396,M,8.318,M,01,0004*61
$GPHPD,1957,29781.000,325.32,0.45,13.65,31.5886496,120.7781300,2.740,13633902.444,24926656.601,2.740,0.950,-0.129,0.894,0.640,1.056,0.644,0.000,18,15,4*63
$GPGGA,081603.40,3135.3190950,N,12046.6877063,E,4,18,1.3,2.7254,M,8.318,M,01,0004*62
$GPHPD,1957,29781.200,325.21,0.56,13.68,31.5886516,120.7781284,2.725,13633900.550,24926654.795,2.725,0.913,-0.117,0.938,0.640,1.056,0.644,0.000,18,15,4*6D
$GPGGA,081603.60,3135.3192151,N,12046.6876130,E,4,18,1.3,2.7362,M,8.318,M,00,0004*68
$GPHPD,1957,29781.400,325.02,0.27,13.64,31.5886536,120.7781269,2.736,13633898.655,24926652.970,2.736,0.943,-0.201,0.900,0.640,1.056,0.644,0.000,18,16,4*6D
$GPGGA,081603.80,3135.3193325,N,12046.6875215,E,4,18,1.3,2.7327,M,8.318,M,00,0004*60
$GPHPD,1957,29781.600,324.97,0.47,13.68,31.5886555,120.7781254,2.733,13633896.802,24926651.184,2.733,0.910,-0.084,0.953,0.640,1.056,0.644,0.000,18,16,4*6E
$GPGGA,081604.00,3135.3194490,N,12046.6874265,E,4,18,1.3,2.7543,M,8.318,M,01,0004*62
$GPHPD,1957,29781.800,324.72,-0.36,13.70,31.5886575,120.7781238,2.754,13633894.955,24926649.360,2.754,0.902,-0.148,0.897,0.635,1.026,0.644,0.000,18,15,4*4C
$GPGGA,081604.20,3135.3195643,N,12046.6873326,E,4,18,1.3,2.7582,M,8.318,M,01,0004*61
$GPHPD,1957,29782.000,325.05,-0.49,13.66,31.5886594,120.7781222,2.758,13633893.127,24926647.557,2.758,0.931,-0.062,0.956,0.635,1.027,0.644,0.000,18,16,4*4C
$GPGGA,081604.40,3135.3196838,N,12046.6872435,E,4,18,1.3,2.7544,M,8.318,M,01,0004*68
$GPHPD,1957,29782.200,325.29,0.03,13.66,31.5886614,120.7781207,2.754,13633891.248,24926645.787,2.754,0.865,-0.044,0.908,0.635,1.027,0.644,0.000,18,16,4*65
$GPGGA,081604.60,3135.3197972,N,12046.6871406,E,4,18,1.4,2.7574,M,8.318,M,00,0004*62
$GPHPD,1957,29782.400,325.42,-0.76,13.65,31.5886633,120.7781190,2.757,13633889.429,24926643.886,2.757,0.898,-0.079,0.923,0.635,1.027,0.644,0.000,18,16,4*4F
$GPGGA,081604.80,3135.3199134,N,12046.6870551,E,4,18,1.3,2.7385,M,8.318,M,00,0004*65
$GPHPD,1957,29782.600,326.15,-0.66,13.64,31.5886652,120.7781176,2.739,13633887.605,24926642.178,2.739,0.991,-0.170,0.898,0.722,1.030,0.670,0.000,18,16,4*4F
$GPGGA,081605.00,3135.3200317,N,12046.6869549,E,4,18,1.4,2.7411,M,8.318,M,01,0004*61
$GPHPD,1957,29782.800,326.15,0.29,13.64,31.5886672,120.7781159,2.741,13633885.722,24926640.281,2.741,0.940,-0.245,0.885,0.722,1.030,0.670,0.000,18,16,4*6C
$GPGGA,081605.20,3135.3201538,N,12046.6868659,E,4,18,1.4,2.7371,M,8.318,M,01,0004*6B
$GPHPD,1957,29783.000,326.48,-0.16,13.64,31.5886692,120.7781144,2.737,13633883.807,24926638.498,2.737,0.937,-0.083,0.935,0.695,0.998,0.612,0.000,18,16,4*40
$GPGGA,081605.40,3135.3202778,N,12046.6867718,E,4,18,1.4,2.7308,M,8.318,M,01,0004*6D
$GPHPD,1957,29783.200,326.00,-0.67,13.64,31.5886713,120.7781129,2.731,13633881.855,24926636.641,2.731,0.958,-0.177,0.937,0.695,0.998,0.612,0.000,18,16,4*47
$GPGGA,081605.60,3135.3203969,N,12046.6866822,E,4,18,1.4,2.7325,M,8.318,M,00,0004*69
$GPHPD,1957,29783.400,326.04,-0.54,13.66,31.5886733,120.7781114,2.733,13633879.981,24926634.867,2.733,0.952,-0.154,0.939,0.695,0.998,0.612,0.000,18,16,4*49
$GPGGA,081605.80,3135.3205167,N,12046.6865905,E,4,18,1.4,2.7319,M,8.318,M,00,0004*6F
$GPHPD,1957,29783.600,325.73,-0.14,13.65,31.5886753,120.7781098,2.732,13633878.094,24926633.064,2.732,0.907,-0.115,0.957,0.703,1.005,0.650,0.000,18,16,4*45
$GPGGA,081606.00,3135.3206313,N,12046.6864963,E,4,18,1.4,2.7468,M,8.318,M,01,0004*67
$GPHPD,1957,29783.800,325.57,0.13,13.64,31.5886772,120.7781083,2.747,13633876.275,24926631.261,2.747,0.919,-0.128,0.930,0.703,1.005,0.650,0.000,18,16,4*69
$GPGGA,081606.20,3135.3207499,N,12046.6864082,E,4,16,1.4,2.7313,M,8.318,M,01,0004*62
$GPHPD,1957,29784.000,325.49,-0.93,13.63,31.5886792,120.7781068,2.731,13633874.412,24926629.509,2.731,0.903,-0.080,0.930,0.695,0.998,0.612,0.000,16,15,4*44
$GPGGA,081606.40,3135.3208691,N,12046.6863132,E,4,16,1.4,2.7441,M,8.318,M,01,0004*6C
$GPHPD,1957,29784.200,324.99,-0.81,13.64,31.5886812,120.7781052,2.744,13633872.526,24926627.669,2.744,0.880,-0.133,0.910,0.703,1.005,0.650,0.000,16,15,4*4E
$GPGGA,081606.60,3135.3209831,N,12046.6862251,E,4,16,1.4,2.7523,M,8.318,M,00,0004*68
$GPHPD,1957,29784.400,324.90,-0.20,13.64,31.5886831,120.7781038,2.752,13633870.728,24926625.943,2.752,0.916,-0.085,0.952,0.703,1.005,0.650,0.000,16,14,4*49
$GPGGA,081606.80,3135.3211024,N,12046.6861324,E,4,16,1.4,2.7472,M,8.318,M,00,0004*66
$GPHPD,1957,29784.600,325.02,-0.10,13.65,31.5886850,120.7781022,2.747,13633868.845,24926624.131,2.747,0.838,-0.035,0.935,0.703,1.005,0.650,0.000,16,14,4*49
$GPGGA,081607.00,3135.3212197,N,12046.6860346,E,4,16,1.4,2.7616,M,8.318,M,01,0004*61
$GPHPD,1957,29784.800,324.85,-0.90,13.67,31.5886870,120.7781006,2.762,13633866.981,24926622.269,2.762,0.934,-0.106,0.925,0.703,1.005,0.650,0.000,16,14,4*45
$GPGGA,081607.20,3135.3213333,N,12046.6859458,E,4,16,1.4,2.7483,M,8.318,M,01,0004*62
$GPHPD,1957,29785.000,325.00,-0.80,13.67,31.5886889,120.7780991,2.748,13633865.187,24926620.537,2.748,0.950,-0.065,0.923,0.703,1.005,0.650,0.000,16,14,4*42
$GPGGA,081607.40,3135.3214462,N,12046.6858527,E,4,17,1.4,2.7559,M,8.318,M,01,0004*6F
$GPHPD,1957,29785.200,325.04,-0.27,13.64,31.5886908,120.7780975,2.756,13633863.395,24926618.757,2.756,0.917,-0.191,0.857,0.695,0.999,0.612,0.000,17,14,4*4F
$GPGGA,081607.60,3135.3215609,N,12046.6857587,E,4,17,1.4,2.7566,M,8.318,M,00,0004*6B
$GPHPD,1957,29785.400,325.35,-1.02,13.64,31.5886927,120.7780960,2.757,13633861.575,24926616.956,2.757,0.902,-0.095,0.893,0.695,0.999,0.612,0.000,17,14,4*46
$GPGGA,081607.80,3135.3216784,N,12046.6856684,E,4,17,1.4,2.7311,M,8.318,M,00,0004*65
$GPHPD,1957,29785.600,325.80,-1.35,13.64,31.5886946,120.7780945,2.731,13633859.723,24926615.183,2.731,0.911,-0.061,0.909,0.695,0.999,0.612,0.000,17,14,4*4C
$GPGGA,081608.00,3135.3217933,N,12046.6855739,E,4,17,1.4,2.7407,M,8.318,M,01,0004*64
$GPHPD,1957,29785.800,325.76,-0.07,13.66,31.5886966,120.7780929,2.741,13633857.900,24926613.375,2.741,0.933,-0.181,0.868,0.695,0.999,0.612,0.000,17,14,4*44
$GPGGA,081608.20,3135.3219129,N,12046.6854830,E,4,17,1.4,2.7280,M,8.318,M,01,0004*65
$GPHPD,1957,29786.000,325.64,-0.14,13.65,31.5886985,120.7780914,2.728,13633856.016,24926611.583,2.728,0.945,-0.128,0.884,0.695,0.999,0.612,0.000,17,14,4*4C
$GPGGA,081608.40,3135.3220298,N,12046.6853848,E,4,17,1.4,2.7347,M,8.318,M,01,0004*62
$GPHPD,1957,29786.200,325.76,-0.47,13.67,31.5887005,120.7780897,2.735,13633854.157,24926609.718,2.735,0.956,-0.173,0.917,0.695,0.999,0.612,0.000,17,14,4*4B
$GPGGA,081608.60,3135.3221444,N,12046.6852924,E,4,17,1.4,2.7261,M,8.318,M,00,0004*68
$GPHPD,1957,29786.400,326.14,-0.48,13.69,31.5887024,120.7780882,2.726,13633852.342,24926607.937,2.726,0.934,-0.060,0.942,0.695,0.999,0.612,0.000,17,14,4*46
$GPGGA,081608.80,3135.3222679,N,12046.6852018,E,4,17,1.4,2.7210,M,8.318,M,00,0004*69
$GPHPD,1957,29786.600,326.43,0.27,13.68,31.5887045,120.7780867,2.721,13633850.404,24926606.125,2.721,0.919,-0.124,0.883,0.695,0.999,0.612,0.000,17,14,4*60
$GPGGA,081609.00,3135.3223845,N,12046.6851026,E,4,17,1.4,2.7331,M,8.318,M,01,0004*6D
$GPHPD,1957,29786.800,325.88,0.35,13.67,31.5887064,120.7780850,2.733,13633848.546,24926604.251,2.733,0.938,-0.175,0.940,0.695,0.999,0.612,0.000,17,14,4*64
$GPGGA,081609.20,3135.3225020,N,12046.6850076,E,4,17,1.4,2.7441,M,8.318,M,01,0004*66
$GPHPD,1957,29787.000,326.07,-0.37,13.68,31.5887084,120.7780835,2.744,13633846.685,24926602.421,2.744,0.936,-0.090,0.930,0.695,0.999,0.612,0.000,17,14,4*42
$GPGGA,081609.40,3135.3226267,N,12046.6849128,E,4,17,1.4,2.7244,M,8.318,M,01,0004*63
$GPHPD,1957,29787.200,326.11,-0.26,13.67,31.5887104,120.7780819,2.724,13633844.721,24926600.552,2.724,0.896,-0.069,0.959,0.695,0.999,0.612,0.000,17,14,4*47
$GPGGA,081609.60,3135.3227476,N,12046.6848180,E,4,17,1.4,2.7263,M,8.318,M,00,0004*61
$GPHPD,1957,29787.400,325.77,0.16,13.68,31.5887125,120.7780803,2.726,13633842.812,24926598.705,2.726,0.997,-0.178,0.957,0.695,0.999,0.612,0.000,17,15,4*6E
$GPGGA,081609.80,3135.3228678,N,12046.6847299,E,4,17,1.4,2.7333,M,8.318,M,00,0004*6C
$GPHPD,1957,29787.600,325.49,0.12,13.67,31.5887145,120.7780788,2.733,13633840.926,24926596.943,2.733,0.946,-0.119,0.914,0.695,0.999,0.612,0.000,17,15,4*6A
$GPGGA,081610.00,3135.3229842,N,12046.6846400,E,4,17,1.4,2.7474,M,8.318,M,01,0004*68
$GPHPD,1957,29787.800,325.24,0.63,13.66,31.5887164,120.7780773,2.747,13633839.090,24926595.182,2.747,0.874,-0.107,1.004,0.695,0.999,0.612,0.000,17,15,4*65
$GPGGA,081610.20,3135.3231024,N,12046.6845455,E,4,17,1.4,2.7364,M,8.318,M,01,0004*6E
$GPHPD,1957,29788.000,325.26,-0.05,13.64,31.5887184,120.7780758,2.736,13633837.220,24926593.354,2.736,0.888,-0.093,0.951,0.695,0.999,0.612,0.000,17,15,4*47
$GPGGA,081610.40,3135.3232185,N,12046.6844528,E,4,17,1.4,2.7489,M,8.318,M,01,0004*6F
$GPHPD,1957,29788.200,325.12,-0.54,13.64,31.5887203,120.7780742,2.749,13633835.383,24926591.561,2.749,0.929,-0.138,0.918,0.695,0.999,0.612,0.000,17,15,4*4E
$GPGGA,081610.60,3135.3233328,N,12046.6843609,E,4,17,1.4,2.7542,M,8.318,M,00,0004*69
$GPHPD,1957,29788.400,325.03,0.12,13.62,31.5887222,120.7780727,2.754,13633833.573,24926589.787,2.754,0.926,-0.100,0.900,0.695,0.999,0.612,0.000,17,15,4*60
$GPGGA,081610.80,3135.3234478,N,12046.6842653,E,4,17,1.4,2.7721,M,8.318,M,00,0004*6B
$GPHPD,1957,29788.600,324.93,-0.11,13.61,31.5887241,120.7780711,2.772,13633831.745,24926587.965,2.772,0.916,-0.123,0.894,0.695,0.999,0.612,0.000,17,15,4*40
$GPGGA,081611.00,3135.3235657,N,12046.6841713,E,4,17,1.4,2.7843,M,8.318,M,01,0004*60
$GPHPD,1957,29788.800,325.03,-0.14,13.61,31.5887261,120.7780695,2.784,13633829.880,24926586.145,2.784,0.920,-0.056,0.947,0.695,0.999,0.612,0.000,17,14,4*40
$GPGGA,081611.20,3135.3236857,N,12046.6840755,E,4,17,1.4,2.7704,M,8.318,M,01,0004*60
$GPHPD,1957,29789.000,324.60,-0.07,13.59,31.5887281,120.7780679,2.770,13633827.981,24926584.291,2.770,0.921,-0.053,0.933,0.695,0.999,0.612,0.000,17,14,4*49
$GPGGA,081611.40,3135.3238017,N,12046.6839832,E,4,17,1.4,2.7660,M,8.318,M,01,0004*67
$GPHPD,1957,29789.200,324.48,-0.03,13.59,31.5887300,120.7780664,2.766,13633826.147,24926582.503,2.766,0.969,-0.143,0.908,0.695,0.999,0.612,0.000,17,14,4*4C
$GPGGA,081611.60,3135.3239200,N,12046.6838883,E,4,17,1.3,2.7835,M,8.318,M,00,0004*63
$GPHPD,1957,29789.400,324.74,-0.17,13.57,31.5887320,120.7780648,2.784,13633824.274,24926580.670,2.784,0.956,-0.147,0.915,0.609,0.978,0.604,0.000,17,14,4*4F
$GPGGA,081611.80,3135.3240382,N,12046.6837863,E,4,17,1.4,2.7759,M,8.318,M,00,0004*6B
$GPHPD,1957,29789.600,324.52,-0.33,13.54,31.5887340,120.7780631,2.776,13633822.388,24926578.752,2.776,0.927,-0.104,0.947,0.695,0.999,0.612,0.000,17,13,4*4A
$GPGGA,081612.00,3135.3241569,N,12046.6836922,E,4,16,1.4,2.7865,M,8.318,M,01,0004*67
$GPHPD,1957,29789.800,324.71,-0.43,13.51,31.5887359,120.7780615,2.787,13633820.511,24926576.927,2.787,0.976,-0.096,0.929,0.695,0.999,0.612,0.000,16,13,4*48
$GPGGA,081612.20,3135.3242759,N,12046.6835947,E,4,16,1.4,2.7861,M,8.318,M,01,0004*63
$GPHPD,1957,29790.000,324.53,-0.46,13.49,31.5887379,120.7780599,2.786,13633818.624,24926575.058,2.786,0.924,-0.057,0.952,0.695,0.999,0.612,0.000,16,12,4*4A
$GPGGA,081612.40,3135.3243960,N,12046.6834987,E,4,16,1.4,2.7844,M,8.318,M,01,0004*6A
$GPHPD,1957,29790.200,324.58,-0.89,13.47,31.5887399,120.7780583,2.784,13633816.723,24926573.202,2.784,0.927,-0.067,0.951,0.716,1.020,0.614,0.000,16,13,4*4C
$GPGGA,081612.60,3135.3245131,N,12046.6834027,E,4,16,1.4,2.7745,M,8.318,M,00,0004*6E
$GPHPD,1957,29790.400,324.15,-0.96,13.45,31.5887419,120.7780567,2.775,13633814.865,24926571.362,2.775,0.952,-0.089,0.940,0.695,0.999,0.612,0.000,16,13,4*44
$GPGGA,081612.80,3135.3246303,N,12046.6833077,E,4,16,1.4,2.7812,M,8.318,M,00,0004*6F
$GPHPD,1957,29790.600,323.81,0.21,13.40,31.5887438,120.7780551,2.781,13633813.008,24926569.535,2.781,0.925,-0.094,0.909,0.695,0.999,0.612,0.000,16,13,4*66
$GPGGA,081613.00,3135.3247482,N,12046.6832074,E,4,16,1.4,2.7877,M,8.318,M,01,0004*69
$GPHPD,1957,29790.800,324.09,-0.32,13.39,31.5887458,120.7780535,2.788,13633811.130,24926567.639,2.788,0.927,-0.105,0.926,0.716,1.020,0.614,0.000,16,14,4*44
$GPGGA,081613.20,3135.3248702,N,12046.6831066,E,4,16,1.4,2.7866,M,8.318,M,01,0004*6F
$GPHPD,1957,29791.000,324.29,-0.72,13.38,31.5887478,120.7780518,2.787,13633809.193,24926565.713,2.787,0.936,-0.045,0.943,0.716,1.020,0.614,0.000,16,14,4*4A
$GPGGA,081613.40,3135.3249845,N,12046.6830140,E,4,16,1.4,2.7823,M,8.318,M,01,0004*61
$GPHPD,1957,29791.200,324.37,-0.23,13.36,31.5887497,120.7780502,2.782,13633807.381,24926563.931,2.782,0.968,-0.080,0.949,0.716,1.020,0.614,0.000,16,14,4*48
$GPGGA,081613.60,3135.3251012,N,12046.6829125,E,4,16,1.4,2.8041,M,8.318,M,00,0004*69
$GPHPD,1957,29791.400,324.79,-1.07,13.33,31.5887517,120.7780485,2.804,13633805.518,24926562.028,2.804,0.949,-0.152,0.893,0.716,1.020,0.614,0.000,16,14,4*4E
$GPGGA,081613.80,3135.3252162,N,12046.6828165,E,4,16,1.4,2.7897,M,8.318,M,00,0004*6B
$GPHPD,1957,29791.600,324.92,-0.51,13.33,31.5887536,120.7780469,2.790,13633803.690,24926560.201,2.790,0.932,-0.019,0.973,0.716,1.020,0.614,0.000,16,14,4*49
$GPGGA,081614.00,3135.3253386,N,12046.6827232,E,4,16,1.4,2.7854,M,8.318,M,01,0004*6D
$GPHPD,1957,29791.800,325.52,-0.90,13.34,31.5887556,120.7780454,2.785,13633801.762,24926558.364,2.785,0.971,-0.094,0.907,0.716,1.020,0.614,0.000,16,14,4*4E
$GPGGA,081614.20,3135.3254594,N,12046.6826264,E,4,17,1.4,2.7709,M,8.318,M,01,0004*69
$GPHPD,1957,29792.000,325.19,-0.26,13.31,31.5887577,120.7780438,2.771,13633799.850,24926556.493,2.771,0.975,-0.151,0.934,0.716,1.020,0.614,0.000,17,14,4*47
$GPGGA,081614.40,3135.3255782,N,12046.6825256,E,4,17,1.4,2.7918,M,8.318,M,01,0004*67
$GPHPD,1957,29792.200,324.88,-0.26,13.31,31.5887596,120.7780421,2.792,13633797.958,24926554.586,2.792,0.996,-0.151,0.945,0.716,1.020,0.614,0.000,17,14,4*40
$GPGGA,081614.60,3135.3257019,N,12046.6824353,E,4,17,1.4,2.7771,M,8.318,M,00,0004*67
$GPHPD,1957,29792.400,324.85,-0.73,13.30,31.5887617,120.7780406,2.777,13633796.018,24926552.777,2.777,0.940,-0.042,0.972,0.716,1.020,0.614,0.000,17,14,4*4F
$GPGGA,081614.80,3135.3258223,N,12046.6823399,E,4,17,1.4,2.7716,M,8.318,M,00,0004*6D
$GPHPD,1957,29792.600,324.14,0.12,13.31,31.5887637,120.7780390,2.772,13633794.115,24926550.926,2.772,0.977,-0.115,0.952,0.716,1.020,0.614,0.000,17,14,4*67
$GPGGA,081615.00,3135.3259420,N,12046.6822479,E,4,17,1.4,2.7680,M,8.318,M,01,0004*67
$GPHPD,1957,29792.800,324.43,-0.72,13.31,31.5887657,120.7780375,2.768,13633792.228,24926549.120,2.768,0.971,-0.142,0.938,0.716,1.020,0.614,0.000,17,14,4*48
$GPGGA,081615.20,3135.3260667,N,12046.6821517,E,4,17,1.4,2.7747,M,8.318,M,01,0004*6E
$GPHPD,1957,29793.000,324.05,-0.71,13.25,31.5887678,120.7780359,2.775,13633790.261,24926547.234,2.775,0.908,-0.121,0.972,0.716,1.020,0.614,0.000,17,14,4*44
$GPGGA,081615.40,3135.3261874,N,12046.6820537,E,4,17,1.4,2.7683,M,8.318,M,01,0004*6F
$GPHPD,1957,29793.200,323.89,-0.66,13.15,31.5887698,120.7780342,2.768,13633788.348,24926545.350,2.768,0.925,-0.083,0.998,0.716,1.020,0.614,0.000,17,14,4*44
$GPGGA,081615.60,3135.3262965,N,12046.6819484,E,4,17,1.4,2.7736,M,8.318,M,00,0004*62
$GPHPD,1957,29793.400,323.88,-1.66,13.22,31.5887716,120.7780325,2.774,13633786.585,24926543.445,2.774,0.963,-0.116,0.940,0.716,1.020,0.614,0.000,17,13,4*41
$GPGGA,081615.80,3135.3264088,N,12046.6818525,E,4,17,1.4,2.7707,M,8.318,M,00,0004*69
$GPHPD,1957,29793.600,324.27,-0.77,13.34,31.5887735,120.7780309,2.771,13633784.796,24926541.635,2.771,0.964,0.002,0.873,0.716,1.020,0.614,0.000,17,14,4*65
$GPGGA,081616.00,3135.3265235,N,12046.6817630,E,4,17,1.4,2.7651,M,8.318,M,01,0004*6C
$GPHPD,1957,29793.800,324.92,0.06,13.28,31.5887754,120.7780294,2.765,13633782.985,24926539.888,2.765,0.921,-0.048,0.883,0.716,1.020,0.614,0.000,17,15,4*60
$GPGGA,081616.20,3135.3266363,N,12046.6816677,E,4,17,1.4,2.7629,M,8.318,M,01,0004*62
$GPHPD,1957,29794.000,324.91,-0.76,13.29,31.5887773,120.7780278,2.763,13633781.190,24926538.082,2.763,0.895,-0.059,0.907,0.716,1.020,0.614,0.000,17,14,4*4E
$GPGGA,081616.40,3135.3267505,N,12046.6815664,E,4,17,1.4,2.7651,M,8.318,M,01,0004*6D
$GPHPD,1957,29794.200,325.00,0.09,13.29,31.5887792,120.7780261,2.765,13633779.363,24926536.196,2.765,0.901,-0.057,0.899,0.716,1.020,0.614,0.000,17,14,4*60
$GPGGA,081616.60,3135.3268748,N,12046.6814757,E,4,17,1.4,2.7525,M,8.318,M,00,0004*6A
$GPHPD,1957,29794.400,325.32,0.16,13.27,31.5887812,120.7780246,2.753,13633777.413,24926534.379,2.753,0.954,-0.062,0.890,0.729,1.029,0.752,0.000,17,14,4*63
$GPGGA,081616.80,3135.3269925,N,12046.6813784,E,4,17,1.4,2.7563,M,8.317,M,00,0004*64
$GPHPD,1957,29794.600,325.57,0.57,13.25,31.5887832,120.7780230,2.756,13633775.544,24926532.520,2.756,1.060,-0.271,0.936,0.729,1.029,0.752,0.000,17,14,4*69
$GPGGA,081617.00,3135.3271154,N,12046.6812828,E,4,17,1.4,2.7704,M,8.317,M,01,0004*60
$GPHPD,1957,29794.800,325.12,-0.38,13.27,31.5887853,120.7780214,2.770,13633773.604,24926530.652,2.770,0.941,-0.104,0.969,0.738,1.056,0.670,0.000,17,14,4*4D
$GPGGA,081617.20,3135.3272372,N,12046.6811848,E,4,17,1.4,2.7435,M,8.317,M,01,0004*63
$GPHPD,1957,29795.000,325.06,-0.20,13.30,31.5887873,120.7780197,2.744,13633771.676,24926528.762,2.744,0.922,-0.015,1.003,0.738,1.056,0.670,0.000,17,14,4*48
$GPGGA,081617.40,3135.3273545,N,12046.6810871,E,4,17,1.4,2.7725,M,8.317,M,01,0004*6F
$GPHPD,1957,29795.200,324.84,-0.58,13.45,31.5887892,120.7780181,2.773,13633769.811,24926526.901,2.773,1.009,-0.198,0.918,0.716,1.020,0.614,0.000,17,14,4*4F
$GPGGA,081617.60,3135.3274743,N,12046.6809861,E,4,17,1.4,2.7828,M,8.317,M,00,0004*64
$GPHPD,1957,29795.400,325.14,-1.04,13.44,31.5887912,120.7780164,2.783,13633767.905,24926524.985,2.783,0.920,-0.018,0.973,0.716,1.020,0.614,0.000,17,14,4*49
$GPGGA,081617.80,3135.3275940,N,12046.6808896,E,4,17,1.4,2.7796,M,8.317,M,00,0004*65
$GPHPD,1957,29795.600,324.98,-0.90,13.18,31.5887932,120.7780148,2.780,13633766.009,24926523.125,2.780,0.949,-0.040,0.955,0.738,1.056,0.670,0.000,17,14,4*4F
$GPGGA,081618.00,3135.3277084,N,12046.6808003,E,4,17,1.4,2.7735,M,8.317,M,01,0004*6D
$GPHPD,1957,29795.800,324.80,-0.49,13.15,31.5887951,120.7780133,2.774,13633764.203,24926521.382,2.774,0.988,-0.067,0.924,0.738,1.056,0.670,0.000,17,14,4*41
$GPGGA,081618.20,3135.3278239,N,12046.6807046,E,4,17,1.4,2.7820,M,8.317,M,01,0004*61
$GPHPD,1957,29796.000,324.78,-0.91,13.17,31.5887971,120.7780117,2.782,13633762.369,24926519.556,2.782,0.915,-0.128,0.928,0.722,1.030,0.670,0.000,17,14,4*48
$GPGGA,081618.40,3135.3279385,N,12046.6806171,E,4,17,1.4,2.7729,M,8.317,M,01,0004*62
$GPHPD,1957,29796.200,324.79,-0.69,13.18,31.5887990,120.7780103,2.773,13633760.563,24926517.834,2.773,0.898,-0.040,0.923,0.722,1.030,0.670,0.000,17,14,4*40
$GPGGA,081618.60,3135.3280578,N,12046.6805209,E,4,17,1.4,2.7744,M,8.317,M,00,0004*67
$GPHPD,1957,29796.400,324.58,-1.16,13.19,31.5888010,120.7780087,2.774,13633758.674,24926515.979,2.774,0.941,-0.095,0.886,0.722,1.030,0.670,0.000,17,14,4*49
$GPGGA,081618.80,3135.3281753,N,12046.6804293,E,4,17,1.4,2.7651,M,8.317,M,00,0004*64
$GPHPD,1957,29796.600,324.58,-0.83,13.19,31.5888029,120.7780072,2.765,13633756.819,24926514.191,2.765,0.915,-0.072,0.951,0.722,1.030,0.670,0.000,17,14,4*41
$GPGGA,081619.00,3135.3282912,N,12046.6803381,E,4,17,1.4,2.7565,M,8.317,M,01,0004*65
$GPHPD,1957,29796.800,324.60,-1.36,13.17,31.5888049,120.7780056,2.757,13633754.988,24926512.417,2.757,0.950,-0.126,0.925,0.695,0.999,0.612,0.000,17,14,4*43
$GPGGA,081619.20,3135.3284117,N,12046.6802384,E,4,17,1.4,2.7686,M,8.317,M,01,0004*66
$GPHPD,1957,29797.000,324.25,-1.47,13.21,31.5888069,120.7780040,2.769,13633753.074,24926510.513,2.769,0.956,-0.177,0.883,0.695,0.999,0.612,0.000,17,14,4*48
$GPGGA,081619.40,3135.3285272,N,12046.6801446,E,4,17,1.4,2.7821,M,8.317,M,01,0004*68
$GPHPD,1957,29797.200,324.32,-1.37,13.24,31.5888088,120.7780024,2.782,13633751.244,24926508.710,2.782,0.948,-0.094,0.972,0.695,0.999,0.612,0.000,17,14,4*44
$GPGGA,081619.60,3135.3286443,N,12046.6800495,E,4,17,1.4,2.7580,M,8.317,M,00,0004*65
$GPHPD,1957,29797.400,324.42,-1.59,13.26,31.5888107,120.7780008,2.758,13633749.388,24926506.881,2.758,0.924,-0.078,0.940,0.695,0.999,0.612,0.000,17,14,4*4F
$GPGGA,081619.80,3135.3287617,N,12046.6799520,E,4,17,1.4,2.7550,M,8.317,M,00,0004*64
$GPHPD,1957,29797.600,324.69,-0.81,13.24,31.5888127,120.7779992,2.755,13633747.522,24926505.022,2.755,0.980,-0.167,0.862,0.695,0.999,0.612,0.000,17,14,4*46
$GPGGA,081620.00,3135.3288764,N,12046.6798582,E,4,17,1.4,2.7580,M,8.317,M,01,0004*69
$GPHPD,1957,29797.800,324.82,-1.09,13.25,31.5888146,120.7779976,2.758,13633745.703,24926503.223,2.758,0.967,-0.129,0.904,0.695,0.999,0.612,0.000,17,14,4*44
$GPGGA,081620.20,3135.3289929,N,12046.6797644,E,4,17,1.4,2.7563,M,8.317,M,01,0004*66
$GPHPD,1957,29798.000,324.76,-1.54,13.26,31.5888165,120.7779961,2.756,13633743.858,24926501.414,2.756,0.937,-0.093,0.903,0.695,0.999,0.612,0.000,17,13,4*46
$GPGGA,081620.40,3135.3291063,N,12046.6796761,E,4,17,1.4,2.7461,M,8.317,M,01,0004*6A
$GPHPD,1957,29798.200,325.16,-0.99,13.25,31.5888184,120.7779946,2.746,13633742.068,24926499.689,2.746,0.945,-0.103,0.892,0.695,0.999,0.612,0.000,17,13,4*42
$GPGGA,081620.60,3135.3292217,N,12046.6795818,E,4,17,1.4,2.7454,M,8.317,M,00,0004*6F
$GPHPD,1957,29798.400,325.79,-0.37,13.24,31.5888204,120.7779930,2.745,13633740.238,24926497.880,2.745,0.929,-0.179,0.878,0.695,0.999,0.612,0.000,17,13,4*4D
$GPGGA,081620.80,3135.3293450,N,12046.6794866,E,4,17,1.4,2.7569,M,8.317,M,00,0004*62
$GPHPD,1957,29798.600,325.63,-0.56,13.26,31.5888224,120.7779914,2.757,13633738.294,24926496.015,2.757,0.921,-0.100,0.914,0.695,0.999,0.612,0.000,17,13,4*44
$GPGGA,081621.00,3135.3294629,N,12046.6793921,E,4,17,1.4,2.7400,M,8.317,M,01,0004*6A
$GPHPD,1957,29798.800,325.73,0.15,13.29,31.5888244,120.7779899,2.740,13633736.427,24926494.189,2.740,0.941,-0.061,0.956,0.695,0.999,0.612,0.000,17,13,4*6C
$GPGGA,081621.20,3135.3295796,N,12046.6793007,E,4,17,1.4,2.7157,M,8.317,M,01,0004*66
$GPHPD,1957,29799.000,325.80,0.14,13.29,31.5888263,120.7779883,2.716,13633734.584,24926492.408,2.716,0.986,-0.179,0.897,0.695,0.999,0.612,0.000,17,13,4*69
$GPGGA,081621.40,3135.3296979,N,12046.6792051,E,4,17,1.4,2.7175,M,8.317,M,01,0004*6E
$GPHPD,1957,29799.200,325.69,0.61,13.28,31.5888283,120.7779868,2.718,13633732.710,24926490.566,2.718,0.955,-0.168,0.897,0.695,0.999,0.612,0.000,17,13,4*68
$GPGGA,081621.60,3135.3298180,N,12046.6791130,E,4,17,1.4,2.7423,M,8.317,M,00,0004*6E
$GPHPD,1957,29799.400,325.47,0.15,13.27,31.5888303,120.7779852,2.742,13633730.818,24926488.757,2.742,0.954,-0.133,0.947,0.704,1.006,0.650,0.000,17,14,4*67
$GPGGA,081621.80,3135.3299344,N,12046.6790180,E,4,17,1.4,2.7252,M,8.317,M,00,0004*61
$GPHPD,1957,29799.600,325.30,-0.48,13.28,31.5888322,120.7779836,2.725,13633728.972,24926486.933,2.725,0.915,-0.061,0.956,0.704,1.006,0.650,0.000,17,14,4*4B
$GPGGA,081622.00,3135.3300563,N,12046.6789234,E,4,17,1.4,2.7336,M,8.317,M,01,0004*6E
$GPHPD,1957,29799.800,325.22,-0.09,13.30,31.5888343,120.7779821,2.734,13633727.048,24926485.083,2.734,0.924,-0.141,0.913,0.704,1.006,0.649,0.000,17,15,4*4C
$GPGGA,081622.20,3135.3301759,N,12046.6788271,E,4,17,1.4,2.7165,M,8.317,M,01,0004*62
$GPHPD,1957,29800.000,325.06,-0.93,13.29,31.5888363,120.7779805,2.717,13633725.154,24926483.226,2.717,0.906,-0.104,0.960,0.704,1.006,0.649,0.000,17,14,4*43
$GPGGA,081622.40,3135.3302910,N,12046.6787365,E,4,17,1.4,2.7309,M,8.317,M,01,0004*67
$GPHPD,1957,29800.200,324.87,-0.38,13.29,31.5888382,120.7779789,2.731,13633723.336,24926481.463,2.731,0.959,-0.191,0.906,0.722,1.030,0.670,0.000,17,15,4*45
$GPGGA,081622.60,3135.3304019,N,12046.6786426,E,4,17,1.5,2.7345,M,8.317,M,00,0004*6A
$GPHPD,1957,29800.400,325.10,-0.84,13.29,31.5888400,120.7779774,2.735,13633721.570,24926479.686,2.735,0.897,-0.121,0.893,0.722,1.030,0.670,0.000,17,15,4*49
$GPGGA,081622.80,3135.3305225,N,12046.6785541,E,4,17,1.5,2.7234,M,8.317,M,00,0004*6C
