$GPGGA,083104.80,3135.3243687,N,12046.7918510,E,4,18,1.2,2.4625,M,8.325,M,00,0004*63
$GPHPD,1957,30682.600,58.26,-0.20,10.69,31.5887395,120.7798642,2.463,13634035.304,24927880.142,2.463,-0.590,-0.673,0.460,0.561,0.989,0.599,0.000,18,19,4*56
$GPGGA,083105.00,3135.3244183,N,12046.7919483,E,4,18,1.2,2.4628,M,8.325,M,01,0004*68
$GPHPD,1957,30682.800,58.34,-0.14,10.74,31.5887403,120.7798658,2.463,13634034.795,24927881.027,2.463,-0.545,-0.667,0.387,0.561,0.989,0.599,0.000,18,19,4*5E
$GPGGA,083105.20,3135.3244649,N,12046.7920403,E,4,18,1.2,2.4668,M,8.325,M,01,0004*6D
$GPHPD,1957,30683.000,58.62,0.15,10.78,31.5887411,120.7798673,2.467,13634034.318,24927881.866,2.467,-0.523,-0.609,0.377,0.561,0.989,0.599,0.000,18,19,4*75
$GPGGA,083105.40,3135.3245115,N,12046.7921301,E,4,18,1.2,2.4652,M,8.325,M,01,0004*69
$GPHPD,1957,30683.200,58.86,-0.27,10.83,31.5887419,120.7798688,2.465,13634033.836,24927882.677,2.465,-0.506,-0.570,0.365,0.561,0.989,0.599,0.000,18,19,4*5D
$GPGGA,083105.60,3135.3245521,N,12046.7922133,E,4,18,1.2,2.4651,M,8.325,M,00,0004*6A
$GPHPD,1957,30683.400,58.84,-0.38,10.87,31.5887425,120.7798702,2.465,13634033.427,24927883.445,2.465,-0.491,-0.565,0.352,0.561,0.989,0.599,0.000,18,19,4*5E
$GPGGA,083105.80,3135.3245929,N,12046.7922975,E,4,18,1.2,2.4659,M,8.325,M,00,0004*62
$GPHPD,1957,30683.600,58.73,-0.25,10.93,31.5887432,120.7798716,2.466,13634033.016,24927884.223,2.466,-0.473,-0.504,0.314,0.561,0.989,0.599,0.000,18,19,4*50
$GPGGA,083106.00,3135.3246342,N,12046.7923778,E,4,18,1.2,2.4580,M,8.325,M,01,0004*69
$GPHPD,1957,30683.800,59.04,-0.26,11.00,31.5887439,120.7798730,2.458,13634032.591,24927884.951,2.458,-0.469,-0.504,0.326,0.561,0.989,0.599,0.000,18,19,4*57
$GPGGA,083106.20,3135.3246753,N,12046.7924545,E,4,18,1.2,2.4584,M,8.325,M,01,0004*60
$GPHPD,1957,30684.000,59.04,-0.19,11.07,31.5887446,120.7798742,2.458,13634032.161,24927885.637,2.458,-0.442,-0.511,0.311,0.561,0.989,0.599,0.000,18,19,4*52
$GPGGA,083106.40,3135.3247111,N,12046.7925296,E,4,18,1.2,2.4564,M,8.325,M,01,0004*61
$GPHPD,1957,30684.200,58.93,-0.42,11.13,31.5887452,120.7798755,2.456,13634031.803,24927886.334,2.456,-0.431,-0.488,0.315,0.561,0.989,0.599,0.000,18,19,4*5D
$GPGGA,083106.60,3135.3247475,N,12046.7926037,E,4,18,1.2,2.4696,M,8.325,M,00,0004*61
$GPHPD,1957,30684.400,59.06,0.06,11.18,31.5887458,120.7798767,2.470,13634031.435,24927887.016,2.470,-0.418,-0.479,0.291,0.561,0.989,0.599,0.000,18,19,4*78
$GPGGA,083106.80,3135.3247856,N,12046.7926757,E,4,18,1.2,2.4657,M,8.325,M,00,0004*6E
$GPHPD,1957,30684.600,58.91,-0.26,11.25,31.5887464,120.7798779,2.466,13634031.038,24927887.663,2.466,-0.421,-0.448,0.288,0.561,0.989,0.599,0.000,18,19,4*59
$GPGGA,083107.00,3135.324815,N,12046.7927454,E,4,18,1.2,2.4660,M,8.325,M,01,0004*61
$GPHPD,1957,30684.800,58.73,-0.04,11.35,31.5887470,120.7798791,2.466,13634030.668,24927888.294,2.466,-0.403,-0.435,0.294,0.561,0.989,0.599,0.000,18,19,4*5F
$GPGGA,083107.20,3135.3248588,N,12046.7928194,E,4,18,1.2,2.4656,M,8.325,M,01,0004*63
$GPHPD,1957,30685.000,58.91,-0.07,11.47,31.5887476,120.7798803,2.466,13634030.287,24927888.970,2.466,-0.390,-0.423,0.298,0.561,0.989,0.599,0.000,18,19,4*5C
$GPGGA,083107.40,3135.3248978,N,12046.7928961,E,4,18,1.2,2.4636,M,8.325,M,01,0004*62
$GPHPD,1957,30685.200,58.79,0.02,11.58,31.5887483,120.7798816,2.464,13634029.887,24927889.668,2.464,-0.397,-0.478,0.291,0.561,0.989,0.599,0.000,18,19,4*75
$GPGGA,083107.60,3135.3249404,N,12046.7929764,E,4,18,1.2,2.4637,M,8.325,M,00,0004*6D
$GPHPD,1957,30685.400,58.61,0.15,11.70,31.5887490,120.7798829,2.464,13634029.443,24927890.388,2.464,-0.420,-0.458,0.309,0.561,0.989,0.599,0.000,18,19,4*76
$GPGGA,083107.80,3135.3249824,N,12046.7930614,E,4,18,1.2,2.4616,M,8.325,M,00,0004*60
$GPHPD,1957,30685.600,59.05,0.18,11.81,31.5887497,120.7798844,2.462,13634029.017,24927891.169,2.462,-0.453,-0.492,0.339,0.561,0.989,0.599,0.000,18,19,4*70
$GPGGA,083108.00,3135.3250284,N,12046.7931531,E,4,18,1.2,2.4669,M,8.325,M,01,0004*63
$GPHPD,1957,30685.800,59.04,0.17,11.93,31.5887505,120.7798859,2.467,13634028.548,24927892.007,2.467,-0.470,-0.535,0.326,0.561,0.989,0.599,0.000,18,19,4*72
$GPGGA,083108.20,3135.3250731,N,12046.7932436,E,4,18,1.2,2.4616,M,8.325,M,01,0004*67
$GPHPD,1957,30686.000,59.06,0.07,12.02,31.5887512,120.7798874,2.462,13634028.095,24927892.839,2.462,-0.503,-0.549,0.360,0.561,0.989,0.599,0.000,18,19,4*74
$GPGGA,083108.40,3135.325124,N,12046.7933404,E,4,18,1.2,2.4545,M,8.325,M,01,0004*64
$GPHPD,1957,30686.200,59.23,-0.01,12.09,31.5887520,120.7798890,2.455,13634027.589,24927893.719,2.455,-0.505,-0.569,0.352,0.561,0.989,0.599,0.000,18,19,4*54
$GPGGA,083108.60,3135.3251673,N,12046.7934347,E,4,18,1.2,2.4652,M,8.325,M,00,0004*63
$GPHPD,1957,30686.400,59.49,0.30,12.16,31.5887528,120.7798906,2.465,13634027.141,24927894.595,2.465,-0.521,-0.582,0.372,0.561,0.989,0.599,0.000,18,19,4*79
$GPGGA,083108.80,3135.3252164,N,12046.7935291,E,4,18,1.2,2.4618,M,8.325,M,00,0004*6A
$GPHPD,1957,30686.600,59.07,0.03,12.20,31.5887536,120.7798922,2.462,13634026.633,24927895.448,2.462,-0.546,-0.593,0.373,0.561,0.989,0.599,0.000,18,19,4*7E
$GPGGA,083109.00,3135.3252633,N,12046.7936246,E,4,18,1.2,2.4652,M,8.325,M,01,0004*60
$GPHPD,1957,30686.800,59.32,-0.17,12.24,31.5887544,120.7798937,2.465,13634026.158,24927896.327,2.465,-0.513,-0.593,0.377,0.569,1.001,0.636,0.000,18,19,4*5E
$GPGGA,083109.20,3135.3253093,N,12046.7937175,E,4,18,1.2,2.4632,M,8.325,M,01,0004*6B
$GPHPD,1957,30687.000,59.30,-0.07,12.28,31.5887552,120.7798953,2.463,13634025.691,24927897.180,2.463,-0.530,-0.580,0.379,0.569,1.001,0.636,0.000,18,19,4*5F
$GPGGA,083109.40,3135.3253536,N,12046.7938097,E,4,18,1.2,2.4674,M,8.325,M,01,0004*67
$GPHPD,1957,30687.200,59.04,-0.29,12.33,31.5887559,120.7798968,2.467,13634025.247,24927898.034,2.467,-0.518,-0.588,0.359,0.569,1.001,0.636,0.000,18,19,4*51
$GPGGA,083109.60,3135.3253983,N,12046.7938958,E,4,18,1.2,2.4630,M,8.325,M,00,0004*6C
$GPHPD,1957,30687.400,59.12,-0.32,12.37,31.5887566,120.7798983,2.463,13634024.785,24927898.812,2.463,-0.516,-0.558,0.353,0.569,1.001,0.636,0.000,18,19,4*58
$GPGGA,083109.80,3135.3254447,N,12046.7939868,E,4,18,1.2,2.4682,M,8.325,M,00,0004*6A
$GPHPD,1957,30687.600,58.95,-0.52,12.41,31.5887574,120.7798998,2.468,13634024.309,24927899.639,2.468,-0.491,-0.533,0.339,0.569,1.001,0.636,0.000,18,19,4*53
$GPGGA,083110.00,3135.3254902,N,12046.7940745,E,4,18,1.2,2.4629,M,8.325,M,01,0004*68
$GPHPD,1957,30687.800,58.70,-0.20,12.46,31.5887582,120.7799012,2.463,13634023.839,24927900.432,2.463,-0.494,-0.552,0.360,0.561,0.989,0.599,0.000,18,19,4*58
$GPGGA,083110.20,3135.3255334,N,12046.7941645,E,4,18,1.2,2.4694,M,8.325,M,01,0004*62
$GPHPD,1957,30688.000,58.69,0.19,12.52,31.5887589,120.7799027,2.469,13634023.406,24927901.266,2.469,-0.483,-0.557,0.348,0.561,0.989,0.599,0.000,18,19,4*77
$GPGGA,083110.40,3135.3255793,N,12046.7942539,E,4,18,1.2,2.4655,M,8.325,M,01,0004*6B
$GPHPD,1957,30688.200,58.62,-0.36,12.57,31.5887597,120.7799042,2.466,13634022.933,24927902.078,2.466,-0.500,-0.513,0.366,0.561,0.989,0.599,0.000,18,19,4*55
$GPGGA,083110.60,3135.3256264,N,12046.7943433,E,4,18,1.2,2.4695,M,8.325,M,01,0004*61
$GPHPD,1957,30688.400,58.42,-0.17,12.62,31.5887604,120.7799057,2.470,13634022.444,24927902.882,2.470,-0.485,-0.559,0.352,0.561,0.989,0.599,0.000,18,19,4*5C
$GPGGA,083110.80,3135.3256758,N,12046.7944380,E,4,18,1.2,2.4646,M,8.325,M,01,0004*63
$GPHPD,1957,30688.600,58.46,-0.01,12.70,31.5887613,120.7799073,2.465,13634021.932,24927903.736,2.465,-0.495,-0.550,0.368,0.561,0.989,0.599,0.000,18,19,4*51
$GPGGA,083111.00,3135.3257251,N,12046.7945361,E,4,18,1.2,2.4632,M,8.325,M,02,0004*69
$GPHPD,1957,30688.800,58.46,0.32,12.79,31.5887621,120.7799089,2.463,13634021.429,24927904.632,2.463,-0.507,-0.589,0.377,0.561,0.989,0.599,0.000,18,19,4*7A
$GPGGA,083111.20,3135.3257782,N,12046.7946366,E,4,18,1.2,2.4656,M,8.325,M,02,0004*66
$GPHPD,1957,30689.000,58.37,0.04,12.87,31.5887630,120.7799106,2.466,13634020.876,24927905.536,2.466,-0.541,-0.596,0.395,0.561,0.989,0.599,0.000,18,19,4*76
$GPGGA,083111.40,3135.3258319,N,12046.7947414,E,4,18,1.2,2.4581,M,8.325,M,02,0004*63
$GPHPD,1957,30689.200,58.50,-0.07,12.93,31.5887639,120.7799124,2.458,13634020.324,24927906.487,2.458,-0.568,-0.615,0.433,0.561,0.989,0.599,0.000,18,19,4*5B
$GPGGA,083111.60,3135.3258882,N,12046.7948516,E,4,18,1.2,2.4647,M,8.325,M,02,0004*6D
$GPHPD,1957,30689.400,58.27,0.13,12.98,31.5887648,120.7799142,2.465,13634019.746,24927907.488,2.465,-0.572,-0.682,0.417,0.561,0.989,0.599,0.000,18,19,4*7F
$GPGGA,083111.80,3135.3259491,N,12046.7949664,E,4,18,1.2,2.4650,M,8.325,M,00,0004*6F
$GPHPD,1957,30689.600,58.28,-0.08,13.03,31.5887658,120.7799161,2.465,13634019.111,24927908.519,2.465,-0.615,-0.679,0.450,0.561,0.989,0.599,0.000,18,19,4*51
$GPGGA,083112.00,3135.3260109,N,12046.7950833,E,4,18,1.2,2.4698,M,8.325,M,01,0004*6B
$GPHPD,1957,30689.800,57.99,0.29,13.07,31.5887668,120.7799181,2.470,13634018.468,24927909.569,2.470,-0.626,-0.708,0.470,0.561,0.989,0.599,0.000,18,19,4*74
$GPGGA,083112.20,3135.3260736,N,12046.7952050,E,4,18,1.2,2.4689,M,8.325,M,01,0004*6C
$GPHPD,1957,30690.000,58.31,-0.19,13.11,31.5887679,120.7799201,2.469,13634017.822,24927910.672,2.469,-0.654,-0.703,0.492,0.561,0.989,0.599,0.000,18,19,4*55
$GPGGA,083112.40,3135.3261405,N,12046.7953300,E,4,18,1.2,2.4638,M,8.325,M,01,0004*65
$GPHPD,1957,30690.200,58.11,-0.30,13.15,31.5887690,120.7799222,2.464,13634017.122,24927911.790,2.464,-0.684,-0.730,0.517,0.561,0.989,0.599,0.000,18,19,4*58
$GPGGA,083112.60,3135.3262068,N,12046.7954564,E,4,18,1.2,2.4708,M,8.325,M,00,0004*6B
$GPHPD,1957,30690.400,58.17,-0.11,13.16,31.5887701,120.7799243,2.471,13634016.434,24927912.928,2.471,-0.677,-0.810,0.511,0.561,0.989,0.599,0.000,18,19,4*5C
$GPGGA,083112.80,3135.3262745,N,12046.7955862,E,4,18,1.2,2.4711,M,8.325,M,00,0004*6F
$GPHPD,1957,30690.600,58.15,-0.31,13.17,31.5887712,120.7799264,2.471,13634015.733,24927914.100,2.471,-0.703,-0.782,0.530,0.561,0.989,0.599,0.000,18,19,4*5E
$GPGGA,083113.00,3135.3263420,N,12046.7957162,E,4,18,1.2,2.4676,M,8.325,M,01,0004*6D
$GPHPD,1957,30690.800,58.03,-0.21,13.18,31.5887724,120.7799286,2.468,13634015.036,24927915.275,2.468,-0.708,-0.800,0.540,0.561,0.989,0.599,0.000,18,19,4*5B
$GPGGA,083113.20,3135.3264099,N,12046.7958409,E,4,18,1.2,2.4691,M,8.325,M,01,0004*60
$GPHPD,1957,30691.000,57.93,0.16,13.18,31.5887735,120.7799307,2.469,13634014.321,24927916.384,2.469,-0.716,-0.819,0.535,0.561,0.989,0.599,0.000,18,19,4*78
$GPGGA,083113.40,3135.3264766,N,12046.7959687,E,4,18,1.2,2.4705,M,8.325,M,01,0004*68
$GPHPD,1957,30691.200,57.74,0.08,13.17,31.5887746,120.7799328,2.471,13634013.631,24927917.537,2.471,-0.696,-0.805,0.535,0.561,0.989,0.599,0.000,18,19,4*72
$GPGGA,083113.60,3135.3265426,N,12046.7960974,E,4,18,1.2,2.4709,M,8.325,M,00,0004*68
$GPHPD,1957,30691.400,57.76,-0.42,13.16,31.5887757,120.7799350,2.471,13634012.951,24927918.705,2.471,-0.679,-0.812,0.523,0.561,0.989,0.599,0.000,18,19,4*5F
$GPGGA,083113.80,3135.3266096,N,12046.7962238,E,4,18,1.2,2.4681,M,8.325,M,00,0004*6A
$GPHPD,1957,30691.600,57.43,-0.02,13.18,31.5887768,120.7799371,2.468,13634012.254,24927919.840,2.468,-0.717,-0.768,0.534,0.561,0.989,0.599,0.000,18,19,4*52
$GPGGA,083114.00,3135.3266773,N,12046.7963537,E,4,18,1.2,2.4712,M,8.325,M,01,0004*6A
$GPHPD,1957,30691.800,57.57,-0.10,13.19,31.5887780,120.7799392,2.471,13634011.553,24927921.012,2.471,-0.696,-0.809,0.517,0.561,0.989,0.599,0.000,18,19,4*56
$GPGGA,083114.20,3135.3267462,N,12046.7964808,E,4,18,1.2,2.4701,M,8.325,M,01,0004*6E
$GPHPD,1957,30692.000,57.61,-0.42,13.20,31.5887791,120.7799413,2.470,13634010.829,24927922.144,2.470,-0.725,-0.768,0.548,0.561,0.989,0.599,0.000,18,19,4*50
$GPGGA,083114.40,3135.3268142,N,12046.7966108,E,4,18,1.2,2.4729,M,8.325,M,01,0004*61
$GPHPD,1957,30692.200,57.60,-0.36,13.20,31.5887802,120.7799435,2.473,13634010.124,24927923.316,2.473,-0.712,-0.779,0.554,0.561,0.989,0.599,0.000,18,19,4*58
$GPGGA,083114.60,3135.3268837,N,12046.7967387,E,4,18,1.2,2.4690,M,8.325,M,00,0004*6E
$GPHPD,1957,30692.400,57.70,-0.53,13.22,31.5887814,120.7799456,2.469,13634009.394,24927924.454,2.469,-0.715,-0.809,0.542,0.561,0.989,0.599,0.000,18,19,4*53
$GPGGA,083114.80,3135.3269551,N,12046.7968722,E,4,18,1.2,2.4627,M,8.325,M,00,0004*64
$GPHPD,1957,30692.600,57.77,-0.27,13.23,31.5887826,120.7799479,2.463,13634008.648,24927925.649,2.463,-0.693,-0.816,0.537,0.561,0.989,0.599,0.000,18,19,4*51
$GPGGA,083115.00,3135.3270251,N,12046.7970050,E,4,18,1.2,2.4669,M,8.325,M,01,0004*62
$GPHPD,1957,30692.800,57.64,-0.36,13.24,31.5887838,120.7799501,2.467,13634007.920,24927926.843,2.467,-0.721,-0.824,0.543,0.561,0.989,0.599,0.000,18,19,4*58
$GPGGA,083115.20,3135.3270956,N,12046.7971383,E,4,18,1.2,2.4618,M,8.325,M,01,0004*66
$GPHPD,1957,30693.000,57.63,-0.47,13.24,31.5887849,120.7799523,2.462,13634007.186,24927928.041,2.462,-0.743,-0.816,0.564,0.561,0.989,0.599,0.000,18,19,4*56
$GPGGA,083115.40,3135.3271660,N,12046.7972717,E,4,18,1.2,2.4588,M,8.325,M,01,0004*6B
$GPHPD,1957,30693.200,57.42,-0.18,13.25,31.5887861,120.7799545,2.459,13634006.454,24927929.240,2.459,-0.729,-0.841,0.553,0.561,0.989,0.599,0.000,18,19,4*55
$GPGGA,083115.60,3135.3272372,N,12046.7974060,E,4,18,1.2,2.4631,M,8.325,M,01,0004*6C
$GPHPD,1957,30693.400,57.76,-0.03,13.27,31.5887873,120.7799568,2.463,13634005.712,24927930.445,2.463,-0.726,-0.847,0.542,0.561,0.989,0.599,0.000,18,19,4*50
$GPGGA,083115.80,3135.3273124,N,12046.7975451,E,4,18,1.2,2.4661,M,8.325,M,01,0004*60
$GPHPD,1957,30693.600,57.53,-0.06,13.28,31.5887885,120.7799591,2.466,13634004.923,24927931.685,2.466,-0.734,-0.839,0.557,0.561,0.989,0.599,0.000,18,19,4*5C
$GPGGA,083116.00,3135.3273851,N,12046.7976849,E,4,18,1.2,2.4623,M,8.325,M,02,0004*63
$GPHPD,1957,30693.800,57.49,-0.25,13.29,31.5887898,120.7799614,2.462,13634004.171,24927932.948,2.462,-0.748,-0.841,0.582,0.561,0.989,0.599,0.000,18,19,4*55
$GPGGA,083116.20,3135.3274576,N,12046.7978218,E,4,18,1.2,2.4602,M,8.325,M,02,0004*6D
$GPHPD,1957,30694.000,57.49,0.02,13.29,31.5887910,120.7799637,2.460,13634003.416,24927934.177,2.460,-0.757,-0.882,0.570,0.561,0.989,0.599,0.000,18,19,4*7F
$GPGGA,083116.40,3135.3275330,N,12046.7979612,E,4,18,1.2,2.4607,M,8.325,M,02,0004*64
$GPHPD,1957,30694.200,57.46,0.05,13.32,31.5887922,120.7799660,2.461,13634002.625,24927935.420,2.461,-0.754,-0.865,0.570,0.561,0.989,0.599,0.000,18,19,4*73
$GPGGA,083116.60,3135.3276062,N,12046.7981032,E,4,18,1.2,2.4670,M,8.325,M,02,0004*62
$GPHPD,1957,30694.400,57.60,-0.02,13.35,31.5887934,120.7799684,2.467,13634001.871,24927936.706,2.467,-0.749,-0.896,0.584,0.561,0.989,0.599,0.000,18,19,4*52
$GPGGA,083116.80,3135.3276832,N,12046.7982430,E,4,18,1.2,2.4694,M,8.325,M,00,0004*6C
$GPHPD,1957,30694.600,57.63,-0.12,13.35,31.5887947,120.7799707,2.469,13634001.057,24927937.944,2.469,-0.779,-0.862,0.594,0.561,0.989,0.599,0.000,18,19,4*50
$GPGGA,083117.00,3135.3277578,N,12046.7983857,E,4,18,1.2,2.4627,M,8.325,M,01,0004*62
$GPHPD,1957,30694.800,57.69,-0.33,13.37,31.5887960,120.7799731,2.463,13634000.284,24927939.231,2.463,-0.777,-0.879,0.602,0.561,0.989,0.599,0.000,18,19,4*57
$GPGGA,083117.20,3135.327850,N,12046.7985249,E,4,18,1.2,2.4648,M,8.325,M,01,0004*69
$GPHPD,1957,30695.000,57.69,-0.09,13.36,31.5887973,120.7799754,2.465,13633999.467,24927940.461,2.465,-0.779,-0.911,0.575,0.561,0.989,0.599,0.000,18,19,4*5D
$GPGGA,083117.40,3135.3279111,N,12046.7986697,E,4,18,1.2,2.4681,M,8.325,M,01,0004*68
$GPHPD,1957,30695.200,57.70,-0.40,13.35,31.5887985,120.7799778,2.468,13633998.677,24927941.764,2.468,-0.770,-0.888,0.604,0.561,0.989,0.599,0.000,18,19,4*56
$GPGGA,083117.60,3135.3279898,N,12046.7988120,E,4,18,1.2,2.4609,M,8.325,M,00,0004*66
$GPHPD,1957,30695.400,57.64,-0.28,13.33,31.5887998,120.7799802,2.461,13633997.845,24927943.022,2.461,-0.792,-0.869,0.614,0.561,0.989,0.599,0.000,18,19,4*56
$GPGGA,083117.80,3135.3280642,N,12046.7989599,E,4,18,1.2,2.4704,M,8.325,M,00,0004*6C
$GPHPD,1957,30695.600,57.37,-0.24,13.31,31.5888011,120.7799827,2.470,13633997.085,24927944.373,2.470,-0.765,-0.954,0.616,0.561,0.989,0.599,0.000,18,19,4*5D
$GPGGA,083118.00,3135.3281421,N,12046.7990996,E,4,18,1.2,2.4592,M,8.325,M,01,0004*6A
$GPHPD,1957,30695.800,57.41,-0.33,13.31,31.5888024,120.7799850,2.459,13633996.259,24927945.605,2.459,-0.809,-0.885,0.611,0.561,0.989,0.599,0.000,18,19,4*5A
$GPGGA,083118.20,3135.3282181,N,12046.7992450,E,4,18,1.2,2.4666,M,8.325,M,01,0004*69
$GPHPD,1957,30696.000,57.60,-0.30,13.31,31.5888036,120.7799874,2.467,13633995.471,24927946.916,2.467,-0.781,-0.901,0.597,0.561,0.989,0.599,0.000,18,19,4*5A
$GPGGA,083118.40,3135.3282940,N,12046.7993863,E,4,18,1.2,2.4566,M,8.325,M,01,0004*64
$GPHPD,1957,30696.200,57.46,-0.27,13.32,31.5888049,120.7799898,2.457,13633994.677,24927948.178,2.457,-0.794,-0.893,0.610,0.561,0.989,0.599,0.000,18,19,4*5A
$GPGGA,083118.60,3135.3283691,N,12046.7995291,E,4,18,1.2,2.4613,M,8.325,M,00,0004*65
$GPHPD,1957,30696.400,57.49,-0.27,13.33,31.5888062,120.7799922,2.461,13633993.897,24927949.464,2.461,-0.774,-0.898,0.591,0.561,0.989,0.599,0.000,18,19,4*5A
$GPGGA,083118.80,3135.3284457,N,12046.7996707,E,4,18,1.2,2.4636,M,8.325,M,00,0004*6A
$GPHPD,1957,30696.600,57.65,-0.21,13.36,31.5888074,120.7799945,2.464,13633993.093,24927950.726,2.464,-0.798,-0.863,0.603,0.561,0.989,0.599,0.000,18,19,4*5C
$GPGGA,083119.00,3135.3285213,N,12046.7998160,E,4,18,1.2,2.4645,M,8.325,M,01,0004*68
$GPHPD,1957,30696.800,57.74,-0.10,13.37,31.5888087,120.7799969,2.465,13633992.311,24927952.038,2.465,-0.776,-0.889,0.604,0.561,0.989,0.599,0.000,18,19,4*52
$GPGGA,083119.20,3135.3285945,N,12046.7999581,E,4,18,1.2,2.4554,M,8.325,M,01,0004*6B
$GPHPD,1957,30697.000,57.68,-0.17,13.36,31.5888099,120.7799993,2.455,13633991.556,24927953.326,2.455,-0.797,-0.872,0.614,0.561,0.989,0.599,0.000,18,19,4*5B
$GPGGA,083119.40,3135.3286739,N,12046.8001007,E,4,18,1.2,2.4615,M,8.325,M,01,0004*61
$GPHPD,1957,30697.200,57.36,-0.12,13.38,31.5888112,120.7800017,2.462,13633990.715,24927954.584,2.462,-0.779,-0.883,0.578,0.561,0.989,0.599,0.000,18,19,4*5B
$GPGGA,083119.60,3135.3287502,N,12046.8002430,E,4,18,1.2,2.4646,M,8.325,M,00,0004*6C
$GPHPD,1957,30697.400,57.31,0.00,13.41,31.5888125,120.7800041,2.465,13633989.917,24927955.856,2.465,-0.791,-0.880,0.608,0.561,0.989,0.599,0.000,18,19,4*7B
$GPGGA,083119.80,3135.3288260,N,12046.8003859,E,4,18,1.2,2.4586,M,8.325,M,00,0004*63
$GPHPD,1957,30697.600,57.55,0.05,13.43,31.5888138,120.7800064,2.459,13633989.127,24927957.138,2.459,-0.776,-0.888,0.621,0.561,0.989,0.599,0.000,18,19,4*75
$GPGGA,083120.00,3135.3289011,N,12046.8005265,E,4,18,1.2,2.4581,M,8.325,M,01,0004*61
$GPHPD,1957,30697.800,57.35,0.06,13.45,31.5888150,120.7800088,2.458,13633988.342,24927958.397,2.458,-0.768,-0.923,0.587,0.561,0.989,0.599,0.000,18,19,4*7C
$GPGGA,083120.20,3135.3289799,N,12046.8006676,E,4,18,1.2,2.4656,M,8.325,M,01,0004*68
$GPHPD,1957,30698.000,57.33,0.04,13.47,31.5888163,120.7800111,2.466,13633987.506,24927959.640,2.466,-0.760,-0.897,0.585,0.561,0.989,0.599,0.000,18,19,4*7F
$GPGGA,083120.40,3135.3290528,N,12046.8008099,E,4,18,1.2,2.4615,M,8.325,M,01,0004*60
$GPHPD,1957,30698.200,57.54,-0.06,13.50,31.5888175,120.7800135,2.462,13633986.756,24927960.932,2.462,-0.774,-0.876,0.619,0.561,0.989,0.599,0.000,18,19,4*5E
$GPGGA,083120.60,3135.3291312,N,12046.8009500,E,4,18,1.2,2.4585,M,8.325,M,00,0004*63
$GPHPD,1957,30698.400,57.35,-0.07,13.48,31.5888189,120.7800158,2.459,13633985.924,24927962.165,2.459,-0.777,-0.887,0.587,0.561,0.989,0.599,0.000,18,19,4*56
$GPGGA,083120.80,3135.3292052,N,12046.8010952,E,4,18,1.2,2.4599,M,8.325,M,00,0004*67
$GPHPD,1957,30698.600,57.39,0.14,13.49,31.5888201,120.7800183,2.460,13633985.164,24927963.486,2.460,-0.757,-0.882,0.604,0.561,0.989,0.599,0.000,18,19,4*79
$GPGGA,083121.00,3135.3292825,N,12046.8012337,E,4,18,1.2,2.4572,M,8.325,M,01,0004*69
$GPHPD,1957,30698.800,57.47,-0.15,13.49,31.5888214,120.7800206,2.457,13633984.344,24927964.706,2.457,-0.783,-0.895,0.593,0.561,0.989,0.599,0.000,18,19,4*57
$GPGGA,083121.20,3135.3293580,N,12046.8013768,E,4,18,1.2,2.4594,M,8.325,M,01,0004*6F
$GPHPD,1957,30699.000,57.38,-0.16,13.49,31.5888226,120.7800229,2.459,13633983.559,24927965.993,2.459,-0.759,-0.902,0.598,0.561,0.989,0.599,0.000,18,19,4*54
$GPGGA,083121.40,3135.3294307,N,12046.8015165,E,4,18,1.2,2.4583,M,8.325,M,01,0004*6C
$GPHPD,1957,30699.200,57.31,0.07,13.49,31.5888238,120.7800253,2.458,13633982.807,24927967.254,2.458,-0.771,-0.910,0.605,0.561,0.989,0.599,0.000,18,19,4*7B
$GPGGA,083121.60,3135.3295071,N,12046.8016592,E,4,18,1.2,2.4505,M,8.325,M,00,0004*6D
$GPHPD,1957,30699.400,57.40,-0.22,13.50,31.5888251,120.7800277,2.451,13633982.008,24927968.531,2.451,-0.763,-0.895,0.574,0.561,0.989,0.599,0.000,18,19,4*56
$GPGGA,083121.80,3135.3295838,N,12046.8017999,E,4,18,1.2,2.4590,M,8.325,M,00,0004*6C
$GPHPD,1957,30699.600,57.29,0.27,13.52,31.5888264,120.7800300,2.459,13633981.201,24927969.781,2.459,-0.774,-0.894,0.581,0.561,0.989,0.599,0.000,18,19,4*7B
$GPGGA,083122.00,3135.3296585,N,12046.8019373,E,4,18,1.2,2.4642,M,8.325,M,01,0004*62
$GPHPD,1957,30699.800,57.43,-0.24,13.51,31.5888276,120.7800323,2.464,13633980.416,24927971.004,2.464,-0.777,-0.889,0.597,0.561,0.989,0.599,0.000,18,19,4*5C
$GPGGA,083122.20,3135.3297375,N,12046.8020788,E,4,18,1.2,2.4583,M,8.325,M,01,0004*6C
$GPHPD,1957,30700.000,57.31,-0.10,13.49,31.5888290,120.7800346,2.458,13633979.578,24927972.251,2.458,-0.766,-0.871,0.603,0.561,0.989,0.599,0.000,18,19,4*52
$GPGGA,083122.40,3135.3298096,N,12046.8022174,E,4,18,1.2,2.4572,M,8.325,M,01,0004*62
$GPHPD,1957,30700.200,57.49,0.05,13.48,31.5888302,120.7800370,2.457,13633978.832,24927973.503,2.457,-0.759,-0.888,0.608,0.561,0.989,0.599,0.000,18,19,4*7A
$GPGGA,083122.60,3135.3298868,N,12046.8023590,E,4,18,1.2,2.4574,M,8.325,M,00,0004*61
$GPHPD,1957,30700.400,57.34,0.02,13.48,31.5888314,120.7800393,2.457,13633978.020,24927974.761,2.457,-0.768,-0.878,0.590,0.561,0.989,0.599,0.000,18,19,4*7E
$GPGGA,083122.80,3135.3299609,N,12046.8024967,E,4,18,1.2,2.4673,M,8.325,M,00,0004*60
$GPHPD,1957,30700.600,57.34,0.36,13.48,31.5888327,120.7800416,2.467,13633977.244,24927975.991,2.467,-0.761,-0.894,0.593,0.561,0.989,0.599,0.000,18,19,4*76
$GPGGA,083123.00,3135.3300360,N,12046.8026391,E,4,18,1.2,2.4607,M,8.325,M,01,0004*61
$GPHPD,1957,30700.800,57.46,-0.29,13.50,31.5888339,120.7800440,2.461,13633976.463,24927977.271,2.461,-0.781,-0.829,0.610,0.561,0.989,0.599,0.000,18,19,4*5E
$GPGGA,083123.20,3135.3301105,N,12046.8027789,E,4,18,1.2,2.4610,M,8.325,M,01,0004*69
$GPHPD,1957,30701.000,57.42,0.04,13.52,31.5888352,120.7800463,2.461,13633975.685,24927978.523,2.461,-0.766,-0.898,0.583,0.561,0.989,0.599,0.000,18,19,4*73
$GPGGA,083123.40,3135.3301857,N,12046.8029191,E,4,18,1.2,2.4617,M,8.325,M,01,0004*67
$GPHPD,1957,30701.200,57.44,-0.05,13.52,31.5888364,120.7800487,2.462,13633974.898,24927979.777,2.462,-0.766,-0.896,0.586,0.561,0.989,0.599,0.000,18,19,4*5E
$GPGGA,083123.60,3135.3302607,N,12046.8030623,E,4,18,1.2,2.4574,M,8.325,M,00,0004*6C
$GPHPD,1957,30701.400,57.60,-0.04,13.53,31.5888377,120.7800510,2.457,13633974.121,24927981.067,2.457,-0.773,-0.880,0.588,0.561,0.989,0.599,0.000,18,19,4*54
$GPGGA,083123.80,3135.3303342,N,12046.8032048,E,4,18,1.2,2.4720,M,8.325,M,00,0004*6D
$GPHPD,1957,30701.600,57.58,0.05,13.53,31.5888389,120.7800534,2.472,13633973.363,24927982.358,2.472,-0.774,-0.895,0.593,0.561,0.989,0.599,0.000,18,19,4*70
$GPGGA,083124.00,3135.3304097,N,12046.8033499,E,4,18,1.2,2.4689,M,8.325,M,01,0004*64
$GPHPD,1957,30701.800,57.68,-0.24,13.53,31.5888402,120.7800558,2.469,13633972.582,24927983.669,2.469,-0.805,-0.852,0.604,0.561,0.989,0.599,0.000,18,19,4*5C
$GPGGA,083124.20,3135.3304879,N,12046.8034917,E,4,18,1.2,2.4711,M,8.325,M,01,0004*62
$GPHPD,1957,30702.000,57.87,-0.36,13.54,31.5888415,120.7800582,2.471,13633971.755,24927984.924,2.471,-0.796,-0.881,0.595,0.561,0.989,0.599,0.000,18,19,4*59
$GPGGA,083124.40,3135.3305651,N,12046.8036363,E,4,18,1.2,2.4652,M,8.325,M,01,0004*6C
$GPHPD,1957,30702.200,57.66,-0.05,13.54,31.5888428,120.7800606,2.465,13633970.949,24927986.219,2.465,-0.794,-0.867,0.609,0.561,0.989,0.599,0.000,18,19,4*5C
$GPGGA,083124.60,3135.3306415,N,12046.8037787,E,4,18,1.2,2.4659,M,8.325,M,00,0004*6A
$GPHPD,1957,30702.400,57.80,-0.19,13.55,31.5888440,120.7800630,2.466,13633970.150,24927987.491,2.466,-0.800,-0.896,0.608,0.561,0.989,0.599,0.000,18,19,4*5F
$GPGGA,083124.80,3135.3307162,N,12046.8039224,E,4,18,1.2,2.4678,M,8.325,M,00,0004*61
$GPHPD,1957,30702.600,57.83,0.19,13.54,31.5888453,120.7800654,2.468,13633969.377,24927988.790,2.468,-0.777,-0.888,0.605,0.561,0.989,0.599,0.000,18,19,4*7D
$GPGGA,083125.00,3135.3307916,N,12046.8040644,E,4,18,1.2,2.4771,M,8.325,M,01,0004*66
$GPHPD,1957,30702.800,57.74,0.08,13.51,31.5888465,120.7800677,2.477,13633968.591,24927990.063,2.477,-0.784,-0.917,0.594,0.561,0.989,0.599,0.000,18,19,4*77
$GPGGA,083125.20,3135.3308653,N,12046.8042107,E,4,18,1.2,2.4770,M,8.325,M,01,0004*66
$GPHPD,1957,30703.000,57.91,0.11,13.51,31.5888478,120.7800702,2.477,13633967.838,24927991.399,2.477,-0.793,-0.873,0.605,0.561,0.989,0.599,0.000,18,19,4*7A
$GPGGA,083125.40,3135.3309425,N,12046.8043498,E,4,18,1.2,2.4740,M,8.325,M,01,0004*63
$GPHPD,1957,30703.200,57.74,0.08,13.49,31.5888490,120.7800725,2.474,13633967.021,24927992.627,2.474,-0.802,-0.891,0.596,0.561,0.989,0.599,0.000,18,19,4*70
$GPGGA,083125.60,3135.3310193,N,12046.8044948,E,4,18,1.2,2.4704,M,8.325,M,00,0004*67
$GPHPD,1957,30703.400,57.76,0.07,13.51,31.5888503,120.7800749,2.470,13633966.221,24927993.929,2.470,-0.775,-0.897,0.594,0.561,0.989,0.599,0.000,18,19,4*7B
$GPGGA,083125.80,3135.3310944,N,12046.8046369,E,4,18,1.2,2.4684,M,8.325,M,00,0004*69
$GPHPD,1957,30703.600,57.65,-0.15,13.52,31.5888516,120.7800773,2.468,13633965.440,24927995.206,2.468,-0.773,-0.948,0.596,0.561,0.989,0.599,0.000,18,19,4*5E
$GPGGA,083126.00,3135.3311697,N,12046.8047801,E,4,18,1.2,2.4672,M,8.325,M,01,0004*6E
$GPHPD,1957,30703.800,57.88,-0.12,13.50,31.5888528,120.7800797,2.467,13633964.657,24927996.495,2.467,-0.780,-0.900,0.592,0.561,0.989,0.599,0.000,18,19,4*5F
$GPGGA,083126.20,3135.3312498,N,12046.8049249,E,4,18,1.2,2.4699,M,8.325,M,01,0004*6F
$GPHPD,1957,30704.000,57.56,-0.22,13.51,31.5888542,120.7800821,2.470,13633963.810,24927997.775,2.470,-0.782,-0.900,0.590,0.561,0.989,0.599,0.000,18,19,4*59
$GPGGA,083126.40,3135.3313235,N,12046.8050684,E,4,18,1.2,2.4718,M,8.325,M,01,0004*6C
$GPHPD,1957,30704.200,57.53,-0.08,13.49,31.5888554,120.7800845,2.472,13633963.052,24927999.077,2.472,-0.778,-0.911,0.609,0.561,0.989,0.599,0.000,18,19,4*59
$GPGGA,083126.60,3135.3314016,N,12046.8052154,E,4,18,1.2,2.4751,M,8.325,M,00,0004*6E
$GPHPD,1957,30704.400,57.65,-0.25,13.49,31.5888567,120.7800869,2.475,13633962.237,24928000.395,2.475,-0.793,-0.895,0.602,0.561,0.989,0.599,0.000,18,19,4*51
$GPGGA,083126.80,3135.3314816,N,12046.8053609,E,4,18,1.2,2.4757,M,8.325,M,00,0004*60
$GPHPD,1957,30704.600,57.51,-0.18,13.45,31.5888580,120.7800893,2.476,13633961.393,24928001.684,2.476,-0.803,-0.882,0.622,0.561,0.989,0.599,0.000,18,19,4*50
$GPGGA,083127.00,3135.3315571,N,12046.8055094,E,4,18,1.2,2.4646,M,8.325,M,01,0004*60
$GPHPD,1957,30704.800,57.73,-0.25,13.44,31.5888593,120.7800918,2.465,13633960.619,24928003.036,2.465,-0.799,-0.926,0.633,0.561,0.989,0.599,0.000,18,19,4*59
$GPGGA,083127.20,3135.3316347,N,12046.8056525,E,4,18,1.2,2.4795,M,8.325,M,01,0004*61
$GPHPD,1957,30705.000,57.64,-0.02,13.43,31.5888606,120.7800942,2.480,13633959.804,24928004.310,2.480,-0.794,-0.944,0.589,0.561,0.989,0.599,0.000,18,19,4*57
$GPGGA,083127.40,3135.3317118,N,12046.8057959,E,4,18,1.2,2.4751,M,8.325,M,01,0004*60
$GPHPD,1957,30705.200,57.56,-0.18,13.39,31.5888619,120.7800966,2.475,13633958.997,24928005.591,2.475,-0.807,-0.884,0.616,0.561,0.989,0.599,0.000,18,19,4*53
$GPGGA,083127.60,3135.3317828,N,12046.8059424,E,4,18,1.2,2.4730,M,8.325,M,00,0004*67
$GPHPD,1957,30705.400,57.68,-0.14,13.38,31.5888630,120.7800990,2.473,13633958.282,24928006.945,2.473,-0.796,-0.883,0.609,0.561,0.989,0.599,0.000,18,19,4*50
$GPGGA,083127.80,3135.3318644,N,12046.8060877,E,4,18,1.2,2.4712,M,8.325,M,00,0004*62
$GPHPD,1957,30705.600,57.63,-0.16,13.38,31.5888644,120.7801015,2.471,13633957.415,24928008.222,2.471,-0.800,-0.883,0.577,0.561,0.989,0.599,0.000,18,19,4*54
$GPGGA,083128.00,3135.3319404,N,12046.8062328,E,4,18,1.2,2.4742,M,8.325,M,01,0004*65
$GPHPD,1957,30705.800,57.65,-0.03,13.39,31.5888657,120.7801039,2.474,13633956.627,24928009.530,2.474,-0.793,-0.933,0.597,0.569,1.001,0.636,0.000,18,19,4*55
$GPGGA,083128.20,3135.3320174,N,12046.8063784,E,4,18,1.2,2.4774,M,8.325,M,01,0004*69
$GPHPD,1957,30706.000,57.78,0.08,13.40,31.5888670,120.7801063,2.477,13633955.825,24928010.838,2.477,-0.800,-0.910,0.605,0.561,0.989,0.599,0.000,18,19,4*78
$GPGGA,083128.40,3135.3320932,N,12046.8065237,E,4,18,1.2,2.4784,M,8.325,M,01,0004*61
$GPHPD,1957,30706.200,57.64,0.01,13.40,31.5888682,120.7801087,2.478,13633955.040,24928012.149,2.478,-0.798,-0.917,0.595,0.561,0.989,0.599,0.000,18,19,4*7C
$GPGGA,083128.60,3135.3321714,N,12046.8066682,E,4,18,1.2,2.4713,M,8.325,M,00,0004*6E
$GPHPD,1957,30706.400,57.67,0.13,13.40,31.5888695,120.7801111,2.471,13633954.219,24928013.437,2.471,-0.808,-0.906,0.593,0.561,0.989,0.599,0.000,18,19,4*70
$GPGGA,083128.80,3135.3322481,N,12046.8068097,E,4,18,1.2,2.4707,M,8.325,M,00,0004*65
$GPHPD,1957,30706.600,57.82,0.33,13.37,31.5888708,120.7801135,2.471,13633953.414,24928014.697,2.471,-0.798,-0.911,0.594,0.561,0.989,0.599,0.000,18,19,4*7C
$GPGGA,083129.00,3135.3323231,N,12046.8069578,E,4,18,1.2,2.4856,M,8.325,M,01,0004*6F
$GPHPD,1957,30706.800,57.86,-0.05,13.36,31.5888721,120.7801160,2.486,13633952.646,24928016.046,2.486,-0.776,-0.910,0.608,0.561,0.989,0.599,0.000,18,19,4*5F
$GPGGA,083129.20,3135.3323987,N,12046.8071033,E,4,18,1.2,2.4794,M,8.325,M,01,0004*69
$GPHPD,1957,30707.000,57.74,-0.22,13.35,31.5888733,120.7801184,2.479,13633951.864,24928017.361,2.479,-0.820,-0.877,0.624,0.561,0.989,0.599,0.000,18,19,4*5C
$GPGGA,083129.40,3135.3324763,N,12046.8072492,E,4,18,1.2,2.4732,M,8.325,M,01,0004*6C
$GPHPD,1957,30707.200,57.70,-0.29,13.34,31.5888746,120.7801208,2.473,13633951.055,24928018.669,2.473,-0.821,-0.884,0.614,0.561,0.989,0.599,0.000,18,19,4*53
$GPGGA,083129.60,3135.3325516,N,12046.8073973,E,4,18,1.2,2.4734,M,8.325,M,00,0004*6B
$GPHPD,1957,30707.400,57.87,-0.14,13.34,31.5888759,120.7801233,2.473,13633950.283,24928020.017,2.473,-0.781,-0.937,0.600,0.561,0.989,0.599,0.000,18,19,4*50
$GPGGA,083129.80,3135.3326301,N,12046.8075412,E,4,18,1.2,2.4768,M,8.325,M,00,0004*63
$GPHPD,1957,30707.600,57.87,-0.36,13.34,31.5888772,120.7801257,2.477,13633949.457,24928021.296,2.477,-0.804,-0.919,0.592,0.561,0.989,0.599,0.000,18,19,4*52
$GPGGA,083130.00,3135.3327057,N,12046.8076896,E,4,18,1.2,2.4765,M,8.325,M,01,0004*6D
$GPHPD,1957,30707.800,57.67,-0.36,13.35,31.5888784,120.7801282,2.477,13633948.681,24928022.646,2.477,-0.808,-0.882,0.620,0.561,0.989,0.599,0.000,18,19,4*55
$GPGGA,083130.20,3135.3327863,N,12046.8078357,E,4,18,1.2,2.4697,M,8.325,M,01,0004*64
$GPHPD,1957,30708.000,57.65,-0.25,13.33,31.5888798,120.7801306,2.470,13633947.829,24928023.939,2.470,-0.813,-0.921,0.600,0.561,0.989,0.599,0.000,18,19,4*51
$GPGGA,083130.40,3135.3328635,N,12046.8079780,E,4,18,1.2,2.4686,M,8.325,M,01,0004*6F
$GPHPD,1957,30708.200,57.93,-0.30,13.31,31.5888811,120.7801330,2.469,13633947.018,24928025.206,2.469,-0.799,-0.925,0.605,0.561,0.989,0.599,0.000,18,19,4*50
$GPGGA,083130.60,3135.3329384,N,12046.8081241,E,4,18,1.2,2.4734,M,8.325,M,00,0004*65
$GPHPD,1957,30708.400,57.95,-0.36,13.31,31.5888823,120.7801354,2.473,13633946.248,24928026.532,2.473,-0.786,-0.928,0.609,0.561,0.989,0.599,0.000,18,19,4*5F
$GPGGA,083130.80,3135.3330132,N,12046.8082670,E,4,18,1.2,2.4712,M,8.326,M,00,0004*6E
$GPHPD,1957,30708.600,57.79,-0.07,13.32,31.5888836,120.7801378,2.471,13633945.472,24928027.820,2.471,-0.790,-0.918,0.607,0.561,0.989,0.599,0.000,18,19,4*5D
$GPGGA,083131.00,3135.3330913,N,12046.8084131,E,4,18,1.2,2.4799,M,8.326,M,01,0004*6A
$GPHPD,1957,30708.800,57.84,-0.40,13.33,31.5888849,120.7801402,2.480,13633944.656,24928029.127,2.480,-0.784,-0.907,0.599,0.561,0.989,0.599,0.000,18,19,4*5B
$GPGGA,083131.20,3135.3331694,N,12046.8085593,E,4,18,1.2,2.4802,M,8.326,M,01,0004*69
$GPHPD,1957,30709.000,57.63,-0.50,13.35,31.5888862,120.7801427,2.480,13633943.840,24928030.436,2.480,-0.802,-0.882,0.626,0.561,0.989,0.599,0.000,18,19,4*5B
$GPGGA,083131.40,3135.3332444,N,12046.8087029,E,4,18,1.2,2.4755,M,8.326,M,01,0004*68
$GPHPD,1957,30709.200,57.67,-0.51,13.33,31.5888874,120.7801450,2.476,13633943.063,24928031.732,2.476,-0.802,-0.906,0.611,0.561,0.989,0.599,0.000,18,19,4*5B
$GPGGA,083131.60,3135.3333219,N,12046.8088486,E,4,18,1.2,2.4703,M,8.326,M,00,0004*69
$GPHPD,1957,30709.400,57.88,-0.06,13.33,31.5888887,120.7801475,2.470,13633942.255,24928033.038,2.470,-0.792,-0.883,0.608,0.561,0.989,0.599,0.000,18,19,4*5E
$GPGGA,083131.80,3135.3333986,N,12046.8089903,E,4,18,1.2,2.4743,M,8.326,M,00,0004*6F
$GPHPD,1957,30709.600,57.65,-0.15,13.33,31.5888900,120.7801498,2.474,13633941.450,24928034.300,2.474,-0.788,-0.903,0.594,0.561,0.989,0.599,0.000,18,19,4*5B
$GPGGA,083132.00,3135.3334760,N,12046.8091379,E,4,18,1.2,2.4718,M,8.326,M,01,0004*64
$GPHPD,1957,30709.800,57.79,-0.31,13.32,31.5888913,120.7801523,2.472,13633940.646,24928035.630,2.472,-0.781,-0.905,0.595,0.561,0.989,0.599,0.000,18,19,4*51
$GPGGA,083132.20,3135.3335491,N,12046.8092799,E,4,18,1.2,2.4679,M,8.326,M,01,0004*65
$GPHPD,1957,30710.000,57.90,-0.01,13.34,31.5888925,120.7801547,2.468,13633939.893,24928036.917,2.468,-0.775,-0.927,0.595,0.561,0.989,0.599,0.000,18,19,4*5E
$GPGGA,083132.40,3135.3336275,N,12046.8094251,E,4,18,1.2,2.4670,M,8.326,M,01,0004*62
$GPHPD,1957,30710.200,57.81,-0.15,13.34,31.5888938,120.7801571,2.467,13633939.071,24928038.212,2.467,-0.773,-0.917,0.562,0.561,0.989,0.599,0.000,18,19,4*59
$GPGGA,083132.60,3135.3336984,N,12046.8095691,E,4,18,1.2,2.4793,M,8.326,M,00,0004*61
$GPHPD,1957,30710.400,58.02,-0.08,13.36,31.5888950,120.7801595,2.479,13633938.353,24928039.536,2.479,-0.788,-0.911,0.594,0.561,0.989,0.599,0.000,18,19,4*58
$GPGGA,083132.80,3135.3337769,N,12046.8097113,E,4,18,1.2,2.4676,M,8.326,M,00,0004*66
$GPHPD,1957,30710.600,57.53,-0.55,13.36,31.5888963,120.7801619,2.468,13633937.524,24928040.794,2.468,-0.820,-0.847,0.602,0.561,0.989,0.599,0.000,18,19,4*50
$GPGGA,083133.00,3135.3338522,N,12046.8098542,E,4,18,1.2,2.4705,M,8.326,M,01,0004*66
$GPHPD,1957,30710.800,57.88,-0.20,13.35,31.5888975,120.7801642,2.471,13633936.741,24928042.080,2.471,-0.779,-0.940,0.588,0.561,0.989,0.599,0.000,18,19,4*54
$GPGGA,083133.20,3135.3339266,N,12046.8099977,E,4,18,1.2,2.4584,M,8.326,M,01,0004*62
$GPHPD,1957,30711.000,57.82,-0.57,13.35,31.5888988,120.7801666,2.458,13633935.972,24928043.377,2.458,-0.801,-0.845,0.617,0.561,0.989,0.599,0.000,18,19,4*55
$GPGGA,083133.40,3135.3340045,N,12046.8101386,E,4,18,1.2,2.4682,M,8.326,M,01,0004*68
$GPHPD,1957,30711.200,57.79,0.14,13.36,31.5889001,120.7801690,2.468,13633935.148,24928044.623,2.468,-0.772,-0.924,0.576,0.561,0.989,0.599,0.000,18,19,4*71
$GPGGA,083133.60,3135.3340779,N,12046.8102871,E,4,18,1.2,2.4708,M,8.326,M,00,0004*60
$GPHPD,1957,30711.400,57.71,-0.43,13.36,31.5889013,120.7801715,2.471,13633934.404,24928045.987,2.471,-0.786,-0.882,0.614,0.561,0.989,0.599,0.000,18,19,4*52
$GPGGA,083133.80,3135.3341572,N,12046.8104253,E,4,18,1.2,2.4633,M,8.326,M,00,0004*63
$GPHPD,1957,30711.600,57.68,-0.09,13.35,31.5889026,120.7801738,2.463,13633933.555,24928047.192,2.463,-0.800,-0.899,0.601,0.561,0.989,0.599,0.000,18,19,4*5F
$GPGGA,083134.00,3135.3342301,N,12046.8105689,E,4,18,1.2,2.4663,M,8.326,M,01,0004*6B
$GPHPD,1957,30711.800,57.93,-0.19,13.37,31.5889038,120.7801761,2.466,13633932.808,24928048.500,2.466,-0.769,-0.889,0.601,0.561,0.989,0.599,0.000,18,19,4*50
$GPGGA,083134.20,3135.3343069,N,12046.8107107,E,4,18,1.2,2.4662,M,8.326,M,01,0004*67
$GPHPD,1957,30712.000,57.74,-0.33,13.38,31.5889051,120.7801785,2.466,13633932.002,24928049.763,2.466,-0.763,-0.911,0.583,0.561,0.989,0.599,0.000,18,19,4*57
$GPGGA,083134.40,3135.3343823,N,12046.8108531,E,4,18,1.2,2.4698,M,8.326,M,01,0004*6C
$GPHPD,1957,30712.200,58.06,0.27,13.39,31.5889064,120.7801809,2.470,13633931.216,24928051.042,2.470,-0.771,-0.893,0.590,0.561,0.989,0.599,0.000,18,19,4*78
$GPGGA,083134.60,3135.3344576,N,12046.8109940,E,4,18,1.2,2.4626,M,8.326,M,00,0004*6B
$GPHPD,1957,30712.400,57.71,0.08,13.40,31.5889076,120.7801832,2.463,13633930.430,24928052.303,2.463,-0.786,-0.869,0.603,0.561,0.989,0.599,0.000,18,19,4*7B
$GPGGA,083134.80,3135.3345319,N,12046.8111360,E,4,18,1.2,2.4665,M,8.326,M,00,0004*6D
$GPHPD,1957,30712.600,57.74,0.12,13.41,31.5889089,120.7801856,2.467,13633929.659,24928053.583,2.467,-0.762,-0.895,0.582,0.561,0.989,0.599,0.000,18,19,4*7D
$GPGGA,083135.00,3135.3346049,N,12046.8112766,E,4,18,1.2,2.4679,M,8.326,M,01,0004*6C
$GPHPD,1957,30712.800,57.71,0.21,13.44,31.5889101,120.7801879,2.468,13633928.905,24928054.854,2.468,-0.780,-0.891,0.585,0.561,0.989,0.599,0.000,18,19,4*77
$GPGGA,083135.20,3135.3346807,N,12046.8114178,E,4,18,1.2,2.4646,M,8.326,M,01,0004*6F
$GPHPD,1957,30713.000,57.40,-0.01,13.46,31.5889113,120.7801903,2.465,13633928.111,24928056.116,2.465,-0.789,-0.887,0.581,0.561,0.989,0.599,0.000,18,19,4*54
$GPGGA,083135.40,3135.3347527,N,12046.8115590,E,4,18,1.2,2.4747,M,8.326,M,01,0004*64
$GPHPD,1957,30713.200,57.57,0.09,13.49,31.5889125,120.7801927,2.475,13633927.372,24928057.400,2.475,-0.779,-0.891,0.584,0.561,0.989,0.599,0.000,18,19,4*7F
$GPGGA,083135.60,3135.3348309,N,12046.8117012,E,4,18,1.2,2.4694,M,8.326,M,01,0004*61
$GPHPD,1957,30713.400,57.67,-0.35,13.51,31.5889138,120.7801950,2.469,13633926.547,24928058.660,2.469,-0.788,-0.861,0.590,0.561,0.989,0.599,0.000,18,19,4*53
$GPGGA,083135.80,3135.3349048,N,12046.8118410,E,4,18,1.2,2.4572,M,8.326,M,00,0004*6B
$GPHPD,1957,30713.600,57.65,-0.03,13.54,31.5889151,120.7801974,2.457,13633925.778,24928059.916,2.457,-0.778,-0.862,0.594,0.561,0.989,0.599,0.000,18,19,4*50
$GPGGA,083136.00,3135.3349806,N,12046.8119817,E,4,18,1.2,2.4679,M,8.326,M,01,0004*61
$GPHPD,1957,30713.800,57.79,-0.02,13.54,31.5889163,120.7801997,2.468,13633924.984,24928061.171,2.468,-0.756,-0.906,0.570,0.561,0.989,0.599,0.000,18,19,4*55
$GPGGA,083136.20,3135.3350564,N,12046.8121213,E,4,18,1.2,2.4649,M,8.326,M,01,0004*64
$GPHPD,1957,30714.000,57.81,0.28,13.56,31.5889176,120.7802020,2.465,13633924.187,24928062.414,2.465,-0.767,-0.882,0.600,0.561,0.989,0.599,0.000,18,19,4*7D
$GPGGA,083136.40,3135.3351296,N,12046.8122632,E,4,18,1.2,2.4695,M,8.326,M,01,0004*6C
$GPHPD,1957,30714.200,57.82,-0.03,13.57,31.5889188,120.7802044,2.470,13633923.432,24928063.699,2.470,-0.767,-0.872,0.596,0.561,0.989,0.599,0.000,18,19,4*53
$GPGGA,083136.60,3135.3352055,N,12046.8124028,E,4,18,1.2,2.4633,M,8.326,M,00,0004*66
$GPHPD,1957,30714.400,57.87,0.21,13.56,31.5889201,120.7802067,2.463,13633922.634,24928064.941,2.463,-0.795,-0.869,0.600,0.561,0.989,0.599,0.000,18,19,4*7C
$GPGGA,083136.80,3135.3352778,N,12046.8125454,E,4,18,1.2,2.4690,M,8.326,M,00,0004*67
$GPHPD,1957,30714.600,57.76,0.40,13.57,31.5889213,120.7802091,2.469,13633921.894,24928066.240,2.469,-0.763,-0.895,0.582,0.561,0.989,0.599,0.000,18,19,4*70
$GPGGA,083137.00,3135.3353534,N,12046.8126880,E,4,18,1.2,2.4722,M,8.326,M,01,0004*6A
$GPHPD,1957,30714.800,57.84,0.00,13.58,31.5889226,120.7802115,2.472,13633921.106,24928067.520,2.472,-0.785,-0.860,0.586,0.561,0.989,0.599,0.000,18,19,4*77
$GPGGA,083137.20,3135.3354293,N,12046.8128306,E,4,18,1.2,2.4723,M,8.326,M,01,0004*6F
$GPHPD,1957,30715.000,57.99,-0.08,13.57,31.5889238,120.7802138,2.472,13633920.314,24928068.798,2.472,-0.782,-0.864,0.604,0.561,0.989,0.599,0.000,18,19,4*5C
$GPGGA,083137.40,3135.3355059,N,12046.8129750,E,4,18,1.2,2.4680,M,8.326,M,01,0004*62
$GPHPD,1957,30715.200,57.74,-0.14,13.56,31.5889251,120.7802163,2.468,13633919.516,24928070.094,2.468,-0.770,-0.909,0.600,0.561,0.989,0.599,0.000,18,19,4*5F
$GPGGA,083137.60,3135.3355802,N,12046.8131174,E,4,18,1.2,2.4737,M,8.326,M,00,0004*63
$GPHPD,1957,30715.400,57.64,0.17,13.53,31.5889263,120.7802186,2.474,13633918.747,24928071.379,2.474,-0.784,-0.912,0.592,0.561,0.989,0.599,0.000,18,19,4*76
$GPGGA,083137.80,3135.3356556,N,12046.8132611,E,4,18,1.2,2.4796,M,8.326,M,00,0004*6E
$GPHPD,1957,30715.600,57.74,-0.15,13.52,31.5889276,120.7802210,2.480,13633917.964,24928072.673,2.480,-0.794,-0.892,0.602,0.561,0.989,0.599,0.000,18,19,4*5D
$GPGGA,083138.00,3135.3357297,N,12046.8134026,E,4,18,1.2,2.4818,M,8.326,M,01,0004*6E
$GPHPD,1957,30715.800,57.90,-0.26,13.52,31.5889288,120.7802234,2.482,13633917.196,24928073.949,2.482,-0.781,-0.904,0.595,0.561,0.989,0.599,0.000,18,19,4*5B
$GPGGA,083138.20,3135.3358052,N,12046.8135436,E,4,18,1.2,2.4803,M,8.326,M,01,0004*66
$GPHPD,1957,30716.000,57.91,-0.03,13.51,31.5889301,120.7802257,2.480,13633916.406,24928075.210,2.480,-0.782,-0.880,0.590,0.561,0.989,0.599,0.000,18,19,4*57
$GPGGA,083138.40,3135.3358825,N,12046.8136873,E,4,18,1.2,2.4745,M,8.326,M,01,0004*6B
$GPHPD,1957,30716.200,57.66,0.01,13.51,31.5889314,120.7802281,2.475,13633915.597,24928076.493,2.475,-0.777,-0.879,0.596,0.561,0.989,0.599,0.000,18,19,4*73
$GPGGA,083138.60,3135.3359580,N,12046.8138293,E,4,18,1.2,2.4842,M,8.326,M,01,0004*68
$GPHPD,1957,30716.400,57.92,0.01,13.52,31.5889326,120.7802305,2.484,13633914.809,24928077.766,2.484,-0.775,-0.920,0.585,0.561,0.989,0.599,0.000,18,19,4*7F
$GPGGA,083138.80,3135.3360331,N,12046.8139695,E,4,18,1.2,2.4813,M,8.326,M,00,0004*66
$GPHPD,1957,30716.600,57.73,-0.06,13.51,31.5889339,120.7802328,2.481,13633914.024,24928079.020,2.481,-0.793,-0.858,0.607,0.561,0.989,0.599,0.000,18,19,4*59
$GPGGA,083139.00,3135.3361073,N,12046.8141142,E,4,18,1.2,2.4775,M,8.326,M,01,0004*67
$GPHPD,1957,30716.800,57.79,0.02,13.50,31.5889351,120.7802352,2.478,13633913.261,24928080.333,2.478,-0.764,-0.892,0.590,0.561,0.989,0.599,0.000,18,19,4*76
$GPGGA,083139.20,3135.3361841,N,12046.8142547,E,4,18,1.2,2.4860,M,8.326,M,01,0004*65
$GPHPD,1957,30717.000,57.62,0.22,13.50,31.5889364,120.7802376,2.486,13633912.452,24928081.581,2.486,-0.782,-0.902,0.591,0.561,0.989,0.599,0.000,18,19,4*7F
$GPGGA,083139.40,3135.3362590,N,12046.8143976,E,4,18,1.2,2.4748,M,8.326,M,01,0004*6B
$GPHPD,1957,30717.200,57.59,-0.12,13.51,31.5889377,120.7802400,2.475,13633911.675,24928082.868,2.475,-0.795,-0.865,0.611,0.561,0.989,0.599,0.000,18,19,4*5E
$GPGGA,083139.60,3135.3363356,N,12046.8145435,E,4,18,1.2,2.4814,M,8.326,M,00,0004*6F
$GPHPD,1957,30717.400,57.86,0.00,13.55,31.5889389,120.7802424,2.481,13633910.880,24928084.182,2.481,-0.775,-0.914,0.585,0.561,0.989,0.599,0.000,18,19,4*7E
$GPGGA,083139.80,3135.3364116,N,12046.8146843,E,4,18,1.2,2.4781,M,8.326,M,00,0004*6D
$GPHPD,1957,30717.600,57.60,-0.08,13.55,31.5889402,120.7802447,2.478,13633910.083,24928085.438,2.478,-0.798,-0.863,0.605,0.561,0.989,0.599,0.000,18,19,4*57
$GPGGA,083140.00,3135.3364902,N,12046.8148293,E,4,18,1.2,2.4770,M,8.326,M,01,0004*60
$GPHPD,1957,30717.800,57.84,-0.10,13.55,31.5889415,120.7802472,2.477,13633909.257,24928086.729,2.477,-0.779,-0.883,0.596,0.561,0.989,0.599,0.000,18,19,4*51
$GPGGA,083140.20,3135.3365636,N,12046.8149716,E,4,18,1.2,2.4771,M,8.326,M,01,0004*63
$GPHPD,1957,30718.000,57.89,0.02,13.56,31.5889427,120.7802495,2.477,13633908.500,24928088.018,2.477,-0.775,-0.910,0.592,0.561,0.989,0.599,0.000,18,19,4*72
$GPGGA,083140.40,3135.3366389,N,12046.8151120,E,4,18,1.2,2.4747,M,8.326,M,01,0004*68
$GPHPD,1957,30718.200,57.73,-0.02,13.56,31.5889440,120.7802519,2.475,13633907.713,24928089.273,2.475,-0.785,-0.889,0.588,0.561,0.989,0.599,0.000,18,19,4*58
$GPGGA,083140.60,3135.3367162,N,12046.8152562,E,4,18,1.2,2.4774,M,8.326,M,00,0004*6C
$GPHPD,1957,30718.400,57.76,0.12,13.55,31.5889453,120.7802543,2.477,13633906.904,24928090.563,2.477,-0.771,-0.890,0.583,0.561,0.989,0.599,0.000,18,19,4*76
$GPGGA,083140.80,3135.3367898,N,12046.8153977,E,4,18,1.2,2.4772,M,8.326,M,00,0004*61
$GPHPD,1957,30718.600,57.68,0.48,13.55,31.5889465,120.7802566,2.477,13633906.143,24928091.841,2.477,-0.781,-0.884,0.600,0.561,0.989,0.599,0.000,18,19,4*73
$GPGGA,083141.00,3135.3368659,N,12046.8155426,E,4,18,1.2,2.4768,M,8.326,M,01,0004*61
$GPHPD,1957,30718.800,57.49,0.30,13.57,31.5889478,120.7802590,2.477,13633905.353,24928093.146,2.477,-0.774,-0.883,0.595,0.561,0.989,0.599,0.000,18,19,4*78
$GPGGA,083141.20,3135.3369418,N,12046.8156859,E,4,18,1.2,2.4808,M,8.326,M,01,0004*6B
$GPHPD,1957,30719.000,57.61,0.31,13.58,31.5889490,120.7802614,2.481,13633904.562,24928094.432,2.481,-0.789,-0.898,0.598,0.561,0.989,0.599,0.000,18,19,4*7D
$GPGGA,083141.40,3135.3370187,N,12046.8158253,E,4,18,1.2,2.4748,M,8.326,M,01,0004*63
$GPHPD,1957,30719.200,57.60,0.34,13.59,31.5889503,120.7802638,2.475,13633903.750,24928095.666,2.475,-0.793,-0.896,0.600,0.561,0.989,0.599,0.000,18,19,4*7E
$GPGGA,083141.60,3135.3370918,N,12046.8159683,E,4,18,1.2,2.4743,M,8.326,M,00,0004*6D
$GPHPD,1957,30719.400,57.68,0.41,13.61,31.5889515,120.7802661,2.474,13633902.999,24928096.965,2.474,-0.762,-0.907,0.591,0.561,0.989,0.599,0.000,18,19,4*7B
$GPGGA,083141.80,3135.3371690,N,12046.8161110,E,4,18,1.2,2.4845,M,8.326,M,00,0004*62
$GPHPD,1957,30719.600,57.68,0.13,13.61,31.5889528,120.7802685,2.485,13633902.188,24928098.237,2.485,-0.783,-0.888,0.577,0.561,0.989,0.599,0.000,18,19,4*71
$GPGGA,083142.00,3135.3372450,N,12046.8162523,E,4,18,1.2,2.4888,M,8.326,M,01,0004*63
$GPHPD,1957,30719.800,57.65,-0.10,13.62,31.5889541,120.7802709,2.489,13633901.393,24928099.499,2.489,-0.782,-0.868,0.594,0.561,0.989,0.599,0.000,18,19,4*5F
$GPGGA,083142.20,3135.3373197,N,12046.8163962,E,4,18,1.2,2.4901,M,8.326,M,01,0004*66
$GPHPD,1957,30720.000,57.65,0.13,13.60,31.5889553,120.7802733,2.490,13633900.620,24928100.799,2.490,-0.782,-0.884,0.606,0.561,0.989,0.599,0.000,18,19,4*7F
$GPGGA,083142.40,3135.3373948,N,12046.8165403,E,4,18,1.2,2.4904,M,8.326,M,01,0004*63
$GPHPD,1957,30720.200,57.92,-0.05,13.59,31.5889566,120.7802757,2.490,13633899.843,24928102.100,2.490,-0.800,-0.860,0.599,0.561,0.989,0.599,0.000,18,19,4*55
$GPGGA,083142.60,3135.3374734,N,12046.8166814,E,4,18,1.2,2.4906,M,8.326,M,00,0004*69
$GPHPD,1957,30720.400,57.62,-0.13,13.58,31.5889579,120.7802780,2.491,13633899.010,24928103.345,2.491,-0.791,-0.875,0.594,0.561,0.989,0.599,0.000,18,19,4*5C
$GPGGA,083142.80,3135.3375492,N,12046.8168256,E,4,18,1.2,2.4907,M,8.326,M,00,0004*6A
$GPHPD,1957,30720.600,57.85,0.06,13.56,31.5889592,120.7802804,2.491,13633898.222,24928104.643,2.491,-0.766,-0.883,0.622,0.561,0.989,0.599,0.000,18,19,4*7F
$GPGGA,083143.00,3135.3376233,N,12046.8169697,E,4,18,1.2,2.4971,M,8.326,M,01,0004*65
$GPHPD,1957,30720.800,57.79,0.14,13.54,31.5889604,120.7802828,2.497,13633897.459,24928105.949,2.497,-0.783,-0.897,0.604,0.561,0.989,0.599,0.000,18,19,4*7A
$GPGGA,083143.20,3135.3376992,N,12046.8171127,E,4,18,1.2,2.4888,M,8.326,M,01,0004*65
$GPHPD,1957,30721.000,57.82,-0.19,13.53,31.5889617,120.7802852,2.489,13633896.668,24928107.232,2.489,-0.796,-0.884,0.606,0.561,0.989,0.599,0.000,18,19,4*5F
$GPGGA,083143.40,3135.3377760,N,12046.8172578,E,4,18,1.2,2.5022,M,8.326,M,01,0004*65
$GPHPD,1957,30721.200,57.90,0.08,13.53,31.5889629,120.7802876,2.502,13633895.869,24928108.535,2.502,-0.786,-0.902,0.586,0.561,0.989,0.599,0.000,18,19,4*7E
$GPGGA,083143.60,3135.3378532,N,12046.8174011,E,4,18,1.2,2.4970,M,8.326,M,00,0004*6F
$GPHPD,1957,30721.400,57.87,-0.17,13.52,31.5889642,120.7802900,2.497,13633895.060,24928109.814,2.497,-0.803,-0.870,0.617,0.561,0.989,0.599,0.000,18,19,4*52
$GPGGA,083143.80,3135.3379271,N,12046.8175482,E,4,18,1.2,2.4973,M,8.326,M,00,0004*6C
$GPHPD,1957,30721.600,58.01,-0.15,13.49,31.5889655,120.7802925,2.497,13633894.305,24928111.158,2.497,-0.787,-0.903,0.604,0.561,0.989,0.599,0.000,18,19,4*55
$GPGGA,083144.00,3135.3380053,N,12046.8176901,E,4,18,1.2,2.4951,M,8.326,M,01,0004*63
$GPHPD,1957,30721.800,57.65,0.01,13.49,31.5889668,120.7802948,2.495,13633893.479,24928112.414,2.495,-0.801,-0.903,0.591,0.561,0.989,0.599,0.000,18,19,4*70
$GPGGA,083144.20,3135.3380821,N,12046.8178348,E,4,18,1.2,2.5006,M,8.326,M,01,0004*6F
$GPHPD,1957,30722.000,57.61,-0.14,13.49,31.5889680,120.7802972,2.501,13633892.679,24928113.713,2.501,-0.775,-0.909,0.604,0.561,0.989,0.599,0.000,18,19,4*56
$GPGGA,083144.40,3135.3381564,N,12046.8179793,E,4,18,1.2,2.4977,M,8.326,M,01,0004*69
$GPHPD,1957,30722.200,57.65,-0.17,13.50,31.5889693,120.7802997,2.498,13633891.914,24928115.023,2.498,-0.784,-0.899,0.612,0.561,0.989,0.599,0.000,18,19,4*56
$GPGGA,083144.60,3135.3382334,N,12046.8181214,E,4,18,1.2,2.4978,M,8.326,M,00,0004*68
$GPHPD,1957,30722.400,57.39,-0.08,13.54,31.5889706,120.7803020,2.498,13633891.105,24928116.289,2.498,-0.794,-0.890,0.596,0.561,0.989,0.599,0.000,18,19,4*54
$GPGGA,083144.80,3135.3383085,N,12046.8182630,E,4,18,1.2,2.4903,M,8.326,M,00,0004*63
$GPHPD,1957,30722.600,57.53,0.08,13.57,31.5889718,120.7803044,2.490,13633890.323,24928117.559,2.490,-0.769,-0.931,0.603,0.561,0.989,0.599,0.000,18,19,4*72
$GPGGA,083145.00,3135.3383854,N,12046.8184080,E,4,18,1.2,2.4909,M,8.326,M,01,0004*6E
$GPHPD,1957,30722.800,57.66,0.18,13.63,31.5889731,120.7803068,2.491,13633889.521,24928118.861,2.491,-0.769,-0.913,0.583,0.561,0.989,0.599,0.000,18,19,4*77
$GPGGA,083145.20,3135.3384630,N,12046.8185494,E,4,18,1.2,2.4958,M,8.326,M,01,0004*63
$GPHPD,1957,30723.000,57.72,0.38,13.63,31.5889744,120.7803092,2.496,13633888.703,24928120.114,2.496,-0.784,-0.919,0.591,0.561,0.989,0.599,0.000,18,19,4*77
$GPGGA,083145.40,3135.3385392,N,12046.8186931,E,4,18,1.2,2.4962,M,8.326,M,01,0004*61
$GPHPD,1957,30723.200,57.69,0.30,13.65,31.5889757,120.7803116,2.496,13633887.909,24928121.404,2.496,-0.780,-0.896,0.611,0.561,0.989,0.599,0.000,18,19,4*79
$GPGGA,083145.60,3135.3386108,N,12046.8188344,E,4,18,1.2,2.4948,M,8.326,M,00,0004*6E
$GPHPD,1957,30723.400,57.71,0.27,13.68,31.5889768,120.7803139,2.495,13633887.176,24928122.691,2.495,-0.780,-0.893,0.602,0.561,0.989,0.599,0.000,18,19,4*76
$GPGGA,083145.80,3135.338690,N,12046.8189752,E,4,18,1.2,2.5016,M,8.326,M,00,0004*69
$GPHPD,1957,30723.600,57.71,0.47,13.70,31.5889782,120.7803163,2.502,13633886.348,24928123.934,2.502,-0.789,-0.876,0.584,0.561,0.989,0.599,0.000,18,19,4*70
$GPGGA,083146.00,3135.3387644,N,12046.8191182,E,4,18,1.2,2.5018,M,8.326,M,01,0004*69
$GPHPD,1957,30723.800,57.66,0.16,13.74,31.5889794,120.7803186,2.502,13633885.564,24928125.220,2.502,-0.773,-0.881,0.604,0.561,0.989,0.599,0.000,18,19,4*71
$GPGGA,083146.20,3135.3388405,N,12046.8192591,E,4,18,1.2,2.5094,M,8.326,M,01,0004*62
$GPHPD,1957,30724.000,57.70,0.13,13.75,31.5889807,120.7803210,2.509,13633884.766,24928126.477,2.509,-0.788,-0.881,0.598,0.561,0.989,0.599,0.000,18,19,4*70
$GPGGA,083146.40,3135.3389191,N,12046.8194004,E,4,18,1.2,2.5090,M,8.326,M,01,0004*66
$GPHPD,1957,30724.200,57.64,-0.01,13.75,31.5889820,120.7803233,2.509,13633883.933,24928127.723,2.509,-0.795,-0.872,0.616,0.561,0.989,0.599,0.000,18,19,4*52
$GPGGA,083146.60,3135.3389902,N,12046.8195408,E,4,18,1.2,2.5061,M,8.326,M,00,0004*60
$GPHPD,1957,30724.400,57.45,0.30,13.76,31.5889832,120.7803257,2.506,13633883.205,24928129.003,2.506,-0.772,-0.887,0.616,0.561,0.989,0.599,0.000,18,19,4*7C
$GPGGA,083146.80,3135.3390654,N,12046.8196830,E,4,18,1.2,2.5074,M,8.326,M,00,0004*6A
$GPHPD,1957,30724.600,57.58,0.03,13.76,31.5889844,120.7803281,2.507,13633882.422,24928130.280,2.507,-0.769,-0.875,0.578,0.561,0.989,0.599,0.000,18,19,4*77
$GPGGA,083147.00,3135.3391413,N,12046.8198209,E,4,18,1.2,2.5091,M,8.326,M,01,0004*67
$GPHPD,1957,30724.800,57.62,0.12,13.77,31.5889857,120.7803303,2.509,13633881.621,24928131.502,2.509,-0.773,-0.877,0.588,0.561,0.989,0.599,0.000,18,19,4*70
$GPGGA,083147.20,3135.3392140,N,12046.8199583,E,4,18,1.2,2.5018,M,8.326,M,01,0004*60
$GPHPD,1957,30725.000,57.62,0.18,13.77,31.5889869,120.7803326,2.502,13633880.864,24928132.736,2.502,-0.763,-0.901,0.575,0.561,0.989,0.599,0.000,18,19,4*72
$GPGGA,083147.40,3135.3392872,N,12046.8200927,E,4,18,1.2,2.5155,M,8.326,M,01,0004*67
$GPHPD,1957,30725.200,57.66,0.38,13.78,31.5889881,120.7803349,2.516,13633880.094,24928133.931,2.516,-0.743,-0.878,0.565,0.561,0.989,0.599,0.000,18,19,4*75
$GPGGA,083147.60,3135.3393570,N,12046.8202244,E,4,18,1.2,2.5112,M,8.326,M,00,0004*65
$GPHPD,1957,30725.400,57.63,0.36,13.75,31.5889893,120.7803371,2.511,13633879.367,24928135.113,2.511,-0.756,-0.812,0.600,0.561,0.989,0.599,0.000,18,19,4*72
$GPGGA,083147.80,3135.3394261,N,12046.8203530,E,4,18,1.2,2.5142,M,8.326,M,00,0004*6B
$GPHPD,1957,30725.600,57.59,0.32,13.72,31.5889904,120.7803392,2.514,13633878.643,24928136.262,2.514,-0.723,-0.800,0.551,0.561,0.989,0.599,0.000,18,19,4*7A
$GPGGA,083148.00,3135.3394913,N,12046.8204768,E,4,18,1.2,2.5220,M,8.326,M,01,0004*6C
$GPHPD,1957,30725.800,57.79,0.43,13.65,31.5889915,120.7803413,2.522,13633877.966,24928137.375,2.522,-0.698,-0.785,0.540,0.561,0.989,0.599,0.000,18,19,4*7A
$GPGGA,083148.20,3135.3395537,N,12046.8205935,E,4,18,1.2,2.5240,M,8.326,M,01,0004*64
$GPHPD,1957,30726.000,57.70,0.29,13.56,31.5889926,120.7803432,2.524,13633877.314,24928138.420,2.524,-0.691,-0.743,0.536,0.561,0.989,0.599,0.000,18,19,4*72
$GPGGA,083148.40,3135.3396109,N,12046.8207047,E,4,18,1.2,2.5194,M,8.326,M,01,0004*6C
$GPHPD,1957,30726.200,57.64,0.22,13.46,31.5889935,120.7803451,2.519,13633876.724,24928139.428,2.519,-0.649,-0.715,0.502,0.561,0.989,0.599,0.000,18,19,4*76
$GPGGA,083148.60,3135.3396667,N,12046.8208078,E,4,18,1.2,2.5292,M,8.326,M,00,0004*66
$GPHPD,1957,30726.400,57.44,0.09,13.38,31.5889944,120.7803468,2.529,13633876.139,24928140.346,2.529,-0.616,-0.708,0.461,0.561,0.989,0.599,0.000,18,19,4*77
$GPGGA,083148.80,3135.3397165,N,12046.8209041,E,4,18,1.2,2.5315,M,8.326,M,00,0004*69
$GPHPD,1957,30726.600,57.52,0.24,13.29,31.5889953,120.7803484,2.532,13633875.625,24928141.218,2.532,-0.572,-0.631,0.449,0.561,0.989,0.599,0.000,18,19,4*7B
$GPGGA,083149.00,3135.3397637,N,12046.8209913,E,4,18,1.2,2.5316,M,8.326,M,01,0004*6C
$GPHPD,1957,30726.800,57.46,0.25,13.21,31.5889961,120.7803499,2.532,13633875.129,24928141.995,2.532,-0.541,-0.574,0.407,0.561,0.989,0.599,0.000,18,19,4*79
$GPGGA,083149.20,3135.3398080,N,12046.8210722,E,4,18,1.2,2.5314,M,8.326,M,01,0004*6D
$GPHPD,1957,30727.000,57.65,0.09,13.12,31.5889968,120.7803512,2.531,13633874.662,24928142.713,2.531,-0.477,-0.548,0.370,0.561,0.989,0.599,0.000,18,19,4*72
$GPGGA,083149.40,3135.3398465,N,12046.8211447,E,4,18,1.2,2.5368,M,8.326,M,01,0004*6E
$GPHPD,1957,30727.200,57.69,0.03,13.05,31.5889974,120.7803524,2.537,13633874.261,24928143.363,2.537,-0.437,-0.489,0.354,0.561,0.989,0.599,0.000,18,19,4*73
$GPGGA,083149.60,3135.3398817,N,12046.8212123,E,4,18,1.2,2.5319,M,8.326,M,00,0004*66
$GPHPD,1957,30727.400,57.71,0.12,13.00,31.5889980,120.7803535,2.532,13633873.897,24928143.974,2.532,-0.414,-0.444,0.316,0.561,0.989,0.599,0.000,18,19,4*7C
$GPGGA,083149.80,3135.3399144,N,12046.8212717,E,4,18,1.2,2.5276,M,8.326,M,00,0004*6F
$GPHPD,1957,30727.600,57.52,0.18,12.97,31.5889986,120.7803545,2.528,13633873.552,24928144.500,2.528,-0.378,-0.439,0.281,0.561,0.989,0.599,0.000,18,19,4*7F
$GPGGA,083150.00,3135.3399425,N,12046.8213264,E,4,18,1.2,2.5392,M,8.326,M,01,0004*67
$GPHPD,1957,30727.800,57.60,0.10,12.94,31.5889990,120.7803554,2.539,13633873.262,24928144.996,2.539,-0.330,-0.393,0.250,0.561,0.989,0.599,0.000,18,19,4*7C
$GPGGA,083150.20,3135.3399701,N,12046.8213769,E,4,18,1.2,2.5324,M,8.326,M,01,0004*65
$GPHPD,1957,30728.000,57.52,0.06,12.93,31.5889995,120.7803563,2.532,13633872.972,24928145.444,2.532,-0.315,-0.329,0.240,0.561,0.989,0.599,0.000,18,19,4*74
$GPGGA,083150.40,3135.3399962,N,12046.8214270,E,4,18,1.2,2.5271,M,8.326,M,01,0004*63
$GPHPD,1957,30728.200,57.52,0.18,12.95,31.5889999,120.7803571,2.527,13633872.701,24928145.897,2.527,-0.272,-0.329,0.204,0.561,0.989,0.599,0.000,18,19,4*78
$GPGGA,083150.60,3135.3400203,N,12046.8214701,E,4,18,1.2,2.5316,M,8.326,M,00,0004*68
$GPHPD,1957,30728.400,57.53,0.27,12.96,31.5890003,120.7803578,2.532,13633872.446,24928146.276,2.532,-0.263,-0.305,0.198,0.561,0.989,0.599,0.000,18,19,4*75
$GPGGA,083150.80,3135.3400442,N,12046.8215161,E,4,18,1.2,2.5276,M,8.326,M,00,0004*63
$GPHPD,1957,30728.600,57.55,0.24,12.98,31.5890007,120.7803586,2.528,13633872.199,24928146.692,2.528,-0.243,-0.276,0.197,0.561,0.989,0.599,0.000,18,19,4*78
$GPGGA,083151.00,3135.3400672,N,12046.8215602,E,4,18,1.2,2.5252,M,8.326,M,01,0004*6E
$GPHPD,1957,30728.800,57.55,0.12,13.00,31.5890011,120.7803593,2.525,13633871.960,24928147.090,2.525,-0.238,-0.292,0.181,0.561,0.989,0.599,0.000,18,19,4*79
$GPGGA,083151.20,3135.3400894,N,12046.8216010,E,4,18,1.2,2.5326,M,8.326,M,01,0004*6E
$GPHPD,1957,30729.000,57.64,0.36,13.01,31.5890015,120.7803600,2.533,13633871.727,24928147.453,2.533,-0.231,-0.278,0.170,0.561,0.989,0.599,0.000,18,19,4*7D
$GPGGA,083151.40,3135.3401093,N,12046.8216384,E,4,18,1.2,2.5329,M,8.326,M,01,0004*67
$GPHPD,1957,30729.200,57.67,0.04,13.01,31.5890018,120.7803606,2.533,13633871.519,24928147.788,2.533,-0.231,-0.250,0.184,0.561,0.989,0.599,0.000,18,19,4*7D
$GPGGA,083151.60,3135.3401306,N,12046.8216748,E,4,18,1.2,2.5371,M,8.326,M,00,0004*62
$GPHPD,1957,30729.400,57.64,-0.17,13.00,31.5890022,120.7803612,2.537,13633871.290,24928148.103,2.537,-0.209,-0.229,0.163,0.561,0.989,0.599,0.000,18,19,4*5A
$GPGGA,083151.80,3135.3401456,N,12046.8217046,E,4,18,1.2,2.5379,M,8.326,M,00,0004*6E
$GPHPD,1957,30729.600,57.54,-0.02,12.97,31.5890024,120.7803617,2.538,13633871.137,24928148.375,2.538,-0.202,-0.222,0.169,0.561,0.989,0.599,0.000,18,19,4*54
$GPGGA,083152.00,3135.3401616,N,12046.8217346,E,4,18,1.2,2.5391,M,8.326,M,01,0004*67
$GPHPD,1957,30729.800,57.74,0.05,12.94,31.5890027,120.7803622,2.539,13633870.970,24928148.644,2.539,-0.183,-0.206,0.141,0.561,0.989,0.599,0.000,18,19,4*7F
$GPGGA,083152.20,3135.3401739,N,12046.8217591,E,4,18,1.2,2.5384,M,8.326,M,01,0004*61
$GPHPD,1957,30730.000,57.61,-0.09,12.92,31.5890029,120.7803627,2.538,13633870.844,24928148.868,2.538,-0.157,-0.194,0.113,0.561,0.989,0.599,0.000,18,19,4*57
$GPGGA,083152.40,3135.3401857,N,12046.8217793,E,4,18,1.2,2.5429,M,8.326,M,01,0004*60
$GPHPD,1957,30730.200,57.67,-0.10,12.92,31.5890031,120.7803630,2.543,13633870.717,24928149.043,2.543,-0.142,-0.137,0.103,0.561,0.989,0.599,0.000,18,19,4*51
$GPGGA,083152.60,3135.3401955,N,12046.8218006,E,4,18,1.2,2.5399,M,8.326,M,00,0004*68
$GPHPD,1957,30730.400,57.74,-0.01,12.93,31.5890033,120.7803633,2.540,13633870.621,24928149.243,2.540,-0.120,-0.135,0.098,0.561,0.989,0.599,0.000,18,19,4*56
$GPGGA,083152.80,3135.3402038,N,12046.8218154,E,4,18,1.2,2.5366,M,8.326,M,00,0004*61
$GPHPD,1957,30730.600,57.66,0.21,12.91,31.5890034,120.7803636,2.537,13633870.532,24928149.373,2.537,-0.119,-0.111,0.089,0.561,0.989,0.599,0.000,18,19,4*77
$GPGGA,083153.00,3135.3402083,N,12046.8218232,E,4,18,1.2,2.5426,M,8.326,M,01,0004*69
$GPHPD,1957,30730.800,57.61,0.15,12.83,31.5890035,120.7803637,2.543,13633870.484,24928149.441,2.543,-0.088,-0.108,0.066,0.561,0.989,0.599,0.000,18,19,4*70
$GPGGA,083153.20,3135.3402060,N,12046.8218206,E,4,18,1.2,2.5384,M,8.326,M,01,0004*6E
$GPHPD,1957,30731.000,57.62,0.09,12.75,31.5890034,120.7803637,2.538,13633870.512,24928149.423,2.538,-0.038,-0.038,0.042,0.561,0.989,0.599,0.000,18,19,4*7A
$GPGGA,083153.40,3135.3402071,N,12046.8218221,E,4,18,1.2,2.5425,M,8.326,M,01,0004*61
$GPHPD,1957,30731.200,57.63,0.12,12.81,31.5890035,120.7803637,2.543,13633870.499,24928149.434,2.543,0.006,0.003,-0.011,0.561,0.989,0.599,0.000,18,19,4*53
$GPGGA,083153.60,3135.3402072,N,12046.8218219,E,4,18,1.2,2.5426,M,8.326,M,00,0004*69
$GPHPD,1957,30731.400,57.55,0.10,12.84,31.5890035,120.7803637,2.543,13633870.497,24928149.431,2.543,0.001,-0.015,0.003,0.561,0.989,0.599,0.000,18,19,4*5F
$GPGGA,083153.80,3135.3402072,N,12046.8218219,E,4,18,1.2,2.5457,M,8.326,M,00,0004*61
$GPHPD,1957,30731.600,57.62,0.02,12.88,31.5890035,120.7803637,2.546,13633870.497,24928149.431,2.546,0.005,-0.002,-0.000,0.561,0.989,0.599,0.000,18,19,4*7A
$GPGGA,083154.00,3135.3402090,N,12046.8218209,E,4,18,1.2,2.5461,M,8.326,M,01,0004*67
$GPHPD,1957,30731.800,57.56,-0.10,12.91,31.5890035,120.7803637,2.546,13633870.469,24928149.409,2.546,-0.004,0.012,0.005,0.561,0.989,0.599,0.000,18,19,4*77
$GPGGA,083154.20,3135.3402085,N,12046.8218222,E,4,18,1.2,2.5349,M,8.326,M,01,0004*65
