$GPGGA,090728.00,3135.3816597,N,12046.8007113,E,4,16,1.5,2.7500,M,8.325,M,01,0004*69
$GPHPD,1957,32865.800,146.53,-0.06,14.59,31.5896943,120.7800119,2.750,13633238.713,24927653.536,2.750,-0.020,0.009,-0.012,0.719,1.310,0.749,0.000,16,16,4*65
$GPGGA,090728.20,3135.3816505,N,12046.8007182,E,4,16,1.5,2.7449,M,8.325,M,01,0004*64
$GPHPD,1957,32866.000,146.46,-0.22,14.63,31.5896942,120.7800120,2.745,13633238.857,24927653.673,2.745,-0.031,0.005,-0.030,0.719,1.310,0.749,0.000,16,16,4*6F
$GPGGA,090728.40,3135.3816339,N,12046.8007322,E,4,16,1.5,2.7397,M,8.325,M,01,0004*67
$GPHPD,1957,32866.200,146.26,-0.46,14.69,31.5896939,120.7800122,2.740,13633239.122,24927653.939,2.740,-0.070,-0.000,-0.082,0.719,1.310,0.749,0.000,16,16,4*42
$GPGGA,090728.60,3135.3816106,N,12046.8007516,E,4,16,1.5,2.7379,M,8.325,M,00,0004*6B
$GPHPD,1957,32866.400,146.24,-0.43,14.76,31.5896935,120.7800125,2.738,13633239.492,24927654.308,2.738,-0.127,-0.002,-0.138,0.719,1.310,0.750,0.000,16,16,4*4E
$GPGGA,090728.80,3135.3815774,N,12046.8007780,E,4,16,1.5,2.7406,M,8.325,M,00,0004*67
$GPHPD,1957,32866.600,146.37,-0.14,14.83,31.5896930,120.7800130,2.741,13633240.017,24927654.820,2.741,-0.183,0.022,-0.185,0.719,1.310,0.750,0.000,16,16,4*66
$GPGGA,090729.00,3135.3815341,N,12046.8008097,E,4,16,1.5,2.7413,M,8.325,M,01,0004*67
$GPHPD,1957,32866.800,146.37,-0.28,14.90,31.5896922,120.7800135,2.741,13633240.696,24927655.454,2.741,-0.263,0.051,-0.254,0.720,1.310,0.750,0.000,16,16,4*6E
$GPGGA,090729.20,3135.3814849,N,12046.8008503,E,4,16,1.5,2.7395,M,8.325,M,01,0004*66
$GPHPD,1957,32867.000,146.49,-0.07,14.95,31.5896914,120.7800142,2.740,13633241.478,24927656.230,2.740,-0.330,0.064,-0.328,0.720,1.310,0.750,0.000,16,16,4*6C
$GPGGA,090729.40,3135.3814263,N,12046.8008950,E,4,16,1.5,2.7371,M,8.325,M,01,0004*62
$GPHPD,1957,32867.200,146.59,-0.12,14.99,31.5896904,120.7800149,2.737,13633242.401,24927657.110,2.737,-0.392,0.046,-0.392,0.720,1.310,0.750,0.000,16,16,4*69
$GPGGA,090729.60,3135.3813603,N,12046.8009473,E,4,16,1.5,2.7304,M,8.325,M,00,0004*6B
$GPHPD,1957,32867.400,146.47,-0.03,15.04,31.5896893,120.7800158,2.730,13633243.444,24927658.125,2.730,-0.434,0.054,-0.475,0.739,1.336,0.830,0.000,16,16,4*60
$GPGGA,090729.80,3135.3812885,N,12046.8010049,E,4,16,1.5,2.7211,M,8.325,M,00,0004*64
$GPHPD,1957,32867.600,146.44,0.39,15.07,31.5896881,120.7800167,2.721,13633244.581,24927659.238,2.721,-0.502,0.066,-0.489,0.720,1.310,0.750,0.000,16,16,4*4B
$GPGGA,090730.00,3135.3812100,N,12046.8010650,E,4,16,1.5,2.7268,M,8.325,M,01,0004*61
$GPHPD,1957,32867.800,146.51,0.31,15.07,31.5896868,120.7800178,2.727,13633245.818,24927660.420,2.727,-0.521,-0.008,-0.605,0.720,1.310,0.750,0.000,16,16,4*6B
$GPGGA,090730.20,3135.3811261,N,12046.8011277,E,4,16,1.5,2.7297,M,8.325,M,01,0004*64
$GPHPD,1957,32868.000,146.36,0.14,15.06,31.5896854,120.7800188,2.730,13633247.137,24927661.664,2.730,-0.596,0.061,-0.606,0.720,1.310,0.750,0.000,16,16,4*43
$GPGGA,090730.40,3135.3810387,N,12046.8011919,E,4,16,1.5,2.7360,M,8.325,M,01,0004*60
$GPHPD,1957,32868.200,146.21,0.10,15.03,31.5896840,120.7800199,2.736,13633248.508,24927662.947,2.736,-0.639,0.099,-0.664,0.720,1.310,0.750,0.000,16,16,4*4C
$GPGGA,090730.60,3135.3809485,N,12046.8012604,E,4,16,1.5,2.7349,M,8.325,M,00,0004*65
$GPHPD,1957,32868.400,146.26,-0.01,14.98,31.5896825,120.7800210,2.735,13633249.928,24927664.299,2.735,-0.662,0.088,-0.691,0.720,1.310,0.750,0.000,16,16,4*67
$GPGGA,090730.80,3135.3808579,N,12046.8013308,E,4,16,1.5,2.7286,M,8.325,M,00,0004*62
$GPHPD,1957,32868.600,146.28,0.34,14.93,31.5896810,120.7800222,2.729,13633251.358,24927665.675,2.729,-0.692,0.107,-0.713,0.720,1.310,0.750,0.000,16,16,4*4D
$GPGGA,090731.00,3135.3807664,N,12046.8013970,E,4,16,1.5,2.7286,M,8.325,M,01,0004*6F
$GPHPD,1957,32868.800,146.67,0.69,14.86,31.5896794,120.7800233,2.729,13633252.792,24927667.006,2.729,-0.703,0.124,-0.704,0.720,1.310,0.750,0.000,16,16,4*48
$GPGGA,090731.20,3135.3806807,N,12046.8014653,E,4,16,1.5,2.7240,M,8.325,M,01,0004*64
$GPHPD,1957,32869.000,146.32,0.32,14.77,31.5896780,120.7800244,2.724,13633254.148,24927668.329,2.724,-0.700,0.131,-0.713,0.720,1.310,0.750,0.000,16,16,4*43
$GPGGA,090731.40,3135.3805903,N,12046.8015305,E,4,16,1.5,2.7351,M,8.325,M,01,0004*62
$GPHPD,1957,32869.200,146.49,0.36,14.70,31.5896765,120.7800255,2.735,13633255.564,24927669.641,2.735,-0.663,0.044,-0.702,0.720,1.310,0.750,0.000,16,14,4*41
$GPGGA,090731.60,3135.3805057,N,12046.8015943,E,4,16,1.5,2.7446,M,8.325,M,00,0004*60
$GPHPD,1957,32869.400,146.01,-0.34,14.62,31.5896751,120.7800266,2.745,13633256.895,24927670.903,2.745,-0.663,0.098,-0.690,0.720,1.310,0.750,0.000,16,15,4*6B
$GPGGA,090731.80,3135.3804245,N,12046.8016610,E,4,16,1.5,2.7426,M,8.325,M,00,0004*62
$GPHPD,1957,32869.600,145.41,-1.51,14.56,31.5896737,120.7800277,2.743,13633258.184,24927672.180,2.743,-0.656,0.105,-0.656,0.720,1.310,0.750,0.000,16,15,4*64
$GPGGA,090732.00,3135.3803425,N,12046.8017203,E,4,16,1.5,2.7567,M,8.325,M,01,0004*6C
$GPHPD,1957,32869.800,145.83,-0.62,14.49,31.5896724,120.7800287,2.757,13633259.469,24927673.373,2.757,-0.628,0.031,-0.657,0.720,1.310,0.750,0.000,16,15,4*60
$GPGGA,090732.20,3135.3802651,N,12046.8017820,E,4,16,1.5,2.7497,M,8.325,M,01,0004*6B
$GPHPD,1957,32870.000,145.84,-0.44,14.44,31.5896711,120.7800297,2.750,13633260.693,24927674.567,2.750,-0.647,0.145,-0.602,0.720,1.310,0.750,0.000,16,14,4*6A
$GPGGA,090732.40,3135.3801877,N,12046.8018417,E,4,16,1.5,2.7625,M,8.325,M,01,0004*68
$GPHPD,1957,32870.200,145.53,-1.28,14.39,31.5896698,120.7800307,2.763,13633261.914,24927675.738,2.763,-0.614,0.095,-0.608,0.720,1.310,0.750,0.000,16,14,4*63
$GPGGA,090732.60,3135.3801130,N,12046.8018993,E,4,15,1.6,2.7591,M,8.325,M,00,0004*6C
$GPHPD,1957,32870.400,145.50,-0.63,14.35,31.5896686,120.7800317,2.759,13633263.092,24927676.867,2.759,-0.621,0.124,-0.576,0.720,1.310,0.750,0.000,15,14,4*6D
$GPGGA,090732.80,3135.3800408,N,12046.8019567,E,4,16,1.6,2.7450,M,8.325,M,00,0004*64
$GPHPD,1957,32870.600,145.50,-0.50,14.29,31.5896673,120.7800326,2.745,13633264.234,24927677.980,2.745,-0.596,0.123,-0.563,0.771,1.705,0.945,0.000,16,14,4*6B
$GPGGA,090733.00,3135.3799706,N,12046.8020151,E,4,16,1.6,2.7382,M,8.325,M,01,0004*6D
$GPHPD,1957,32870.800,145.38,-0.84,14.25,31.5896662,120.7800336,2.738,13633265.349,24927679.093,2.738,-0.554,0.049,-0.595,0.746,1.705,0.781,0.000,16,14,4*68
$GPGGA,090733.20,3135.3799052,N,12046.8020818,E,4,16,1.6,2.6996,M,8.325,M,01,0004*63
$GPHPD,1957,32871.000,145.31,-0.61,14.24,31.5896651,120.7800347,2.700,13633266.413,24927680.278,2.700,-0.550,0.001,-0.571,0.745,1.310,0.921,0.000,16,15,4*6A
$GPGGA,090733.40,3135.3798319,N,12046.8021302,E,4,15,2.0,2.7214,M,8.325,M,01,0004*6F
$GPHPD,1957,32871.200,145.32,-0.11,14.21,31.5896639,120.7800355,2.721,13633267.553,24927681.289,2.721,-0.516,-0.148,-0.625,0.746,1.705,0.781,0.000,15,15,4*4A
$GPGGA,090733.60,3135.3797625,N,12046.8021849,E,4,15,2.0,2.7215,M,8.325,M,00,0004*6C
$GPHPD,1957,32871.400,145.29,-0.20,14.19,31.5896627,120.7800364,2.722,13633268.649,24927682.352,2.722,-0.560,0.058,-0.552,0.771,1.705,0.945,0.000,15,14,4*6D
$GPGGA,090733.80,3135.3796944,N,12046.8022381,E,4,15,2.0,2.7193,M,8.325,M,00,0004*6A
$GPHPD,1957,32871.600,145.03,-0.10,14.17,31.5896616,120.7800373,2.719,13633269.725,24927683.390,2.719,-0.545,0.047,-0.545,0.746,1.705,0.781,0.000,15,14,4*66
$GPGGA,090734.00,3135.3796235,N,12046.8022949,E,4,15,2.0,2.7225,M,8.325,M,01,0004*69
$GPHPD,1957,32871.800,144.92,-0.02,14.16,31.5896604,120.7800382,2.723,13633270.847,24927684.488,2.723,-0.532,0.052,-0.548,0.771,1.705,0.945,0.000,15,14,4*6F
$GPGGA,090734.20,3135.3795516,N,12046.8023524,E,4,15,2.0,2.7272,M,8.325,M,01,0004*6A
$GPHPD,1957,32872.000,144.93,-0.17,14.17,31.5896592,120.7800392,2.727,13633271.985,24927685.600,2.727,-0.535,0.035,-0.550,0.746,1.705,0.781,0.000,15,14,4*6D
$GPGGA,090734.40,3135.3794810,N,12046.8024107,E,4,15,2.0,2.7338,M,8.325,M,01,0004*6B
$GPHPD,1957,32872.200,144.61,-0.79,14.19,31.5896580,120.7800402,2.734,13633273.106,24927686.714,2.734,-0.592,0.072,-0.562,0.746,1.705,0.781,0.000,15,14,4*60
$GPGGA,090734.60,3135.3794051,N,12046.8024690,E,4,15,1.9,2.7377,M,8.325,M,00,0004*6D
$GPHPD,1957,32872.400,144.84,-0.40,14.21,31.5896568,120.7800412,2.738,13633274.302,24927687.859,2.738,-0.579,0.092,-0.546,0.746,1.705,0.781,0.000,15,14,4*60
$GPGGA,090734.80,3135.3793276,N,12046.8025303,E,4,15,1.9,2.7491,M,8.325,M,00,0004*62
$GPHPD,1957,32872.600,144.60,-0.56,14.22,31.5896555,120.7800422,2.749,13633275.527,24927689.049,2.749,-0.589,0.082,-0.583,0.771,1.705,0.945,0.000,15,14,4*63
$GPGGA,090735.00,3135.3792541,N,12046.8025899,E,4,14,2.0,2.7353,M,8.325,M,01,0004*62
$GPHPD,1957,32872.800,144.45,-0.05,14.20,31.5896542,120.7800432,2.735,13633276.692,24927690.196,2.735,-0.608,0.102,-0.601,0.771,1.705,0.945,0.000,14,14,4*67
$GPGGA,090735.20,3135.3791868,N,12046.8026559,E,4,14,2.0,2.7200,M,8.325,M,01,0004*60
$GPHPD,1957,32873.000,144.16,-0.12,14.16,31.5896531,120.7800443,2.720,13633277.782,24927691.384,2.720,-0.598,0.101,-0.574,0.771,1.705,0.945,0.000,14,13,4*67
$GPGGA,090735.40,3135.3791136,N,12046.8027122,E,4,14,2.0,2.7179,M,8.325,M,01,0004*60
$GPHPD,1957,32873.200,144.25,-0.07,14.12,31.5896519,120.7800452,2.718,13633278.936,24927692.489,2.718,-0.580,0.012,-0.580,0.771,1.705,0.945,0.000,14,13,4*69
$GPGGA,090735.60,3135.3790465,N,12046.8027674,E,4,14,2.0,2.7288,M,8.325,M,00,0004*68
$GPHPD,1957,32873.400,143.96,0.18,14.07,31.5896508,120.7800461,2.729,13633280.001,24927693.545,2.729,-0.564,-0.015,-0.592,0.771,1.705,0.945,0.000,14,13,4*6E
$GPGGA,090735.80,3135.3789849,N,12046.8028222,E,4,15,2.0,2.7330,M,8.325,M,00,0004*67
$GPHPD,1957,32873.600,143.76,0.17,14.01,31.5896497,120.7800470,2.733,13633280.987,24927694.565,2.733,-0.536,0.012,-0.526,0.771,1.705,0.946,0.000,15,13,4*4E
$GPGGA,090736.00,3135.3789230,N,12046.8028705,E,4,15,2.0,2.7425,M,8.325,M,01,0004*6A
$GPHPD,1957,32873.800,143.64,-0.23,13.95,31.5896487,120.7800478,2.743,13633281.964,24927695.508,2.743,-0.538,0.054,-0.498,0.745,1.310,0.921,0.000,15,14,4*65
$GPGGA,090736.20,3135.3788681,N,12046.8029210,E,4,15,2.0,2.7231,M,8.325,M,01,0004*64
$GPHPD,1957,32874.000,143.31,-0.70,13.90,31.5896478,120.7800487,2.723,13633282.846,24927696.436,2.723,-0.515,0.091,-0.455,0.720,1.310,0.750,0.000,15,14,4*68
$GPGGA,090736.40,3135.3788174,N,12046.8029646,E,4,15,2.0,2.7208,M,8.325,M,01,0004*62
$GPHPD,1957,32874.200,143.53,0.11,13.85,31.5896470,120.7800494,2.721,13633283.654,24927697.257,2.721,-0.452,-0.013,-0.465,0.720,1.310,0.750,0.000,15,14,4*60
$GPGGA,090736.60,3135.3787669,N,12046.8030051,E,4,15,1.6,2.7454,M,8.325,M,00,0004*67
$GPHPD,1957,32874.400,143.40,-0.12,13.79,31.5896461,120.7800501,2.745,13633284.454,24927698.040,2.745,-0.415,0.007,-0.424,0.720,1.310,0.750,0.000,15,14,4*64
$GPGGA,090736.80,3135.3787204,N,12046.8030443,E,4,15,1.6,2.7443,M,8.325,M,00,0004*67
$GPHPD,1957,32874.600,143.20,-0.43,13.74,31.5896453,120.7800507,2.744,13633285.194,24927698.783,2.744,-0.430,0.041,-0.368,0.720,1.310,0.750,0.000,15,14,4*64
$GPGGA,090737.00,3135.3786764,N,12046.8030828,E,4,15,1.6,2.7393,M,8.325,M,01,0004*66
$GPHPD,1957,32874.800,143.33,-0.04,13.71,31.5896446,120.7800514,2.739,13633285.897,24927699.504,2.739,-0.373,0.022,-0.365,0.720,1.310,0.750,0.000,15,14,4*66
$GPGGA,090737.20,3135.3786320,N,12046.8031178,E,4,15,1.6,2.7455,M,8.325,M,01,0004*60
$GPHPD,1957,32875.000,143.30,-0.26,13.70,31.5896439,120.7800520,2.746,13633286.598,24927700.184,2.746,-0.350,-0.029,-0.368,0.720,1.310,0.750,0.000,15,14,4*44
$GPGGA,090737.40,3135.3785901,N,12046.8031580,E,4,16,1.6,2.7387,M,8.325,M,01,0004*64
$GPHPD,1957,32875.200,143.31,-0.35,13.70,31.5896432,120.7800526,2.739,13633287.275,24927700.913,2.739,-0.367,0.067,-0.325,0.720,1.310,0.750,0.000,16,14,4*62
$GPGGA,090737.60,3135.3785443,N,12046.8031966,E,4,16,1.6,2.7401,M,8.325,M,00,0004*61
$GPHPD,1957,32875.400,143.60,0.06,13.73,31.5896424,120.7800533,2.740,13633288.004,24927701.645,2.740,-0.361,-0.003,-0.350,0.720,1.310,0.751,0.000,16,15,4*60
$GPGGA,090737.80,3135.3784948,N,12046.8032365,E,4,16,1.6,2.7381,M,8.325,M,00,0004*6D
$GPHPD,1957,32875.600,143.66,0.19,13.77,31.5896416,120.7800539,2.738,13633288.788,24927702.414,2.738,-0.367,0.022,-0.377,0.720,1.310,0.751,0.000,16,15,4*4E
$GPGGA,090738.00,3135.3784424,N,12046.8032800,E,4,16,1.6,2.7470,M,8.325,M,01,0004*6D
$GPHPD,1957,32875.800,143.70,0.44,13.81,31.5896407,120.7800547,2.747,13633289.620,24927703.244,2.747,-0.382,0.029,-0.380,0.720,1.310,0.751,0.000,16,15,4*47
$GPGGA,090738.20,3135.3783861,N,12046.8033289,E,4,16,1.6,2.7379,M,8.325,M,01,0004*61
$GPHPD,1957,32876.000,143.63,0.14,13.86,31.5896398,120.7800555,2.738,13633290.519,24927704.161,2.738,-0.437,0.047,-0.398,0.720,1.310,0.751,0.000,16,15,4*44
$GPGGA,090738.40,3135.3783249,N,12046.8033827,E,4,16,1.6,2.7339,M,8.325,M,01,0004*6D
$GPHPD,1957,32876.200,143.81,0.47,13.90,31.5896387,120.7800564,2.734,13633291.497,24927705.167,2.734,-0.462,0.023,-0.461,0.720,1.310,0.751,0.000,16,15,4*45
$GPGGA,090738.60,3135.3782574,N,12046.8034412,E,4,16,1.5,2.7316,M,8.325,M,00,0004*65
$GPHPD,1957,32876.400,143.84,0.39,13.96,31.5896376,120.7800574,2.732,13633292.575,24927706.265,2.732,-0.498,0.003,-0.498,0.720,1.310,0.751,0.000,16,15,4*4B
$GPGGA,090738.80,3135.3781798,N,12046.8035038,E,4,16,1.5,2.7399,M,8.325,M,00,0004*62
$GPHPD,1957,32876.600,144.03,0.96,14.02,31.5896363,120.7800584,2.740,13633293.804,24927707.472,2.740,-0.552,0.001,-0.553,0.720,1.310,0.751,0.000,16,15,4*4D
$GPGGA,090739.00,3135.3781023,N,12046.8035745,E,4,16,1.5,2.7297,M,8.325,M,01,0004*6F
$GPHPD,1957,32876.800,143.89,0.28,14.07,31.5896350,120.7800596,2.730,13633295.048,24927708.776,2.730,-0.635,0.096,-0.586,0.720,1.310,0.751,0.000,16,15,4*4F
$GPGGA,090739.20,3135.3780179,N,12046.8036437,E,4,16,1.5,2.7270,M,8.325,M,01,0004*6E
$GPHPD,1957,32877.000,144.30,0.65,14.11,31.5896336,120.7800607,2.727,13633296.387,24927710.101,2.727,-0.685,0.045,-0.627,0.720,1.310,0.751,0.000,16,15,4*47
$GPGGA,090739.40,3135.3779293,N,12046.8037196,E,4,16,1.5,2.7243,M,8.325,M,01,0004*66
$GPHPD,1957,32877.200,143.86,0.14,14.14,31.5896322,120.7800620,2.724,13633297.799,24927711.533,2.724,-0.680,0.040,-0.678,0.720,1.310,0.751,0.000,16,15,4*48
$GPGGA,090739.60,3135.3778340,N,12046.8037967,E,4,16,1.5,2.7240,M,8.325,M,00,0004*6E
$GPHPD,1957,32877.400,143.84,0.20,14.17,31.5896306,120.7800633,2.724,13633299.309,24927713.017,2.724,-0.713,0.041,-0.689,0.720,1.310,0.751,0.000,16,15,4*4A
$GPGGA,090739.80,3135.3777404,N,12046.8038743,E,4,16,1.5,2.7377,M,8.325,M,00,0004*6A
$GPHPD,1957,32877.600,143.88,0.47,14.18,31.5896290,120.7800646,2.738,13633300.796,24927714.498,2.738,-0.751,0.086,-0.738,0.720,1.310,0.751,0.000,16,15,4*47
$GPGGA,090740.00,3135.3776452,N,12046.8039585,E,4,16,1.5,2.7183,M,8.325,M,01,0004*6F
$GPHPD,1957,32877.800,143.96,0.36,14.21,31.5896274,120.7800660,2.718,13633302.319,24927716.068,2.718,-0.802,0.135,-0.706,0.720,1.310,0.751,0.000,16,15,4*41
$GPGGA,090740.20,3135.3775451,N,12046.8040422,E,4,16,1.5,2.7325,M,8.325,M,01,0004*61
$GPHPD,1957,32878.000,143.76,-0.25,14.21,31.5896258,120.7800674,2.733,13633303.910,24927717.660,2.733,-0.775,0.028,-0.773,0.720,1.310,0.751,0.000,16,14,4*60
$GPGGA,090740.40,3135.3774444,N,12046.8041239,E,4,16,1.5,2.7343,M,8.325,M,01,0004*6F
$GPHPD,1957,32878.200,143.75,-0.84,14.21,31.5896241,120.7800687,2.734,13633305.506,24927719.231,2.734,-0.830,0.097,-0.764,0.720,1.310,0.751,0.000,16,15,4*60
$GPGGA,090740.60,3135.3773443,N,12046.8042104,E,4,16,1.5,2.7318,M,8.325,M,00,0004*6C
$GPHPD,1957,32878.400,143.96,-0.29,14.20,31.5896224,120.7800702,2.732,13633307.104,24927720.857,2.732,-0.831,0.128,-0.758,0.720,1.310,0.751,0.000,16,14,4*6C
$GPGGA,090740.80,3135.3772403,N,12046.8042967,E,4,16,1.5,2.7292,M,8.325,M,00,0004*69
$GPHPD,1957,32878.600,144.09,-0.13,14.17,31.5896207,120.7800716,2.729,13633308.756,24927722.503,2.729,-0.850,0.110,-0.779,0.720,1.310,0.751,0.000,16,14,4*69
$GPGGA,090741.00,3135.3771349,N,12046.8043798,E,4,16,1.5,2.7401,M,8.325,M,01,0004*68
$GPHPD,1957,32878.800,144.10,-0.13,14.14,31.5896189,120.7800730,2.740,13633310.421,24927724.119,2.740,-0.830,0.043,-0.841,0.720,1.310,0.751,0.000,16,14,4*6B
$GPGGA,090741.20,3135.3770332,N,12046.8044678,E,4,16,1.5,2.7464,M,8.325,M,01,0004*6C
$GPHPD,1957,32879.000,144.06,-0.37,14.11,31.5896172,120.7800745,2.746,13633312.044,24927725.772,2.746,-0.839,0.121,-0.827,0.720,1.310,0.751,0.000,16,14,4*63
$GPGGA,090741.40,3135.3769289,N,12046.8045513,E,4,15,1.6,2.7308,M,8.325,M,01,0004*61
$GPHPD,1957,32879.200,144.27,-0.29,14.06,31.5896155,120.7800759,2.731,13633313.695,24927727.387,2.731,-0.871,0.108,-0.779,0.720,1.310,0.751,0.000,15,14,4*64
$GPGGA,090741.60,3135.3768245,N,12046.8046368,E,4,16,1.6,2.7293,M,8.325,M,00,0004*6A
$GPHPD,1957,32879.400,144.51,0.57,14.02,31.5896137,120.7800773,2.729,13633315.351,24927729.025,2.729,-0.819,0.093,-0.829,0.746,1.310,0.922,0.000,16,14,4*4F
$GPGGA,090741.80,3135.3767207,N,12046.8047229,E,4,16,1.6,2.7226,M,8.325,M,00,0004*66
$GPHPD,1957,32879.600,144.52,0.34,13.99,31.5896120,120.7800787,2.723,13633317.000,24927730.668,2.723,-0.849,0.105,-0.825,0.720,1.310,0.751,0.000,16,14,4*4C
$GPGGA,090742.00,3135.3766167,N,12046.8048094,E,4,16,1.6,2.7345,M,8.325,M,01,0004*67
$GPHPD,1957,32879.800,144.78,0.83,13.98,31.5896103,120.7800802,2.735,13633318.653,24927732.317,2.735,-0.815,0.052,-0.834,0.720,1.310,0.751,0.000,16,14,4*4E
$GPGGA,090742.20,3135.3765072,N,12046.8048957,E,4,16,1.6,2.7345,M,8.325,M,01,0004*65
$GPHPD,1957,32880.000,144.77,0.35,13.95,31.5896085,120.7800816,2.735,13633320.383,24927733.995,2.735,-0.858,0.102,-0.809,0.720,1.310,0.751,0.000,16,14,4*44
$GPGGA,090742.40,3135.3763996,N,12046.8049816,E,4,16,1.6,2.7283,M,8.325,M,01,0004*68
$GPHPD,1957,32880.200,144.89,0.51,13.92,31.5896067,120.7800830,2.728,13633322.086,24927735.657,2.728,-0.864,0.112,-0.831,0.720,1.310,0.751,0.000,16,14,4*4C
$GPGGA,090742.60,3135.3762931,N,12046.8050684,E,4,16,1.6,2.7305,M,8.325,M,00,0004*65
$GPHPD,1957,32880.400,144.86,0.90,13.92,31.5896049,120.7800845,2.731,13633323.774,24927737.324,2.731,-0.836,0.054,-0.860,0.720,1.310,0.751,0.000,16,14,4*4E
$GPGGA,090742.80,3135.3761817,N,12046.8051532,E,4,16,1.6,2.7458,M,8.325,M,00,0004*6D
$GPHPD,1957,32880.600,145.18,1.80,13.92,31.5896030,120.7800859,2.746,13633325.529,24927738.995,2.746,-0.846,0.064,-0.865,0.720,1.310,0.751,0.000,16,14,4*4B
$GPGGA,090743.00,3135.3760704,N,12046.8052451,E,4,16,1.6,2.7458,M,8.325,M,01,0004*6E
$GPHPD,1957,32880.800,144.73,0.28,13.90,31.5896012,120.7800874,2.746,13633327.296,24927740.751,2.746,-0.875,0.155,-0.863,0.720,1.310,0.751,0.000,16,15,4*4B
$GPGGA,090743.20,3135.3759592,N,12046.8053325,E,4,16,1.6,2.7448,M,8.325,M,01,0004*6F
$GPHPD,1957,32881.000,144.72,0.04,13.90,31.5895993,120.7800889,2.745,13633329.053,24927742.453,2.745,-0.891,0.094,-0.869,0.720,1.310,0.751,0.000,16,15,4*46
$GPGGA,090743.40,3135.3758477,N,12046.8054221,E,4,16,1.6,2.7594,M,8.325,M,01,0004*60
$GPHPD,1957,32881.200,144.62,0.02,13.89,31.5895975,120.7800904,2.759,13633330.818,24927744.183,2.759,-0.877,0.082,-0.910,0.720,1.310,0.751,0.000,16,15,4*46
$GPGGA,090743.60,3135.3757346,N,12046.8055156,E,4,16,1.5,2.7571,M,8.325,M,00,0004*63
$GPHPD,1957,32881.400,144.59,-0.62,13.90,31.5895956,120.7800919,2.757,13633332.614,24927745.969,2.757,-0.910,0.125,-0.875,0.720,1.310,0.751,0.000,16,15,4*65
$GPGGA,090743.80,3135.3756207,N,12046.8056033,E,4,16,1.5,2.7696,M,8.325,M,00,0004*63
$GPHPD,1957,32881.600,144.63,-0.39,13.88,31.5895937,120.7800934,2.770,13633334.410,24927747.689,2.770,-0.902,0.087,-0.888,0.720,1.310,0.751,0.000,16,15,4*6A
$GPGGA,090744.00,3135.3755020,N,12046.8056987,E,4,16,1.5,2.7665,M,8.325,M,01,0004*63
$GPHPD,1957,32881.800,144.22,-1.84,13.87,31.5895917,120.7800950,2.767,13633336.289,24927749.531,2.767,-0.901,0.068,-0.896,0.720,1.310,0.751,0.000,16,15,4*6E
$GPGGA,090744.20,3135.3753901,N,12046.8057955,E,4,16,1.5,2.7392,M,8.325,M,01,0004*6E
$GPHPD,1957,32882.000,144.23,-1.35,13.86,31.5895898,120.7800966,2.739,13633338.075,24927751.350,2.739,-0.926,0.097,-0.921,0.720,1.310,0.751,0.000,16,15,4*63
$GPGGA,090744.40,3135.3752721,N,12046.8058898,E,4,16,1.5,2.7444,M,8.325,M,01,0004*66
$GPHPD,1957,32882.200,144.52,-0.62,13.84,31.5895879,120.7800982,2.744,13633339.942,24927753.174,2.744,-0.879,-0.022,-0.961,0.720,1.310,0.751,0.000,16,15,4*45
$GPGGA,090744.60,3135.3751542,N,12046.8059839,E,4,16,1.5,2.7510,M,8.325,M,01,0004*6A
$GPHPD,1957,32882.400,144.48,-0.49,13.83,31.5895859,120.7800997,2.751,13633341.808,24927754.995,2.751,-0.918,0.071,-0.945,0.720,1.310,0.751,0.000,16,15,4*6B
$GPGGA,090744.80,3135.3750365,N,12046.8060800,E,4,16,1.5,2.7530,M,8.325,M,01,0004*64
$GPHPD,1957,32882.600,144.81,0.13,13.80,31.5895839,120.7801013,2.753,13633343.675,24927756.839,2.753,-0.939,0.135,-0.908,0.720,1.310,0.751,0.000,16,15,4*47
$GPGGA,090745.00,3135.3749223,N,12046.8061776,E,4,16,1.5,2.7297,M,8.325,M,02,0004*60
$GPHPD,1957,32882.800,144.91,-0.41,13.78,31.5895820,120.7801030,2.730,13633345.495,24927758.681,2.730,-0.951,0.126,-0.900,0.720,1.310,0.751,0.000,16,15,4*61
$GPGGA,090745.20,3135.3748019,N,12046.8062727,E,4,16,1.5,2.7430,M,8.325,M,02,0004*64
$GPHPD,1957,32883.000,145.36,0.21,13.78,31.5895800,120.7801045,2.743,13633347.398,24927760.529,2.743,-0.896,0.004,-0.967,0.720,1.310,0.751,0.000,16,15,4*47
$GPGGA,090745.40,3135.3746822,N,12046.8063671,E,4,16,1.5,2.7383,M,8.325,M,02,0004*60
$GPHPD,1957,32883.200,145.30,0.00,13.75,31.5895780,120.7801061,2.738,13633349.289,24927762.364,2.738,-0.957,0.138,-0.914,0.720,1.310,0.751,0.000,16,15,4*48
$GPGGA,090745.60,3135.3745603,N,12046.8064617,E,4,16,1.5,2.7526,M,8.325,M,02,0004*62
$GPHPD,1957,32883.400,145.34,0.65,13.74,31.5895760,120.7801077,2.753,13633351.213,24927764.215,2.753,-0.928,0.087,-0.943,0.720,1.310,0.751,0.000,16,15,4*45
$GPGGA,090745.80,3135.3744422,N,12046.8065537,E,4,16,1.5,2.7534,M,8.325,M,00,0004*6D
$GPHPD,1957,32883.600,145.58,0.21,13.72,31.5895740,120.7801092,2.753,13633353.077,24927766.012,2.753,-0.975,0.176,-0.914,0.720,1.310,0.751,0.000,16,15,4*42
$GPGGA,090746.00,3135.3743199,N,12046.8066489,E,4,16,1.5,2.7524,M,8.325,M,01,0004*63
$GPHPD,1957,32883.800,145.24,-0.10,13.72,31.5895720,120.7801108,2.752,13633355.007,24927767.872,2.752,-0.940,0.150,-0.915,0.720,1.310,0.751,0.000,16,15,4*61
$GPGGA,090746.20,3135.3741994,N,12046.8067434,E,4,16,1.5,2.7510,M,8.325,M,01,0004*66
$GPHPD,1957,32884.000,145.25,0.00,13.71,31.5895700,120.7801124,2.751,13633356.910,24927769.713,2.751,-0.964,0.120,-0.945,0.720,1.310,0.751,0.000,16,15,4*42
$GPGGA,090746.40,3135.3740785,N,12046.8068389,E,4,16,1.5,2.7556,M,8.325,M,01,0004*63
$GPHPD,1957,32884.200,145.28,0.17,13.69,31.5895680,120.7801140,2.756,13633358.821,24927771.568,2.756,-0.949,0.144,-0.946,0.720,1.310,0.751,0.000,16,15,4*4D
$GPGGA,090746.60,3135.3739603,N,12046.8069363,E,4,16,1.5,2.7494,M,8.325,M,00,0004*6B
$GPHPD,1957,32884.400,145.04,-0.11,13.68,31.5895660,120.7801156,2.749,13633360.697,24927773.431,2.749,-0.948,0.132,-0.947,0.720,1.310,0.751,0.000,16,14,4*61
$GPGGA,090746.80,3135.3738354,N,12046.8070279,E,4,15,1.9,2.7616,M,8.325,M,00,0004*66
$GPHPD,1957,32884.600,145.02,-0.49,13.65,31.5895639,120.7801171,2.762,13633362.657,24927775.263,2.762,-0.937,0.065,-0.960,0.720,1.310,0.751,0.000,15,15,4*69
$GPGGA,090747.00,3135.3737188,N,12046.8071294,E,4,15,1.9,2.7444,M,8.325,M,01,0004*65
$GPHPD,1957,32884.800,143.76,-3.56,13.62,31.5895620,120.7801188,2.744,13633364.519,24927777.166,2.744,-0.956,0.125,-0.960,0.720,1.310,0.751,0.000,15,15,4*6F
$GPGGA,090747.20,3135.3735951,N,12046.8072265,E,4,15,1.9,2.7372,M,8.325,M,01,0004*66
$GPHPD,1957,32885.000,145.04,-0.41,13.60,31.5895599,120.7801204,2.737,13633366.473,24927779.057,2.737,-0.954,0.077,-0.961,0.747,1.706,0.783,0.000,15,14,4*6F
$GPGGA,090747.40,3135.3734717,N,12046.8073188,E,4,15,1.9,2.7447,M,8.325,M,01,0004*6D
$GPHPD,1957,32885.200,144.92,-0.02,13.59,31.5895579,120.7801220,2.745,13633368.413,24927780.888,2.745,-0.939,0.082,-0.988,0.747,1.706,0.783,0.000,15,14,4*64
$GPGGA,090747.60,3135.3733519,N,12046.8074186,E,4,15,1.9,2.7423,M,8.325,M,00,0004*6E
$GPHPD,1957,32885.400,144.50,-0.99,13.57,31.5895559,120.7801236,2.742,13633370.317,24927782.789,2.742,-0.948,0.124,-0.964,0.747,1.706,0.783,0.000,15,14,4*6A
$GPGGA,090747.80,3135.3732292,N,12046.8075153,E,4,15,1.9,2.7397,M,8.325,M,00,0004*64
$GPHPD,1957,32885.600,144.63,-1.42,13.55,31.5895538,120.7801253,2.740,13633372.256,24927784.670,2.740,-0.958,0.098,-0.964,0.747,1.706,0.783,0.000,15,14,4*69
$GPGGA,090748.00,3135.3731094,N,12046.8076121,E,4,16,1.9,2.7309,M,8.325,M,01,0004*67
$GPHPD,1957,32885.800,144.61,-1.28,13.52,31.5895518,120.7801269,2.731,13633374.154,24927786.535,2.731,-0.937,0.093,-0.979,0.706,1.682,0.744,0.000,16,14,4*6C
$GPGGA,090748.20,3135.3729876,N,12046.8077093,E,4,16,1.9,2.7444,M,8.325,M,01,0004*6F
$GPHPD,1957,32886.000,144.97,-0.25,13.51,31.5895498,120.7801285,2.744,13633376.081,24927788.416,2.744,-0.926,0.076,-0.961,0.679,1.283,0.713,0.000,16,15,4*62
$GPGGA,090748.40,3135.3728655,N,12046.8078070,E,4,16,1.9,2.7377,M,8.325,M,01,0004*62
$GPHPD,1957,32886.200,144.97,-0.38,13.50,31.5895478,120.7801301,2.738,13633378.014,24927790.305,2.738,-0.960,0.107,-0.948,0.679,1.283,0.713,0.000,16,15,4*6E
$GPGGA,090748.60,3135.3727465,N,12046.8079064,E,4,16,1.5,2.7239,M,8.325,M,00,0004*6C
$GPHPD,1957,32886.400,145.01,-0.44,13.46,31.5895458,120.7801318,2.724,13633379.906,24927792.197,2.724,-0.941,0.109,-0.967,0.679,1.283,0.713,0.000,16,15,4*60
$GPGGA,090748.80,3135.3726225,N,12046.8080013,E,4,16,1.5,2.7451,M,8.325,M,00,0004*6F
$GPHPD,1957,32886.600,145.46,0.52,13.46,31.5895437,120.7801334,2.745,13633381.859,24927794.063,2.745,-0.915,0.033,-0.970,0.679,1.283,0.713,0.000,16,15,4*43
$GPGGA,090749.00,3135.3725026,N,12046.8081031,E,4,16,1.5,2.7150,M,8.325,M,01,0004*60
$GPHPD,1957,32886.800,145.19,0.26,13.44,31.5895417,120.7801351,2.715,13633383.769,24927795.989,2.715,-0.997,0.227,-0.912,0.679,1.283,0.713,0.000,16,15,4*4C
$GPGGA,090749.20,3135.3723774,N,12046.8081970,E,4,16,1.5,2.7467,M,8.325,M,01,0004*69
$GPHPD,1957,32887.000,146.07,1.54,13.42,31.5895396,120.7801366,2.747,13633385.738,24927797.850,2.747,-0.916,-0.002,-1.011,0.708,1.919,0.827,0.000,16,15,4*69
$GPGGA,090749.40,3135.3722564,N,12046.8082944,E,4,16,1.5,2.7405,M,8.325,M,01,0004*6D
$GPHPD,1957,32887.200,145.51,0.09,13.41,31.5895376,120.7801382,2.741,13633387.654,24927799.729,2.741,-1.006,0.191,-0.920,0.679,1.283,0.713,0.000,16,15,4*41
$GPGGA,090749.60,3135.3721346,N,12046.8083946,E,4,16,1.5,2.7451,M,8.325,M,00,0004*69
$GPHPD,1957,32887.400,145.99,1.38,13.40,31.5895356,120.7801399,2.745,13633389.587,24927801.646,2.745,-0.965,0.158,-0.951,0.679,1.283,0.713,0.000,16,15,4*42
$GPGGA,090749.80,3135.3720144,N,12046.8084869,E,4,16,1.9,2.7414,M,8.325,M,00,0004*60
$GPHPD,1957,32887.600,145.10,-1.22,13.42,31.5895336,120.7801414,2.741,13633391.482,24927803.459,2.741,-1.027,0.240,-0.893,0.720,1.310,0.752,0.000,16,14,4*6B
$GPGGA,090750.00,3135.3718912,N,12046.8085791,E,4,16,1.5,2.7560,M,8.325,M,01,0004*66
$GPHPD,1957,32887.800,145.24,-1.03,13.43,31.5895315,120.7801430,2.756,13633393.419,24927805.288,2.756,-0.958,0.187,-0.940,0.747,1.706,0.783,0.000,16,14,4*62
$GPGGA,090750.20,3135.3717701,N,12046.8086714,E,4,16,1.5,2.7495,M,8.325,M,01,0004*62
$GPHPD,1957,32888.000,145.13,-1.38,13.43,31.5895295,120.7801445,2.750,13633395.326,24927807.106,2.750,-0.968,0.159,-0.924,0.679,1.283,0.713,0.000,16,14,4*67
$GPGGA,090750.40,3135.3716500,N,12046.8087669,E,4,16,1.9,2.7483,M,8.325,M,01,0004*67
$GPHPD,1957,32888.200,145.18,-0.94,13.44,31.5895275,120.7801461,2.748,13633397.226,24927808.957,2.748,-0.941,0.139,-0.949,0.720,1.310,0.752,0.000,16,14,4*63
$GPGGA,090750.60,3135.3715211,N,12046.8088397,E,4,16,1.9,2.8276,M,8.325,M,00,0004*68
$GPHPD,1957,32888.400,145.14,-1.05,13.46,31.5895254,120.7801473,2.828,13633399.205,24927810.586,2.828,-0.932,0.124,-0.946,0.706,1.683,0.744,0.000,16,14,4*6F
$GPGGA,090750.80,3135.3714101,N,12046.8089708,E,4,16,2.2,2.7020,M,8.325,M,00,0004*60
$GPHPD,1957,32888.600,145.20,-1.15,13.48,31.5895235,120.7801495,2.702,13633401.047,24927812.813,2.702,-0.989,0.430,-0.851,0.679,1.283,0.713,0.000,16,14,4*63
$GPGGA,090751.00,3135.3712902,N,12046.8090683,E,4,16,2.2,2.6957,M,8.325,M,01,0004*67
$GPHPD,1957,32888.800,145.21,-1.09,13.50,31.5895215,120.7801511,2.696,13633402.947,24927814.687,2.696,-0.908,-0.069,-1.017,0.695,1.301,0.739,0.000,16,14,4*4E
$GPGGA,090751.20,3135.3711699,N,12046.8091642,E,4,15,2.2,2.7016,M,8.325,M,01,0004*69
$GPHPD,1957,32889.000,145.29,-0.46,13.53,31.5895195,120.7801527,2.702,13633404.851,24927816.544,2.702,-0.927,-0.009,-1.002,0.684,1.294,0.761,0.000,15,14,4*4A
$GPGGA,090751.40,3135.3710506,N,12046.8092611,E,4,15,2.2,2.6861,M,8.325,M,01,0004*67
$GPHPD,1957,32889.200,145.25,-0.70,13.53,31.5895175,120.7801544,2.686,13633406.742,24927818.407,2.686,-0.950,0.102,-0.944,0.695,1.301,0.739,0.000,15,14,4*60
$GPGGA,090751.60,3135.3709321,N,12046.8093539,E,4,15,2.1,2.6917,M,8.325,M,00,0004*64
$GPHPD,1957,32889.400,145.13,-0.25,13.53,31.5895155,120.7801559,2.692,13633408.613,24927820.216,2.692,-0.925,0.047,-0.991,0.695,1.301,0.739,0.000,15,14,4*61
$GPGGA,090751.80,3135.3708098,N,12046.8094408,E,4,15,1.5,2.7071,M,8.325,M,00,0004*61
$GPHPD,1957,32889.600,145.15,-0.27,13.52,31.5895135,120.7801573,2.707,13633410.526,24927821.976,2.707,-0.934,0.095,-0.944,0.695,1.301,0.739,0.000,15,14,4*6F
$GPGGA,090752.00,3135.3706917,N,12046.8095362,E,4,15,1.5,2.7065,M,8.325,M,01,0004*64
$GPHPD,1957,32889.800,144.98,-0.29,13.54,31.5895115,120.7801589,2.707,13633412.397,24927823.814,2.707,-0.925,0.118,-0.941,0.695,1.301,0.739,0.000,15,14,4*62
$GPGGA,090752.20,3135.3705720,N,12046.8096327,E,4,16,1.5,2.7106,M,8.325,M,01,0004*6A
$GPHPD,1957,32890.000,145.13,0.19,13.54,31.5895095,120.7801605,2.711,13633414.293,24927825.674,2.711,-0.930,0.091,-0.942,0.695,1.301,0.739,0.000,16,14,4*49
$GPGGA,090752.40,3135.3704534,N,12046.8097269,E,4,16,1.5,2.7039,M,8.325,M,01,0004*6D
$GPHPD,1957,32890.200,145.09,-0.56,13.51,31.5895076,120.7801621,2.704,13633416.169,24927827.501,2.704,-0.951,0.073,-0.957,0.679,1.283,0.713,0.000,16,15,4*60
$GPGGA,090752.60,3135.3703372,N,12046.8098189,E,4,16,1.5,2.7080,M,8.325,M,00,0004*6D
$GPHPD,1957,32890.400,144.97,-0.43,13.52,31.5895056,120.7801636,2.708,13633418.006,24927829.287,2.708,-0.896,0.032,-0.964,0.679,1.283,0.713,0.000,16,15,4*6D
$GPGGA,090752.80,3135.3702196,N,12046.8099157,E,4,16,1.5,2.7017,M,8.325,M,00,0004*66
$GPHPD,1957,32890.600,145.07,-0.25,13.52,31.5895037,120.7801653,2.702,13633419.873,24927831.139,2.702,-0.920,0.128,-0.921,0.679,1.283,0.713,0.000,16,15,4*60
$GPGGA,090753.00,3135.3701032,N,12046.8100088,E,4,16,1.5,2.7060,M,8.325,M,01,0004*60
$GPHPD,1957,32890.800,145.26,0.50,13.51,31.5895017,120.7801668,2.706,13633421.715,24927832.939,2.706,-0.928,0.099,-0.934,0.679,1.283,0.713,0.000,16,15,4*43
$GPGGA,090753.20,3135.3699837,N,12046.8101028,E,4,16,1.5,2.7053,M,8.325,M,01,0004*64
$GPHPD,1957,32891.000,145.28,0.29,13.50,31.5894997,120.7801684,2.705,13633423.603,24927834.769,2.705,-0.953,0.190,-0.885,0.679,1.283,0.713,0.000,16,15,4*4F
$GPGGA,090753.40,3135.3698666,N,12046.8101976,E,4,16,1.5,2.7048,M,8.325,M,01,0004*61
$GPHPD,1957,32891.200,145.77,1.59,13.50,31.5894978,120.7801700,2.705,13633425.458,24927836.593,2.705,-0.942,0.136,-0.927,0.720,1.310,0.752,0.000,16,15,4*44
$GPGGA,090753.60,3135.3697501,N,12046.8102922,E,4,16,1.5,2.7018,M,8.325,M,00,0004*68
$GPHPD,1957,32891.400,145.77,1.51,13.51,31.5894958,120.7801715,2.702,13633427.305,24927838.413,2.702,-0.933,0.102,-0.923,0.720,1.310,0.752,0.000,16,15,4*42
$GPGGA,090753.80,3135.3696341,N,12046.8103820,E,4,16,1.5,2.7148,M,8.325,M,00,0004*63
$GPHPD,1957,32891.600,145.68,1.47,13.54,31.5894939,120.7801730,2.715,13633429.135,24927840.171,2.715,-0.932,0.067,-0.947,0.720,1.310,0.752,0.000,16,15,4*4C
$GPGGA,090754.00,3135.3695162,N,12046.8104820,E,4,16,1.5,2.6891,M,8.325,M,01,0004*66
$GPHPD,1957,32891.800,145.71,1.66,13.54,31.5894919,120.7801747,2.689,13633431.012,24927842.063,2.689,-0.934,0.139,-0.894,0.720,1.310,0.752,0.000,16,15,4*45
$GPGGA,090754.20,3135.3694005,N,12046.8105720,E,4,16,1.5,2.6957,M,8.325,M,01,0004*60
$GPHPD,1957,32892.000,145.89,1.86,13.57,31.5894900,120.7801762,2.696,13633432.838,24927843.822,2.696,-0.946,0.105,-0.930,0.720,1.310,0.752,0.000,16,15,4*41
$GPGGA,090754.40,3135.3692836,N,12046.8106662,E,4,16,1.5,2.6968,M,8.325,M,01,0004*60
$GPHPD,1957,32892.200,145.82,1.43,13.62,31.5894881,120.7801778,2.697,13633434.690,24927845.639,2.697,-0.928,0.139,-0.910,0.720,1.310,0.752,0.000,16,15,4*49
$GPGGA,090754.60,3135.3691694,N,12046.8107618,E,4,15,1.9,2.6852,M,8.325,M,00,0004*6D
$GPHPD,1957,32892.400,145.70,1.33,13.65,31.5894862,120.7801794,2.685,13633436.506,24927847.456,2.685,-0.908,0.055,-0.933,0.748,1.707,0.783,0.000,15,15,4*41
$GPGGA,090754.80,3135.3690561,N,12046.8108534,E,4,15,1.9,2.6745,M,8.325,M,00,0004*60
$GPHPD,1957,32892.600,145.61,0.74,13.68,31.5894843,120.7801809,2.675,13633438.301,24927849.221,2.675,-0.934,0.084,-0.918,0.706,1.683,0.745,0.000,15,15,4*44
$GPGGA,090755.00,3135.3689398,N,12046.8109437,E,4,15,1.9,2.6829,M,8.325,M,01,0004*66
$GPHPD,1957,32892.800,145.65,0.83,13.73,31.5894823,120.7801824,2.683,13633440.136,24927850.987,2.683,-0.888,0.030,-0.922,0.706,1.683,0.745,0.000,15,14,4*42
$GPGGA,090755.20,3135.3688248,N,12046.8110333,E,4,15,1.9,2.6971,M,8.325,M,01,0004*6E
$GPHPD,1957,32893.000,145.63,1.30,13.76,31.5894804,120.7801839,2.697,13633441.951,24927852.737,2.697,-0.905,0.110,-0.901,0.748,1.707,0.784,0.000,15,14,4*4B
$GPGGA,090755.40,3135.3687123,N,12046.8111266,E,4,15,1.9,2.6859,M,8.325,M,01,0004*62
$GPHPD,1957,32893.200,145.66,0.93,13.81,31.5894785,120.7801854,2.686,13633443.738,24927854.517,2.686,-0.905,0.124,-0.889,0.713,1.698,0.795,0.000,15,14,4*4B
$GPGGA,090755.60,3135.3685970,N,12046.8112222,E,4,15,1.9,2.6871,M,8.325,M,00,0004*64
$GPHPD,1957,32893.400,145.62,0.62,13.84,31.5894766,120.7801870,2.687,13633445.570,24927856.341,2.687,-0.878,0.029,-0.928,0.706,1.683,0.745,0.000,15,14,4*48
$GPGGA,090755.80,3135.3684816,N,12046.8113139,E,4,15,1.9,2.6705,M,8.325,M,00,0004*6E
$GPHPD,1957,32893.600,145.85,0.97,13.89,31.5894747,120.7801886,2.671,13633447.395,24927858.119,2.671,-0.951,0.091,-0.902,0.748,1.707,0.784,0.000,15,14,4*4B
$GPGGA,090756.00,3135.3683649,N,12046.8114125,E,4,16,1.9,2.6558,M,8.325,M,01,0004*64
$GPHPD,1957,32893.800,145.72,1.83,13.86,31.5894727,120.7801902,2.656,13633449.252,24927859.987,2.656,-0.901,0.168,-0.913,0.679,1.283,0.714,0.000,16,14,4*45
$GPGGA,090756.20,3135.3682432,N,12046.8115064,E,4,16,1.9,2.6713,M,8.325,M,01,0004*61
$GPHPD,1957,32894.000,145.88,1.66,13.79,31.5894707,120.7801918,2.671,13633451.171,24927861.828,2.671,-0.916,0.079,-0.947,0.684,1.294,0.762,0.000,16,15,4*4B
$GPGGA,090756.40,3135.3681182,N,12046.8116018,E,4,16,1.9,2.6838,M,8.325,M,01,0004*64
$GPHPD,1957,32894.200,145.64,0.93,13.71,31.5894686,120.7801934,2.684,13633453.140,24927863.706,2.684,-0.968,0.130,-0.939,0.684,1.294,0.762,0.000,16,15,4*43
$GPGGA,090756.60,3135.3679961,N,12046.8116960,E,4,16,1.5,2.6912,M,8.325,M,00,0004*66
$GPHPD,1957,32894.400,145.57,1.12,13.63,31.5894666,120.7801949,2.691,13633455.066,24927865.553,2.691,-0.975,0.157,-0.952,0.679,1.283,0.714,0.000,16,15,4*48
$GPGGA,090756.80,3135.3678717,N,12046.8117905,E,4,16,1.5,2.6998,M,8.325,M,00,0004*66
$GPHPD,1957,32894.600,145.63,1.00,13.55,31.5894645,120.7801965,2.700,13633457.025,24927867.417,2.700,-0.984,0.189,-0.964,0.679,1.283,0.714,0.000,16,15,4*4A
$GPGGA,090757.00,3135.3677538,N,12046.8118892,E,4,16,1.5,2.6977,M,8.325,M,01,0004*6F
$GPHPD,1957,32894.800,145.69,0.78,13.49,31.5894626,120.7801982,2.698,13633458.899,24927869.294,2.698,-0.963,0.146,-0.938,0.679,1.283,0.714,0.000,16,15,4*41
$GPGGA,090757.20,3135.3676312,N,12046.8119842,E,4,16,1.5,2.6993,M,8.325,M,01,0004*64
$GPHPD,1957,32895.000,145.93,1.61,13.43,31.5894605,120.7801997,2.699,13633460.833,24927871.153,2.699,-0.966,0.089,-0.932,0.679,1.283,0.714,0.000,16,15,4*4C
$GPGGA,090757.40,3135.3675100,N,12046.8120757,E,4,16,1.5,2.7155,M,8.325,M,01,0004*62
$GPHPD,1957,32895.200,145.83,1.42,13.44,31.5894585,120.7802013,2.716,13633462.741,24927872.962,2.716,-0.968,0.159,-0.951,0.679,1.283,0.714,0.000,16,15,4*42
$GPGGA,090757.60,3135.3673884,N,12046.8121704,E,4,16,1.5,2.7211,M,8.325,M,00,0004*66
$GPHPD,1957,32895.400,145.64,0.98,13.40,31.5894565,120.7802028,2.721,13633464.660,24927874.812,2.721,-0.961,0.162,-0.933,0.679,1.283,0.714,0.000,16,15,4*48
$GPGGA,090757.80,3135.3672669,N,12046.8122656,E,4,16,1.5,2.7461,M,8.325,M,00,0004*60
$GPHPD,1957,32895.600,144.93,-0.14,13.36,31.5894544,120.7802044,2.746,13633466.579,24927876.667,2.746,-0.950,0.113,-0.953,0.679,1.283,0.714,0.000,16,15,4*67
$GPGGA,090758.00,3135.3671461,N,12046.8123570,E,4,16,1.5,2.7314,M,8.325,M,01,0004*6C
$GPHPD,1957,32895.800,145.23,-0.02,13.35,31.5894524,120.7802060,2.731,13633468.480,24927878.473,2.731,-0.992,0.160,-0.920,0.679,1.283,0.714,0.000,16,15,4*69
$GPGGA,090758.20,3135.3670249,N,12046.8124492,E,4,16,1.5,2.7488,M,8.325,M,01,0004*6B
$GPHPD,1957,32896.000,145.30,0.99,13.42,31.5894504,120.7802075,2.749,13633470.389,24927880.290,2.749,-0.921,0.145,-0.954,0.679,1.283,0.714,0.000,16,15,4*4E
$GPGGA,090758.40,3135.3669038,N,12046.8125500,E,4,16,1.5,2.7280,M,8.325,M,01,0004*64
$GPHPD,1957,32896.200,144.98,-0.45,13.51,31.5894484,120.7802092,2.728,13633472.313,24927882.211,2.728,-0.965,0.206,-0.909,0.720,1.310,0.752,0.000,16,15,4*63
$GPGGA,090758.60,3135.3667843,N,12046.8126499,E,4,16,1.5,2.7205,M,8.325,M,00,0004*62
$GPHPD,1957,32896.400,145.03,-0.63,13.57,31.5894464,120.7802108,2.721,13633474.213,24927884.112,2.721,-0.948,0.080,-0.965,0.720,1.310,0.752,0.000,16,15,4*60
$GPGGA,090758.80,3135.3666608,N,12046.8127466,E,4,16,1.5,2.7261,M,8.325,M,00,0004*6F
$GPHPD,1957,32896.600,144.87,-0.80,13.61,31.5894443,120.7802124,2.726,13633476.163,24927885.997,2.726,-0.935,0.024,-0.958,0.748,1.707,0.784,0.000,16,15,4*63
$GPGGA,090759.00,3135.3665362,N,12046.8128363,E,4,16,1.5,2.7482,M,8.325,M,01,0004*6B
$GPHPD,1957,32896.800,144.97,-0.91,13.60,31.5894423,120.7802139,2.748,13633478.115,24927887.804,2.748,-0.956,0.168,-0.959,0.695,1.301,0.739,0.000,16,15,4*69
$GPGGA,090759.20,3135.3664149,N,12046.8129407,E,4,16,1.5,2.7292,M,8.326,M,01,0004*63
$GPHPD,1957,32897.000,144.45,-2.03,13.55,31.5894402,120.7802157,2.729,13633480.050,24927889.769,2.729,-0.963,0.143,-0.966,0.679,1.283,0.714,0.000,16,15,4*63
$GPGGA,090759.40,3135.3662921,N,12046.8130526,E,4,16,1.5,2.6983,M,8.326,M,01,0004*65
$GPHPD,1957,32897.200,144.73,-1.61,13.46,31.5894382,120.7802175,2.698,13633482.021,24927891.833,2.698,-0.972,0.062,-0.978,0.679,1.283,0.714,0.000,16,15,4*6E
$GPGGA,090759.60,3135.3661677,N,12046.8131478,E,4,16,1.5,2.7071,M,8.326,M,00,0004*67
$GPHPD,1957,32897.400,144.97,-0.72,13.43,31.5894361,120.7802191,2.707,13633483.981,24927893.706,2.707,-0.952,-0.076,-1.049,0.679,1.283,0.714,0.000,16,15,4*4A
$GPGGA,090759.80,3135.3660463,N,12046.8132490,E,4,16,1.5,2.6953,M,8.326,M,00,0004*62
$GPHPD,1957,32897.600,145.12,-0.38,13.42,31.5894341,120.7802208,2.695,13633485.911,24927895.633,2.695,-0.982,0.087,-0.976,0.679,1.283,0.714,0.000,16,15,4*6E
$GPGGA,090800.00,3135.3659209,N,12046.8133459,E,4,16,1.5,2.6932,M,8.326,M,01,0004*6B
$GPHPD,1957,32897.800,145.07,-0.54,13.41,31.5894320,120.7802224,2.693,13633487.888,24927897.532,2.693,-0.975,0.100,-0.995,0.679,1.283,0.714,0.000,16,15,4*6C
$GPGGA,090800.20,3135.3658038,N,12046.8134481,E,4,16,1.5,2.6695,M,8.326,M,01,0004*68
$GPHPD,1957,32898.000,145.03,-0.15,13.42,31.5894301,120.7802241,2.670,13633489.759,24927899.446,2.670,-0.952,0.094,-0.998,0.679,1.283,0.714,0.000,16,15,4*6C
$GPGGA,090800.40,3135.3656799,N,12046.8135462,E,4,16,1.5,2.6730,M,8.326,M,01,0004*6E
$GPHPD,1957,32898.200,145.70,0.77,13.40,31.5894280,120.7802258,2.673,13633491.718,24927901.350,2.673,-0.957,0.024,-0.990,0.679,1.283,0.714,0.000,16,15,4*4B
$GPGGA,090800.60,3135.3655571,N,12046.8136419,E,4,16,1.5,2.6710,M,8.326,M,00,0004*67
$GPHPD,1957,32898.400,145.42,0.36,13.39,31.5894260,120.7802274,2.671,13633493.656,24927903.219,2.671,-0.959,0.099,-0.969,0.679,1.283,0.714,0.000,16,15,4*4E
$GPGGA,090800.80,3135.3654315,N,12046.8137345,E,4,16,1.5,2.6970,M,8.326,M,00,0004*6B
$GPHPD,1957,32898.600,145.70,0.51,13.37,31.5894239,120.7802289,2.697,13633495.628,24927905.067,2.697,-0.935,0.101,-0.988,0.679,1.283,0.714,0.000,16,15,4*4B
$GPGGA,090801.00,3135.3653122,N,12046.8138253,E,4,16,1.5,2.6892,M,8.326,M,01,0004*66
$GPHPD,1957,32898.800,145.43,-0.21,13.38,31.5894219,120.7802304,2.689,13633497.507,24927906.857,2.689,-0.981,0.189,-0.942,0.679,1.283,0.714,0.000,16,15,4*6B
$GPGGA,090801.20,3135.3651905,N,12046.8139221,E,4,16,1.5,2.6932,M,8.326,M,01,0004*64
$GPHPD,1957,32899.000,145.39,0.63,13.41,31.5894198,120.7802320,2.693,13633499.432,24927908.732,2.693,-0.913,0.108,-0.956,0.679,1.283,0.714,0.000,16,15,4*4A
$GPGGA,090801.40,3135.3650645,N,12046.8140168,E,4,16,1.5,2.6949,M,8.326,M,01,0004*64
$GPHPD,1957,32899.200,145.41,0.59,13.45,31.5894177,120.7802336,2.695,13633501.413,24927910.608,2.695,-0.956,0.122,-0.941,0.679,1.283,0.714,0.000,16,15,4*41
$GPGGA,090801.60,3135.3649441,N,12046.8141184,E,4,16,1.5,2.6862,M,8.326,M,00,0004*62
$GPHPD,1957,32899.400,145.34,0.55,13.44,31.5894157,120.7802353,2.686,13633503.330,24927912.534,2.686,-0.963,0.142,-0.971,0.679,1.283,0.714,0.000,16,15,4*40
$GPGGA,090801.80,3135.3648234,N,12046.8142179,E,4,16,1.5,2.6845,M,8.326,M,00,0004*6D
$GPHPD,1957,32899.600,145.07,-0.10,13.44,31.5894137,120.7802370,2.685,13633505.246,24927914.437,2.685,-0.967,0.058,-0.972,0.679,1.283,0.714,0.000,16,15,4*66
$GPGGA,090802.00,3135.3647002,N,12046.8143168,E,4,16,1.8,2.6677,M,8.326,M,01,0004*6C
$GPHPD,1957,32899.800,145.05,0.05,13.45,31.5894117,120.7802386,2.668,13633507.196,24927916.347,2.668,-0.964,0.094,-0.964,0.706,1.683,0.745,0.000,16,15,4*4A
$GPGGA,090802.20,3135.3645779,N,12046.8144165,E,4,16,1.8,2.6760,M,8.326,M,01,0004*6A
$GPHPD,1957,32900.000,144.94,-0.55,13.43,31.5894096,120.7802403,2.676,13633509.136,24927918.261,2.676,-0.955,0.074,-0.996,0.679,1.283,0.714,0.000,16,15,4*61
$GPGGA,090802.40,3135.3644581,N,12046.8145156,E,4,16,1.8,2.6655,M,8.326,M,01,0004*6E
$GPHPD,1957,32900.200,145.12,-0.52,13.38,31.5894076,120.7802419,2.666,13633511.038,24927920.154,2.666,-0.984,0.127,-0.956,0.679,1.283,0.714,0.000,16,15,4*6D
$GPGGA,090802.60,3135.3643363,N,12046.8146103,E,4,16,1.8,2.6691,M,8.326,M,00,0004*6B
$GPHPD,1957,32900.400,145.38,0.09,13.33,31.5894056,120.7802435,2.669,13633512.960,24927922.005,2.669,-0.958,0.101,-0.965,0.679,1.283,0.714,0.000,16,15,4*42
$GPGGA,090802.80,3135.3642145,N,12046.8147053,E,4,16,1.8,2.6645,M,8.326,M,00,0004*6E
$GPHPD,1957,32900.600,145.07,-0.59,13.30,31.5894036,120.7802451,2.665,13633514.883,24927923.860,2.665,-0.944,0.088,-0.948,0.679,1.283,0.714,0.000,16,15,4*61
$GPGGA,090803.00,3135.3640950,N,12046.8148029,E,4,16,1.8,2.6714,M,8.326,M,01,0004*6F
$GPHPD,1957,32900.800,144.87,-0.20,13.29,31.5894016,120.7802467,2.671,13633516.778,24927925.732,2.671,-0.933,0.113,-0.959,0.679,1.283,0.714,0.000,16,15,4*63
$GPGGA,090803.20,3135.3639697,N,12046.8149000,E,4,16,1.8,2.6702,M,8.326,M,01,0004*6A
$GPHPD,1957,32901.000,145.03,-0.71,13.27,31.5893995,120.7802483,2.670,13633518.755,24927927.633,2.670,-0.967,0.124,-0.941,0.679,1.283,0.714,0.000,16,15,4*6D
$GPGGA,090803.40,3135.3638491,N,12046.8150008,E,4,16,1.8,2.6571,M,8.326,M,01,0004*6F
$GPHPD,1957,32901.200,144.91,-0.64,13.28,31.5893975,120.7802500,2.657,13633520.673,24927929.550,2.657,-0.952,0.151,-0.970,0.679,1.283,0.714,0.000,16,15,4*6A
$GPGGA,090803.60,3135.3637243,N,12046.8150952,E,4,16,1.5,2.6727,M,8.326,M,00,0004*60
$GPHPD,1957,32901.400,145.16,-0.16,13.31,31.5893954,120.7802516,2.673,13633522.637,24927931.415,2.673,-0.939,0.031,-0.996,0.679,1.283,0.714,0.000,16,15,4*62
$GPGGA,090803.80,3135.3636034,N,12046.8151891,E,4,16,1.5,2.6661,M,8.326,M,00,0004*61
$GPHPD,1957,32901.600,145.04,-0.68,13.31,31.5893934,120.7802532,2.666,13633524.544,24927933.252,2.666,-0.975,0.159,-0.947,0.679,1.283,0.714,0.000,16,15,4*67
$GPGGA,090804.00,3135.3634833,N,12046.8152900,E,4,16,1.5,2.6549,M,8.326,M,01,0004*61
$GPHPD,1957,32901.800,145.05,-0.29,13.32,31.5893914,120.7802548,2.655,13633526.455,24927935.168,2.655,-0.939,0.136,-0.961,0.679,1.283,0.714,0.000,16,15,4*6B
$GPGGA,090804.20,3135.3633615,N,12046.8153855,E,4,16,1.5,2.6518,M,8.326,M,01,0004*6A
$GPHPD,1957,32902.000,145.08,-0.65,13.31,31.5893894,120.7802564,2.652,13633528.379,24927937.028,2.652,-0.955,0.089,-0.970,0.679,1.283,0.714,0.000,16,15,4*6E
$GPGGA,090804.40,3135.3632375,N,12046.8154830,E,4,16,1.5,2.6550,M,8.326,M,01,0004*66
$GPHPD,1957,32902.200,145.05,-0.42,13.29,31.5893873,120.7802581,2.655,13633530.338,24927938.926,2.655,-0.938,0.061,-0.971,0.679,1.283,0.714,0.000,16,15,4*67
$GPGGA,090804.60,3135.3631174,N,12046.8155816,E,4,16,1.5,2.6619,M,8.326,M,00,0004*6E
$GPHPD,1957,32902.400,145.22,-0.01,13.29,31.5893853,120.7802597,2.662,13633532.244,24927940.814,2.662,-0.968,0.108,-0.973,0.679,1.283,0.714,0.000,16,15,4*68
$GPGGA,090804.80,3135.3629977,N,12046.8156785,E,4,16,1.5,2.6408,M,8.326,M,00,0004*66
$GPHPD,1957,32902.600,145.34,0.28,13.30,31.5893833,120.7802613,2.641,13633534.140,24927942.680,2.641,-0.990,0.137,-0.899,0.679,1.283,0.714,0.000,16,15,4*44
$GPGGA,090805.00,3135.3628745,N,12046.8157743,E,4,16,1.5,2.6521,M,8.326,M,01,0004*61
$GPHPD,1957,32902.800,145.34,0.34,13.30,31.5893812,120.7802629,2.652,13633536.085,24927944.552,2.652,-0.938,0.050,-0.986,0.679,1.283,0.714,0.000,16,15,4*40
$GPGGA,090805.20,3135.3627531,N,12046.8158723,E,4,16,1.5,2.6553,M,8.326,M,01,0004*61
$GPHPD,1957,32903.000,145.00,-0.51,13.30,31.5893792,120.7802645,2.655,13633538.008,24927946.441,2.655,-0.953,0.119,-0.961,0.679,1.283,0.714,0.000,16,15,4*6F
$GPGGA,090805.40,3135.3626332,N,12046.8159704,E,4,16,1.5,2.6553,M,8.326,M,01,0004*67
$GPHPD,1957,32903.200,145.13,-0.35,13.27,31.5893772,120.7802662,2.655,13633539.910,24927948.322,2.655,-0.970,0.150,-0.948,0.679,1.283,0.714,0.000,16,15,4*6A
$GPGGA,090805.60,3135.3625129,N,12046.8160677,E,4,16,1.5,2.6510,M,8.326,M,00,0004*67
$GPHPD,1957,32903.400,145.31,-0.47,13.24,31.5893752,120.7802678,2.651,13633541.816,24927950.196,2.651,-0.972,0.134,-0.940,0.679,1.283,0.714,0.000,16,15,4*67
$GPGGA,090805.80,3135.3623906,N,12046.8161657,E,4,16,1.5,2.6547,M,8.326,M,00,0004*6B
$GPHPD,1957,32903.600,144.87,-0.51,13.21,31.5893732,120.7802694,2.655,13633543.752,24927952.090,2.655,-0.953,0.100,-0.953,0.679,1.283,0.714,0.000,16,15,4*61
$GPGGA,090806.00,3135.3622726,N,12046.8162618,E,4,16,1.5,2.6493,M,8.326,M,01,0004*6C
$GPHPD,1957,32903.800,145.18,-0.73,13.18,31.5893712,120.7802710,2.649,13633545.623,24927953.936,2.649,-0.990,0.159,-0.933,0.679,1.283,0.714,0.000,16,15,4*6D
$GPGGA,090806.20,3135.3621485,N,12046.8163593,E,4,16,1.5,2.6415,M,8.326,M,01,0004*68
$GPHPD,1957,32904.000,145.12,-0.66,13.16,31.5893691,120.7802727,2.642,13633547.583,24927955.834,2.642,-0.946,0.091,-0.951,0.679,1.283,0.714,0.000,16,15,4*68
$GPGGA,090806.40,3135.3620254,N,12046.8164572,E,4,16,1.5,2.6470,M,8.326,M,01,0004*6E
$GPHPD,1957,32904.200,145.13,-0.51,13.18,31.5893671,120.7802743,2.647,13633549.530,24927957.731,2.647,-0.936,0.052,-0.980,0.679,1.283,0.714,0.000,16,15,4*67
$GPGGA,090806.60,3135.3619028,N,12046.8165567,E,4,16,1.5,2.6433,M,8.326,M,00,0004*6C
$GPHPD,1957,32904.400,145.06,-0.72,13.18,31.5893650,120.7802759,2.643,13633551.473,24927959.645,2.643,-0.968,0.109,-0.961,0.679,1.283,0.714,0.000,16,15,4*64
$GPGGA,090806.80,3135.3617795,N,12046.8166549,E,4,16,1.5,2.6433,M,8.326,M,00,0004*62
$GPHPD,1957,32904.600,145.23,-0.67,13.15,31.5893630,120.7802776,2.643,13633553.424,24927961.547,2.643,-0.992,0.116,-0.960,0.679,1.283,0.714,0.000,16,15,4*63
$GPGGA,090807.00,3135.3616565,N,12046.8167533,E,4,16,1.5,2.6389,M,8.326,M,01,0004*6C
$GPHPD,1957,32904.800,145.08,-0.64,13.11,31.5893609,120.7802792,2.639,13633555.371,24927963.450,2.639,-0.986,0.137,-0.969,0.679,1.283,0.714,0.000,16,15,4*68
$GPGGA,090807.20,3135.3615361,N,12046.8168523,E,4,16,1.5,2.6441,M,8.326,M,01,0004*62
$GPHPD,1957,32905.000,145.09,-0.82,13.10,31.5893589,120.7802809,2.644,13633557.282,24927965.344,2.644,-0.954,0.096,-0.984,0.679,1.283,0.714,0.000,16,15,4*62
$GPGGA,090807.40,3135.3614132,N,12046.8169489,E,4,16,1.5,2.6439,M,8.326,M,01,0004*6E
$GPHPD,1957,32905.200,145.13,-0.71,13.09,31.5893569,120.7802825,2.644,13633559.223,24927967.225,2.644,-0.975,0.108,-0.954,0.679,1.283,0.714,0.000,16,15,4*66
$GPGGA,090807.60,3135.3612930,N,12046.8170441,E,4,16,1.5,2.6389,M,8.326,M,00,0004*61
$GPHPD,1957,32905.400,145.25,-0.92,13.10,31.5893549,120.7802841,2.639,13633561.124,24927969.073,2.639,-0.966,0.117,-0.950,0.679,1.283,0.714,0.000,16,15,4*68
$GPGGA,090807.80,3135.3611726,N,12046.8171392,E,4,16,1.5,2.6354,M,8.326,M,00,0004*6D
$GPHPD,1957,32905.600,145.04,-0.79,13.15,31.5893529,120.7802857,2.635,13633563.027,24927970.921,2.635,-0.931,0.093,-0.961,0.679,1.283,0.714,0.000,16,15,4*63
$GPGGA,090808.00,3135.3610532,N,12046.8172332,E,4,16,1.5,2.6308,M,8.326,M,01,0004*6D
$GPHPD,1957,32905.800,145.17,-0.41,13.23,31.5893509,120.7802872,2.631,13633564.913,24927972.749,2.631,-0.933,0.117,-0.948,0.679,1.283,0.714,0.000,16,15,4*6B
$GPGGA,090808.20,3135.3609356,N,12046.8173259,E,4,16,1.5,2.6243,M,8.326,M,01,0004*60
$GPHPD,1957,32906.000,145.21,-0.55,13.29,31.5893489,120.7802888,2.624,13633566.772,24927974.552,2.624,-0.935,0.115,-0.948,0.679,1.283,0.714,0.000,16,15,4*67
$GPGGA,090808.40,3135.3608179,N,12046.8174185,E,4,16,1.5,2.6280,M,8.326,M,01,0004*62
$GPHPD,1957,32906.200,145.25,-0.26,13.36,31.5893470,120.7802903,2.628,13633568.631,24927976.354,2.628,-0.915,0.099,-0.948,0.679,1.276,0.595,0.000,16,15,4*63
$GPGGA,090808.60,3135.3607016,N,12046.8175112,E,4,16,1.5,2.6238,M,8.326,M,00,0004*6A
$GPHPD,1957,32906.400,145.21,-0.67,13.39,31.5893450,120.7802919,2.624,13633570.471,24927978.149,2.624,-0.931,0.133,-0.923,0.679,1.276,0.595,0.000,16,15,4*67
$GPGGA,090808.80,3135.3605860,N,12046.8176043,E,4,16,1.5,2.6209,M,8.326,M,00,0004*6B
$GPHPD,1957,32906.600,145.22,-0.43,13.46,31.5893431,120.7802934,2.621,13633572.302,24927979.945,2.621,-0.928,0.117,-0.910,0.679,1.276,0.595,0.000,16,15,4*6A
$GPGGA,090809.00,3135.3604717,N,12046.8176946,E,4,16,1.5,2.6190,M,8.326,M,01,0004*62
$GPHPD,1957,32906.800,145.41,-0.17,13.55,31.5893412,120.7802949,2.619,13633574.109,24927981.699,2.619,-0.910,0.098,-0.919,0.679,1.276,0.595,0.000,16,15,4*6B
$GPGGA,090809.20,3135.3603562,N,12046.8177854,E,4,16,1.5,2.6202,M,8.326,M,01,0004*6C
$GPHPD,1957,32907.000,145.16,-0.29,13.60,31.5893393,120.7802964,2.620,13633575.933,24927983.466,2.620,-0.908,0.114,-0.908,0.679,1.276,0.595,0.000,16,15,4*66
$GPGGA,090809.40,3135.3602427,N,12046.8178756,E,4,16,1.5,2.6114,M,8.326,M,01,0004*6D
$GPHPD,1957,32907.200,145.32,-0.21,13.60,31.5893374,120.7802979,2.611,13633577.729,24927985.215,2.611,-0.904,0.104,-0.904,0.679,1.276,0.595,0.000,16,15,4*6D
$GPGGA,090809.60,3135.3601286,N,12046.8179647,E,4,16,1.5,2.6160,M,8.326,M,00,0004*63
$GPHPD,1957,32907.400,145.20,-0.22,13.61,31.5893355,120.7802994,2.616,13633579.530,24927986.954,2.616,-0.883,0.100,-0.905,0.679,1.276,0.595,0.000,16,15,4*68
$GPGGA,090809.80,3135.3600153,N,12046.8180538,E,4,16,1.5,2.6234,M,8.326,M,00,0004*68
$GPHPD,1957,32907.600,145.14,-0.45,13.58,31.5893336,120.7803009,2.623,13633581.320,24927988.688,2.623,-0.882,0.073,-0.918,0.679,1.276,0.595,0.000,16,15,4*67
$GPGGA,090810.00,3135.3599056,N,12046.8181409,E,4,16,1.5,2.6148,M,8.326,M,01,0004*64
$GPHPD,1957,32907.800,145.25,-0.33,13.51,31.5893318,120.7803023,2.615,13633583.055,24927990.377,2.615,-0.912,0.146,-0.860,0.679,1.283,0.714,0.000,16,15,4*68
$GPGGA,090810.20,3135.3597997,N,12046.8182243,E,4,16,1.5,2.6159,M,8.326,M,01,0004*67
$GPHPD,1957,32908.000,145.33,-0.16,13.42,31.5893300,120.7803037,2.616,13633584.728,24927991.999,2.616,-0.851,0.088,-0.876,0.679,1.283,0.714,0.000,16,15,4*62
$GPGGA,090810.40,3135.3596988,N,12046.8183021,E,4,16,1.5,2.6256,M,8.326,M,01,0004*65
$GPHPD,1957,32908.200,145.56,0.06,13.32,31.5893283,120.7803050,2.626,13633586.319,24927993.525,2.626,-0.817,0.078,-0.847,0.679,1.275,0.595,0.000,16,15,4*43
$GPGGA,090810.60,3135.3596064,N,12046.8183749,E,4,16,1.5,2.6244,M,8.326,M,00,0004*67
$GPHPD,1957,32908.400,145.48,-0.42,13.18,31.5893268,120.7803062,2.624,13633587.779,24927994.941,2.624,-0.803,0.132,-0.771,0.679,1.275,0.595,0.000,16,15,4*61
$GPGGA,090810.80,3135.3595228,N,12046.8184390,E,4,16,1.5,2.6299,M,8.326,M,00,0004*67
$GPHPD,1957,32908.600,145.58,-0.37,13.05,31.5893254,120.7803073,2.630,13633589.097,24927996.200,2.630,-0.738,0.116,-0.723,0.679,1.275,0.595,0.000,16,15,4*60
$GPGGA,090811.00,3135.3594500,N,12046.8184968,E,4,16,1.5,2.6257,M,8.326,M,01,0004*6C
$GPHPD,1957,32908.800,145.49,-0.71,12.93,31.5893242,120.7803083,2.626,13633590.248,24927997.321,2.626,-0.672,0.135,-0.628,0.679,1.275,0.595,0.000,16,15,4*65
$GPGGA,090811.20,3135.3593864,N,12046.8185457,E,4,16,1.5,2.6285,M,8.326,M,01,0004*69
$GPHPD,1957,32909.000,145.71,-0.13,12.79,31.5893231,120.7803091,2.629,13633591.251,24927998.281,2.629,-0.569,0.069,-0.579,0.679,1.275,0.595,0.000,16,15,4*6B
$GPGGA,090811.40,3135.3593345,N,12046.8185865,E,4,16,1.5,2.6219,M,8.326,M,01,0004*6F
$GPHPD,1957,32909.200,145.88,-0.46,12.67,31.5893222,120.7803098,2.622,13633592.071,24927999.075,2.622,-0.500,0.079,-0.491,0.679,1.275,0.595,0.000,16,15,4*69
$GPGGA,090811.60,3135.3592919,N,12046.8186177,E,4,16,1.5,2.6287,M,8.326,M,00,0004*60
$GPHPD,1957,32909.400,145.77,-0.10,12.55,31.5893215,120.7803103,2.629,13633592.739,24927999.700,2.629,-0.398,0.026,-0.419,0.679,1.275,0.595,0.000,16,15,4*69
$GPGGA,090811.80,3135.3592611,N,12046.8186437,E,4,16,1.5,2.6246,M,8.326,M,00,0004*65
$GPHPD,1957,32909.600,145.84,-0.40,12.43,31.5893210,120.7803107,2.625,13633593.229,24928000.192,2.625,-0.329,0.050,-0.317,0.679,1.275,0.595,0.000,16,15,4*68
