$GPGGA,083459.20,3135.3267479,N,12046.7879970,E,4,19,1.2,2.6180,M,8.324,M,01,0004*66
$GPHPD,1957,30917.000,58.33,-0.13,14.44,31.5887791,120.7798000,2.618,13633993.721,24927819.813,2.618,-0.734,-0.796,0.541,0.561,0.985,0.599,0.000,19,19,4*59
$GPGGA,083459.40,3135.3268167,N,12046.7881275,E,4,19,1.2,2.6212,M,8.324,M,01,0004*64
$GPHPD,1957,30917.200,58.24,-0.20,14.42,31.5887803,120.7798021,2.621,13633993.006,24927820.986,2.621,-0.696,-0.886,0.533,0.561,0.985,0.599,0.000,19,19,4*5B
$GPGGA,083459.60,3135.3268824,N,12046.7882580,E,4,19,1.2,2.6098,M,8.324,M,01,0004*66
$GPHPD,1957,30917.400,58.20,-0.17,14.36,31.5887814,120.7798043,2.610,13633992.335,24927822.178,2.610,-0.717,-0.791,0.548,0.561,0.985,0.599,0.000,19,19,4*58
$GPGGA,083459.80,3135.3269467,N,12046.7883802,E,4,19,1.2,2.6328,M,8.324,M,00,0004*6D
$GPHPD,1957,30917.600,58.41,0.34,14.27,31.5887824,120.7798063,2.633,13633991.667,24927823.277,2.633,-0.677,-0.838,0.498,0.561,0.985,0.599,0.000,19,19,4*7B
$GPGGA,083500.00,3135.3270047,N,12046.7884964,E,4,19,1.2,2.6257,M,8.324,M,01,0004*68
$GPHPD,1957,30917.800,58.16,-0.04,14.18,31.5887834,120.7798083,2.626,13633991.076,24927824.341,2.626,-0.697,-0.713,0.533,0.561,0.985,0.599,0.000,19,19,4*57
$GPGGA,083500.20,3135.3270592,N,12046.7885987,E,4,19,1.2,2.6315,M,8.324,M,01,0004*6C
$GPHPD,1957,30918.000,57.86,-0.07,14.05,31.5887843,120.7798100,2.632,13633990.507,24927825.258,2.632,-0.640,-0.701,0.466,0.561,0.985,0.599,0.000,19,19,4*51
$GPGGA,083500.40,3135.3271090,N,12046.7886930,E,4,19,1.2,2.6207,M,8.324,M,01,0004*61
$GPHPD,1957,30918.200,57.86,-0.42,13.93,31.5887852,120.7798116,2.621,13633989.989,24927826.105,2.621,-0.577,-0.649,0.441,0.561,0.985,0.599,0.000,19,19,4*58
$GPGGA,083500.60,3135.3271543,N,12046.7887745,E,4,19,1.2,2.6182,M,8.324,M,00,0004*6A
$GPHPD,1957,30918.400,57.81,-0.12,13.81,31.5887859,120.7798129,2.618,13633989.509,24927826.825,2.618,-0.493,-0.617,0.367,0.561,0.985,0.599,0.000,19,19,4*54
$GPGGA,083500.80,3135.3271947,N,12046.7888529,E,4,19,1.2,2.6201,M,8.324,M,00,0004*63
$GPHPD,1957,30918.600,57.73,0.36,13.74,31.5887866,120.7798142,2.620,13633989.093,24927827.535,2.620,-0.434,-0.539,0.359,0.561,0.985,0.599,0.000,19,19,4*7F
$GPGGA,083501.00,3135.3272308,N,12046.7889220,E,4,19,1.2,2.6170,M,8.324,M,01,0004*63
$GPHPD,1957,30918.800,57.57,0.09,13.67,31.5887872,120.7798154,2.617,13633988.719,24927828.158,2.617,-0.430,-0.475,0.322,0.561,0.985,0.599,0.000,19,19,4*7E
$GPGGA,083501.20,3135.3272697,N,12046.7889879,E,4,19,1.2,2.6205,M,8.324,M,01,0004*65
$GPHPD,1957,30919.000,57.68,0.01,13.62,31.5887878,120.7798165,2.621,13633988.299,24927828.727,2.621,-0.394,-0.444,0.291,0.561,0.985,0.599,0.000,19,19,4*7F
$GPGGA,083501.40,3135.3273020,N,12046.7890520,E,4,19,1.2,2.6196,M,8.324,M,01,0004*68
$GPHPD,1957,30919.200,57.84,-0.02,13.57,31.5887884,120.7798175,2.620,13633987.969,24927829.312,2.620,-0.364,-0.394,0.292,0.561,0.985,0.599,0.000,19,19,4*5B
$GPGGA,083501.60,3135.3273315,N,12046.7891072,E,4,19,1.2,2.6210,M,8.324,M,01,0004*61
$GPHPD,1957,30919.400,57.60,0.04,13.52,31.5887889,120.7798185,2.621,13633987.660,24927829.806,2.621,-0.339,-0.415,0.253,0.561,0.985,0.599,0.000,19,19,4*78
$GPGGA,083501.80,3135.3273590,N,12046.7891586,E,4,19,1.2,2.6194,M,8.324,M,00,0004*64
$GPHPD,1957,30919.600,57.46,-0.22,13.50,31.5887893,120.7798193,2.619,13633987.373,24927830.266,2.619,-0.297,-0.370,0.232,0.561,0.985,0.599,0.000,19,19,4*5C
$GPGGA,083502.00,3135.3273868,N,12046.7892092,E,4,19,1.2,2.6193,M,8.324,M,01,0004*60
$GPHPD,1957,30919.800,57.43,0.04,13.48,31.5887898,120.7798202,2.619,13633987.080,24927830.714,2.619,-0.288,-0.329,0.221,0.561,0.985,0.599,0.000,19,19,4*78
$GPGGA,083502.20,3135.3274133,N,12046.7892624,E,4,19,1.2,2.6193,M,8.324,M,01,0004*69
$GPHPD,1957,30920.000,57.62,0.11,13.48,31.5887902,120.7798210,2.619,13633986.810,24927831.202,2.619,-0.277,-0.316,0.215,0.561,0.985,0.599,0.000,19,19,4*74
$GPGGA,083502.40,3135.3274431,N,12046.7893142,E,4,19,1.2,2.6313,M,8.324,M,01,0004*64
$GPHPD,1957,30920.200,57.29,-0.17,13.51,31.5887907,120.7798219,2.631,13633986.491,24927831.653,2.631,-0.290,-0.308,0.214,0.561,0.985,0.599,0.000,19,19,4*54
$GPGGA,083502.60,3135.3274720,N,12046.7893713,E,4,19,1.2,2.6188,M,8.324,M,00,0004*66
$GPHPD,1957,30920.400,57.39,-0.27,13.56,31.5887912,120.7798229,2.619,13633986.195,24927832.174,2.619,-0.287,-0.323,0.243,0.561,0.985,0.599,0.000,19,19,4*5D
$GPGGA,083502.80,3135.3275050,N,12046.7894321,E,4,19,1.2,2.6155,M,8.324,M,00,0004*6B
$GPHPD,1957,30920.600,57.49,0.26,13.63,31.5887918,120.7798239,2.616,13633985.848,24927832.715,2.616,-0.310,-0.380,0.216,0.561,0.985,0.599,0.000,19,19,4*74
$GPGGA,083503.00,3135.3275414,N,12046.7894980,E,4,19,1.2,2.6082,M,8.324,M,01,0004*6D
$GPHPD,1957,30920.800,57.50,-0.34,13.71,31.5887924,120.7798250,2.608,13633985.463,24927833.298,2.608,-0.335,-0.382,0.262,0.561,0.985,0.599,0.000,19,19,4*5D
$GPGGA,083503.20,3135.3275790,N,12046.7895720,E,4,19,1.2,2.6247,M,8.324,M,01,0004*6E
$GPHPD,1957,30921.000,57.62,0.07,13.79,31.5887930,120.7798262,2.625,13633985.078,24927833.971,2.625,-0.351,-0.429,0.278,0.561,0.985,0.599,0.000,19,19,4*79
$GPGGA,083503.40,3135.3276232,N,12046.7896520,E,4,19,1.2,2.6175,M,8.324,M,01,0004*65
$GPHPD,1957,30921.200,57.25,-0.29,13.88,31.5887937,120.7798275,2.618,13633984.611,24927834.679,2.618,-0.417,-0.431,0.327,0.561,0.985,0.599,0.000,19,19,4*59
$GPGGA,083503.60,3135.3276692,N,12046.7897372,E,4,19,1.2,2.6242,M,8.324,M,01,0004*6E
$GPHPD,1957,30921.400,57.35,-0.14,13.97,31.5887945,120.7798290,2.624,13633984.128,24927835.439,2.624,-0.419,-0.550,0.328,0.561,0.985,0.599,0.000,19,19,4*5D
$GPGGA,083503.80,3135.3277211,N,12046.7898335,E,4,19,1.2,2.6221,M,8.324,M,00,0004*66
$GPHPD,1957,30921.600,57.20,-0.27,14.05,31.5887954,120.7798306,2.622,13633983.584,24927836.298,2.622,-0.470,-0.542,0.374,0.561,0.985,0.599,0.000,19,19,4*57
$GPGGA,083504.00,3135.3277766,N,12046.7899314,E,4,19,1.2,2.6157,M,8.324,M,01,0004*6D
$GPHPD,1957,30921.800,57.23,-0.30,14.11,31.5887963,120.7798322,2.616,13633982.993,24927837.156,2.616,-0.530,-0.580,0.418,0.561,0.985,0.599,0.000,19,19,4*56
$GPGGA,083504.20,3135.3278349,N,12046.7900409,E,4,19,1.2,2.6260,M,8.324,M,01,0004*64
$GPHPD,1957,30922.000,57.29,0.46,14.14,31.5887972,120.7798340,2.626,13633982.384,24927838.137,2.626,-0.544,-0.608,0.445,0.561,0.985,0.599,0.000,19,19,4*76
$GPGGA,083504.40,3135.3278951,N,12046.7901501,E,4,19,1.2,2.6236,M,8.324,M,01,0004*6A
$GPHPD,1957,30922.200,57.47,0.10,14.17,31.5887983,120.7798358,2.624,13633981.748,24927839.104,2.624,-0.598,-0.646,0.476,0.561,0.985,0.599,0.000,19,19,4*76
$GPGGA,083504.60,3135.3279565,N,12046.7902662,E,4,19,1.2,2.6094,M,8.324,M,00,0004*6C
$GPHPD,1957,30922.400,57.54,-0.11,14.20,31.5887993,120.7798378,2.609,13633981.109,24927840.147,2.609,-0.596,-0.696,0.467,0.561,0.985,0.599,0.000,19,19,4*50
$GPGGA,083504.80,3135.3280208,N,12046.7903825,E,4,19,1.2,2.6178,M,8.324,M,00,0004*67
$GPHPD,1957,30922.600,57.46,0.59,14.23,31.5888003,120.7798397,2.618,13633980.429,24927841.175,2.618,-0.597,-0.807,0.439,0.561,0.985,0.599,0.000,19,19,4*77
$GPGGA,083505.00,3135.3280846,N,12046.7905046,E,4,19,1.2,2.6220,M,8.324,M,01,0004*6A
$GPHPD,1957,30922.800,57.39,0.38,14.26,31.5888014,120.7798417,2.622,13633979.768,24927842.277,2.622,-0.624,-0.742,0.498,0.561,0.985,0.599,0.000,19,19,4*76
$GPGGA,083505.20,3135.3281518,N,12046.7906275,E,4,19,1.2,2.6274,M,8.324,M,01,0004*6F
$GPHPD,1957,30923.000,57.22,0.38,14.25,31.5888025,120.7798438,2.627,13633979.061,24927843.368,2.627,-0.664,-0.772,0.519,0.561,0.985,0.599,0.000,19,19,4*76
$GPGGA,083505.40,3135.3282177,N,12046.7907521,E,4,19,1.2,2.6259,M,8.324,M,01,0004*6F
$GPHPD,1957,30923.200,56.85,0.10,14.24,31.5888036,120.7798459,2.626,13633978.375,24927844.487,2.626,-0.665,-0.751,0.521,0.561,0.985,0.599,0.000,19,19,4*7B
$GPGGA,083505.60,3135.3282849,N,12046.7908810,E,4,19,1.2,2.6349,M,8.324,M,01,0004*69
$GPHPD,1957,30923.400,57.03,0.43,14.26,31.5888047,120.7798480,2.635,13633977.679,24927845.650,2.635,-0.704,-0.756,0.528,0.561,0.985,0.599,0.000,19,19,4*73
$GPGGA,083505.80,3135.3283554,N,12046.7910058,E,4,19,1.2,2.6355,M,8.324,M,00,0004*66
$GPHPD,1957,30923.600,56.56,-0.03,14.23,31.5888059,120.7798501,2.636,13633976.928,24927846.745,2.636,-0.718,-0.792,0.545,0.561,0.985,0.599,0.000,19,19,4*59
$GPGGA,083506.00,3135.3284241,N,12046.7911361,E,4,19,1.2,2.6337,M,8.324,M,01,0004*64
$GPHPD,1957,30923.800,56.97,-0.23,14.17,31.5888071,120.7798523,2.634,13633976.214,24927847.917,2.634,-0.674,-0.818,0.543,0.561,0.985,0.599,0.000,19,19,4*59
$GPGGA,083506.20,3135.3284950,N,12046.7912592,E,4,19,1.2,2.6332,M,8.324,M,01,0004*61
$GPHPD,1957,30924.000,56.78,-0.24,14.12,31.5888083,120.7798543,2.633,13633975.454,24927848.989,2.633,-0.692,-0.814,0.534,0.561,0.985,0.599,0.000,19,19,4*53
$GPGGA,083506.40,3135.3285609,N,12046.7913833,E,4,19,1.2,2.6269,M,8.324,M,01,0004*6D
$GPHPD,1957,30924.200,57.08,-0.40,14.10,31.5888093,120.7798564,2.627,13633974.767,24927850.102,2.627,-0.663,-0.820,0.534,0.561,0.985,0.599,0.000,19,19,4*5A
$GPGGA,083506.60,3135.3286299,N,12046.7915103,E,4,19,1.2,2.6283,M,8.324,M,00,0004*68
$GPHPD,1957,30924.400,57.15,0.11,14.09,31.5888105,120.7798585,2.628,13633974.042,24927851.232,2.628,-0.665,-0.806,0.510,0.561,0.985,0.599,0.000,19,19,4*75
$GPGGA,083506.80,3135.3286997,N,12046.7916359,E,4,19,1.2,2.6246,M,8.324,M,00,0004*64
$GPHPD,1957,30924.600,57.14,-0.21,14.07,31.5888117,120.7798606,2.625,13633973.302,24927852.341,2.625,-0.685,-0.803,0.537,0.561,0.985,0.599,0.000,19,19,4*55
$GPGGA,083507.00,3135.3287681,N,12046.7917624,E,4,19,1.2,2.6417,M,8.324,M,01,0004*69
$GPHPD,1957,30924.800,56.84,-0.24,14.05,31.5888128,120.7798627,2.642,13633972.585,24927853.469,2.642,-0.695,-0.771,0.526,0.561,0.985,0.599,0.000,19,19,4*54
$GPGGA,083507.20,3135.3288414,N,12046.7918874,E,4,19,1.2,2.6223,M,8.324,M,01,0004*6F
$GPHPD,1957,30925.000,57.03,-0.11,14.04,31.5888140,120.7798648,2.622,13633971.794,24927854.550,2.622,-0.707,-0.771,0.562,0.561,0.985,0.599,0.000,19,19,4*54
$GPGGA,083507.40,3135.3289099,N,12046.7920185,E,4,19,1.2,2.6229,M,8.325,M,01,0004*6E
$GPHPD,1957,30925.200,57.12,0.45,14.04,31.5888152,120.7798670,2.623,13633971.085,24927855.732,2.623,-0.696,-0.827,0.552,0.561,0.985,0.599,0.000,19,19,4*74
$GPGGA,083507.60,3135.3289854,N,12046.7921499,E,4,19,1.2,2.6170,M,8.325,M,01,0004*63
$GPHPD,1957,30925.400,57.28,0.29,14.04,31.5888164,120.7798692,2.617,13633970.276,24927856.877,2.617,-0.713,-0.821,0.547,0.561,0.985,0.599,0.000,19,19,4*74
$GPGGA,083507.80,3135.3290558,N,12046.7922817,E,4,19,1.2,2.6291,M,8.325,M,00,0004*60
$GPHPD,1957,30925.600,57.26,0.29,14.02,31.5888176,120.7798714,2.629,13633969.541,24927858.057,2.629,-0.706,-0.844,0.563,0.561,0.985,0.599,0.000,19,19,4*7C
$GPGGA,083508.00,3135.3291263,N,12046.7924166,E,4,19,1.2,2.6306,M,8.325,M,01,0004*6E
$GPHPD,1957,30925.800,57.27,-0.09,14.01,31.5888188,120.7798736,2.631,13633968.810,24927859.274,2.631,-0.728,-0.830,0.599,0.561,0.985,0.599,0.000,19,19,4*5E
$GPGGA,083508.20,3135.3291987,N,12046.7925513,E,4,19,1.2,2.6285,M,8.325,M,01,0004*60
$GPHPD,1957,30926.000,57.05,-0.44,14.03,31.5888200,120.7798759,2.629,13633968.052,24927860.477,2.629,-0.742,-0.806,0.574,0.561,0.985,0.599,0.000,19,19,4*5F
$GPGGA,083508.40,3135.3292759,N,12046.7926882,E,4,19,1.2,2.6305,M,8.325,M,01,0004*67
$GPHPD,1957,30926.200,57.41,-0.03,14.01,31.5888213,120.7798781,2.631,13633967.230,24927861.679,2.631,-0.760,-0.823,0.571,0.561,0.985,0.599,0.000,19,19,4*5D
$GPGGA,083508.60,3135.3293494,N,12046.7928254,E,4,19,1.2,2.6261,M,8.325,M,00,0004*6B
$GPHPD,1957,30926.400,57.59,0.19,14.00,31.5888225,120.7798804,2.626,13633966.462,24927862.906,2.626,-0.724,-0.881,0.585,0.561,0.985,0.599,0.000,19,19,4*75
$GPGGA,083508.80,3135.3294272,N,12046.7929652,E,4,19,1.2,2.6223,M,8.325,M,00,0004*69
$GPHPD,1957,30926.600,57.22,0.14,13.99,31.5888238,120.7798828,2.622,13633965.637,24927864.139,2.622,-0.746,-0.899,0.586,0.561,0.985,0.599,0.000,19,19,4*7E
$GPGGA,083509.00,3135.3295021,N,12046.7931039,E,4,19,1.2,2.6246,M,8.325,M,01,0004*65
$GPHPD,1957,30926.800,57.43,0.33,13.98,31.5888250,120.7798851,2.625,13633964.852,24927865.376,2.625,-0.758,-0.893,0.573,0.561,0.985,0.599,0.000,19,19,4*78
$GPGGA,083509.20,3135.3295784,N,12046.7932506,E,4,19,1.2,2.6268,M,8.325,M,01,0004*69
$GPHPD,1957,30927.000,57.18,0.22,13.96,31.5888263,120.7798875,2.627,13633964.062,24927866.701,2.627,-0.749,-0.884,0.612,0.561,0.985,0.599,0.000,19,19,4*79
$GPGGA,083509.40,3135.3296547,N,12046.7933905,E,4,19,1.2,2.6396,M,8.325,M,01,0004*6F
$GPHPD,1957,30927.200,56.50,0.20,13.95,31.5888276,120.7798898,2.640,13633963.259,24927867.944,2.640,-0.780,-0.888,0.598,0.561,0.985,0.599,0.000,19,19,4*7B
$GPGGA,083509.60,3135.3297276,N,12046.7935294,E,4,19,1.2,2.6382,M,8.325,M,01,0004*69
$GPHPD,1957,30927.400,56.62,-0.08,13.93,31.5888288,120.7798922,2.638,13633962.503,24927869.195,2.638,-0.784,-0.863,0.625,0.561,0.985,0.599,0.000,19,19,4*5B
$GPGGA,083509.80,3135.3298068,N,12046.7936726,E,4,19,1.2,2.6368,M,8.325,M,00,0004*6F
$GPHPD,1957,30927.600,56.84,-0.17,13.88,31.5888301,120.7798945,2.637,13633961.665,24927870.462,2.637,-0.781,-0.857,0.599,0.561,0.985,0.599,0.000,19,19,4*57
$GPGGA,083510.00,3135.3298854,N,12046.7938147,E,4,19,1.2,2.6321,M,8.325,M,01,0004*6B
$GPHPD,1957,30927.800,56.65,-0.52,13.83,31.5888314,120.7798969,2.632,13633960.834,24927871.718,2.632,-0.767,-0.908,0.605,0.561,0.985,0.599,0.000,19,19,4*57
$GPGGA,083510.20,3135.3299614,N,12046.7939522,E,4,19,1.2,2.6345,M,8.325,M,01,0004*66
$GPHPD,1957,30928.000,56.90,-0.51,13.79,31.5888327,120.7798992,2.635,13633960.031,24927872.934,2.635,-0.766,-0.905,0.576,0.561,0.985,0.599,0.000,19,19,4*5D
$GPGGA,083510.40,3135.3300405,N,12046.7940945,E,4,19,1.2,2.6193,M,8.325,M,01,0004*69
$GPHPD,1957,30928.200,56.88,-0.23,13.77,31.5888340,120.7799016,2.619,13633959.193,24927874.190,2.619,-0.770,-0.882,0.604,0.561,0.985,0.599,0.000,19,19,4*54
$GPGGA,083510.60,3135.3301195,N,12046.7942385,E,4,19,1.2,2.6317,M,8.325,M,01,0004*6C
$GPHPD,1957,30928.400,57.57,-0.21,13.76,31.5888353,120.7799040,2.632,13633958.360,24927875.467,2.632,-0.783,-0.898,0.605,0.561,0.985,0.599,0.000,19,19,4*56
$GPGGA,083510.80,3135.3301957,N,12046.7943821,E,4,19,1.2,2.6309,M,8.325,M,00,0004*6E
$GPHPD,1957,30928.600,57.54,-0.36,13.74,31.5888366,120.7799064,2.631,13633957.565,24927876.755,2.631,-0.804,-0.872,0.645,0.561,0.985,0.599,0.000,19,19,4*5E
$GPGGA,083511.00,3135.3302733,N,12046.7945286,E,4,19,1.2,2.6196,M,8.325,M,01,0004*6C
$GPHPD,1957,30928.800,57.53,-0.27,13.70,31.5888379,120.7799088,2.620,13633956.757,24927878.070,2.620,-0.788,-0.930,0.631,0.561,0.985,0.599,0.000,19,19,4*5C
$GPGGA,083511.20,3135.3303510,N,12046.7946698,E,4,19,1.2,2.6277,M,8.325,M,01,0004*68
$GPHPD,1957,30929.000,57.52,-0.08,13.70,31.5888392,120.7799112,2.628,13633955.937,24927879.321,2.628,-0.808,-0.899,0.630,0.561,0.985,0.599,0.000,19,19,4*57
$GPGGA,083511.40,3135.3304281,N,12046.7948164,E,4,19,1.2,2.6291,M,8.325,M,01,0004*64
$GPHPD,1957,30929.200,57.59,-0.55,13.68,31.5888405,120.7799136,2.629,13633955.136,24927880.641,2.629,-0.793,-0.878,0.613,0.561,0.985,0.599,0.000,19,19,4*5F
$GPGGA,083511.60,3135.3305013,N,12046.7949600,E,4,19,1.2,2.6340,M,8.325,M,01,0004*67
$GPHPD,1957,30929.400,57.62,0.00,13.65,31.5888417,120.7799160,2.634,13633954.385,24927881.946,2.634,-0.792,-0.902,0.615,0.561,0.985,0.599,0.000,19,19,4*78
$GPGGA,083511.80,3135.3305788,N,12046.7951036,E,4,19,1.2,2.6249,M,8.325,M,00,0004*6F
$GPHPD,1957,30929.600,57.83,0.09,13.62,31.5888430,120.7799184,2.625,13633953.572,24927883.227,2.625,-0.826,-0.849,0.622,0.561,0.985,0.599,0.000,19,19,4*79
$GPGGA,083512.00,3135.3306531,N,12046.7952496,E,4,19,1.2,2.6296,M,8.325,M,01,0004*69
$GPHPD,1957,30929.800,57.59,0.01,13.61,31.5888442,120.7799208,2.630,13633952.810,24927884.556,2.630,-0.789,-0.893,0.614,0.561,0.985,0.599,0.000,19,19,4*7F
$GPGGA,083512.20,3135.3307329,N,12046.7953971,E,4,19,1.2,2.6283,M,8.325,M,01,0004*64
$GPHPD,1957,30930.000,57.75,-0.20,13.61,31.5888455,120.7799233,2.628,13633951.973,24927885.870,2.628,-0.813,-0.882,0.604,0.561,0.985,0.599,0.000,19,19,4*53
$GPGGA,083512.40,3135.3308090,N,12046.7955426,E,4,19,1.2,2.6195,M,8.325,M,01,0004*61
$GPHPD,1957,30930.200,58.11,-0.16,13.59,31.5888468,120.7799257,2.620,13633951.184,24927887.182,2.620,-0.795,-0.938,0.611,0.561,0.985,0.599,0.000,19,19,4*5D
$GPGGA,083512.60,3135.330855,N,12046.7956900,E,4,19,1.2,2.6287,M,8.325,M,01,0004*68
$GPHPD,1957,30930.400,57.85,0.27,13.58,31.5888481,120.7799282,2.629,13633950.393,24927888.515,2.629,-0.784,-0.955,0.586,0.561,0.985,0.599,0.000,19,19,4*7E
$GPGGA,083512.80,3135.3309599,N,12046.7958367,E,4,19,1.2,2.6252,M,8.325,M,00,0004*66
$GPHPD,1957,30930.600,57.94,-0.16,13.59,31.5888493,120.7799306,2.625,13633949.631,24927889.851,2.625,-0.826,-0.911,0.610,0.561,0.985,0.599,0.000,19,19,4*5E
$GPGGA,083513.00,3135.3310373,N,12046.7959797,E,4,19,1.2,2.6146,M,8.325,M,01,0004*68
$GPHPD,1957,30930.800,57.62,-0.35,13.57,31.5888506,120.7799330,2.615,13633948.818,24927891.125,2.615,-0.822,-0.909,0.571,0.561,0.985,0.599,0.000,19,19,4*50
$GPGGA,083513.20,3135.3311125,N,12046.7961260,E,4,19,1.2,2.6269,M,8.325,M,01,0004*62
$GPHPD,1957,30931.000,57.80,-0.02,13.57,31.5888519,120.7799354,2.627,13633948.044,24927892.452,2.627,-0.773,-0.926,0.578,0.561,0.985,0.599,0.000,19,19,4*55
$GPGGA,083513.40,3135.3311882,N,12046.7962711,E,4,19,1.2,2.6408,M,8.325,M,01,0004*61
$GPHPD,1957,30931.200,57.60,-0.23,13.57,31.5888531,120.7799379,2.641,13633947.260,24927893.761,2.641,-0.815,-0.879,0.619,0.561,0.985,0.599,0.000,19,19,4*56
$GPGGA,083513.60,3135.3312650,N,12046.7964133,E,4,19,1.2,2.6257,M,8.325,M,01,0004*6D
$GPHPD,1957,30931.400,57.52,-0.51,13.58,31.5888544,120.7799402,2.626,13633946.455,24927895.030,2.626,-0.823,-0.858,0.639,0.561,0.985,0.599,0.000,19,19,4*52
$GPGGA,083513.80,3135.3313444,N,12046.7965574,E,4,19,1.2,2.6234,M,8.325,M,00,0004*67
$GPHPD,1957,30931.600,57.81,0.29,13.57,31.5888557,120.7799426,2.623,13633945.616,24927896.305,2.623,-0.761,-0.909,0.585,0.561,0.985,0.599,0.000,19,18,4*7E
$GPGGA,083514.00,3135.3314186,N,12046.7966999,E,4,19,1.2,2.6260,M,8.325,M,01,0004*68
$GPHPD,1957,30931.800,57.57,0.31,13.56,31.5888570,120.7799450,2.626,13633944.848,24927897.592,2.626,-0.767,-0.936,0.610,0.561,0.985,0.599,0.000,19,18,4*7F
$GPGGA,083514.20,3135.3314948,N,12046.7968435,E,4,19,1.2,2.6192,M,8.325,M,01,0004*6B
$GPHPD,1957,30932.000,57.69,-0.30,13.56,31.5888582,120.7799474,2.619,13633944.054,24927898.881,2.619,-0.783,-0.894,0.583,0.561,0.985,0.599,0.000,19,18,4*51
$GPGGA,083514.40,3135.3315713,N,12046.7969873,E,4,19,1.2,2.6150,M,8.325,M,01,0004*6D
$GPHPD,1957,30932.200,58.08,-0.25,13.56,31.5888595,120.7799498,2.615,13633943.256,24927900.170,2.615,-0.776,-0.885,0.598,0.561,0.985,0.599,0.000,19,18,4*5B
$GPGGA,083514.60,3135.331662,N,12046.7971338,E,4,19,1.2,2.6262,M,8.325,M,00,0004*67
$GPHPD,1957,30932.400,58.30,-0.02,13.55,31.5888608,120.7799522,2.626,13633942.486,24927901.501,2.626,-0.759,-0.939,0.587,0.561,0.985,0.599,0.000,19,18,4*5B
$GPGGA,083514.80,3135.3317211,N,12046.7972771,E,4,19,1.2,2.6254,M,8.325,M,00,0004*65
$GPHPD,1957,30932.600,57.90,-0.42,13.54,31.5888620,120.7799546,2.625,13633941.710,24927902.793,2.625,-0.812,-0.876,0.611,0.561,0.985,0.599,0.000,19,19,4*53
$GPGGA,083515.00,3135.3317991,N,12046.7974172,E,4,19,1.2,2.6258,M,8.325,M,01,0004*61
$GPHPD,1957,30932.800,58.15,-0.63,13.55,31.5888633,120.7799570,2.626,13633940.884,24927904.029,2.626,-0.805,-0.863,0.606,0.561,0.985,0.599,0.000,19,19,4*5D
$GPGGA,083515.20,3135.3318727,N,12046.7975631,E,4,19,1.2,2.6175,M,8.325,M,01,0004*62
$GPHPD,1957,30933.000,58.11,-0.39,13.56,31.5888645,120.7799594,2.618,13633940.131,24927905.360,2.618,-0.788,-0.866,0.622,0.561,0.985,0.599,0.000,19,19,4*56
$GPGGA,083515.40,3135.3319466,N,12046.7977095,E,4,19,1.2,2.6188,M,8.325,M,01,0004*6B
$GPHPD,1957,30933.200,57.89,-0.28,13.55,31.5888658,120.7799618,2.619,13633939.375,24927906.696,2.619,-0.787,-0.904,0.580,0.561,0.985,0.599,0.000,19,19,4*50
$GPGGA,083515.60,3135.3320205,N,12046.7978527,E,4,19,1.2,2.6255,M,8.325,M,01,0004*60
$GPHPD,1957,30933.400,57.92,-0.01,13.55,31.5888670,120.7799642,2.626,13633938.613,24927907.993,2.626,-0.819,-0.907,0.575,0.561,0.985,0.599,0.000,19,19,4*5C
$GPGGA,083515.80,3135.3320957,N,12046.7979926,E,4,19,1.2,2.6174,M,8.325,M,00,0004*6F
$GPHPD,1957,30933.600,57.77,0.25,13.56,31.5888683,120.7799665,2.617,13633937.826,24927909.242,2.617,-0.795,-0.899,0.596,0.561,0.985,0.599,0.000,19,19,4*7A
$GPGGA,083516.00,3135.3321697,N,12046.7981367,E,4,19,1.2,2.6139,M,8.325,M,01,0004*66
$GPHPD,1957,30933.800,57.95,-0.05,13.57,31.5888695,120.7799689,2.614,13633937.064,24927910.549,2.614,-0.777,-0.882,0.581,0.561,0.985,0.599,0.000,19,18,4*58
$GPGGA,083516.20,3135.3322454,N,12046.7982775,E,4,19,1.2,2.6107,M,8.325,M,01,0004*63
$GPHPD,1957,30934.000,57.84,0.17,13.57,31.5888708,120.7799713,2.611,13633936.271,24927911.807,2.611,-0.787,-0.897,0.583,0.623,1.005,0.602,0.000,19,18,4*72
$GPGGA,083516.40,3135.3323202,N,12046.7984181,E,4,19,1.2,2.6137,M,8.325,M,01,0004*69
$GPHPD,1957,30934.200,58.03,0.13,13.57,31.5888720,120.7799736,2.614,13633935.491,24927913.067,2.614,-0.768,-0.892,0.554,0.561,0.985,0.599,0.000,19,18,4*74
$GPGGA,083516.60,3135.3323944,N,12046.7985620,E,4,19,1.2,2.6177,M,8.325,M,00,0004*6A
$GPHPD,1957,30934.400,57.95,-0.08,13.59,31.5888732,120.7799760,2.618,13633934.726,24927914.371,2.618,-0.759,-0.910,0.585,0.561,0.985,0.599,0.000,19,18,4*53
$GPGGA,083516.80,3135.3324725,N,12046.7987030,E,4,19,1.2,2.6157,M,8.325,M,00,0004*6D
$GPHPD,1957,30934.600,57.90,-0.40,13.60,31.5888745,120.7799784,2.616,13633933.900,24927915.617,2.616,-0.783,-0.898,0.575,0.561,0.985,0.599,0.000,19,18,4*58
$GPGGA,083517.00,3135.3325444,N,12046.7988467,E,4,19,1.2,2.6086,M,8.325,M,01,0004*64
$GPHPD,1957,30934.800,57.98,-0.06,13.61,31.5888757,120.7799808,2.609,13633933.167,24927916.932,2.609,-0.765,-0.894,0.599,0.561,0.985,0.599,0.000,19,18,4*51
$GPGGA,083517.20,3135.3326188,N,12046.7989905,E,4,19,1.2,2.6205,M,8.325,M,01,0004*61
$GPHPD,1957,30935.000,57.96,0.36,13.62,31.5888770,120.7799832,2.621,13633932.399,24927918.233,2.621,-0.757,-0.919,0.558,0.561,0.985,0.599,0.000,19,18,4*79
$GPGGA,083517.40,3135.3326926,N,12046.7991309,E,4,19,1.2,2.6186,M,8.325,M,01,0004*6C
$GPHPD,1957,30935.200,57.93,-0.26,13.62,31.5888782,120.7799855,2.619,13633931.632,24927919.497,2.619,-0.783,-0.860,0.602,0.561,0.985,0.599,0.000,19,18,4*5A
$GPGGA,083517.60,3135.3327690,N,12046.7992721,E,4,19,1.2,2.6149,M,8.325,M,01,0004*63
$GPHPD,1957,30935.400,58.00,-0.32,13.61,31.5888795,120.7799879,2.615,13633930.831,24927920.755,2.615,-0.802,-0.838,0.593,0.561,0.985,0.599,0.000,19,18,4*5C
$GPGGA,083517.80,3135.3328440,N,12046.7994143,E,4,19,1.2,2.6151,M,8.325,M,01,0004*60
$GPHPD,1957,30935.600,57.99,-0.14,13.61,31.5888807,120.7799902,2.615,13633930.051,24927922.034,2.615,-0.764,-0.893,0.593,0.561,0.985,0.599,0.000,19,18,4*5E
$GPGGA,083518.00,3135.3329172,N,12046.7995548,E,4,19,1.2,2.6117,M,8.325,M,02,0004*6D
$GPHPD,1957,30935.800,57.80,-0.12,13.61,31.5888820,120.7799926,2.612,13633929.293,24927923.302,2.612,-0.780,-0.892,0.593,0.561,0.985,0.599,0.000,19,18,4*55
$GPGGA,083518.20,3135.3329911,N,12046.7996937,E,4,19,1.2,2.6175,M,8.325,M,02,0004*61
$GPHPD,1957,30936.000,57.63,0.15,13.62,31.5888832,120.7799949,2.618,13633928.522,24927924.547,2.618,-0.757,-0.931,0.560,0.561,0.985,0.599,0.000,19,18,4*72
$GPGGA,083518.40,3135.3330649,N,12046.7998364,E,4,19,1.2,2.6202,M,8.325,M,02,0004*6C
$GPHPD,1957,30936.200,57.75,-0.27,13.64,31.5888844,120.7799973,2.620,13633927.761,24927925.839,2.620,-0.761,-0.874,0.573,0.561,0.985,0.599,0.000,19,18,4*5D
$GPGGA,083518.60,3135.3331410,N,12046.7999765,E,4,19,1.2,2.6119,M,8.325,M,00,0004*6E
$GPHPD,1957,30936.400,57.43,-0.05,13.63,31.5888857,120.7799996,2.612,13633926.961,24927927.086,2.612,-0.799,-0.854,0.595,0.561,0.985,0.599,0.000,19,18,4*5C
$GPGGA,083518.80,3135.3332152,N,12046.8001208,E,4,19,1.2,2.6171,M,8.325,M,00,0004*67
$GPHPD,1957,30936.600,57.83,0.00,13.64,31.5888869,120.7800020,2.617,13633926.197,24927928.394,2.617,-0.764,-0.926,0.579,0.561,0.985,0.599,0.000,19,18,4*71
$GPGGA,083519.00,3135.3332910,N,12046.8002605,E,4,19,1.2,2.6165,M,8.325,M,01,0004*6E
$GPHPD,1957,30936.800,57.74,0.06,13.66,31.5888882,120.7800043,2.617,13633925.400,24927929.638,2.617,-0.794,-0.886,0.602,0.623,1.005,0.602,0.000,19,18,4*76
$GPGGA,083519.20,3135.3333668,N,12046.8004019,E,4,19,1.2,2.6238,M,8.325,M,01,0004*6B
$GPHPD,1957,30937.000,57.87,0.02,13.64,31.5888894,120.7800067,2.624,13633924.608,24927930.902,2.624,-0.765,-0.897,0.585,0.561,0.985,0.599,0.000,19,18,4*77
$GPGGA,083519.40,3135.3334397,N,12046.8005447,E,4,19,1.2,2.6190,M,8.325,M,01,0004*60
$GPHPD,1957,30937.200,57.73,-0.42,13.63,31.5888907,120.7800091,2.619,13633923.859,24927932.200,2.619,-0.787,-0.868,0.615,0.561,0.985,0.599,0.000,19,18,4*52
$GPGGA,083519.60,3135.3335166,N,12046.8006836,E,4,19,1.2,2.6156,M,8.325,M,01,0004*6C
$GPHPD,1957,30937.400,57.71,-0.43,13.62,31.5888919,120.7800114,2.616,13633923.045,24927933.428,2.616,-0.782,-0.887,0.584,0.561,0.985,0.599,0.000,19,18,4*52
$GPGGA,083519.80,3135.3335915,N,12046.8008272,E,4,19,1.2,2.6207,M,8.325,M,00,0004*6C
$GPHPD,1957,30937.600,57.83,-0.11,13.63,31.5888932,120.7800138,2.621,13633922.270,24927934.724,2.621,-0.766,-0.890,0.593,0.561,0.985,0.599,0.000,19,18,4*5B
$GPGGA,083520.00,3135.3336675,N,12046.8009731,E,4,19,1.2,2.6138,M,8.325,M,01,0004*69
$GPHPD,1957,30937.800,57.81,-0.07,13.63,31.5888945,120.7800162,2.614,13633921.483,24927936.041,2.614,-0.793,-0.841,0.598,0.561,0.985,0.599,0.000,19,18,4*5D
$GPGGA,083520.20,3135.3337428,N,12046.8011169,E,4,19,1.2,2.6252,M,8.325,M,01,0004*6D
$GPHPD,1957,30938.000,57.60,-0.18,13.62,31.5888957,120.7800186,2.625,13633920.702,24927937.337,2.625,-0.791,-0.901,0.594,0.561,0.985,0.599,0.000,19,18,4*50
$GPGGA,083520.40,3135.3338197,N,12046.8012580,E,4,19,1.2,2.6172,M,8.325,M,01,0004*64
$GPHPD,1957,30938.200,57.40,-0.25,13.62,31.5888970,120.7800210,2.617,13633919.893,24927938.591,2.617,-0.797,-0.852,0.589,0.561,0.985,0.599,0.000,19,18,4*52
$GPGGA,083520.60,3135.3338940,N,12046.8013989,E,4,19,1.2,2.6219,M,8.325,M,00,0004*6F
$GPHPD,1957,30938.400,57.35,-0.01,13.62,31.5888982,120.7800233,2.622,13633919.121,24927939.858,2.622,-0.772,-0.933,0.591,0.561,0.985,0.599,0.000,19,18,4*51
$GPGGA,083520.80,3135.3339695,N,12046.8015415,E,4,19,1.2,2.6270,M,8.325,M,00,0004*66
$GPHPD,1957,30938.600,57.40,-0.22,13.62,31.5888995,120.7800257,2.627,13633918.334,24927941.139,2.627,-0.803,-0.843,0.606,0.561,0.985,0.599,0.000,19,18,4*50
$GPGGA,083521.00,3135.3340431,N,12046.8016818,E,4,19,1.2,2.6114,M,8.325,M,01,0004*6F
$GPHPD,1957,30938.800,57.47,-0.27,13.63,31.5889007,120.7800280,2.611,13633917.571,24927942.402,2.611,-0.791,-0.882,0.601,0.623,1.005,0.602,0.000,19,18,4*58
$GPGGA,083521.20,3135.3341191,N,12046.8018247,E,4,19,1.2,2.6325,M,8.325,M,01,0004*6D
$GPHPD,1957,30939.000,57.36,0.11,13.64,31.5889020,120.7800304,2.633,13633916.778,24927943.684,2.633,-0.763,-0.917,0.565,0.561,0.985,0.599,0.000,19,18,4*72
$GPGGA,083521.40,3135.3341957,N,12046.8019670,E,4,19,1.2,2.6165,M,8.325,M,01,0004*6E
$GPHPD,1957,30939.200,57.49,0.01,13.67,31.5889033,120.7800328,2.617,13633915.976,24927944.954,2.617,-0.788,-0.830,0.623,0.561,0.985,0.599,0.000,19,18,4*70
$GPGGA,083521.60,3135.3342720,N,12046.8021094,E,4,19,1.2,2.6123,M,8.325,M,01,0004*64
$GPHPD,1957,30939.400,57.52,-0.04,13.66,31.5889045,120.7800352,2.612,13633915.178,24927946.227,2.612,-0.780,-0.881,0.583,0.561,0.985,0.599,0.000,19,18,4*59
$GPGGA,083521.80,3135.3343478,N,12046.8022553,E,4,19,1.2,2.6225,M,8.325,M,00,0004*6C
$GPHPD,1957,30939.600,57.72,-0.16,13.66,31.5889058,120.7800376,2.623,13633914.394,24927947.546,2.623,-0.777,-0.897,0.592,0.561,0.985,0.599,0.000,19,18,4*5F
$GPGGA,083522.00,3135.3344251,N,12046.8023998,E,4,19,1.2,2.6238,M,8.325,M,01,0004*6A
$GPHPD,1957,30939.800,57.50,-0.10,13.65,31.5889071,120.7800400,2.624,13633913.586,24927948.839,2.624,-0.818,-0.892,0.604,0.561,0.985,0.599,0.000,19,18,4*5E
$GPGGA,083522.20,3135.3345035,N,12046.8025447,E,4,19,1.2,2.6244,M,8.325,M,01,0004*6B
$GPHPD,1957,30940.000,57.51,0.18,13.64,31.5889084,120.7800424,2.624,13633912.763,24927950.130,2.624,-0.803,-0.869,0.619,0.561,0.985,0.599,0.000,19,18,4*72
$GPGGA,083522.40,3135.3345776,N,12046.8026879,E,4,19,1.2,2.6210,M,8.325,M,01,0004*6E
$GPHPD,1957,30940.200,57.79,-0.29,13.63,31.5889096,120.7800448,2.621,13633911.998,24927951.426,2.621,-0.801,-0.896,0.617,0.561,0.985,0.599,0.000,19,18,4*5D
$GPGGA,083522.60,3135.3346560,N,12046.8028292,E,4,19,1.2,2.6151,M,8.325,M,00,0004*6C
$GPHPD,1957,30940.400,57.71,0.07,13.62,31.5889109,120.7800472,2.615,13633911.168,24927952.674,2.615,-0.786,-0.918,0.581,0.561,0.985,0.599,0.000,19,18,4*77
$GPGGA,083522.80,3135.3347324,N,12046.8029735,E,4,19,1.2,2.6185,M,8.325,M,00,0004*65
$GPHPD,1957,30940.600,57.90,0.04,13.62,31.5889122,120.7800496,2.619,13633910.373,24927953.969,2.619,-0.768,-0.924,0.573,0.561,0.985,0.599,0.000,19,18,4*73
$GPGGA,083523.00,3135.3348084,N,12046.8031158,E,4,19,1.2,2.6219,M,8.325,M,01,0004*69
$GPHPD,1957,30940.800,57.78,0.19,13.62,31.5889135,120.7800519,2.622,13633909.579,24927955.243,2.622,-0.773,-0.933,0.606,0.561,0.985,0.599,0.000,19,18,4*7B
$GPGGA,083523.20,3135.3348833,N,12046.8032601,E,4,19,1.2,2.6331,M,8.325,M,01,0004*6C
$GPHPD,1957,30941.000,57.92,0.32,13.61,31.5889147,120.7800543,2.633,13633908.805,24927956.548,2.633,-0.766,-0.894,0.616,0.561,0.985,0.599,0.000,19,18,4*77
$GPGGA,083523.40,3135.3349611,N,12046.8034012,E,4,19,1.2,2.6219,M,8.325,M,01,0004*6C
$GPHPD,1957,30941.200,58.00,-0.37,13.59,31.5889160,120.7800567,2.622,13633907.983,24927957.797,2.622,-0.813,-0.845,0.625,0.561,0.985,0.599,0.000,19,18,4*51
$GPGGA,083523.60,3135.3350358,N,12046.8035475,E,4,19,1.2,2.6195,M,8.325,M,01,0004*6D
$GPHPD,1957,30941.400,57.75,0.25,13.60,31.5889173,120.7800591,2.620,13633907.215,24927959.126,2.620,-0.774,-0.878,0.604,0.561,0.985,0.599,0.000,19,18,4*70
$GPGGA,083523.80,3135.3351109,N,12046.8036920,E,4,19,1.2,2.6277,M,8.325,M,00,0004*64
$GPHPD,1957,30941.600,57.74,-0.15,13.60,31.5889185,120.7800615,2.628,13633906.439,24927960.432,2.628,-0.783,-0.916,0.579,0.561,0.985,0.599,0.000,19,18,4*50
$GPGGA,083524.00,3135.3351860,N,12046.8038343,E,4,19,1.2,2.6292,M,8.325,M,01,0004*66
$GPHPD,1957,30941.800,57.58,0.43,13.61,31.5889198,120.7800639,2.629,13633905.658,24927961.711,2.629,-0.797,-0.867,0.611,0.561,0.985,0.599,0.000,19,18,4*77
$GPGGA,083524.20,3135.3352654,N,12046.8039794,E,4,19,1.2,2.6236,M,8.325,M,01,0004*6F
$GPHPD,1957,30942.000,57.35,0.32,13.63,31.5889211,120.7800663,2.624,13633904.821,24927962.999,2.624,-0.790,-0.845,0.604,0.561,0.985,0.599,0.000,19,18,4*71
$GPGGA,083524.40,3135.3353391,N,12046.8041247,E,4,19,1.2,2.6307,M,8.325,M,01,0004*63
$GPHPD,1957,30942.200,57.63,-0.20,13.65,31.5889223,120.7800687,2.631,13633904.066,24927964.323,2.631,-0.778,-0.955,0.601,0.561,0.985,0.599,0.000,19,18,4*56
$GPGGA,083524.60,3135.3354143,N,12046.8042679,E,4,19,1.2,2.6305,M,8.325,M,00,0004*62
$GPHPD,1957,30942.400,57.53,-0.52,13.64,31.5889236,120.7800711,2.631,13633903.285,24927965.612,2.631,-0.816,-0.857,0.607,0.561,0.985,0.599,0.000,19,18,4*51
$GPGGA,083524.80,3135.3354934,N,12046.8044093,E,4,19,1.2,2.6224,M,8.325,M,00,0004*62
$GPHPD,1957,30942.600,57.68,-0.31,13.60,31.5889249,120.7800735,2.622,13633902.446,24927966.857,2.622,-0.787,-0.905,0.606,0.561,0.985,0.599,0.000,19,18,4*50
$GPGGA,083525.00,3135.3355684,N,12046.8045552,E,4,19,1.2,2.6356,M,8.325,M,01,0004*62
$GPHPD,1957,30942.800,57.58,-0.24,13.60,31.5889261,120.7800759,2.636,13633901.673,24927968.180,2.636,-0.774,-0.912,0.593,0.561,0.985,0.599,0.000,19,18,4*56
$GPGGA,083525.20,3135.3356471,N,12046.8046993,E,4,19,1.2,2.6290,M,8.325,M,01,0004*62
$GPHPD,1957,30943.000,57.59,-0.82,13.60,31.5889275,120.7800783,2.629,13633900.845,24927969.460,2.629,-0.810,-0.876,0.601,0.561,0.985,0.599,0.000,19,18,4*56
$GPGGA,083525.40,3135.3357242,N,12046.8048430,E,4,19,1.2,2.6161,M,8.325,M,01,0004*64
$GPHPD,1957,30943.200,57.93,-0.56,13.58,31.5889287,120.7800807,2.616,13633900.038,24927970.744,2.616,-0.787,-0.900,0.614,0.561,0.985,0.599,0.000,19,18,4*54
$GPGGA,083525.60,3135.3358001,N,12046.8049877,E,4,19,1.2,2.6214,M,8.325,M,01,0004*63
$GPHPD,1957,30943.400,57.68,-0.15,13.57,31.5889300,120.7800831,2.621,13633899.250,24927972.048,2.621,-0.767,-0.944,0.593,0.561,0.985,0.599,0.000,19,18,4*53
$GPGGA,083525.80,3135.3358777,N,12046.8051321,E,4,19,1.2,2.6231,M,8.325,M,00,0004*6C
$GPHPD,1957,30943.600,57.63,0.00,13.57,31.5889313,120.7800855,2.623,13633898.438,24927973.338,2.623,-0.787,-0.914,0.603,0.561,0.985,0.599,0.000,19,18,4*7E
$GPGGA,083526.00,3135.3359518,N,12046.8052770,E,4,19,1.2,2.6276,M,8.325,M,01,0004*6C
$GPHPD,1957,30943.800,57.57,0.09,13.58,31.5889325,120.7800880,2.628,13633897.676,24927974.654,2.628,-0.793,-0.905,0.603,0.561,0.985,0.599,0.000,19,18,4*76
$GPGGA,083526.20,3135.3360295,N,12046.8054194,E,4,19,1.2,2.6237,M,8.325,M,01,0004*69
$GPHPD,1957,30944.000,57.39,-0.27,13.56,31.5889338,120.7800903,2.624,13633896.858,24927975.919,2.624,-0.793,-0.908,0.587,0.561,0.985,0.599,0.000,19,18,4*5E
$GPGGA,083526.40,3135.3361057,N,12046.8055616,E,4,19,1.2,2.6302,M,8.325,M,01,0004*69
$GPHPD,1957,30944.200,57.45,-0.16,13.57,31.5889351,120.7800927,2.630,13633896.062,24927977.191,2.630,-0.773,-0.915,0.600,0.561,0.985,0.599,0.000,19,18,4*58
$GPGGA,083526.60,3135.3361821,N,12046.8057063,E,4,19,1.2,2.6194,M,8.325,M,00,0004*68
$GPHPD,1957,30944.400,57.57,0.28,13.56,31.5889364,120.7800951,2.619,13633895.267,24927978.491,2.619,-0.798,-0.874,0.611,0.561,0.985,0.599,0.000,19,18,4*76
$GPGGA,083526.80,3135.3362586,N,12046.8058505,E,4,19,1.2,2.6330,M,8.325,M,00,0004*63
$GPHPD,1957,30944.600,57.93,0.04,13.56,31.5889376,120.7800975,2.633,13633894.470,24927979.785,2.633,-0.757,-0.933,0.571,0.561,0.985,0.599,0.000,19,18,4*75
$GPGGA,083527.00,3135.3363333,N,12046.8059927,E,4,19,1.2,2.6288,M,8.325,M,01,0004*6D
$GPHPD,1957,30944.800,57.91,-0.05,13.56,31.5889389,120.7800999,2.629,13633893.694,24927981.066,2.629,-0.785,-0.891,0.610,0.561,0.985,0.599,0.000,19,18,4*57
$GPGGA,083527.20,3135.3364111,N,12046.8061382,E,4,19,1.2,2.6258,M,8.325,M,01,0004*69
$GPHPD,1957,30945.000,57.81,-0.09,13.55,31.5889402,120.7801023,2.626,13633892.881,24927982.368,2.626,-0.770,-0.916,0.577,0.561,0.985,0.599,0.000,19,18,4*5E
$GPGGA,083527.40,3135.3364898,N,12046.8062816,E,4,19,1.2,2.6353,M,8.325,M,01,0004*68
$GPHPD,1957,30945.200,57.84,0.08,13.55,31.5889415,120.7801047,2.635,13633892.051,24927983.639,2.635,-0.785,-0.908,0.603,0.561,0.985,0.599,0.000,19,18,4*71
$GPGGA,083527.60,3135.3365626,N,12046.8064264,E,4,19,1.2,2.6316,M,8.325,M,01,0004*68
$GPHPD,1957,30945.400,57.94,-0.09,13.55,31.5889427,120.7801071,2.632,13633891.308,24927984.962,2.632,-0.790,-0.892,0.619,0.561,0.985,0.599,0.000,19,18,4*59
$GPGGA,083527.80,3135.3366416,N,12046.8065722,E,4,19,1.2,2.6273,M,8.325,M,00,0004*61
$GPHPD,1957,30945.600,57.72,-0.25,13.55,31.5889440,120.7801095,2.627,13633890.478,24927986.260,2.627,-0.778,-0.938,0.579,0.561,0.985,0.599,0.000,19,18,4*5E
$GPGGA,083528.00,3135.3367155,N,12046.8067160,E,4,19,1.2,2.6350,M,8.325,M,01,0004*66
$GPHPD,1957,30945.800,57.64,0.16,13.54,31.5889453,120.7801119,2.635,13633889.717,24927987.565,2.635,-0.777,-0.933,0.582,0.561,0.985,0.599,0.000,19,18,4*7D
$GPGGA,083528.20,3135.3367935,N,12046.8068590,E,4,19,1.2,2.6351,M,8.325,M,01,0004*6F
$GPHPD,1957,30946.000,57.64,-0.14,13.53,31.5889466,120.7801143,2.635,13633888.896,24927988.835,2.635,-0.783,-0.914,0.609,0.561,0.985,0.599,0.000,19,18,4*59
$GPGGA,083528.40,3135.3368692,N,12046.8070025,E,4,19,1.2,2.6396,M,8.325,M,01,0004*6D
$GPHPD,1957,30946.200,57.43,-0.29,13.51,31.5889478,120.7801167,2.640,13633888.109,24927990.125,2.640,-0.779,-0.890,0.602,0.561,0.985,0.599,0.000,19,18,4*56
$GPGGA,083528.60,3135.3369445,N,12046.8071469,E,4,19,1.2,2.6291,M,8.325,M,00,0004*6C
$GPHPD,1957,30946.400,57.50,-0.47,13.51,31.5889491,120.7801191,2.629,13633887.329,24927991.429,2.629,-0.796,-0.863,0.625,0.561,0.985,0.599,0.000,19,18,4*5B
$GPGGA,083528.80,3135.3370194,N,12046.8072905,E,4,19,1.2,2.6372,M,8.325,M,00,0004*6B
$GPHPD,1957,30946.600,57.64,-0.06,13.52,31.5889503,120.7801215,2.637,13633886.554,24927992.725,2.637,-0.782,-0.951,0.561,0.561,0.985,0.599,0.000,19,18,4*5A
$GPGGA,083529.00,3135.3370946,N,12046.8074327,E,4,19,1.2,2.6333,M,8.325,M,01,0004*6D
$GPHPD,1957,30946.800,57.75,-0.20,13.51,31.5889516,120.7801239,2.633,13633885.771,24927994.002,2.633,-0.825,-0.850,0.617,0.561,0.985,0.599,0.000,19,18,4*5B
$GPGGA,083529.20,3135.3371725,N,12046.8075781,E,4,19,1.2,2.6245,M,8.325,M,01,0004*6C
$GPHPD,1957,30947.000,57.73,-0.42,13.52,31.5889529,120.7801263,2.625,13633884.957,24927995.302,2.625,-0.785,-0.889,0.588,0.561,0.985,0.599,0.000,19,18,4*5D
$GPGGA,083529.40,3135.3372489,N,12046.8077208,E,4,19,1.2,2.6277,M,8.325,M,01,0004*6B
$GPHPD,1957,30947.200,57.76,0.29,13.51,31.5889541,120.7801287,2.628,13633884.158,24927996.579,2.628,-0.795,-0.906,0.604,0.561,0.985,0.599,0.000,19,18,4*73
$GPGGA,083529.60,3135.3373245,N,12046.8078629,E,4,19,1.2,2.6290,M,8.325,M,01,0004*6F
$GPHPD,1957,30947.400,57.83,0.00,13.50,31.5889554,120.7801310,2.629,13633883.369,24927997.853,2.629,-0.777,-0.927,0.601,0.561,0.985,0.599,0.000,19,18,4*77
$GPGGA,083529.80,3135.3373989,N,12046.8080047,E,4,19,1.2,2.6304,M,8.325,M,00,0004*6E
$GPHPD,1957,30947.600,58.09,-0.18,13.51,31.5889566,120.7801334,2.630,13633882.597,24927999.130,2.630,-0.779,-0.905,0.580,0.561,0.985,0.599,0.000,19,18,4*5A
$GPGGA,083530.00,3135.3374735,N,12046.8081510,E,4,19,1.2,2.6326,M,8.325,M,01,0004*67
$GPHPD,1957,30947.800,57.74,-0.16,13.51,31.5889579,120.7801359,2.633,13633881.831,24928000.460,2.633,-0.784,-0.895,0.575,0.561,0.985,0.599,0.000,19,18,4*5E
$GPGGA,083530.20,3135.3375489,N,12046.8082884,E,4,19,1.2,2.6314,M,8.325,M,01,0004*62
$GPHPD,1957,30948.000,57.67,-0.21,13.50,31.5889591,120.7801381,2.631,13633881.036,24928001.678,2.631,-0.797,-0.872,0.601,0.561,0.985,0.599,0.000,19,18,4*53
$GPGGA,083530.40,3135.3376254,N,12046.8084382,E,4,19,1.2,2.6306,M,8.325,M,01,0004*69
$GPHPD,1957,30948.200,57.91,0.01,13.50,31.5889604,120.7801406,2.631,13633880.250,24928003.040,2.631,-0.775,-0.877,0.594,0.561,0.985,0.599,0.000,19,18,4*7A
$GPGGA,083530.60,3135.3377045,N,12046.8085813,E,4,19,1.2,2.6305,M,8.325,M,00,0004*68
$GPHPD,1957,30948.400,57.82,-0.27,13.51,31.5889617,120.7801430,2.631,13633879.414,24928004.305,2.631,-0.790,-0.936,0.587,0.561,0.985,0.599,0.000,19,18,4*59
$GPGGA,083530.80,3135.3377782,N,12046.8087252,E,4,19,1.2,2.6316,M,8.325,M,00,0004*65
$GPHPD,1957,30948.600,57.97,-0.22,13.49,31.5889630,120.7801454,2.632,13633878.656,24928005.612,2.632,-0.792,-0.885,0.607,0.561,0.985,0.599,0.000,19,18,4*53
$GPGGA,083531.00,3135.3378527,N,12046.8088662,E,4,19,1.2,2.6306,M,8.325,M,01,0004*66
$GPHPD,1957,30948.800,57.81,0.12,13.47,31.5889642,120.7801478,2.631,13633877.881,24928006.879,2.631,-0.788,-0.907,0.593,0.561,0.985,0.599,0.000,19,18,4*74
$GPGGA,083531.20,3135.3379290,N,12046.8090113,E,4,19,1.2,2.6411,M,8.326,M,01,0004*64
$GPHPD,1957,30949.000,58.24,-0.21,13.48,31.5889655,120.7801502,2.641,13633877.088,24928008.185,2.641,-0.778,-0.891,0.591,0.561,0.985,0.599,0.000,19,18,4*53
$GPGGA,083531.40,3135.3380050,N,12046.8091590,E,4,19,1.2,2.6313,M,8.326,M,01,0004*61
$GPHPD,1957,30949.200,58.23,-0.46,13.47,31.5889668,120.7801527,2.631,13633876.305,24928009.524,2.631,-0.813,-0.850,0.621,0.561,0.985,0.599,0.000,19,18,4*5F
$GPGGA,083531.60,3135.3380825,N,12046.8093020,E,4,19,1.2,2.6396,M,8.326,M,01,0004*68
$GPHPD,1957,30949.400,57.85,-0.25,13.47,31.5889680,120.7801550,2.640,13633875.491,24928010.797,2.640,-0.815,-0.900,0.582,0.561,0.985,0.599,0.000,19,18,4*5A
$GPGGA,083531.80,3135.3381563,N,12046.8094461,E,4,19,1.2,2.6289,M,8.326,M,00,0004*60
$GPHPD,1957,30949.600,58.03,0.01,13.46,31.5889693,120.7801574,2.629,13633874.732,24928012.106,2.629,-0.800,-0.856,0.615,0.561,0.985,0.599,0.000,19,18,4*7B
$GPGGA,083532.00,3135.3382315,N,12046.8095921,E,4,19,1.2,2.6424,M,8.326,M,01,0004*67
$GPHPD,1957,30949.800,57.73,0.36,13.46,31.5889705,120.7801599,2.642,13633873.957,24928013.429,2.642,-0.760,-0.937,0.553,0.561,0.985,0.599,0.000,19,18,4*79
$GPGGA,083532.20,3135.3383075,N,12046.8097395,E,4,19,1.2,2.6264,M,8.326,M,01,0004*64
$GPHPD,1957,30950.000,57.63,-0.10,13.46,31.5889718,120.7801623,2.626,13633873.174,24928014.764,2.626,-0.816,-0.853,0.610,0.561,0.985,0.599,0.000,19,18,4*52
$GPGGA,083532.40,3135.3383821,N,12046.8098809,E,4,19,1.2,2.6447,M,8.326,M,01,0004*6D
$GPHPD,1957,30950.200,57.32,-0.36,13.44,31.5889730,120.7801647,2.645,13633872.398,24928016.036,2.645,-0.800,-0.941,0.565,0.561,0.985,0.599,0.000,19,18,4*5D
$GPGGA,083532.60,3135.3384582,N,12046.8100222,E,4,19,1.2,2.6352,M,8.326,M,00,0004*6D
$GPHPD,1957,30950.400,57.45,-0.47,13.43,31.5889743,120.7801670,2.635,13633871.601,24928017.297,2.635,-0.799,-0.856,0.599,0.561,0.985,0.599,0.000,19,18,4*5F
$GPGGA,083532.80,3135.338585,N,12046.8101708,E,4,19,1.2,2.6369,M,8.326,M,00,0004*67
$GPHPD,1957,30950.600,57.80,-0.11,13.43,31.5889756,120.7801695,2.637,13633870.758,24928018.622,2.637,-0.755,-0.948,0.574,0.561,0.985,0.599,0.000,19,18,4*5C
$GPGGA,083533.00,3135.3386102,N,12046.8103113,E,4,19,1.2,2.6447,M,8.326,M,01,0004*64
$GPHPD,1957,30950.800,57.83,-0.11,13.44,31.5889768,120.7801719,2.645,13633870.022,24928019.899,2.645,-0.793,-0.920,0.601,0.561,0.985,0.599,0.000,19,18,4*5E
$GPGGA,083533.20,3135.3386855,N,12046.8104568,E,4,19,1.2,2.6265,M,8.326,M,01,0004*64
$GPHPD,1957,30951.000,57.81,-0.35,13.46,31.5889781,120.7801743,2.627,13633869.245,24928021.216,2.627,-0.802,-0.887,0.616,0.561,0.985,0.599,0.000,19,18,4*59
$GPGGA,083533.40,3135.3387635,N,12046.8105997,E,4,19,1.2,2.6323,M,8.326,M,01,0004*65
$GPHPD,1957,30951.200,57.88,0.02,13.47,31.5889794,120.7801767,2.632,13633868.423,24928022.485,2.632,-0.762,-0.960,0.552,0.561,0.985,0.599,0.000,19,18,4*72
$GPGGA,083533.60,3135.3388389,N,12046.8107427,E,4,19,1.2,2.6334,M,8.326,M,01,0004*68
$GPHPD,1957,30951.400,58.04,0.06,13.47,31.5889806,120.7801790,2.633,13633867.640,24928023.771,2.633,-0.784,-0.907,0.603,0.561,0.985,0.599,0.000,19,18,4*78
$GPGGA,083533.80,3135.3389147,N,12046.8108856,E,4,19,1.2,2.6332,M,8.326,M,00,0004*65
$GPHPD,1957,30951.600,57.99,-0.28,13.50,31.5889819,120.7801814,2.633,13633866.850,24928025.053,2.633,-0.798,-0.861,0.588,0.561,0.985,0.599,0.000,19,18,4*58
$GPGGA,083534.00,3135.3389895,N,12046.8110304,E,4,19,1.2,2.6353,M,8.326,M,01,0004*6F
$GPHPD,1957,30951.800,58.04,-0.70,13.50,31.5889832,120.7801838,2.635,13633866.078,24928026.364,2.635,-0.785,-0.902,0.597,0.561,0.985,0.599,0.000,19,18,4*57
$GPGGA,083534.20,3135.3390671,N,12046.8111780,E,4,19,1.2,2.6372,M,8.326,M,01,0004*6B
$GPHPD,1957,30952.000,57.89,-0.12,13.49,31.5889845,120.7801863,2.637,13633865.272,24928027.693,2.637,-0.785,-0.916,0.588,0.561,0.985,0.599,0.000,19,18,4*58
$GPGGA,083534.40,3135.3391410,N,12046.8113216,E,4,19,1.2,2.6443,M,8.326,M,01,0004*64
$GPHPD,1957,30952.200,57.69,-0.24,13.51,31.5889857,120.7801887,2.644,13633864.511,24928028.994,2.644,-0.799,-0.901,0.598,0.561,0.985,0.599,0.000,19,18,4*5F
$GPGGA,083534.60,3135.3392169,N,12046.8114631,E,4,19,1.2,2.6351,M,8.326,M,00,0004*6D
$GPHPD,1957,30952.400,57.85,-0.59,13.51,31.5889869,120.7801911,2.635,13633863.717,24928030.259,2.635,-0.809,-0.876,0.603,0.561,0.985,0.599,0.000,19,18,4*54
$GPGGA,083534.80,3135.3392943,N,12046.8116069,E,4,19,1.2,2.6339,M,8.326,M,00,0004*64
$GPHPD,1957,30952.600,57.99,-0.30,13.52,31.5889882,120.7801934,2.634,13633862.906,24928031.543,2.634,-0.772,-0.896,0.598,0.561,0.984,0.599,0.000,19,18,4*5A
$GPGGA,083535.00,3135.3393698,N,12046.8117490,E,4,19,1.2,2.6275,M,8.326,M,01,0004*6E
$GPHPD,1957,30952.800,57.89,0.27,13.54,31.5889895,120.7801958,2.628,13633862.119,24928032.818,2.628,-0.776,-0.930,0.586,0.561,0.984,0.599,0.000,19,18,4*74
$GPGGA,083535.20,3135.3394436,N,12046.8118922,E,4,19,1.2,2.6462,M,8.326,M,01,0004*66
$GPHPD,1957,30953.000,57.96,0.32,13.54,31.5889907,120.7801982,2.646,13633861.358,24928034.115,2.646,-0.755,-0.935,0.568,0.561,0.984,0.599,0.000,19,18,4*78
$GPGGA,083535.40,3135.3395218,N,12046.8120394,E,4,19,1.2,2.6453,M,8.326,M,01,0004*65
$GPHPD,1957,30953.200,57.91,-0.44,13.54,31.5889920,120.7802007,2.645,13633860.543,24928035.435,2.645,-0.800,-0.864,0.606,0.561,0.984,0.599,0.000,19,18,4*59
$GPGGA,083535.60,3135.3395990,N,12046.8121808,E,4,19,1.2,2.6311,M,8.326,M,01,0004*62
$GPHPD,1957,30953.400,57.94,-0.46,13.55,31.5889933,120.7802030,2.631,13633859.730,24928036.691,2.631,-0.803,-0.891,0.612,0.561,0.984,0.599,0.000,19,18,4*50
$GPGGA,083535.80,3135.3396746,N,12046.8123245,E,4,19,1.2,2.6327,M,8.326,M,00,0004*6F
$GPHPD,1957,30953.600,57.77,-0.03,13.54,31.5889946,120.7802054,2.633,13633858.944,24928037.984,2.633,-0.785,-0.913,0.576,0.561,0.984,0.599,0.000,19,18,4*52
$GPGGA,083536.00,3135.3397495,N,12046.8124692,E,4,19,1.2,2.6476,M,8.326,M,01,0004*63
$GPHPD,1957,30953.800,57.61,0.04,13.55,31.5889958,120.7802078,2.648,13633858.171,24928039.294,2.648,-0.774,-0.903,0.593,0.561,0.984,0.599,0.000,19,18,4*7F
$GPGGA,083536.20,3135.3398267,N,12046.8126129,E,4,19,1.2,2.6329,M,8.326,M,01,0004*6D
$GPHPD,1957,30954.000,57.56,-0.26,13.56,31.5889971,120.7802102,2.633,13633857.363,24928040.578,2.633,-0.797,-0.889,0.619,0.561,0.984,0.599,0.000,19,18,4*57
$GPGGA,083536.40,3135.3399001,N,12046.8127537,E,4,19,1.2,2.6377,M,8.326,M,01,0004*69
$GPHPD,1957,30954.200,57.74,-0.14,13.56,31.5889983,120.7802126,2.638,13633856.603,24928041.848,2.638,-0.766,-0.938,0.581,0.561,0.984,0.599,0.000,19,18,4*55
$GPGGA,083536.60,3135.3399770,N,12046.8128966,E,4,19,1.2,2.6247,M,8.326,M,00,0004*6E
$GPHPD,1957,30954.400,57.75,-0.40,13.58,31.5889996,120.7802149,2.625,13633855.798,24928043.124,2.625,-0.796,-0.867,0.609,0.561,0.984,0.599,0.000,19,18,4*56
$GPGGA,083536.80,3135.3400533,N,12046.8130381,E,4,19,1.2,2.6331,M,8.326,M,00,0004*68
$GPHPD,1957,30954.600,57.91,0.16,13.58,31.5890009,120.7802173,2.633,13633854.998,24928044.387,2.633,-0.761,-0.929,0.561,0.561,0.984,0.599,0.000,19,18,4*73
$GPGGA,083537.00,3135.3401271,N,12046.8131799,E,4,19,1.2,2.6246,M,8.326,M,01,0004*6D
$GPHPD,1957,30954.800,57.98,-0.24,13.57,31.5890021,120.7802197,2.625,13633854.234,24928045.668,2.625,-0.786,-0.885,0.631,0.561,0.984,0.599,0.000,19,18,4*57
$GPGGA,083537.20,3135.3402029,N,12046.8133212,E,4,19,1.2,2.6451,M,8.326,M,01,0004*67
$GPHPD,1957,30955.000,57.85,0.36,13.58,31.5890034,120.7802220,2.645,13633853.441,24928046.931,2.645,-0.756,-0.908,0.549,0.561,0.984,0.599,0.000,19,18,4*7E
$GPGGA,083537.40,3135.3402777,N,12046.8134641,E,4,19,1.2,2.6308,M,8.326,M,01,0004*63
$GPHPD,1957,30955.200,57.68,-0.42,13.60,31.5890046,120.7802244,2.631,13633852.666,24928048.219,2.631,-0.798,-0.851,0.635,0.561,0.984,0.599,0.000,19,18,4*53
$GPGGA,083537.60,3135.3403529,N,12046.8136082,E,4,19,1.2,2.6300,M,8.326,M,01,0004*6A
$GPHPD,1957,30955.400,57.78,0.19,13.60,31.5890059,120.7802268,2.630,13633851.887,24928049.519,2.630,-0.767,-0.918,0.574,0.561,0.984,0.599,0.000,19,18,4*79
$GPGGA,083537.80,3135.3404279,N,12046.8137498,E,4,19,1.2,2.6311,M,8.326,M,00,0004*6E
$GPHPD,1957,30955.600,57.64,-0.03,13.61,31.5890071,120.7802292,2.631,13633851.106,24928050.790,2.631,-0.793,-0.870,0.585,0.561,0.984,0.599,0.000,19,18,4*5F
$GPGGA,083538.00,3135.3405033,N,12046.8138907,E,4,19,1.2,2.6354,M,8.326,M,01,0004*60
$GPHPD,1957,30955.800,57.77,0.06,13.63,31.5890084,120.7802315,2.635,13633850.317,24928052.051,2.635,-0.751,-0.939,0.577,0.561,0.984,0.599,0.000,19,18,4*79
$GPGGA,083538.20,3135.3405778,N,12046.8140354,E,4,19,1.2,2.6403,M,8.326,M,01,0004*6C
$GPHPD,1957,30956.000,58.10,-0.30,13.65,31.5890096,120.7802339,2.640,13633849.550,24928053.362,2.640,-0.794,-0.855,0.623,0.561,0.984,0.599,0.000,19,18,4*50
$GPGGA,083538.40,3135.3406532,N,12046.8141813,E,4,19,1.2,2.6326,M,8.326,M,01,0004*6C
$GPHPD,1957,30956.200,57.98,-0.54,13.66,31.5890109,120.7802364,2.633,13633848.772,24928054.683,2.633,-0.787,-0.876,0.616,0.561,0.984,0.599,0.000,19,18,4*58
$GPGGA,083538.60,3135.3407291,N,12046.8143206,E,4,19,1.2,2.6373,M,8.326,M,00,0004*6C
$GPHPD,1957,30956.400,58.14,-0.09,13.64,31.5890122,120.7802387,2.637,13633847.973,24928055.921,2.637,-0.791,-0.903,0.579,0.561,0.984,0.599,0.000,19,18,4*53
$GPGGA,083538.80,3135.3408044,N,12046.8144626,E,4,19,1.2,2.6306,M,8.326,M,00,0004*64
$GPHPD,1957,30956.600,58.08,-0.17,13.64,31.5890134,120.7802410,2.631,13633847.189,24928057.196,2.631,-0.781,-0.885,0.598,0.561,0.984,0.599,0.000,19,18,4*57
$GPGGA,083539.00,3135.3408793,N,12046.8146048,E,4,19,1.2,2.6364,M,8.326,M,01,0004*69
$GPHPD,1957,30956.800,57.99,0.02,13.65,31.5890147,120.7802434,2.636,13633846.410,24928058.475,2.636,-0.767,-0.906,0.585,0.561,0.984,0.599,0.000,19,18,4*79
$GPGGA,083539.20,3135.3409550,N,12046.8147494,E,4,19,1.2,2.6318,M,8.326,M,01,0004*68
$GPHPD,1957,30957.000,57.79,-0.01,13.63,31.5890159,120.7802458,2.632,13633845.625,24928059.778,2.632,-0.785,-0.885,0.591,0.561,0.984,0.599,0.000,19,18,4*58
$GPGGA,083539.40,3135.3410301,N,12046.8148952,E,4,19,1.2,2.6366,M,8.326,M,01,0004*65
$GPHPD,1957,30957.200,57.62,0.07,13.64,31.5890172,120.7802483,2.637,13633844.851,24928061.100,2.637,-0.785,-0.903,0.595,0.561,0.984,0.599,0.000,19,18,4*76
$GPGGA,083539.60,3135.3411037,N,12046.8150382,E,4,19,1.2,2.6417,M,8.326,M,01,0004*6F
$GPHPD,1957,30957.400,57.62,0.02,13.65,31.5890184,120.7802506,2.642,13633844.093,24928062.396,2.642,-0.795,-0.888,0.591,0.561,0.984,0.599,0.000,19,18,4*7E
$GPGGA,083539.80,3135.3411824,N,12046.8151816,E,4,19,1.2,2.6414,M,8.326,M,00,0004*6E
$GPHPD,1957,30957.600,57.52,0.01,13.65,31.5890197,120.7802530,2.641,13633843.263,24928063.667,2.641,-0.810,-0.873,0.591,0.561,0.984,0.599,0.000,19,18,4*7D
$GPGGA,083540.00,3135.3412558,N,12046.8153244,E,4,19,1.2,2.6470,M,8.326,M,01,0004*61
$GPHPD,1957,30957.800,57.52,0.09,13.63,31.5890209,120.7802554,2.647,13633842.507,24928064.962,2.647,-0.800,-0.885,0.605,0.561,0.984,0.599,0.000,19,18,4*74
$GPGGA,083540.20,3135.3413321,N,12046.8154670,E,4,19,1.2,2.6452,M,8.326,M,01,0004*6E
$GPHPD,1957,30958.000,57.64,0.01,13.61,31.5890222,120.7802578,2.645,13633841.709,24928066.238,2.645,-0.807,-0.851,0.609,0.561,0.984,0.599,0.000,19,18,4*70
$GPGGA,083540.40,3135.3414064,N,12046.8156090,E,4,19,1.2,2.6456,M,8.326,M,01,0004*63
$GPHPD,1957,30958.200,57.64,-0.07,13.60,31.5890234,120.7802602,2.646,13633840.939,24928067.518,2.646,-0.801,-0.872,0.594,0.561,0.984,0.599,0.000,19,18,4*59
$GPGGA,083540.60,3135.3414841,N,12046.8157533,E,4,19,1.2,2.6456,M,8.326,M,00,0004*62
$GPHPD,1957,30958.400,57.84,-0.09,13.62,31.5890247,120.7802626,2.646,13633840.125,24928068.806,2.646,-0.793,-0.882,0.597,0.561,0.984,0.599,0.000,19,18,4*5F
$GPGGA,083540.80,3135.3415614,N,12046.8158968,E,4,19,1.2,2.6424,M,8.326,M,00,0004*6B
$GPHPD,1957,30958.600,57.74,-0.22,13.63,31.5890260,120.7802649,2.642,13633839.315,24928070.087,2.642,-0.793,-0.891,0.598,0.561,0.984,0.599,0.000,19,18,4*5C
$GPGGA,083541.00,3135.3416375,N,12046.8160401,E,4,19,1.2,2.6391,M,8.326,M,01,0004*62
$GPHPD,1957,30958.800,57.85,-0.12,13.64,31.5890273,120.7802673,2.639,13633838.522,24928071.373,2.639,-0.769,-0.918,0.602,0.561,0.984,0.599,0.000,19,18,4*5C
$GPGGA,083541.20,3135.3417129,N,12046.8161826,E,4,19,1.2,2.6345,M,8.326,M,01,0004*6B
$GPHPD,1957,30959.000,57.67,0.14,13.65,31.5890285,120.7802697,2.635,13633837.737,24928072.652,2.635,-0.763,-0.907,0.596,0.561,0.984,0.599,0.000,19,18,4*76
$GPGGA,083541.40,3135.3417896,N,12046.8163259,E,4,19,1.2,2.6456,M,8.326,M,01,0004*65
$GPHPD,1957,30959.200,57.87,0.04,13.67,31.5890298,120.7802721,2.646,13633836.935,24928073.934,2.646,-0.768,-0.940,0.577,0.561,0.984,0.599,0.000,19,18,4*7D
$GPGGA,083541.60,3135.3418637,N,12046.8164702,E,4,19,1.2,2.6476,M,8.326,M,01,0004*63
$GPHPD,1957,30959.400,57.99,0.08,13.67,31.5890311,120.7802745,2.648,13633836.172,24928075.243,2.648,-0.789,-0.890,0.618,0.561,0.984,0.599,0.000,19,18,4*75
$GPGGA,083541.80,3135.3419379,N,12046.8166103,E,4,19,1.2,2.6465,M,8.326,M,00,0004*65
$GPHPD,1957,30959.600,57.85,-0.06,13.66,31.5890323,120.7802768,2.647,13633835.399,24928076.501,2.647,-0.799,-0.886,0.595,0.561,0.984,0.599,0.000,19,18,4*50
$GPGGA,083542.00,3135.3420145,N,12046.8167540,E,4,19,1.2,2.6448,M,8.326,M,01,0004*65
$GPHPD,1957,30959.800,57.85,-0.06,13.67,31.5890336,120.7802792,2.645,13633834.600,24928077.789,2.645,-0.785,-0.883,0.583,0.561,0.984,0.599,0.000,19,18,4*56
$GPGGA,083542.20,3135.3420928,N,12046.8168964,E,4,19,1.2,2.6472,M,8.326,M,01,0004*68
$GPHPD,1957,30960.000,57.89,-0.18,13.68,31.5890349,120.7802816,2.647,13633833.774,24928079.050,2.647,-0.782,-0.899,0.594,0.561,0.984,0.599,0.000,19,18,4*51
$GPGGA,083542.40,3135.3421665,N,12046.8170388,E,4,19,1.2,2.6458,M,8.326,M,01,0004*60
$GPHPD,1957,30960.200,57.83,-0.17,13.66,31.5890361,120.7802840,2.646,13633833.013,24928080.339,2.646,-0.779,-0.897,0.607,0.561,0.984,0.599,0.000,19,18,4*5E
$GPGGA,083542.60,3135.3422444,N,12046.8171846,E,4,19,1.2,2.6477,M,8.326,M,00,0004*64
$GPHPD,1957,30960.400,57.87,-0.03,13.66,31.5890374,120.7802864,2.648,13633832.199,24928081.644,2.648,-0.777,-0.898,0.591,0.561,0.984,0.599,0.000,19,18,4*5A
$GPGGA,083542.80,3135.3423180,N,12046.8173254,E,4,19,1.2,2.6509,M,8.326,M,00,0004*65
$GPHPD,1957,30960.600,57.70,-0.14,13.65,31.5890386,120.7802888,2.651,13633831.436,24928082.914,2.651,-0.807,-0.863,0.619,0.561,0.984,0.599,0.000,19,18,4*5F
$GPGGA,083543.00,3135.3423931,N,12046.8174653,E,4,19,1.2,2.6449,M,8.326,M,01,0004*6E
$GPHPD,1957,30960.800,57.53,-0.10,13.62,31.5890399,120.7802911,2.645,13633830.650,24928084.164,2.645,-0.787,-0.872,0.598,0.561,0.984,0.599,0.000,19,18,4*5B
$GPGGA,083543.20,3135.3424656,N,12046.8176016,E,4,19,1.2,2.6589,M,8.326,M,01,0004*6D
$GPHPD,1957,30961.000,57.64,0.15,13.53,31.5890411,120.7802934,2.659,13633829.894,24928085.386,2.659,-0.762,-0.881,0.589,0.561,0.984,0.599,0.000,19,18,4*7A
$GPGGA,083543.40,3135.3425383,N,12046.8177357,E,4,19,1.2,2.6465,M,8.326,M,01,0004*63
$GPHPD,1957,30961.200,57.56,0.14,13.48,31.5890423,120.7802956,2.647,13633829.130,24928086.580,2.647,-0.762,-0.833,0.593,0.561,0.984,0.599,0.000,19,18,4*71
$GPGGA,083543.60,3135.3426045,N,12046.8178648,E,4,19,1.2,2.6539,M,8.326,M,01,0004*67
$GPHPD,1957,30961.400,57.49,0.23,13.42,31.5890434,120.7802977,2.654,13633828.449,24928087.752,2.654,-0.722,-0.855,0.557,0.561,0.984,0.599,0.000,19,18,4*78
$GPGGA,083543.80,3135.3426721,N,12046.8179885,E,4,19,1.2,2.6513,M,8.326,M,00,0004*6B
$GPHPD,1957,30961.600,57.35,0.15,13.36,31.5890445,120.7802998,2.651,13633827.737,24928088.850,2.651,-0.712,-0.786,0.535,0.561,0.984,0.599,0.000,19,18,4*71
$GPGGA,083544.00,3135.3427329,N,12046.8181059,E,4,19,1.2,2.6465,M,8.326,M,01,0004*66
$GPHPD,1957,30961.800,57.51,0.09,13.32,31.5890455,120.7803018,2.647,13633827.109,24928089.912,2.647,-0.666,-0.758,0.526,0.561,0.984,0.599,0.000,19,18,4*7B
$GPGGA,083544.20,3135.3427913,N,12046.8182159,E,4,19,1.2,2.6471,M,8.326,M,01,0004*60
$GPHPD,1957,30962.000,57.46,0.08,13.25,31.5890465,120.7803036,2.647,13633826.501,24928090.899,2.647,-0.644,-0.747,0.480,0.561,0.984,0.599,0.000,19,18,4*7A
$GPGGA,083544.40,3135.3428463,N,12046.8183172,E,4,19,1.2,2.6425,M,8.326,M,01,0004*6A
$GPHPD,1957,30962.200,57.74,-0.06,13.17,31.5890474,120.7803053,2.643,13633825.923,24928091.800,2.643,-0.603,-0.694,0.451,0.561,0.984,0.599,0.000,19,18,4*56
$GPGGA,083544.60,3135.3428979,N,12046.8184119,E,4,19,1.2,2.6496,M,8.326,M,00,0004*6D
$GPHPD,1957,30962.400,57.64,0.01,13.09,31.5890483,120.7803069,2.650,13633825.380,24928092.642,2.650,-0.558,-0.661,0.427,0.561,0.984,0.599,0.000,19,18,4*7B
$GPGGA,083544.80,3135.3429411,N,12046.8184954,E,4,19,1.2,2.6506,M,8.326,M,00,0004*68
$GPHPD,1957,30962.600,57.54,-0.33,13.02,31.5890490,120.7803083,2.651,13633824.934,24928093.398,2.651,-0.502,-0.584,0.401,0.561,0.984,0.599,0.000,19,18,4*5F
$GPGGA,083545.00,3135.3429816,N,12046.8185665,E,4,19,1.2,2.6526,M,8.326,M,01,0004*65
$GPHPD,1957,30962.800,57.35,-0.10,12.93,31.5890497,120.7803094,2.653,13633824.501,24928094.020,2.653,-0.459,-0.522,0.346,0.561,0.984,0.599,0.000,19,18,4*55
$GPGGA,083545.20,3135.3430142,N,12046.8186289,E,4,19,1.2,2.6505,M,8.326,M,01,0004*63
$GPHPD,1957,30963.000,57.37,-0.15,12.83,31.5890502,120.7803105,2.651,13633824.164,24928094.583,2.651,-0.390,-0.448,0.323,0.561,0.984,0.599,0.000,19,18,4*59
$GPGGA,083545.40,3135.3430422,N,12046.8186795,E,4,19,1.2,2.6522,M,8.326,M,01,0004*6B
$GPHPD,1957,30963.200,57.15,-0.23,12.75,31.5890507,120.7803113,2.652,13633823.867,24928095.030,2.652,-0.334,-0.386,0.266,0.561,0.984,0.599,0.000,19,18,4*5F
$GPGGA,083545.60,3135.3430652,N,12046.8187217,E,4,19,1.2,2.6464,M,8.326,M,01,0004*61
$GPHPD,1957,30963.400,57.07,-0.11,12.69,31.5890511,120.7803120,2.646,13633823.625,24928095.405,2.646,-0.281,-0.325,0.218,0.561,0.984,0.599,0.000,19,18,4*54
$GPGGA,083545.80,3135.3430808,N,12046.8187503,E,4,19,1.2,2.6568,M,8.326,M,00,0004*60
$GPHPD,1957,30963.600,57.12,-0.03,12.60,31.5890513,120.7803125,2.657,13633823.461,24928095.659,2.657,-0.221,-0.278,0.168,0.561,0.984,0.599,0.000,19,18,4*51
$GPGGA,083546.00,3135.3430919,N,12046.8187711,E,4,19,1.2,2.6536,M,8.326,M,01,0004*61
$GPHPD,1957,30963.800,56.96,-0.47,12.52,31.5890515,120.7803129,2.654,13633823.345,24928095.845,2.654,-0.177,-0.159,0.151,0.561,0.984,0.599,0.000,19,18,4*51
$GPGGA,083546.20,3135.3430978,N,12046.8187800,E,4,19,1.2,2.6524,M,8.326,M,01,0004*68
$GPHPD,1957,30964.000,56.90,-0.32,12.44,31.5890516,120.7803130,2.652,13633823.279,24928095.918,2.652,-0.107,-0.145,0.084,0.561,0.984,0.599,0.000,19,18,4*52
$GPGGA,083546.40,3135.3430974,N,12046.8187796,E,4,19,1.2,2.6529,M,8.326,M,01,0004*6F
$GPHPD,1957,30964.200,56.87,-0.11,12.39,31.5890516,120.7803130,2.653,13633823.284,24928095.916,2.653,-0.047,-0.065,0.044,0.561,0.984,0.599,0.000,19,18,4*5B
$GPGGA,083546.60,3135.3430972,N,12046.8187801,E,4,19,1.2,2.6521,M,8.326,M,00,0004*63
$GPHPD,1957,30964.400,56.98,-0.18,12.42,31.5890516,120.7803130,2.652,13633823.288,24928095.923,2.652,-0.001,-0.003,0.002,0.561,0.984,0.599,0.000,19,18,4*5C
$GPGGA,083546.80,3135.3430966,N,12046.8187786,E,4,19,1.2,2.6544,M,8.326,M,00,0004*6B
$GPHPD,1957,30964.600,56.89,-0.16,12.46,31.5890516,120.7803130,2.654,13633823.294,24928095.908,2.654,0.003,0.002,-0.002,0.561,0.984,0.599,0.000,19,18,4*7E
