$GPGGA,083301.60,3135.3260048,N,12046.7910747,E,4,19,1.2,2.5360,M,8.324,M,01,0004*62
$GPHPD,1957,30799.400,54.89,0.26,13.54,31.5887667,120.7798512,2.536,13634010.482,24927861.257,2.536,-0.209,-0.296,0.195,0.561,0.988,0.600,0.000,19,19,4*7C
$GPGGA,083301.80,3135.3260338,N,12046.7911218,E,4,19,1.2,2.5400,M,8.324,M,00,0004*66
$GPHPD,1957,30799.600,54.66,0.20,13.58,31.5887672,120.7798520,2.540,13634010.165,24927861.657,2.540,-0.230,-0.299,0.195,0.561,0.988,0.600,0.000,19,19,4*7D
$GPGGA,083302.00,3135.3260624,N,12046.7911703,E,4,19,1.2,2.5417,M,8.324,M,01,0004*6D
$GPHPD,1957,30799.800,54.58,-0.13,13.62,31.5887677,120.7798528,2.542,13634009.856,24927862.075,2.542,-0.251,-0.295,0.229,0.561,0.988,0.600,0.000,19,19,4*5C
$GPGGA,083302.20,3135.3260929,N,12046.7912222,E,4,19,1.2,2.5393,M,8.324,M,01,0004*63
$GPHPD,1957,30800.000,54.63,0.10,13.64,31.5887682,120.7798537,2.539,13634009.527,24927862.523,2.539,-0.256,-0.311,0.230,0.561,0.988,0.600,0.000,19,19,4*70
$GPGGA,083302.40,3135.3261265,N,12046.7912782,E,4,19,1.2,2.5429,M,8.324,M,01,0004*6E
$GPHPD,1957,30800.200,54.81,0.01,13.68,31.5887688,120.7798546,2.543,13634009.162,24927863.003,2.543,-0.271,-0.337,0.234,0.561,0.988,0.600,0.000,19,19,4*78
$GPGGA,083302.60,3135.3261586,N,12046.7913324,E,4,19,1.2,2.5376,M,8.324,M,00,0004*63
$GPHPD,1957,30800.400,54.54,0.14,13.69,31.5887693,120.7798555,2.538,13634008.815,24927863.470,2.538,-0.295,-0.354,0.260,0.561,0.988,0.600,0.000,19,19,4*7D
$GPGGA,083302.80,3135.3261923,N,12046.7913907,E,4,19,1.2,2.5335,M,8.324,M,00,0004*62
$GPHPD,1957,30800.600,54.97,0.35,13.70,31.5887699,120.7798565,2.534,13634008.453,24927863.977,2.534,-0.289,-0.360,0.252,0.561,0.988,0.600,0.000,19,19,4*7D
$GPGGA,083303.00,3135.3262221,N,12046.7914437,E,4,19,1.2,2.5404,M,8.324,M,01,0004*6C
$GPHPD,1957,30800.800,54.87,0.37,13.69,31.5887704,120.7798574,2.540,13634008.136,24927864.443,2.540,-0.301,-0.372,0.255,0.561,0.988,0.600,0.000,19,19,4*73
$GPGGA,083303.20,3135.3262550,N,12046.7914992,E,4,19,1.2,2.5367,M,8.324,M,01,0004*6F
$GPHPD,1957,30801.000,54.88,0.15,13.67,31.5887709,120.7798583,2.537,13634007.780,24927864.921,2.537,-0.305,-0.345,0.258,0.561,0.988,0.600,0.000,19,19,4*7E
$GPGGA,083303.40,3135.3262890,N,12046.7915534,E,4,19,1.2,2.5324,M,8.324,M,01,0004*6E
$GPHPD,1957,30801.200,54.97,0.38,13.66,31.5887715,120.7798592,2.532,13634007.406,24927865.377,2.532,-0.294,-0.352,0.251,0.561,0.988,0.600,0.000,19,19,4*72
$GPGGA,083303.60,3135.3263190,N,12046.7916066,E,4,19,1.2,2.5457,M,8.325,M,01,0004*67
$GPHPD,1957,30801.400,55.13,0.50,13.64,31.5887720,120.7798601,2.546,13634007.087,24927865.844,2.546,-0.284,-0.357,0.249,0.561,0.988,0.600,0.000,19,19,4*71
$GPGGA,083303.80,3135.3263480,N,12046.7916593,E,4,19,1.2,2.5374,M,8.325,M,00,0004*65
$GPHPD,1957,30801.600,54.93,0.08,13.62,31.5887725,120.7798610,2.537,13634006.781,24927866.311,2.537,-0.296,-0.322,0.259,0.561,0.988,0.600,0.000,19,19,4*7C
$GPGGA,083304.00,3135.3263789,N,12046.7917116,E,4,19,1.2,2.5355,M,8.325,M,01,0004*6A
$GPHPD,1957,30801.800,55.21,0.00,13.61,31.5887730,120.7798619,2.536,13634006.447,24927866.761,2.536,-0.279,-0.330,0.228,0.561,0.988,0.600,0.000,19,19,4*72
$GPGGA,083304.20,3135.326420,N,12046.7917644,E,4,19,1.2,2.5360,M,8.325,M,01,0004*6C
$GPHPD,1957,30802.000,55.23,0.36,13.61,31.5887735,120.7798627,2.536,13634006.083,24927867.206,2.536,-0.275,-0.355,0.232,0.561,0.988,0.600,0.000,19,19,4*7B
$GPGGA,083304.40,3135.3264449,N,12046.7918229,E,4,19,1.2,2.5324,M,8.325,M,01,0004*60
$GPHPD,1957,30802.200,55.16,0.39,13.63,31.5887741,120.7798637,2.532,13634005.733,24927867.720,2.532,-0.290,-0.350,0.266,0.561,0.988,0.600,0.000,19,19,4*71
$GPGGA,083304.60,3135.3264813,N,12046.7918834,E,4,19,1.2,2.5405,M,8.325,M,00,0004*62
$GPHPD,1957,30802.400,55.23,0.37,13.67,31.5887747,120.7798647,2.541,13634005.337,24927868.238,2.541,-0.299,-0.379,0.253,0.561,0.988,0.600,0.000,19,19,4*7D
$GPGGA,083304.80,3135.3265190,N,12046.7919478,E,4,19,1.2,2.5291,M,8.325,M,00,0004*61
$GPHPD,1957,30802.600,55.20,0.33,13.71,31.5887753,120.7798658,2.529,13634004.931,24927868.795,2.529,-0.343,-0.372,0.284,0.561,0.988,0.600,0.000,19,19,4*7C
$GPGGA,083305.00,3135.3265603,N,12046.7920205,E,4,19,1.2,2.5342,M,8.325,M,01,0004*6D
$GPHPD,1957,30802.800,55.31,0.24,13.77,31.5887760,120.7798670,2.534,13634004.490,24927869.431,2.534,-0.328,-0.434,0.283,0.561,0.988,0.600,0.000,19,19,4*7D
$GPGGA,083305.20,3135.3266056,N,12046.7920979,E,4,19,1.2,2.5324,M,8.325,M,01,0004*6A
$GPHPD,1957,30803.000,55.14,-0.10,13.83,31.5887768,120.7798683,2.532,13634004.002,24927870.101,2.532,-0.388,-0.466,0.327,0.561,0.988,0.600,0.000,19,19,4*55
$GPGGA,083305.40,3135.3266541,N,12046.7921811,E,4,19,1.2,2.5443,M,8.325,M,01,0004*67
$GPHPD,1957,30803.200,55.27,0.20,13.88,31.5887776,120.7798697,2.544,13634003.480,24927870.822,2.544,-0.414,-0.506,0.348,0.561,0.988,0.600,0.000,19,19,4*75
$GPGGA,083305.60,3135.3267060,N,12046.7922706,E,4,19,1.2,2.5416,M,8.325,M,01,0004*68
$GPHPD,1957,30803.400,55.30,-0.20,13.94,31.5887784,120.7798712,2.542,13634002.923,24927871.600,2.542,-0.457,-0.527,0.402,0.561,0.988,0.600,0.000,19,19,4*53
$GPGGA,083305.80,3135.3267594,N,12046.7923654,E,4,19,1.2,2.5562,M,8.325,M,00,0004*6C
$GPHPD,1957,30803.600,55.32,-0.07,13.99,31.5887793,120.7798728,2.556,13634002.354,24927872.432,2.556,-0.479,-0.591,0.408,0.561,0.988,0.600,0.000,19,19,4*55
$GPGGA,083306.00,3135.3268197,N,12046.7924675,E,4,19,1.2,2.5491,M,8.325,M,01,0004*67
$GPHPD,1957,30803.800,55.24,-0.32,14.02,31.5887803,120.7798745,2.549,13634001.703,24927873.313,2.549,-0.529,-0.586,0.447,0.561,0.988,0.600,0.000,19,19,4*5B
$GPGGA,083306.20,3135.3268822,N,12046.7925741,E,4,19,1.2,2.5448,M,8.325,M,01,0004*61
$GPHPD,1957,30804.000,55.34,-0.15,14.06,31.5887814,120.7798762,2.545,13634001.029,24927874.235,2.545,-0.538,-0.664,0.465,0.561,0.988,0.600,0.000,19,19,4*55
$GPGGA,083306.40,3135.3269441,N,12046.7926826,E,4,19,1.2,2.5414,M,8.325,M,01,0004*6B
$GPHPD,1957,30804.200,55.30,-0.05,14.08,31.5887824,120.7798780,2.541,13634000.367,24927875.183,2.541,-0.557,-0.691,0.477,0.561,0.988,0.600,0.000,19,19,4*54
$GPGGA,083306.60,3135.3270084,N,12046.7927948,E,4,19,1.2,2.5426,M,8.325,M,00,0004*64
$GPHPD,1957,30804.400,55.45,-0.14,14.09,31.5887835,120.7798799,2.543,13633999.679,24927876.162,2.543,-0.577,-0.703,0.490,0.561,0.988,0.600,0.000,19,19,4*50
$GPGGA,083306.80,3135.3270771,N,12046.7929135,E,4,19,1.2,2.5355,M,8.325,M,00,0004*68
$GPHPD,1957,30804.600,55.43,-0.04,14.11,31.5887846,120.7798819,2.536,13633998.942,24927877.194,2.536,-0.583,-0.738,0.508,0.561,0.988,0.600,0.000,19,19,4*52
$GPGGA,083307.00,3135.3271467,N,12046.7930335,E,4,19,1.2,2.5403,M,8.325,M,01,0004*6B
$GPHPD,1957,30804.800,55.63,0.17,14.12,31.5887858,120.7798839,2.540,13633998.194,24927878.236,2.540,-0.620,-0.761,0.520,0.561,0.988,0.600,0.000,19,19,4*74
$GPGGA,083307.20,3135.3272168,N,12046.7931566,E,4,19,1.2,2.5417,M,8.325,M,01,0004*64
$GPHPD,1957,30805.000,55.67,0.40,14.12,31.5887869,120.7798859,2.542,13633997.445,24927879.313,2.542,-0.631,-0.800,0.545,0.561,0.988,0.600,0.000,19,19,4*75
$GPGGA,083307.40,3135.3272867,N,12046.7932803,E,4,19,1.2,2.5403,M,8.325,M,01,0004*6C
$GPHPD,1957,30805.200,55.84,0.42,14.12,31.5887881,120.7798880,2.540,13633996.701,24927880.398,2.540,-0.650,-0.805,0.547,0.561,0.988,0.600,0.000,19,19,4*7D
$GPGGA,083307.60,3135.3273593,N,12046.7934056,E,4,19,1.2,2.5457,M,8.325,M,01,0004*66
$GPHPD,1957,30805.400,55.82,0.36,14.09,31.5887893,120.7798901,2.546,13633995.921,24927881.486,2.546,-0.659,-0.816,0.547,0.561,0.988,0.600,0.000,19,19,4*72
$GPGGA,083307.80,3135.3274305,N,12046.7935329,E,4,19,1.2,2.5476,M,8.325,M,00,0004*6E
$GPHPD,1957,30805.600,56.01,0.40,14.07,31.5887905,120.7798922,2.548,13633995.165,24927882.607,2.548,-0.675,-0.815,0.578,0.561,0.988,0.600,0.000,19,19,4*79
$GPGGA,083308.00,3135.3275031,N,12046.7936628,E,4,19,1.2,2.5473,M,8.325,M,01,0004*6F
$GPHPD,1957,30805.800,56.17,0.24,14.04,31.5887917,120.7798944,2.547,13633994.395,24927883.751,2.547,-0.704,-0.782,0.582,0.561,0.988,0.600,0.000,19,19,4*7E
$GPGGA,083308.20,3135.3275730,N,12046.7937887,E,4,19,1.2,2.5521,M,8.325,M,01,0004*67
$GPHPD,1957,30806.000,56.03,-0.01,13.97,31.5887929,120.7798965,2.552,13633993.654,24927884.863,2.552,-0.725,-0.805,0.579,0.561,0.988,0.600,0.000,19,19,4*58
$GPGGA,083308.40,3135.3276455,N,12046.7939158,E,4,19,1.2,2.5463,M,8.325,M,01,0004*60
$GPHPD,1957,30806.200,56.15,-0.21,13.92,31.5887941,120.7798986,2.546,13633992.880,24927885.974,2.546,-0.712,-0.771,0.572,0.561,0.988,0.600,0.000,19,19,4*5A
$GPGGA,083308.60,3135.3277168,N,12046.7940429,E,4,19,1.2,2.5489,M,8.325,M,00,0004*60
$GPHPD,1957,30806.400,56.08,0.30,13.89,31.5887953,120.7799007,2.549,13633992.122,24927887.092,2.549,-0.674,-0.813,0.553,0.561,0.988,0.600,0.000,19,19,4*7E
$GPGGA,083308.80,3135.3277892,N,12046.7941705,E,4,19,1.2,2.5502,M,8.325,M,00,0004*6C
$GPHPD,1957,30806.600,56.30,0.03,13.86,31.5887965,120.7799028,2.550,13633991.350,24927888.210,2.550,-0.666,-0.836,0.537,0.561,0.988,0.600,0.000,19,19,4*75
$GPGGA,083309.00,3135.3278587,N,12046.7942980,E,4,19,1.2,2.5550,M,8.325,M,01,0004*65
$GPHPD,1957,30806.800,56.55,-0.13,13.84,31.5887976,120.7799050,2.555,13633990.619,24927889.343,2.555,-0.685,-0.827,0.561,0.561,0.988,0.600,0.000,19,19,4*5A
$GPGGA,083309.20,3135.3279320,N,12046.7944316,E,4,19,1.2,2.5391,M,8.325,M,01,0004*65
$GPHPD,1957,30807.000,56.64,-0.29,13.81,31.5887989,120.7799072,2.539,13633989.846,24927890.528,2.539,-0.701,-0.803,0.568,0.561,0.988,0.600,0.000,19,19,4*50
$GPGGA,083309.40,3135.328034,N,12046.7945575,E,4,19,1.2,2.5484,M,8.325,M,01,0004*62
$GPHPD,1957,30807.200,56.69,0.08,13.78,31.5888001,120.7799093,2.548,13633989.084,24927891.630,2.548,-0.697,-0.858,0.541,0.561,0.988,0.600,0.000,19,19,4*78
$GPGGA,083309.60,3135.3280772,N,12046.7946878,E,4,19,1.2,2.5493,M,8.325,M,01,0004*60
$GPHPD,1957,30807.400,56.60,-0.08,13.77,31.5888013,120.7799115,2.549,13633988.297,24927892.772,2.549,-0.697,-0.830,0.558,0.561,0.988,0.600,0.000,19,19,4*5A
$GPGGA,083309.80,3135.3281460,N,12046.7948218,E,4,19,1.2,2.5622,M,8.325,M,00,0004*64
$GPHPD,1957,30807.600,56.73,-0.18,13.75,31.5888024,120.7799137,2.562,13633987.589,24927893.988,2.562,-0.707,-0.829,0.579,0.561,0.988,0.600,0.000,19,19,4*53
$GPGGA,083310.00,3135.3282192,N,12046.7949542,E,4,19,1.2,2.5584,M,8.325,M,01,0004*68
$GPHPD,1957,30807.800,56.72,-0.33,13.73,31.5888037,120.7799159,2.558,13633986.815,24927895.159,2.558,-0.748,-0.809,0.574,0.561,0.988,0.600,0.000,19,19,4*56
$GPGGA,083310.20,3135.3282946,N,12046.7950937,E,4,19,1.2,2.5567,M,8.325,M,01,0004*60
$GPHPD,1957,30808.000,56.74,-0.52,13.72,31.5888049,120.7799182,2.557,13633986.024,24927896.403,2.557,-0.732,-0.829,0.576,0.561,0.987,0.600,0.000,19,19,4*5F
$GPGGA,083310.40,3135.3283676,N,12046.7952293,E,4,19,1.2,2.5495,M,8.325,M,01,0004*60
$GPHPD,1957,30808.200,56.76,-0.39,13.70,31.5888061,120.7799205,2.550,13633985.259,24927897.613,2.550,-0.748,-0.860,0.586,0.561,0.987,0.600,0.000,19,19,4*50
$GPGGA,083310.60,3135.3284431,N,12046.7953654,E,4,19,1.2,2.5489,M,8.325,M,00,0004*66
$GPHPD,1957,30808.400,56.81,-0.39,13.68,31.5888074,120.7799228,2.549,13633984.460,24927898.815,2.549,-0.758,-0.877,0.563,0.561,0.987,0.600,0.000,19,19,4*5A
$GPGGA,083310.80,3135.3285180,N,12046.7955037,E,4,19,1.2,2.5479,M,8.325,M,00,0004*6C
$GPHPD,1957,30808.600,57.13,-0.17,13.66,31.5888086,120.7799251,2.548,13633983.674,24927900.047,2.548,-0.741,-0.877,0.581,0.561,0.987,0.600,0.000,19,19,4*58
$GPGGA,083311.00,3135.3285946,N,12046.7956470,E,4,19,1.2,2.5470,M,8.325,M,01,0004*6B
$GPHPD,1957,30808.800,57.10,-0.26,13.64,31.5888099,120.7799275,2.547,13633982.874,24927901.330,2.547,-0.757,-0.876,0.592,0.561,0.987,0.600,0.000,19,19,4*54
$GPGGA,083311.20,3135.3286698,N,12046.7957897,E,4,19,1.2,2.5548,M,8.325,M,01,0004*68
$GPHPD,1957,30809.000,57.40,-0.36,13.61,31.5888112,120.7799298,2.555,13633982.092,24927902.613,2.555,-0.767,-0.886,0.592,0.561,0.987,0.600,0.000,19,19,4*56
$GPGGA,083311.40,3135.3287467,N,12046.7959296,E,4,19,1.2,2.5412,M,8.325,M,01,0004*66
$GPHPD,1957,30809.200,57.30,-0.30,13.59,31.5888124,120.7799322,2.541,13633981.280,24927903.853,2.541,-0.803,-0.872,0.606,0.561,0.987,0.600,0.000,19,19,4*5A
$GPGGA,083311.60,3135.3288214,N,12046.7960719,E,4,19,1.2,2.5487,M,8.325,M,01,0004*6D
$GPHPD,1957,30809.400,57.51,0.00,13.57,31.5888137,120.7799345,2.549,13633980.505,24927905.134,2.549,-0.750,-0.922,0.568,0.561,0.987,0.600,0.000,19,19,4*7B
$GPGGA,083311.80,3135.3288991,N,12046.7962137,E,4,19,1.2,2.5450,M,8.325,M,00,0004*66
$GPHPD,1957,30809.600,57.55,-0.25,13.55,31.5888150,120.7799369,2.545,13633979.686,24927906.392,2.545,-0.784,-0.884,0.596,0.561,0.987,0.600,0.000,19,19,4*5C
$GPGGA,083312.00,3135.3289764,N,12046.7963577,E,4,19,1.2,2.5403,M,8.325,M,01,0004*6E
$GPHPD,1957,30809.800,57.67,0.12,13.53,31.5888163,120.7799393,2.540,13633978.877,24927907.679,2.540,-0.755,-0.911,0.592,0.561,0.987,0.600,0.000,19,19,4*7C
$GPGGA,083312.20,3135.3290511,N,12046.7965028,E,4,19,1.2,2.5428,M,8.325,M,01,0004*64
$GPHPD,1957,30810.000,57.75,-0.30,13.52,31.5888175,120.7799417,2.543,13633978.107,24927908.994,2.543,-0.772,-0.932,0.588,0.561,0.987,0.600,0.000,19,19,4*5D
$GPGGA,083312.40,3135.3291293,N,12046.7966444,E,4,19,1.2,2.5529,M,8.325,M,01,0004*63
$GPHPD,1957,30810.200,57.43,0.02,13.51,31.5888188,120.7799441,2.553,13633977.281,24927910.247,2.553,-0.788,-0.925,0.587,0.561,0.987,0.600,0.000,19,19,4*76
$GPGGA,083312.60,3135.3292055,N,12046.7967916,E,4,19,1.2,2.5482,M,8.325,M,00,0004*60
$GPHPD,1957,30810.400,57.70,-0.16,13.52,31.5888201,120.7799465,2.548,13633976.494,24927911.579,2.548,-0.787,-0.887,0.620,0.561,0.987,0.600,0.000,19,19,4*5F
$GPGGA,083312.80,3135.3292812,N,12046.7969338,E,4,19,1.2,2.5492,M,8.325,M,00,0004*6C
$GPHPD,1957,30810.600,57.75,-0.23,13.52,31.5888214,120.7799489,2.549,13633975.704,24927912.853,2.549,-0.788,-0.923,0.587,0.561,0.987,0.600,0.000,19,19,4*59
$GPGGA,083313.00,3135.3293562,N,12046.7970785,E,4,19,1.2,2.5594,M,8.325,M,01,0004*62
$GPHPD,1957,30810.800,57.66,-0.19,13.51,31.5888226,120.7799513,2.559,13633974.929,24927914.162,2.559,-0.770,-0.915,0.589,0.561,0.987,0.600,0.000,19,19,4*5D
$GPGGA,083313.20,3135.3294300,N,12046.7972222,E,4,19,1.2,2.5522,M,8.325,M,01,0004*62
$GPHPD,1957,30811.000,57.91,-0.23,13.51,31.5888238,120.7799537,2.552,13633974.170,24927915.466,2.552,-0.800,-0.884,0.609,0.561,0.987,0.600,0.000,19,19,4*52
$GPGGA,083313.40,3135.3295094,N,12046.7973713,E,4,19,1.2,2.5426,M,8.325,M,01,0004*68
$GPHPD,1957,30811.200,57.68,-0.29,13.49,31.5888252,120.7799562,2.543,13633973.341,24927916.802,2.543,-0.796,-0.884,0.583,0.561,0.987,0.600,0.000,19,19,4*52
$GPGGA,083313.60,3135.3295849,N,12046.7975160,E,4,19,1.2,2.5568,M,8.325,M,01,0004*6D
$GPHPD,1957,30811.400,57.84,-0.44,13.48,31.5888264,120.7799586,2.557,13633972.559,24927918.108,2.557,-0.782,-0.946,0.576,0.561,0.987,0.600,0.000,19,19,4*50
$GPGGA,083313.80,3135.3296635,N,12046.7976594,E,4,19,1.2,2.5482,M,8.325,M,00,0004*6D
$GPHPD,1957,30811.600,57.74,-0.19,13.47,31.5888277,120.7799610,2.548,13633971.731,24927919.380,2.548,-0.819,-0.877,0.613,0.561,0.987,0.600,0.000,19,19,4*56
$GPGGA,083314.00,3135.3297382,N,12046.7978089,E,4,19,1.2,2.5525,M,8.325,M,01,0004*60
$GPHPD,1957,30811.800,57.88,-0.25,13.44,31.5888290,120.7799635,2.553,13633970.970,24927920.748,2.553,-0.781,-0.922,0.604,0.561,0.987,0.600,0.000,19,19,4*50
$GPGGA,083314.20,3135.3298150,N,12046.7979532,E,4,19,1.2,2.5528,M,8.325,M,01,0004*69
$GPHPD,1957,30812.000,57.58,-0.61,13.45,31.5888303,120.7799659,2.553,13633970.169,24927922.041,2.553,-0.821,-0.895,0.599,0.561,0.987,0.600,0.000,19,19,4*55
$GPGGA,083314.40,3135.3298914,N,12046.7980962,E,4,19,1.2,2.5472,M,8.325,M,01,0004*66
$GPHPD,1957,30812.200,57.68,-0.61,13.44,31.5888315,120.7799683,2.547,13633969.370,24927923.321,2.547,-0.817,-0.900,0.604,0.561,0.987,0.600,0.000,19,19,4*5C
$GPGGA,083314.60,3135.3299702,N,12046.7982396,E,4,19,1.2,2.5425,M,8.325,M,00,0004*6C
$GPHPD,1957,30812.400,57.75,-0.14,13.43,31.5888328,120.7799707,2.543,13633968.539,24927924.592,2.543,-0.806,-0.884,0.591,0.561,0.987,0.600,0.000,19,19,4*51
$GPGGA,083314.80,3135.3300471,N,12046.7983839,E,4,19,1.2,2.5433,M,8.325,M,00,0004*6C
$GPHPD,1957,30812.600,57.71,-0.32,13.42,31.5888341,120.7799731,2.543,13633967.736,24927925.885,2.543,-0.778,-0.922,0.588,0.561,0.987,0.600,0.000,19,19,4*53
$GPGGA,083315.00,3135.3301243,N,12046.7985294,E,4,19,1.2,2.5348,M,8.325,M,01,0004*62
$GPHPD,1957,30812.800,57.97,-0.16,13.41,31.5888354,120.7799755,2.535,13633966.932,24927927.191,2.535,-0.779,-0.923,0.604,0.561,0.987,0.600,0.000,19,19,4*54
$GPGGA,083315.20,3135.3301982,N,12046.7986684,E,4,19,1.2,2.5422,M,8.325,M,01,0004*6B
$GPHPD,1957,30813.000,57.60,0.08,13.43,31.5888366,120.7799778,2.542,13633966.161,24927928.437,2.542,-0.782,-0.922,0.589,0.561,0.987,0.600,0.000,19,19,4*70
$GPGGA,083315.40,3135.3302737,N,12046.7988117,E,4,19,1.2,2.5364,M,8.325,M,01,0004*68
$GPHPD,1957,30813.200,57.77,-0.36,13.44,31.5888379,120.7799802,2.536,13633965.376,24927929.726,2.536,-0.783,-0.852,0.599,0.561,0.987,0.600,0.000,19,19,4*5C
$GPGGA,083315.60,3135.3303488,N,12046.7989552,E,4,19,1.2,2.5436,M,8.325,M,01,0004*68
$GPHPD,1957,30813.400,57.69,-0.02,13.44,31.5888391,120.7799826,2.544,13633964.598,24927931.019,2.544,-0.772,-0.919,0.574,0.561,0.987,0.600,0.000,19,19,4*54
$GPGGA,083315.80,3135.3304263,N,12046.7990954,E,4,19,1.2,2.5348,M,8.325,M,00,0004*6F
$GPHPD,1957,30813.600,57.87,-0.28,13.47,31.5888404,120.7799849,2.535,13633963.778,24927932.259,2.535,-0.791,-0.900,0.591,0.561,0.987,0.600,0.000,19,19,4*5F
$GPGGA,083316.00,3135.3305014,N,12046.7992410,E,4,19,1.2,2.5403,M,8.325,M,01,0004*61
$GPHPD,1957,30813.800,57.94,0.28,13.48,31.5888417,120.7799874,2.540,13633963.004,24927933.578,2.540,-0.764,-0.901,0.590,0.561,0.987,0.600,0.000,19,19,4*7E
$GPGGA,083316.20,3135.3305754,N,12046.7993821,E,4,19,1.2,2.5392,M,8.325,M,01,0004*60
$GPHPD,1957,30814.000,57.73,-0.21,13.48,31.5888429,120.7799897,2.539,13633962.236,24927934.849,2.539,-0.789,-0.896,0.589,0.561,0.987,0.600,0.000,19,19,4*52
$GPGGA,083316.40,3135.3306507,N,12046.7995263,E,4,19,1.2,2.5372,M,8.325,M,01,0004*65
$GPHPD,1957,30814.200,57.90,-0.30,13.49,31.5888442,120.7799921,2.537,13633961.456,24927936.150,2.537,-0.781,-0.877,0.587,0.561,0.987,0.600,0.000,19,19,4*54
$GPGGA,083316.60,3135.3307259,N,12046.7996689,E,4,19,1.2,2.5450,M,8.325,M,00,0004*6F
$GPHPD,1957,30814.400,57.80,0.10,13.51,31.5888454,120.7799945,2.545,13633960.674,24927937.432,2.545,-0.795,-0.897,0.583,0.561,0.987,0.600,0.000,19,19,4*7C
$GPGGA,083316.80,3135.3308013,N,12046.7998093,E,4,19,1.2,2.5410,M,8.325,M,00,0004*65
$GPHPD,1957,30814.600,57.75,-0.12,13.51,31.5888467,120.7799968,2.541,13633959.885,24927938.687,2.541,-0.791,-0.879,0.601,0.561,0.987,0.600,0.000,19,19,4*50
$GPGGA,083317.00,3135.3308753,N,12046.7999526,E,4,19,1.2,2.5412,M,8.325,M,01,0004*66
$GPHPD,1957,30814.800,57.67,-0.31,13.52,31.5888479,120.7799992,2.541,13633959.122,24927939.985,2.541,-0.804,-0.847,0.601,0.561,0.987,0.600,0.000,19,19,4*53
$GPGGA,083317.20,3135.3309497,N,12046.8000964,E,4,19,1.2,2.5414,M,8.325,M,01,0004*64
$GPHPD,1957,30815.000,57.83,-0.16,13.51,31.5888492,120.7800016,2.541,13633958.353,24927941.286,2.541,-0.782,-0.888,0.581,0.561,0.987,0.600,0.000,19,19,4*52
$GPGGA,083317.40,3135.3310257,N,12046.8002356,E,4,19,1.2,2.5349,M,8.325,M,01,0004*66
$GPHPD,1957,30815.200,57.69,-0.33,13.50,31.5888504,120.7800039,2.535,13633957.553,24927942.522,2.535,-0.787,-0.895,0.585,0.561,0.987,0.600,0.000,19,19,4*5F
$GPGGA,083317.60,3135.3311013,N,12046.8003745,E,4,19,1.2,2.5418,M,8.325,M,01,0004*63
$GPHPD,1957,30815.400,57.92,0.29,13.51,31.5888517,120.7800062,2.542,13633956.758,24927943.758,2.542,-0.750,-0.916,0.579,0.561,0.987,0.600,0.000,19,19,4*73
$GPGGA,083317.80,3135.3311751,N,12046.8005175,E,4,19,1.2,2.5440,M,8.325,M,00,0004*63
$GPHPD,1957,30815.600,58.05,-0.16,13.51,31.5888529,120.7800086,2.544,13633955.997,24927945.053,2.544,-0.768,-0.877,0.603,0.561,0.987,0.600,0.000,19,19,4*51
$GPGGA,083318.00,3135.3312501,N,12046.8006580,E,4,19,1.2,2.5414,M,8.325,M,01,0004*6D
$GPHPD,1957,30815.800,58.03,-0.26,13.50,31.5888542,120.7800110,2.541,13633955.214,24927946.311,2.541,-0.777,-0.885,0.613,0.561,0.987,0.600,0.000,19,19,4*5C
$GPGGA,083318.20,3135.3313237,N,12046.8008003,E,4,19,1.2,2.5351,M,8.325,M,01,0004*6A
$GPHPD,1957,30816.000,58.09,-0.17,13.50,31.5888554,120.7800133,2.535,13633954.454,24927947.599,2.535,-0.771,-0.889,0.587,0.561,0.987,0.600,0.000,19,19,4*59
$GPGGA,083318.40,3135.3313962,N,12046.8009462,E,4,19,1.2,2.5299,M,8.325,M,01,0004*60
$GPHPD,1957,30816.200,57.89,0.17,13.50,31.5888566,120.7800158,2.530,13633953.717,24927948.936,2.530,-0.766,-0.890,0.581,0.561,0.987,0.600,0.000,19,19,4*70
$GPGGA,083318.60,3135.3314706,N,12046.8010874,E,4,19,1.2,2.5379,M,8.325,M,01,0004*65
$GPHPD,1957,30816.400,57.96,0.13,13.51,31.5888578,120.7800181,2.538,13633952.944,24927950.206,2.538,-0.788,-0.907,0.570,0.561,0.987,0.600,0.000,19,19,4*7F
$GPGGA,083318.80,3135.3315468,N,12046.8012301,E,4,19,1.2,2.5353,M,8.325,M,00,0004*63
$GPHPD,1957,30816.600,57.90,0.07,13.49,31.5888591,120.7800205,2.535,13633952.148,24927951.484,2.535,-0.793,-0.868,0.588,0.561,0.987,0.600,0.000,19,19,4*73
$GPGGA,083319.00,3135.3316202,N,12046.8013714,E,4,19,1.2,2.5313,M,8.325,M,01,0004*67
$GPHPD,1957,30816.800,57.76,-0.06,13.50,31.5888603,120.7800229,2.531,13633951.389,24927952.761,2.531,-0.767,-0.907,0.587,0.561,0.987,0.600,0.000,19,19,4*5C
$GPGGA,083319.20,3135.3316962,N,12046.8015154,E,4,19,1.2,2.5393,M,8.325,M,01,0004*64
$GPHPD,1957,30817.000,57.99,-0.13,13.48,31.5888616,120.7800253,2.539,13633950.599,24927954.055,2.539,-0.771,-0.900,0.581,0.561,0.987,0.600,0.000,19,19,4*56
$GPGGA,083319.40,3135.3317715,N,12046.8016545,E,4,19,1.2,2.5377,M,8.325,M,01,0004*60
$GPHPD,1957,30817.200,57.90,0.15,13.49,31.5888629,120.7800276,2.538,13633949.808,24927955.295,2.538,-0.791,-0.883,0.594,0.561,0.987,0.600,0.000,19,19,4*7E
$GPGGA,083319.60,3135.3318487,N,12046.8018037,E,4,19,1.2,2.5345,M,8.325,M,01,0004*6A
$GPHPD,1957,30817.400,58.12,0.01,13.48,31.5888641,120.7800301,2.535,13633949.011,24927956.645,2.535,-0.766,-0.882,0.593,0.561,0.987,0.600,0.000,19,19,4*72
$GPGGA,083319.80,3135.3319226,N,12046.8019452,E,4,19,1.2,2.5461,M,8.325,M,00,0004*6E
$GPHPD,1957,30817.600,57.97,-0.31,13.46,31.5888654,120.7800324,2.546,13633948.246,24927957.921,2.546,-0.789,-0.918,0.590,0.561,0.987,0.600,0.000,19,19,4*5C
$GPGGA,083320.00,3135.3319982,N,12046.8020914,E,4,19,1.2,2.5346,M,8.325,M,01,0004*6F
$GPHPD,1957,30817.800,57.95,-0.04,13.45,31.5888666,120.7800349,2.535,13633947.465,24927959.245,2.535,-0.804,-0.862,0.617,0.561,0.987,0.600,0.000,19,19,4*5A
$GPGGA,083320.20,3135.3320727,N,12046.8022321,E,4,19,1.2,2.5436,M,8.325,M,01,0004*68
$GPHPD,1957,30818.000,58.03,0.13,13.45,31.5888679,120.7800372,2.544,13633946.690,24927960.508,2.544,-0.788,-0.927,0.572,0.561,0.987,0.600,0.000,19,19,4*76
$GPGGA,083320.40,3135.3321468,N,12046.8023752,E,4,19,1.2,2.5366,M,8.325,M,01,0004*64
$GPHPD,1957,30818.200,58.10,0.03,13.45,31.5888691,120.7800396,2.537,13633945.924,24927961.803,2.537,-0.803,-0.848,0.601,0.561,0.987,0.600,0.000,19,19,4*7C
$GPGGA,083320.60,3135.3322226,N,12046.8025194,E,4,19,1.2,2.5479,M,8.325,M,01,0004*6A
$GPHPD,1957,30818.400,58.06,-0.02,13.46,31.5888704,120.7800420,2.548,13633945.137,24927963.101,2.548,-0.773,-0.884,0.581,0.561,0.987,0.600,0.000,19,19,4*55
$GPGGA,083320.80,3135.3322969,N,12046.8026614,E,4,19,1.2,2.5430,M,8.325,M,00,0004*64
$GPHPD,1957,30818.600,57.97,0.04,13.47,31.5888716,120.7800444,2.543,13633944.367,24927964.381,2.543,-0.800,-0.882,0.602,0.561,0.987,0.600,0.000,19,19,4*75
$GPGGA,083321.00,3135.3323723,N,12046.8028037,E,4,19,1.2,2.5401,M,8.325,M,01,0004*66
$GPHPD,1957,30818.800,57.99,0.05,13.50,31.5888729,120.7800467,2.540,13633943.582,24927965.658,2.540,-0.788,-0.864,0.596,0.561,0.987,0.600,0.000,19,19,4*7C
$GPGGA,083321.20,3135.3324466,N,12046.8029470,E,4,19,1.2,2.5396,M,8.325,M,01,0004*6E
$GPHPD,1957,30819.000,58.02,-0.36,13.52,31.5888741,120.7800491,2.540,13633942.814,24927966.954,2.540,-0.764,-0.910,0.580,0.561,0.987,0.600,0.000,19,19,4*54
$GPGGA,083321.40,3135.3325232,N,12046.8030911,E,4,19,1.2,2.5443,M,8.325,M,01,0004*63
$GPHPD,1957,30819.200,57.79,-0.17,13.52,31.5888754,120.7800515,2.544,13633942.015,24927968.246,2.544,-0.774,-0.901,0.579,0.561,0.987,0.600,0.000,19,19,4*57
$GPGGA,083321.60,3135.3325976,N,12046.8032353,E,4,19,1.2,2.5347,M,8.325,M,01,0004*67
$GPHPD,1957,30819.400,57.80,-0.36,13.52,31.5888766,120.7800539,2.535,13633941.248,24927969.552,2.535,-0.791,-0.883,0.602,0.561,0.987,0.600,0.000,19,19,4*5E
$GPGGA,083321.80,3135.3326729,N,12046.8033789,E,4,19,1.2,2.5368,M,8.325,M,00,0004*60
$GPHPD,1957,30819.600,57.82,-0.18,13.52,31.5888779,120.7800563,2.537,13633940.467,24927970.846,2.537,-0.783,-0.922,0.579,0.561,0.987,0.600,0.000,19,19,4*5F
$GPGGA,083322.00,3135.3327483,N,12046.8035217,E,4,19,1.2,2.5347,M,8.325,M,01,0004*61
$GPHPD,1957,30819.800,57.71,0.01,13.52,31.5888791,120.7800587,2.535,13633939.682,24927972.129,2.535,-0.798,-0.915,0.595,0.561,0.987,0.600,0.000,19,19,4*7D
$GPGGA,083322.20,3135.3328245,N,12046.8036689,E,4,19,1.2,2.5389,M,8.325,M,01,0004*62
$GPHPD,1957,30820.000,57.89,0.16,13.52,31.5888804,120.7800611,2.539,13633938.895,24927973.461,2.539,-0.781,-0.924,0.583,0.561,0.987,0.600,0.000,19,19,4*7D
$GPGGA,083322.40,3135.3329007,N,12046.8038122,E,4,19,1.2,2.5400,M,8.325,M,01,0004*6F
$GPHPD,1957,30820.200,57.87,-0.07,13.49,31.5888817,120.7800635,2.540,13633938.101,24927974.746,2.540,-0.808,-0.913,0.599,0.561,0.987,0.600,0.000,19,19,4*56
$GPGGA,083322.60,3135.3329748,N,12046.8039539,E,4,19,1.2,2.5349,M,8.325,M,00,0004*65
$GPHPD,1957,30820.400,57.96,0.04,13.48,31.5888829,120.7800659,2.535,13633937.333,24927976.024,2.535,-0.803,-0.897,0.602,0.561,0.987,0.600,0.000,19,19,4*72
$GPGGA,083322.80,3135.3330501,N,12046.8041005,E,4,19,1.2,2.5412,M,8.325,M,00,0004*60
$GPHPD,1957,30820.600,57.82,0.18,13.48,31.5888842,120.7800683,2.541,13633936.557,24927977.354,2.541,-0.783,-0.902,0.587,0.561,0.987,0.600,0.000,19,19,4*76
$GPGGA,083323.00,3135.3331252,N,12046.8042421,E,4,19,1.2,2.5444,M,8.325,M,01,0004*6A
$GPHPD,1957,30820.800,57.91,0.03,13.48,31.5888854,120.7800707,2.544,13633935.775,24927978.624,2.544,-0.795,-0.884,0.596,0.561,0.987,0.600,0.000,19,19,4*7E
$GPGGA,083323.20,3135.3331989,N,12046.8043848,E,4,19,1.2,2.5421,M,8.325,M,01,0004*64
$GPHPD,1957,30821.000,58.10,0.17,13.46,31.5888866,120.7800731,2.542,13633935.015,24927979.916,2.542,-0.779,-0.886,0.594,0.561,0.987,0.600,0.000,19,19,4*72
$GPGGA,083323.40,3135.3332744,N,12046.8045292,E,4,19,1.2,2.5401,M,8.325,M,01,0004*67
$GPHPD,1957,30821.200,57.98,-0.13,13.46,31.5888879,120.7800755,2.540,13633934.232,24927981.219,2.540,-0.781,-0.894,0.580,0.561,0.987,0.600,0.000,19,19,4*5E
$GPGGA,083323.60,3135.3333478,N,12046.8046718,E,4,19,1.2,2.5477,M,8.325,M,01,0004*6D
$GPHPD,1957,30821.400,58.04,-0.01,13.46,31.5888891,120.7800779,2.548,13633933.476,24927982.511,2.548,-0.788,-0.872,0.578,0.561,0.987,0.600,0.000,19,19,4*52
$GPGGA,083323.80,3135.3334242,N,12046.8048135,E,4,19,1.2,2.5454,M,8.325,M,00,0004*6C
$GPHPD,1957,30821.600,57.82,-0.10,13.47,31.5888904,120.7800802,2.545,13633932.675,24927983.776,2.545,-0.796,-0.883,0.574,0.561,0.987,0.600,0.000,19,19,4*51
$GPGGA,083324.00,3135.3334990,N,12046.8049583,E,4,19,1.2,2.5474,M,8.325,M,01,0004*6C
$GPHPD,1957,30821.800,57.95,-0.04,13.47,31.5888917,120.7800826,2.547,13633931.903,24927985.087,2.547,-0.772,-0.910,0.577,0.561,0.987,0.600,0.000,19,19,4*58
$GPGGA,083324.20,3135.3335740,N,12046.8051006,E,4,19,1.2,2.5393,M,8.325,M,01,0004*63
$GPHPD,1957,30822.000,58.07,-0.23,13.50,31.5888929,120.7800850,2.539,13633931.124,24927986.366,2.539,-0.801,-0.876,0.584,0.561,0.987,0.600,0.000,19,19,4*5C
$GPGGA,083324.40,3135.3336493,N,12046.8052451,E,4,19,1.2,2.5381,M,8.325,M,01,0004*6D
$GPHPD,1957,30822.200,57.88,0.14,13.53,31.5888942,120.7800874,2.538,13633930.344,24927987.671,2.538,-0.776,-0.908,0.581,0.561,0.987,0.600,0.000,19,19,4*72
$GPGGA,083324.60,3135.3337262,N,12046.8053897,E,4,19,1.2,2.5419,M,8.325,M,00,0004*66
$GPHPD,1957,30822.400,57.99,-0.09,13.54,31.5888954,120.7800898,2.542,13633929.542,24927988.967,2.542,-0.788,-0.894,0.586,0.561,0.987,0.600,0.000,19,19,4*5A
$GPGGA,083324.80,3135.3338027,N,12046.8055340,E,4,19,1.2,2.5504,M,8.325,M,00,0004*6E
$GPHPD,1957,30822.600,57.88,-0.04,13.51,31.5888967,120.7800922,2.550,13633928.745,24927990.262,2.550,-0.806,-0.905,0.598,0.561,0.987,0.600,0.000,19,19,4*5C
$GPGGA,083325.00,3135.3338785,N,12046.8056770,E,4,19,1.2,2.5421,M,8.325,M,01,0004*6B
$GPHPD,1957,30822.800,57.88,0.01,13.47,31.5888980,120.7800946,2.542,13633927.956,24927991.546,2.542,-0.800,-0.886,0.610,0.561,0.987,0.600,0.000,19,19,4*7A
$GPGGA,083325.20,3135.3339556,N,12046.8058228,E,4,19,1.2,2.5436,M,8.325,M,01,0004*64
$GPHPD,1957,30823.000,58.01,-0.29,13.46,31.5888993,120.7800970,2.544,13633927.153,24927992.856,2.544,-0.782,-0.893,0.593,0.561,0.987,0.600,0.000,19,19,4*57
$GPGGA,083325.40,3135.3340324,N,12046.8059664,E,4,19,1.2,2.5506,M,8.325,M,01,0004*60
$GPHPD,1957,30823.200,57.89,0.14,13.42,31.5889005,120.7800994,2.551,13633926.350,24927994.141,2.551,-0.779,-0.931,0.580,0.561,0.987,0.600,0.000,19,19,4*76
$GPGGA,083325.60,3135.3341066,N,12046.8061113,E,4,19,1.2,2.5449,M,8.325,M,01,0004*60
$GPHPD,1957,30823.400,57.65,-0.40,13.41,31.5889018,120.7801019,2.545,13633925.587,24927995.456,2.545,-0.791,-0.910,0.608,0.561,0.987,0.600,0.000,19,19,4*57
$GPGGA,083325.80,3135.3341843,N,12046.8062562,E,4,19,1.2,2.5444,M,8.325,M,00,0004*6C
$GPHPD,1957,30823.600,57.85,-0.07,13.39,31.5889031,120.7801043,2.544,13633924.775,24927996.752,2.544,-0.786,-0.896,0.585,0.561,0.987,0.600,0.000,19,19,4*56
$GPGGA,083326.00,3135.3342583,N,12046.8063980,E,4,19,1.2,2.5477,M,8.325,M,01,0004*65
$GPHPD,1957,30823.800,57.54,0.00,13.40,31.5889043,120.7801066,2.548,13633924.008,24927998.031,2.548,-0.789,-0.912,0.598,0.561,0.987,0.600,0.000,19,19,4*7D
$GPGGA,083326.20,3135.3343348,N,12046.8065420,E,4,19,1.2,2.5444,M,8.325,M,01,0004*66
$GPHPD,1957,30824.000,57.63,-0.31,13.39,31.5889056,120.7801090,2.544,13633923.211,24927999.323,2.544,-0.793,-0.914,0.594,0.561,0.987,0.600,0.000,19,19,4*57
$GPGGA,083326.40,3135.3344115,N,12046.8066859,E,4,19,1.2,2.5448,M,8.325,M,01,0004*60
$GPHPD,1957,30824.200,57.78,0.10,13.39,31.5889069,120.7801114,2.545,13633922.410,24928000.612,2.545,-0.789,-0.900,0.598,0.561,0.987,0.600,0.000,19,19,4*75
$GPGGA,083326.60,3135.3344861,N,12046.8068277,E,4,19,1.2,2.5436,M,8.325,M,00,0004*68
$GPHPD,1957,30824.400,57.68,-0.01,13.39,31.5889081,120.7801138,2.544,13633921.635,24928001.888,2.544,-0.787,-0.903,0.599,0.561,0.987,0.600,0.000,19,19,4*51
$GPGGA,083326.80,3135.3345631,N,12046.8069745,E,4,19,1.2,2.5479,M,8.325,M,00,0004*62
$GPHPD,1957,30824.600,57.81,0.19,13.40,31.5889094,120.7801162,2.548,13633920.836,24928003.210,2.548,-0.779,-0.880,0.588,0.561,0.987,0.600,0.000,19,19,4*7B
$GPGGA,083327.00,3135.3346415,N,12046.8071153,E,4,19,1.2,2.5494,M,8.325,M,01,0004*66
$GPHPD,1957,30824.800,57.86,-0.35,13.39,31.5889107,120.7801186,2.549,13633920.005,24928004.452,2.549,-0.810,-0.887,0.617,0.561,0.987,0.600,0.000,19,19,4*53
$GPGGA,083327.20,3135.3347158,N,12046.8072637,E,4,19,1.2,2.5446,M,8.325,M,01,0004*60
$GPHPD,1957,30825.000,57.91,0.05,13.39,31.5889119,120.7801211,2.545,13633919.248,24928005.809,2.545,-0.776,-0.889,0.611,0.561,0.987,0.600,0.000,19,19,4*75
$GPGGA,083327.40,3135.3347922,N,12046.8074082,E,4,19,1.2,2.5550,M,8.325,M,01,0004*6B
$GPHPD,1957,30825.200,57.64,0.12,13.39,31.5889132,120.7801235,2.555,13633918.453,24928007.108,2.555,-0.797,-0.901,0.602,0.561,0.987,0.600,0.000,19,19,4*7F
$GPGGA,083327.60,3135.3348698,N,12046.8075534,E,4,19,1.2,2.5433,M,8.325,M,01,0004*65
$GPHPD,1957,30825.400,57.93,-0.32,13.39,31.5889145,120.7801259,2.543,13633917.642,24928008.407,2.543,-0.812,-0.893,0.612,0.561,0.987,0.600,0.000,19,19,4*55
$GPGGA,083327.80,3135.3349453,N,12046.8076936,E,4,19,1.2,2.5566,M,8.325,M,00,0004*62
$GPHPD,1957,30825.600,57.39,0.12,13.38,31.5889158,120.7801282,2.557,13633916.851,24928009.659,2.557,-0.778,-0.929,0.595,0.561,0.987,0.600,0.000,19,19,4*79
$GPGGA,083328.00,3135.3350221,N,12046.8078428,E,4,19,1.2,2.5564,M,8.325,M,01,0004*61
$GPHPD,1957,30825.800,57.91,-0.14,13.38,31.5889170,120.7801307,2.556,13633916.059,24928011.011,2.556,-0.789,-0.901,0.608,0.561,0.987,0.600,0.000,19,19,4*58
$GPGGA,083328.20,3135.3350995,N,12046.8079845,E,4,19,1.2,2.5480,M,8.325,M,01,0004*6A
$GPHPD,1957,30826.000,57.68,-0.26,13.38,31.5889183,120.7801331,2.548,13633915.244,24928012.270,2.548,-0.803,-0.899,0.604,0.561,0.987,0.600,0.000,19,19,4*57
$GPGGA,083328.40,3135.3351762,N,12046.8081275,E,4,19,1.2,2.5552,M,8.325,M,01,0004*6B
$GPHPD,1957,30826.200,57.47,-0.16,13.39,31.5889196,120.7801355,2.555,13633914.442,24928013.548,2.555,-0.788,-0.902,0.602,0.561,0.987,0.600,0.000,19,19,4*59
$GPGGA,083328.60,3135.3352514,N,12046.8082714,E,4,19,1.2,2.5533,M,8.325,M,00,0004*6E
$GPHPD,1957,30826.400,57.65,-0.29,13.39,31.5889209,120.7801379,2.553,13633913.663,24928014.846,2.553,-0.781,-0.896,0.606,0.561,0.987,0.600,0.000,19,19,4*5B
$GPGGA,083328.80,3135.3353281,N,12046.8084145,E,4,19,1.2,2.5504,M,8.325,M,00,0004*6A
$GPHPD,1957,30826.600,57.51,-0.27,13.41,31.5889221,120.7801402,2.550,13633912.861,24928016.125,2.550,-0.796,-0.863,0.608,0.561,0.987,0.600,0.000,19,19,4*5F
$GPGGA,083329.00,3135.3354035,N,12046.8085585,E,4,19,1.2,2.5552,M,8.325,M,01,0004*62
$GPHPD,1957,30826.800,57.54,0.04,13.43,31.5889234,120.7801426,2.555,13633912.079,24928017.423,2.555,-0.778,-0.930,0.592,0.561,0.987,0.600,0.000,19,19,4*7C
$GPGGA,083329.20,3135.3354803,N,12046.8087036,E,4,19,1.2,2.5479,M,8.326,M,01,0004*69
$GPHPD,1957,30827.000,57.48,-0.26,13.42,31.5889247,120.7801451,2.548,13633911.279,24928018.726,2.548,-0.800,-0.870,0.603,0.561,0.987,0.600,0.000,19,19,4*56
$GPGGA,083329.40,3135.3355563,N,12046.8088426,E,4,19,1.2,2.5534,M,8.326,M,01,0004*67
$GPHPD,1957,30827.200,57.37,0.10,13.42,31.5889259,120.7801474,2.553,13633910.479,24928019.960,2.553,-0.781,-0.928,0.593,0.561,0.987,0.600,0.000,19,19,4*76
$GPGGA,083329.60,3135.3356341,N,12046.8089879,E,4,19,1.2,2.5531,M,8.326,M,01,0004*62
$GPHPD,1957,30827.400,57.55,-0.28,13.44,31.5889272,120.7801498,2.553,13633909.665,24928021.260,2.553,-0.771,-0.886,0.593,0.561,0.987,0.600,0.000,19,19,4*52
$GPGGA,083329.80,3135.3357074,N,12046.8091262,E,4,19,1.2,2.5492,M,8.326,M,01,0004*69
$GPHPD,1957,30827.600,57.53,0.03,13.43,31.5889285,120.7801521,2.549,13633908.902,24928022.501,2.549,-0.781,-0.910,0.608,0.561,0.987,0.600,0.000,19,19,4*72
$GPGGA,083330.00,3135.3357854,N,12046.8092718,E,4,19,1.2,2.5402,M,8.326,M,01,0004*61
$GPHPD,1957,30827.800,57.57,-0.07,13.42,31.5889298,120.7801545,2.540,13633908.086,24928023.803,2.540,-0.762,-0.893,0.580,0.561,0.987,0.600,0.000,19,19,4*51
$GPGGA,083330.20,3135.3358621,N,12046.8094156,E,4,19,1.2,2.5502,M,8.326,M,01,0004*6B
$GPHPD,1957,30828.000,57.58,-0.07,13.41,31.5889310,120.7801569,2.550,13633907.285,24928025.091,2.550,-0.775,-0.911,0.597,0.561,0.987,0.600,0.000,19,19,4*55
$GPGGA,083330.40,3135.3359404,N,12046.8095585,E,4,19,1.2,2.5417,M,8.326,M,01,0004*67
$GPHPD,1957,30828.200,57.68,0.04,13.40,31.5889323,120.7801593,2.542,13633906.460,24928026.359,2.542,-0.802,-0.861,0.615,0.561,0.987,0.600,0.000,19,19,4*76
$GPGGA,083330.60,3135.3360155,N,12046.8097029,E,4,19,1.2,2.5514,M,8.326,M,00,0004*6C
$GPHPD,1957,30828.400,57.72,0.08,13.38,31.5889336,120.7801617,2.551,13633905.683,24928027.663,2.551,-0.747,-0.945,0.593,0.569,1.000,0.637,0.000,19,19,4*7D
$GPGGA,083330.80,3135.3360938,N,12046.8098465,E,4,19,1.2,2.5588,M,8.326,M,00,0004*67
$GPHPD,1957,30828.600,57.42,0.14,13.35,31.5889349,120.7801641,2.559,13633904.859,24928028.940,2.559,-0.799,-0.868,0.612,0.561,0.987,0.600,0.000,19,19,4*72
$GPGGA,083331.00,3135.3361681,N,12046.8099919,E,4,19,1.2,2.5555,M,8.326,M,01,0004*64
$GPHPD,1957,30828.800,57.50,-0.14,13.34,31.5889361,120.7801665,2.556,13633904.096,24928030.261,2.556,-0.794,-0.888,0.623,0.561,0.987,0.600,0.000,19,19,4*54
$GPGGA,083331.20,3135.3362449,N,12046.8101334,E,4,19,1.2,2.5577,M,8.326,M,01,0004*66
$GPHPD,1957,30829.000,57.54,-0.10,13.33,31.5889374,120.7801689,2.558,13633903.289,24928031.520,2.558,-0.808,-0.875,0.601,0.561,0.987,0.600,0.000,19,19,4*5C
$GPGGA,083331.40,3135.3363216,N,12046.8102785,E,4,19,1.2,2.5618,M,8.326,M,01,0004*6A
$GPHPD,1957,30829.200,57.45,-0.29,13.31,31.5889387,120.7801713,2.562,13633902.490,24928032.824,2.562,-0.790,-0.888,0.615,0.561,0.987,0.600,0.000,19,19,4*54
$GPGGA,083331.60,3135.3363954,N,12046.8104243,E,4,19,1.2,2.5625,M,8.326,M,01,0004*62
$GPHPD,1957,30829.400,57.27,-0.13,13.29,31.5889399,120.7801737,2.563,13633901.735,24928034.153,2.563,-0.809,-0.884,0.626,0.561,0.987,0.600,0.000,19,19,4*5C
$GPGGA,083331.80,3135.3364764,N,12046.8105656,E,4,19,1.2,2.5539,M,8.326,M,00,0004*68
$GPHPD,1957,30829.600,57.37,-0.59,13.30,31.5889413,120.7801761,2.554,13633900.868,24928035.386,2.554,-0.801,-0.887,0.599,0.561,0.987,0.600,0.000,19,19,4*5E
$GPGGA,083332.00,3135.3365512,N,12046.8107080,E,4,19,1.2,2.5619,M,8.326,M,01,0004*6E
$GPHPD,1957,30829.800,57.34,-0.31,13.31,31.5889425,120.7801785,2.562,13633900.091,24928036.668,2.562,-0.781,-0.907,0.614,0.561,0.987,0.600,0.000,19,19,4*53
$GPGGA,083332.20,3135.3366288,N,12046.8108525,E,4,19,1.2,2.5528,M,8.326,M,01,0004*6F
$GPHPD,1957,30830.000,57.48,-0.33,13.32,31.5889438,120.7801809,2.553,13633899.279,24928037.959,2.553,-0.786,-0.888,0.605,0.561,0.987,0.600,0.000,19,19,4*56
$GPGGA,083332.40,3135.3367065,N,12046.8109959,E,4,19,1.2,2.5581,M,8.326,M,01,0004*6C
$GPHPD,1957,30830.200,57.30,-0.05,13.31,31.5889451,120.7801833,2.558,13633898.463,24928039.236,2.558,-0.785,-0.904,0.596,0.561,0.987,0.600,0.000,19,19,4*54
$GPGGA,083332.60,3135.3367859,N,12046.8111401,E,4,19,1.2,2.5553,M,8.326,M,00,0004*6E
$GPHPD,1957,30830.400,57.36,-0.51,13.33,31.5889464,120.7801857,2.555,13633897.625,24928040.513,2.555,-0.794,-0.880,0.620,0.561,0.987,0.600,0.000,19,19,4*51
$GPGGA,083332.80,3135.3368613,N,12046.8112838,E,4,19,1.2,2.5505,M,8.326,M,00,0004*69
$GPHPD,1957,30830.600,57.52,-0.14,13.34,31.5889477,120.7801881,2.551,13633896.842,24928041.808,2.551,-0.780,-0.910,0.634,0.561,0.987,0.600,0.000,19,19,4*5E
$GPGGA,083333.00,3135.3369379,N,12046.8114268,E,4,19,1.2,2.5551,M,8.326,M,01,0004*61
$GPHPD,1957,30830.800,57.27,0.16,13.35,31.5889490,120.7801904,2.555,13633896.041,24928043.086,2.555,-0.765,-0.916,0.599,0.561,0.987,0.600,0.000,19,19,4*77
$GPGGA,083333.20,3135.3370142,N,12046.8115675,E,4,19,1.2,2.5588,M,8.326,M,01,0004*6C
$GPHPD,1957,30831.000,57.44,-0.14,13.36,31.5889502,120.7801928,2.559,13633895.240,24928044.339,2.559,-0.778,-0.899,0.606,0.561,0.987,0.600,0.000,19,19,4*5C
$GPGGA,083333.40,3135.3370886,N,12046.8117108,E,4,19,1.2,2.5587,M,8.326,M,01,0004*6B
$GPHPD,1957,30831.200,57.23,-0.38,13.38,31.5889515,120.7801952,2.559,13633894.471,24928045.635,2.559,-0.778,-0.882,0.606,0.561,0.987,0.600,0.000,19,19,4*53
$GPGGA,083333.60,3135.3371668,N,12046.8118525,E,4,19,1.2,2.5486,M,8.326,M,01,0004*62
$GPHPD,1957,30831.400,57.29,-0.12,13.41,31.5889528,120.7801975,2.549,13633893.645,24928046.888,2.549,-0.777,-0.888,0.590,0.561,0.987,0.600,0.000,19,19,4*52
$GPGGA,083333.80,3135.3372431,N,12046.8119956,E,4,19,1.2,2.5569,M,8.326,M,01,0004*68
$GPHPD,1957,30831.600,57.53,-0.01,13.40,31.5889541,120.7801999,2.557,13633892.848,24928048.170,2.557,-0.771,-0.906,0.600,0.561,0.987,0.600,0.000,19,19,4*5A
$GPGGA,083334.00,3135.3373196,N,12046.8121382,E,4,19,1.2,2.5570,M,8.326,M,01,0004*6E
$GPHPD,1957,30831.800,57.19,-0.23,13.41,31.5889553,120.7802023,2.557,13633892.048,24928049.445,2.557,-0.788,-0.864,0.633,0.561,0.987,0.600,0.000,19,19,4*5A
$GPGGA,083334.20,3135.3373961,N,12046.8122786,E,4,19,1.2,2.5582,M,8.326,M,01,0004*62
$GPHPD,1957,30832.000,57.31,-0.11,13.41,31.5889566,120.7802046,2.558,13633891.243,24928050.693,2.558,-0.783,-0.876,0.607,0.561,0.987,0.600,0.000,19,19,4*5B
$GPGGA,083334.40,3135.3374706,N,12046.8124184,E,4,19,1.2,2.5489,M,8.326,M,01,0004*64
$GPHPD,1957,30832.200,57.56,-0.05,13.44,31.5889578,120.7802070,2.549,13633890.465,24928051.945,2.549,-0.795,-0.857,0.614,0.561,0.987,0.600,0.000,19,19,4*52
$GPGGA,083334.60,3135.3375520,N,12046.8125618,E,4,19,1.2,2.5595,M,8.326,M,00,0004*6F
$GPHPD,1957,30832.400,57.49,0.03,13.44,31.5889592,120.7802094,2.560,13633889.597,24928053.201,2.560,-0.754,-0.914,0.584,0.561,0.987,0.600,0.000,19,19,4*73
$GPGGA,083334.80,3135.3376277,N,12046.8127065,E,4,19,1.2,2.5515,M,8.326,M,00,0004*61
$GPHPD,1957,30832.600,57.53,0.04,13.41,31.5889605,120.7802118,2.552,13633888.812,24928054.506,2.552,-0.774,-0.884,0.644,0.561,0.987,0.600,0.000,19,19,4*73
$GPGGA,083335.00,3135.3377014,N,12046.8128455,E,4,19,1.2,2.5501,M,8.326,M,01,0004*62
$GPHPD,1957,30832.800,57.08,0.06,13.46,31.5889617,120.7802141,2.550,13633888.044,24928055.753,2.550,-0.780,-0.912,0.598,0.561,0.987,0.600,0.000,19,19,4*76
$GPGGA,083335.20,3135.3377770,N,12046.8129874,E,4,19,1.2,2.5452,M,8.326,M,01,0004*6C
$GPHPD,1957,30833.000,57.35,0.29,13.46,31.5889630,120.7802165,2.545,13633887.255,24928057.025,2.545,-0.757,-0.899,0.579,0.561,0.987,0.600,0.000,19,19,4*71
$GPGGA,083335.40,3135.3378511,N,12046.8131289,E,4,19,1.2,2.5583,M,8.326,M,01,0004*6C
$GPHPD,1957,30833.200,57.45,0.15,13.45,31.5889642,120.7802188,2.558,13633886.487,24928058.300,2.558,-0.776,-0.874,0.577,0.561,0.987,0.600,0.000,19,19,4*73
$GPGGA,083335.60,3135.3379297,N,12046.8132686,E,4,19,1.2,2.5550,M,8.326,M,01,0004*60
$GPHPD,1957,30833.400,57.13,-0.14,13.45,31.5889655,120.7802211,2.555,13633885.651,24928059.527,2.555,-0.801,-0.860,0.607,0.561,0.987,0.600,0.000,19,19,4*59
$GPGGA,083335.80,3135.3380048,N,12046.8134101,E,4,19,1.2,2.5585,M,8.326,M,00,0004*6F
$GPHPD,1957,30833.600,57.28,0.20,13.46,31.5889667,120.7802235,2.559,13633884.868,24928060.797,2.559,-0.774,-0.866,0.622,0.561,0.987,0.600,0.000,19,19,4*77
$GPGGA,083336.00,3135.3380831,N,12046.8135523,E,4,19,1.2,2.5519,M,8.326,M,01,0004*63
$GPHPD,1957,30833.800,57.07,0.03,13.47,31.5889681,120.7802259,2.552,13633884.041,24928062.056,2.552,-0.782,-0.867,0.605,0.561,0.987,0.600,0.000,19,19,4*70
$GPGGA,083336.20,3135.3381586,N,12046.8136902,E,4,19,1.2,2.5519,M,8.326,M,01,0004*6D
$GPHPD,1957,30834.000,57.09,0.16,13.46,31.5889693,120.7802282,2.552,13633883.246,24928063.280,2.552,-0.776,-0.877,0.600,0.561,0.987,0.600,0.000,19,19,4*74
$GPGGA,083336.40,3135.3382338,N,12046.8138332,E,4,19,1.2,2.5560,M,8.326,M,01,0004*62
$GPHPD,1957,30834.200,57.23,0.18,13.47,31.5889706,120.7802306,2.556,13633882.465,24928064.567,2.556,-0.755,-0.898,0.601,0.561,0.987,0.600,0.000,19,19,4*7F
$GPGGA,083336.60,3135.3383102,N,12046.8139731,E,4,19,1.2,2.5577,M,8.326,M,00,0004*6B
$GPHPD,1957,30834.400,56.85,0.05,13.48,31.5889718,120.7802329,2.558,13633881.660,24928065.810,2.558,-0.789,-0.862,0.599,0.561,0.987,0.600,0.000,19,19,4*7B
$GPGGA,083336.80,3135.3383854,N,12046.8141143,E,4,19,1.2,2.5501,M,8.326,M,00,0004*62
$GPHPD,1957,30834.600,57.02,-0.19,13.50,31.5889731,120.7802352,2.550,13633880.876,24928067.075,2.550,-0.784,-0.852,0.615,0.561,0.987,0.600,0.000,19,19,4*51
$GPGGA,083337.00,3135.3384653,N,12046.8142537,E,4,19,1.2,2.5577,M,8.326,M,01,0004*61
$GPHPD,1957,30834.800,57.08,-0.17,13.51,31.5889744,120.7802376,2.558,13633880.020,24928068.291,2.558,-0.763,-0.902,0.582,0.561,0.987,0.600,0.000,19,19,4*52
$GPGGA,083337.20,3135.3385414,N,12046.8143931,E,4,19,1.2,2.5588,M,8.326,M,01,0004*68
$GPHPD,1957,30835.000,57.45,-0.25,13.48,31.5889757,120.7802399,2.559,13633879.219,24928069.529,2.559,-0.760,-0.888,0.612,0.561,0.987,0.600,0.000,19,19,4*59
$GPGGA,083337.40,3135.3386181,N,12046.8145345,E,4,19,1.2,2.5534,M,8.326,M,01,0004*6C
$GPHPD,1957,30835.200,57.38,-0.39,13.52,31.5889770,120.7802422,2.553,13633878.414,24928070.788,2.553,-0.758,-0.865,0.613,0.561,0.987,0.600,0.000,19,19,4*57
$GPGGA,083337.60,3135.3386931,N,12046.8146725,E,4,19,1.2,2.5612,M,8.326,M,01,0004*6B
$GPHPD,1957,30835.400,57.48,0.11,13.55,31.5889782,120.7802445,2.561,13633877.625,24928072.016,2.561,-0.751,-0.904,0.598,0.561,0.987,0.600,0.000,19,19,4*78
$GPGGA,083337.80,3135.3387693,N,12046.8148160,E,4,19,1.2,2.5560,M,8.326,M,00,0004*6D
$GPHPD,1957,30835.600,57.42,0.09,13.56,31.5889795,120.7802469,2.556,13633876.831,24928073.303,2.556,-0.763,-0.873,0.609,0.561,0.987,0.600,0.000,19,19,4*75
$GPGGA,083338.00,3135.3388424,N,12046.8149543,E,4,19,1.2,2.5577,M,8.326,M,01,0004*68
$GPHPD,1957,30835.800,57.27,0.21,13.59,31.5889807,120.7802492,2.558,13633876.070,24928074.546,2.558,-0.781,-0.887,0.605,0.561,0.987,0.600,0.000,19,19,4*7B
$GPGGA,083338.20,3135.3389202,N,12046.8150983,E,4,19,1.2,2.5566,M,8.326,M,01,0004*61
$GPHPD,1957,30836.000,56.92,0.24,13.59,31.5889820,120.7802516,2.557,13633875.254,24928075.830,2.557,-0.760,-0.864,0.606,0.561,0.987,0.600,0.000,19,19,4*79
$GPGGA,083338.40,3135.3389982,N,12046.8152401,E,4,19,1.2,2.5524,M,8.326,M,01,0004*67
$GPHPD,1957,30836.200,56.95,0.22,13.61,31.5889833,120.7802540,2.552,13633874.431,24928077.086,2.552,-0.765,-0.897,0.600,0.561,0.987,0.600,0.000,19,19,4*7C
$GPGGA,083338.60,3135.3390724,N,12046.8153842,E,4,19,1.2,2.5653,M,8.326,M,00,0004*67
$GPHPD,1957,30836.400,57.05,0.50,13.60,31.5889845,120.7802564,2.565,13633873.666,24928078.392,2.565,-0.768,-0.925,0.603,0.561,0.987,0.600,0.000,19,19,4*79
$GPGGA,083338.80,3135.3391505,N,12046.8155252,E,4,19,1.2,2.5710,M,8.326,M,00,0004*62
$GPHPD,1957,30836.600,56.72,0.27,13.61,31.5889858,120.7802588,2.571,13633872.840,24928079.638,2.571,-0.801,-0.879,0.613,0.561,0.987,0.600,0.000,19,19,4*73
$GPGGA,083339.00,3135.3392293,N,12046.8156656,E,4,19,1.2,2.5737,M,8.326,M,01,0004*67
$GPHPD,1957,30836.800,56.77,-0.07,13.62,31.5889872,120.7802611,2.574,13633872.002,24928080.873,2.574,-0.789,-0.873,0.617,0.561,0.987,0.600,0.000,19,19,4*57
$GPGGA,083339.20,3135.3393065,N,12046.8158066,E,4,19,1.2,2.5708,M,8.326,M,01,0004*68
$GPHPD,1957,30837.000,56.80,0.05,13.61,31.5889884,120.7802634,2.571,13633871.189,24928082.124,2.571,-0.776,-0.894,0.621,0.561,0.987,0.600,0.000,19,19,4*70
$GPGGA,083339.40,3135.3393854,N,12046.8159464,E,4,19,1.2,2.5727,M,8.326,M,01,0004*6E
$GPHPD,1957,30837.200,57.03,0.04,13.64,31.5889898,120.7802658,2.573,13633870.349,24928083.351,2.573,-0.767,-0.889,0.617,0.561,0.987,0.600,0.000,19,19,4*7C
$GPGGA,083339.60,3135.3394610,N,12046.8160932,E,4,19,1.2,2.5666,M,8.326,M,01,0004*65
$GPHPD,1957,30837.400,56.89,0.12,13.63,31.5889910,120.7802682,2.567,13633869.570,24928084.681,2.567,-0.764,-0.889,0.626,0.561,0.987,0.600,0.000,19,19,4*75
$GPGGA,083339.80,3135.3395367,N,12046.8162296,E,4,19,1.2,2.5761,M,8.326,M,00,0004*6F
$GPHPD,1957,30837.600,56.70,0.29,13.63,31.5889923,120.7802705,2.576,13633868.768,24928085.886,2.576,-0.777,-0.918,0.603,0.561,0.987,0.600,0.000,19,19,4*79
$GPGGA,083340.00,3135.3396144,N,12046.8163744,E,4,19,1.2,2.5766,M,8.326,M,01,0004*64
$GPHPD,1957,30837.800,56.93,-0.26,13.62,31.5889936,120.7802729,2.577,13633867.955,24928087.180,2.577,-0.783,-0.861,0.618,0.561,0.987,0.600,0.000,19,19,4*5F
$GPGGA,083340.20,3135.3396922,N,12046.8165136,E,4,19,1.2,2.5754,M,8.326,M,01,0004*6A
$GPHPD,1957,30838.000,56.96,-0.11,13.60,31.5889949,120.7802752,2.575,13633867.129,24928088.406,2.575,-0.778,-0.908,0.614,0.561,0.987,0.600,0.000,19,19,4*5E
$GPGGA,083340.40,3135.3397721,N,12046.8166555,E,4,19,1.2,2.5689,M,8.326,M,01,0004*63
$GPHPD,1957,30838.200,57.01,-0.03,13.60,31.5889962,120.7802776,2.569,13633866.279,24928089.653,2.569,-0.777,-0.886,0.618,0.561,0.987,0.600,0.000,19,19,4*5F
$GPGGA,083340.60,3135.3398481,N,12046.8167979,E,4,19,1.2,2.5779,M,8.326,M,00,0004*6B
$GPHPD,1957,30838.400,57.14,-0.09,13.60,31.5889975,120.7802800,2.578,13633865.486,24928090.928,2.578,-0.762,-0.918,0.609,0.561,0.987,0.600,0.000,19,19,4*53
$GPGGA,083340.80,3135.3399243,N,12046.8169422,E,4,19,1.2,2.5741,M,8.326,M,00,0004*6A
$GPHPD,1957,30838.600,57.02,-0.24,13.57,31.5889987,120.7802824,2.574,13633864.693,24928092.225,2.574,-0.779,-0.858,0.626,0.561,0.987,0.600,0.000,19,19,4*57
$GPGGA,083341.00,3135.3400030,N,12046.8170802,E,4,19,1.2,2.5711,M,8.326,M,01,0004*60
$GPHPD,1957,30838.800,57.08,-0.12,13.55,31.5890001,120.7802847,2.571,13633863.852,24928093.431,2.571,-0.791,-0.902,0.604,0.561,0.987,0.600,0.000,19,19,4*50
$GPGGA,083341.20,3135.3400783,N,12046.8172210,E,4,19,1.2,2.5805,M,8.326,M,01,0004*6C
$GPHPD,1957,30839.000,57.08,-0.04,13.55,31.5890013,120.7802870,2.581,13633863.065,24928094.691,2.581,-0.764,-0.891,0.612,0.561,0.987,0.600,0.000,19,19,4*5C
$GPGGA,083341.40,3135.3401564,N,12046.8173633,E,4,19,1.2,2.5787,M,8.326,M,01,0004*61
$GPHPD,1957,30839.200,57.03,-0.12,13.55,31.5890026,120.7802894,2.579,13633862.241,24928095.952,2.579,-0.766,-0.889,0.610,0.561,0.987,0.600,0.000,19,19,4*53
$GPGGA,083341.60,3135.3402337,N,12046.8175063,E,4,19,1.2,2.5781,M,8.326,M,01,0004*63
$GPHPD,1957,30839.400,56.97,0.11,13.53,31.5890039,120.7802918,2.578,13633861.430,24928097.227,2.578,-0.780,-0.879,0.617,0.561,0.987,0.600,0.000,19,19,4*72
$GPGGA,083341.80,3135.3403096,N,12046.8176470,E,4,19,1.2,2.5760,M,8.326,M,00,0004*6F
$GPHPD,1957,30839.600,56.93,0.30,13.55,31.5890052,120.7802941,2.576,13633860.635,24928098.482,2.576,-0.768,-0.900,0.612,0.561,0.987,0.600,0.000,19,19,4*7C
$GPGGA,083342.00,3135.3403905,N,12046.8177902,E,4,19,1.2,2.5797,M,8.326,M,01,0004*67
$GPHPD,1957,30839.800,56.60,0.04,13.55,31.5890065,120.7802965,2.580,13633859.773,24928099.739,2.580,-0.766,-0.885,0.605,0.561,0.987,0.600,0.000,19,19,4*74
$GPGGA,083342.20,3135.340480,N,12046.8179329,E,4,19,1.2,2.5762,M,8.326,M,01,0004*67
$GPHPD,1957,30840.000,56.71,0.20,13.54,31.5890078,120.7802989,2.576,13633858.959,24928101.009,2.576,-0.769,-0.913,0.625,0.561,0.987,0.600,0.000,19,19,4*7B
$GPGGA,083342.40,3135.3405474,N,12046.8180736,E,4,19,1.2,2.5766,M,8.326,M,01,0004*61
$GPHPD,1957,30840.200,56.58,0.30,13.54,31.5890091,120.7803012,2.577,13633858.113,24928102.243,2.577,-0.781,-0.909,0.614,0.561,0.987,0.600,0.000,19,19,4*78
$GPGGA,083342.60,3135.3406261,N,12046.8182188,E,4,19,1.2,2.5759,M,8.326,M,00,0004*6E
$GPHPD,1957,30840.400,56.78,0.18,13.55,31.5890104,120.7803036,2.576,13633857.287,24928103.537,2.576,-0.752,-0.907,0.623,0.561,0.987,0.600,0.000,19,19,4*7C
$GPGGA,083342.80,3135.3407013,N,12046.8183612,E,4,19,1.2,2.5819,M,8.326,M,00,0004*68
$GPHPD,1957,30840.600,56.80,0.29,13.55,31.5890117,120.7803060,2.582,13633856.504,24928104.816,2.582,-0.766,-0.892,0.636,0.561,0.987,0.600,0.000,19,19,4*70
$GPGGA,083343.00,3135.3407830,N,12046.8185036,E,4,19,1.2,2.5927,M,8.326,M,01,0004*63
$GPHPD,1957,30840.800,56.80,-0.23,13.55,31.5890131,120.7803084,2.593,13633855.630,24928106.058,2.593,-0.791,-0.875,0.619,0.561,0.987,0.600,0.000,19,19,4*5C
$GPGGA,083343.20,3135.3408599,N,12046.8186462,E,4,19,1.2,2.5869,M,8.326,M,01,0004*6D
$GPHPD,1957,30841.000,56.82,-0.14,13.52,31.5890143,120.7803108,2.587,13633854.824,24928107.331,2.587,-0.783,-0.895,0.639,0.561,0.987,0.600,0.000,19,19,4*5C
$GPGGA,083343.40,3135.3409378,N,12046.8187877,E,4,19,1.2,2.5859,M,8.326,M,01,0004*69
$GPHPD,1957,30841.200,56.86,-0.04,13.54,31.5890156,120.7803131,2.586,13633854.001,24928108.584,2.586,-0.765,-0.896,0.611,0.561,0.987,0.600,0.000,19,19,4*5A
$GPGGA,083343.60,3135.3410141,N,12046.8189284,E,4,19,1.2,2.5928,M,8.326,M,01,0004*64
$GPHPD,1957,30841.400,56.89,0.10,13.58,31.5890169,120.7803155,2.593,13633853.200,24928109.837,2.593,-0.767,-0.902,0.609,0.561,0.987,0.600,0.000,19,19,4*7E
$GPGGA,083343.80,3135.3410928,N,12046.8190711,E,4,19,1.2,2.5873,M,8.326,M,00,0004*62
$GPHPD,1957,30841.600,56.78,0.12,13.55,31.5890182,120.7803179,2.587,13633852.368,24928111.100,2.587,-0.772,-0.877,0.610,0.561,0.987,0.600,0.000,19,19,4*73
$GPGGA,083344.00,3135.3411697,N,12046.8192065,E,4,19,1.2,2.5829,M,8.326,M,01,0004*6F
$GPHPD,1957,30841.800,56.94,0.00,13.50,31.5890195,120.7803201,2.583,13633851.548,24928112.285,2.583,-0.758,-0.881,0.605,0.561,0.987,0.600,0.000,19,19,4*7C
$GPGGA,083344.20,3135.3412394,N,12046.8193360,E,4,19,1.2,2.5833,M,8.326,M,01,0004*64
$GPHPD,1957,30842.000,56.79,0.34,13.43,31.5890207,120.7803223,2.583,13633850.818,24928113.441,2.583,-0.731,-0.885,0.592,0.561,0.987,0.600,0.000,19,19,4*79
$GPGGA,083344.40,3135.341357,N,12046.8194554,E,4,19,1.2,2.5890,M,8.326,M,01,0004*60
$GPHPD,1957,30842.200,56.83,0.21,13.32,31.5890218,120.7803243,2.589,13633850.116,24928114.495,2.589,-0.701,-0.824,0.554,0.561,0.987,0.600,0.000,19,19,4*7F
$GPGGA,083344.60,3135.3413641,N,12046.8195622,E,4,19,1.2,2.5883,M,8.326,M,00,0004*63
$GPHPD,1957,30842.400,56.74,-0.01,13.20,31.5890227,120.7803260,2.588,13633849.501,24928115.444,2.588,-0.650,-0.754,0.538,0.561,0.987,0.600,0.000,19,19,4*50
$GPGGA,083344.80,3135.3414154,N,12046.8196567,E,4,19,1.2,2.5902,M,8.326,M,00,0004*60
$GPHPD,1957,30842.600,56.92,-0.01,13.03,31.5890236,120.7803276,2.590,13633848.962,24928116.285,2.590,-0.589,-0.673,0.469,0.561,0.987,0.600,0.000,19,19,4*5A
$GPGGA,083345.00,3135.3414586,N,12046.8197345,E,4,19,1.2,2.5904,M,8.326,M,01,0004*62
$GPHPD,1957,30842.800,56.73,-0.13,12.86,31.5890243,120.7803289,2.590,13633848.504,24928116.972,2.590,-0.514,-0.587,0.411,0.561,0.987,0.600,0.000,19,19,4*5A
$GPGGA,083345.20,3135.3414909,N,12046.8197931,E,4,19,1.2,2.5926,M,8.326,M,01,0004*62
$GPHPD,1957,30843.000,56.94,-0.12,12.69,31.5890248,120.7803299,2.593,13633848.163,24928117.490,2.593,-0.420,-0.491,0.342,0.561,0.987,0.600,0.000,19,19,4*54
$GPGGA,083345.40,3135.3415164,N,12046.8198393,E,4,19,1.2,2.5923,M,8.326,M,01,0004*6E
$GPHPD,1957,30843.200,56.77,-0.24,12.54,31.5890253,120.7803307,2.592,13633847.893,24928117.899,2.592,-0.322,-0.379,0.267,0.561,0.987,0.600,0.000,19,19,4*52
$GPGGA,083345.60,3135.3415322,N,12046.8198680,E,4,19,1.2,2.5939,M,8.326,M,01,0004*60
$GPHPD,1957,30843.400,56.76,-0.09,12.41,31.5890255,120.7803311,2.594,13633847.727,24928118.153,2.594,-0.246,-0.284,0.204,0.561,0.987,0.600,0.000,19,19,4*5A
$GPGGA,083345.80,3135.3415385,N,12046.8198816,E,4,19,1.2,2.5954,M,8.326,M,00,0004*68
$GPHPD,1957,30843.600,56.82,-0.14,12.28,31.5890256,120.7803314,2.595,13633847.664,24928118.281,2.595,-0.166,-0.170,0.137,0.561,0.987,0.600,0.000,19,19,4*56
$GPGGA,083346.00,3135.3415388,N,12046.8198827,E,4,19,1.2,2.5957,M,8.326,M,01,0004*6E
$GPHPD,1957,30843.800,56.68,0.03,12.19,31.5890256,120.7803314,2.596,13633847.662,24928118.292,2.596,-0.084,-0.070,0.066,0.561,0.987,0.600,0.000,19,19,4*78
$GPGGA,083346.20,3135.3415383,N,12046.8198819,E,4,19,1.2,2.5966,M,8.326,M,01,0004*68
$GPHPD,1957,30844.000,56.70,-0.13,12.22,31.5890256,120.7803314,2.597,13633847.668,24928118.285,2.597,-0.010,-0.002,0.009,0.561,0.987,0.600,0.000,19,19,4*57
$GPGGA,083346.40,3135.3415386,N,12046.8198809,E,4,19,1.2,2.5954,M,8.326,M,01,0004*6B
$GPHPD,1957,30844.200,56.81,-0.21,12.30,31.5890256,120.7803313,2.595,13633847.662,24928118.272,2.595,0.001,0.002,-0.003,0.561,0.987,0.600,0.000,19,19,4*7B
$GPGGA,083346.60,3135.3415393,N,12046.8198817,E,4,19,1.2,2.5925,M,8.326,M,00,0004*65
$GPHPD,1957,30844.400,56.82,-0.05,12.34,31.5890257,120.7803314,2.593,13633847.653,24928118.277,2.593,0.003,-0.003,0.003,0.561,0.987,0.600,0.000,19,19,4*7E
$GPGGA,083346.80,3135.3415367,N,12046.8198799,E,4,19,1.2,2.5980,M,8.326,M,00,0004*66
$GPHPD,1957,30844.600,56.84,0.10,12.38,31.5890256,120.7803313,2.598,13633847.687,24928118.271,2.598,0.006,-0.007,-0.008,0.561,0.987,0.600,0.000,19,19,4*71
$GPGGA,083347.00,3135.3415382,N,12046.8198808,E,4,19,1.2,2.5925,M,8.326,M,01,0004*6D
$GPHPD,1957,30844.800,56.75,-0.22,12.43,31.5890256,120.7803313,2.593,13633847.667,24928118.273,2.593,-0.006,0.032,0.005,0.561,0.987,0.600,0.000,19,19,4*7B
$GPGGA,083347.20,3135.3415381,N,12046.8198807,E,4,19,1.2,2.5974,M,8.326,M,01,0004*67
$GPHPD,1957,30845.000,56.79,0.12,12.48,31.5890256,120.7803313,2.597,13633847.668,24928118.272,2.597,-0.000,-0.012,-0.000,0.561,0.987,0.600,0.000,19,19,4*54
$GPGGA,083347.40,3135.3415387,N,12046.8198795,E,4,19,1.2,2.5909,M,8.326,M,01,0004*69
$GPHPD,1957,30845.200,56.87,-0.09,12.52,31.5890256,120.7803313,2.591,13633847.657,24928118.254,2.591,0.000,0.007,0.007,0.561,0.987,0.600,0.000,19,19,4*5D
$GPGGA,083347.60,3135.3415378,N,12046.8198807,E,4,19,1.2,2.5957,M,8.326,M,01,0004*64
$GPHPD,1957,30845.400,56.84,0.11,12.56,31.5890256,120.7803313,2.596,13633847.673,24928118.274,2.596,0.014,0.008,-0.003,0.561,0.987,0.600,0.000,19,19,4*5F
$GPGGA,083347.80,3135.3415385,N,12046.8198821,E,4,19,1.2,2.5931,M,8.326,M,00,0004*6D
$GPHPD,1957,30845.600,56.74,0.08,12.60,31.5890256,120.7803314,2.593,13633847.665,24928118.287,2.593,0.003,0.008,0.002,0.561,0.987,0.600,0.000,19,19,4*79
$GPGGA,083348.00,3135.3415385,N,12046.8198823,E,4,19,1.2,2.5951,M,8.326,M,01,0004*6F
$GPHPD,1957,30845.800,56.70,0.04,12.64,31.5890256,120.7803314,2.595,13633847.666,24928118.289,2.595,-0.019,-0.003,0.001,0.561,0.987,0.600,0.000,19,19,4*75
$GPGGA,083348.20,3135.3415382,N,12046.8198812,E,4,19,1.2,2.5958,M,8.326,M,01,0004*61
$GPHPD,1957,30846.000,56.71,0.16,12.67,31.5890256,120.7803314,2.596,13633847.668,24928118.278,2.596,-0.007,0.006,0.002,0.561,0.987,0.600,0.000,19,19,4*5B
$GPGGA,083348.40,3135.3415379,N,12046.8198815,E,4,19,1.2,2.5974,M,8.326,M,01,0004*6A
$GPHPD,1957,30846.200,56.79,0.01,12.70,31.5890256,120.7803314,2.597,13633847.673,24928118.283,2.597,0.004,0.002,0.002,0.561,0.987,0.600,0.000,19,19,4*75
$GPGGA,083348.60,3135.3415383,N,12046.8198813,E,4,19,1.2,2.5955,M,8.326,M,00,0004*69
$GPHPD,1957,30846.400,56.83,-0.19,12.73,31.5890256,120.7803314,2.596,13633847.667,24928118.278,2.596,-0.001,0.007,0.003,0.561,0.987,0.600,0.000,19,19,4*7C
$GPGGA,083348.80,3135.3415386,N,12046.8198812,E,4,19,1.2,2.5961,M,8.326,M,00,0004*64
$GPHPD,1957,30846.600,56.75,0.03,12.76,31.5890256,120.7803314,2.596,13633847.662,24928118.275,2.596,0.001,-0.002,0.002,0.561,0.987,0.600,0.000,19,19,4*58
$GPGGA,083349.00,3135.3415382,N,12046.8198806,E,4,19,1.2,2.5995,M,8.326,M,01,0004*66
$GPHPD,1957,30846.800,56.81,-0.01,12.79,31.5890256,120.7803313,2.600,13633847.667,24928118.270,2.600,0.001,0.004,0.004,0.561,0.987,0.600,0.000,19,19,4*57
$GPGGA,083349.20,3135.3415390,N,12046.8198819,E,4,19,1.2,2.5937,M,8.326,M,01,0004*61
$GPHPD,1957,30847.000,56.85,-0.27,12.81,31.5890257,120.7803314,2.594,13633847.658,24928118.281,2.594,0.004,-0.001,0.003,0.561,0.987,0.600,0.000,19,19,4*77
$GPGGA,083349.40,3135.3415380,N,12046.8198814,E,4,19,1.2,2.5993,M,8.326,M,01,0004*65
$GPHPD,1957,30847.200,56.80,0.08,12.84,31.5890256,120.7803314,2.599,13633847.671,24928118.281,2.599,0.004,-0.010,-0.004,0.561,0.987,0.600,0.000,19,19,4*75
$GPGGA,083349.60,3135.3415372,N,12046.8198816,E,4,19,1.2,2.5958,M,8.326,M,01,0004*6F
$GPHPD,1957,30847.400,56.73,-0.17,12.86,31.5890256,120.7803314,2.596,13633847.683,24928118.288,2.596,-0.006,0.010,0.003,0.561,0.987,0.600,0.000,19,19,4*72
$GPGGA,083349.80,3135.3415375,N,12046.8198812,E,4,19,1.2,2.5957,M,8.326,M,00,0004*6C
$GPHPD,1957,30847.600,56.70,0.10,12.89,31.5890256,120.7803314,2.596,13633847.678,24928118.282,2.596,0.000,0.005,-0.004,0.561,0.987,0.600,0.000,19,19,4*5D
$GPGGA,083350.00,3135.3415378,N,12046.8198811,E,4,19,1.2,2.5956,M,8.326,M,01,0004*62
$GPHPD,1957,30847.800,56.77,-0.12,12.92,31.5890256,120.7803314,2.596,13633847.673,24928118.279,2.596,0.012,-0.008,-0.008,0.561,0.987,0.600,0.000,19,19,4*51
$GPGGA,083350.20,3135.3415371,N,12046.8198814,E,4,19,1.2,2.5952,M,8.326,M,01,0004*68
$GPHPD,1957,30848.000,56.77,-0.07,12.94,31.5890256,120.7803314,2.595,13633847.684,24928118.286,2.595,0.004,-0.013,-0.006,0.561,0.987,0.600,0.000,19,19,4*5F
$GPGGA,083350.40,3135.3415381,N,12046.8198809,E,4,19,1.2,2.5920,M,8.326,M,01,0004*68
$GPHPD,1957,30848.200,56.74,0.06,12.96,31.5890256,120.7803313,2.592,13633847.669,24928118.275,2.592,0.004,-0.020,-0.011,0.561,0.987,0.600,0.000,19,19,4*7E
$GPGGA,083350.60,3135.3415378,N,12046.8198816,E,4,19,1.2,2.5974,M,8.326,M,00,0004*62
$GPHPD,1957,30848.400,56.79,0.10,12.99,31.5890256,120.7803314,2.597,13633847.674,24928118.285,2.597,0.007,-0.006,0.001,0.561,0.987,0.600,0.000,19,19,4*52
$GPGGA,083350.80,3135.3415383,N,12046.8198836,E,4,19,1.2,2.5920,M,8.326,M,00,0004*6B
$GPHPD,1957,30848.600,56.72,-0.06,13.01,31.5890256,120.7803314,2.592,13633847.671,24928118.306,2.592,0.002,-0.010,0.010,0.561,0.987,0.600,0.000,19,19,4*7C
$GPGGA,083351.00,3135.3415384,N,12046.8198828,E,4,19,1.2,2.5923,M,8.326,M,01,0004*68
