$GPGGA,085646.00,3135.4512588,N,12046.7512479,E,4,20,1.1,2.9190,M,8.321,M,01,0004*65
$GPHPD,1957,32223.800,146.39,-1.34,12.39,31.5908543,120.7791875,2.919,13632149.776,24926651.844,2.919,-0.479,0.070,-0.483,0.547,0.943,0.580,0.000,20,20,4*6A
$GPGGA,085646.20,3135.4511939,N,12046.7512949,E,4,20,1.1,2.9202,M,8.321,M,01,0004*64
$GPHPD,1957,32224.000,146.31,-1.04,12.43,31.5908532,120.7791882,2.920,13632150.793,24926652.789,2.920,-0.479,0.063,-0.501,0.547,0.943,0.580,0.000,20,20,4*6A
$GPGGA,085646.40,3135.4511349,N,12046.7513438,E,4,20,1.1,2.9188,M,8.321,M,01,0004*64
$GPHPD,1957,32224.200,145.91,-1.35,12.51,31.5908522,120.7791891,2.919,13632151.730,24926653.722,2.919,-0.480,0.069,-0.504,0.539,0.920,0.542,0.000,20,20,4*60
$GPGGA,085646.60,3135.4510674,N,12046.7513914,E,4,20,1.1,2.9266,M,8.321,M,01,0004*6C
$GPHPD,1957,32224.400,145.86,-1.09,12.57,31.5908511,120.7791899,2.927,13632152.786,24926654.689,2.927,-0.477,0.046,-0.486,0.547,0.943,0.580,0.000,20,20,4*64
$GPGGA,085646.80,3135.4510038,N,12046.7514451,E,4,20,1.1,2.9221,M,8.321,M,00,0004*65
$GPHPD,1957,32224.600,145.71,-1.39,12.65,31.5908501,120.7791908,2.922,13632153.798,24926655.707,2.922,-0.494,0.078,-0.502,0.539,0.920,0.542,0.000,20,20,4*63
$GPGGA,085647.00,3135.4509328,N,12046.7514988,E,4,20,1.1,2.9224,M,8.321,M,01,0004*6B
$GPHPD,1957,32224.800,145.81,-1.07,12.72,31.5908489,120.7791916,2.922,13632154.915,24926656.768,2.922,-0.518,0.057,-0.524,0.539,0.920,0.542,0.000,20,20,4*6D
$GPGGA,085647.20,3135.4508574,N,12046.7515583,E,4,20,1.1,2.9192,M,8.321,M,01,0004*6F
$GPHPD,1957,32225.000,145.66,-1.31,12.79,31.5908476,120.7791926,2.919,13632156.107,24926657.924,2.919,-0.538,0.054,-0.572,0.547,0.943,0.580,0.000,20,20,4*6E
$GPGGA,085647.40,3135.4507767,N,12046.7516197,E,4,20,1.1,2.9170,M,8.321,M,01,0004*68
$GPHPD,1957,32225.200,145.74,-1.13,12.87,31.5908463,120.7791937,2.917,13632157.377,24926659.135,2.917,-0.591,0.071,-0.598,0.547,0.943,0.580,0.000,20,20,4*68
$GPGGA,085647.60,3135.450650,N,12046.7516845,E,4,20,1.1,2.9144,M,8.321,M,00,0004*61
$GPHPD,1957,32225.400,145.73,-0.87,12.92,31.5908449,120.7791947,2.914,13632158.669,24926660.392,2.914,-0.602,0.078,-0.630,0.548,0.943,0.661,0.000,20,20,4*6C
$GPGGA,085647.80,3135.4506145,N,12046.7517500,E,4,20,1.1,2.9115,M,8.321,M,00,0004*6A
$GPHPD,1957,32225.600,145.59,-1.13,12.93,31.5908436,120.7791958,2.912,13632159.945,24926661.650,2.912,-0.627,0.056,-0.652,0.547,0.943,0.580,0.000,20,20,4*6B
$GPGGA,085648.00,3135.4505351,N,12046.7518131,E,4,20,1.1,2.9040,M,8.321,M,01,0004*60
$GPHPD,1957,32225.800,145.54,-0.74,12.96,31.5908423,120.7791969,2.904,13632161.201,24926662.874,2.904,-0.639,0.068,-0.653,0.547,0.943,0.580,0.000,20,20,4*63
$GPGGA,085648.20,3135.4504529,N,12046.7518759,E,4,20,1.1,2.9070,M,8.321,M,01,0004*61
$GPHPD,1957,32226.000,145.61,-0.54,12.96,31.5908409,120.7791979,2.907,13632162.496,24926664.109,2.907,-0.621,0.047,-0.649,0.547,0.943,0.580,0.000,20,20,4*64
$GPGGA,085648.40,3135.4503737,N,12046.7519401,E,4,20,1.1,2.9014,M,8.321,M,01,0004*60
$GPHPD,1957,32226.200,145.80,-0.61,12.99,31.5908396,120.7791990,2.901,13632163.751,24926665.345,2.901,-0.621,0.081,-0.639,0.547,0.943,0.580,0.000,20,19,4*63
$GPGGA,085648.60,3135.4502900,N,12046.7520051,E,4,20,1.1,2.9084,M,8.321,M,01,0004*6B
$GPHPD,1957,32226.400,145.70,-0.43,13.03,31.5908382,120.7792001,2.908,13632165.071,24926666.616,2.908,-0.610,0.049,-0.643,0.547,0.943,0.580,0.000,20,19,4*67
$GPGGA,085648.80,3135.4502062,N,12046.7520703,E,4,20,1.1,2.8963,M,8.321,M,01,0004*69
$GPHPD,1957,32226.600,145.69,-0.72,13.09,31.5908368,120.7792012,2.896,13632166.394,24926667.890,2.896,-0.649,0.092,-0.643,0.539,0.920,0.542,0.000,20,19,4*61
$GPGGA,085649.00,3135.4501226,N,12046.7521359,E,4,20,1.1,2.8987,M,8.321,M,01,0004*61
$GPHPD,1957,32226.800,145.53,-0.28,13.14,31.5908354,120.7792023,2.899,13632167.714,24926669.168,2.899,-0.647,0.070,-0.674,0.542,0.921,0.609,0.000,20,19,4*62
$GPGGA,085649.20,3135.4500404,N,12046.7522038,E,4,20,1.1,2.8904,M,8.321,M,01,0004*68
$GPHPD,1957,32227.000,145.43,-0.61,13.21,31.5908340,120.7792034,2.890,13632169.019,24926670.465,2.890,-0.655,0.097,-0.657,0.542,0.921,0.609,0.000,20,19,4*6D
$GPGGA,085649.40,3135.4499544,N,12046.7522692,E,4,20,1.1,2.8926,M,8.321,M,01,0004*6C
$GPHPD,1957,32227.200,145.42,-0.24,13.28,31.5908326,120.7792045,2.893,13632170.373,24926671.755,2.893,-0.659,0.058,-0.666,0.548,0.943,0.661,0.000,20,19,4*6B
$GPGGA,085649.60,3135.4498668,N,12046.7523376,E,4,20,1.2,2.9003,M,8.321,M,00,0004*61
$GPHPD,1957,32227.400,145.43,-0.42,13.25,31.5908311,120.7792056,2.900,13632171.756,24926673.089,2.900,-0.674,0.088,-0.670,0.550,0.922,0.618,0.000,20,20,4*6E
$GPGGA,085649.80,3135.4497778,N,12046.7524039,E,4,20,1.2,2.8973,M,8.321,M,00,0004*60
$GPHPD,1957,32227.600,145.14,-0.62,13.20,31.5908296,120.7792067,2.897,13632173.155,24926674.407,2.897,-0.688,0.109,-0.667,0.542,0.921,0.609,0.000,20,20,4*6A
$GPGGA,085650.00,3135.4496886,N,12046.7524807,E,4,19,1.2,2.8978,M,8.321,M,01,0004*6A
$GPHPD,1957,32227.800,145.16,-1.17,13.23,31.5908281,120.7792080,2.898,13632174.578,24926675.853,2.898,-0.678,0.093,-0.695,0.548,0.943,0.661,0.000,19,20,4*63
$GPGGA,085650.20,3135.4495928,N,12046.7525530,E,4,19,1.2,2.8964,M,8.321,M,01,0004*6B
$GPHPD,1957,32228.000,145.31,-0.64,13.26,31.5908265,120.7792092,2.896,13632176.085,24926677.282,2.896,-0.719,0.086,-0.706,0.542,0.923,0.633,0.000,19,19,4*61
$GPGGA,085650.40,3135.4494966,N,12046.7526344,E,4,19,1.2,2.8934,M,8.321,M,01,0004*65
$GPHPD,1957,32228.200,145.35,-0.61,13.27,31.5908249,120.7792106,2.893,13632177.616,24926678.824,2.893,-0.744,0.100,-0.743,0.548,0.943,0.661,0.000,19,19,4*68
$GPGGA,085650.60,3135.4493967,N,12046.7527147,E,4,19,1.2,2.8971,M,8.321,M,01,0004*60
$GPHPD,1957,32228.400,145.38,-0.74,13.24,31.5908233,120.7792119,2.897,13632179.198,24926680.374,2.897,-0.782,0.072,-0.768,0.542,0.921,0.609,0.000,19,19,4*66
$GPGGA,085650.80,3135.4492910,N,12046.7527960,E,4,19,1.2,2.8934,M,8.321,M,00,0004*62
$GPHPD,1957,32228.600,145.23,-0.60,13.21,31.5908215,120.7792133,2.893,13632180.864,24926681.970,2.893,-0.820,0.081,-0.795,0.542,0.921,0.609,0.000,19,19,4*68
$GPGGA,085651.00,3135.4491843,N,12046.7528794,E,4,20,1.2,2.8927,M,8.321,M,01,0004*6C
$GPHPD,1957,32228.800,145.29,-0.79,13.17,31.5908197,120.7792147,2.893,13632182.549,24926683.597,2.893,-0.804,0.088,-0.824,0.542,0.921,0.609,0.000,20,19,4*6C
$GPGGA,085651.20,3135.4490790,N,12046.7529659,E,4,19,1.2,2.8840,M,8.321,M,01,0004*65
$GPHPD,1957,32229.000,145.24,-0.76,13.15,31.5908180,120.7792161,2.884,13632184.219,24926685.253,2.884,-0.831,0.148,-0.832,0.542,0.921,0.609,0.000,19,20,4*66
$GPGGA,085651.40,3135.4489688,N,12046.7530519,E,4,19,1.2,2.8858,M,8.321,M,01,0004*65
$GPHPD,1957,32229.200,145.07,-0.21,13.14,31.5908161,120.7792175,2.886,13632185.959,24926686.932,2.886,-0.817,0.050,-0.861,0.548,0.943,0.661,0.000,19,19,4*6D
$GPGGA,085651.60,3135.4488572,N,12046.7531384,E,4,19,1.2,2.8839,M,8.321,M,00,0004*65
$GPHPD,1957,32229.400,145.02,-1.12,13.10,31.5908143,120.7792190,2.884,13632187.720,24926688.624,2.884,-0.849,0.096,-0.856,0.621,0.980,0.709,0.000,19,19,4*6D
$GPGGA,085651.80,3135.4487471,N,12046.7532269,E,4,19,1.2,2.8837,M,8.321,M,00,0004*69
$GPHPD,1957,32229.600,144.89,-0.82,13.05,31.5908125,120.7792204,2.884,13632189.463,24926690.333,2.884,-0.834,0.079,-0.878,0.549,0.950,0.705,0.000,19,19,4*64
$GPGGA,085652.00,3135.4486359,N,12046.7533136,E,4,19,1.2,2.8877,M,8.321,M,01,0004*63
$GPHPD,1957,32229.800,144.72,-1.25,13.02,31.5908106,120.7792219,2.888,13632191.218,24926692.026,2.888,-0.866,0.096,-0.863,0.549,0.950,0.705,0.000,19,19,4*62
$GPGGA,085652.20,3135.4485276,N,12046.7533990,E,4,20,1.2,2.8802,M,8.321,M,01,0004*62
$GPHPD,1957,32230.000,144.74,-0.58,13.01,31.5908088,120.7792233,2.880,13632192.929,24926693.686,2.880,-0.873,0.109,-0.862,0.549,0.950,0.705,0.000,20,19,4*6C
$GPGGA,085652.40,3135.4484111,N,12046.7534932,E,4,20,1.2,2.8830,M,8.321,M,01,0004*69
$GPHPD,1957,32230.200,144.52,-0.38,13.03,31.5908069,120.7792249,2.883,13632194.775,24926695.500,2.883,-0.851,0.088,-0.873,0.548,0.950,0.608,0.000,20,20,4*69
$GPGGA,085652.60,3135.4483019,N,12046.7535851,E,4,20,1.2,2.8801,M,8.321,M,01,0004*62
$GPHPD,1957,32230.400,144.51,-0.52,13.08,31.5908050,120.7792264,2.880,13632196.512,24926697.244,2.880,-0.898,0.104,-0.887,0.548,0.950,0.608,0.000,20,20,4*61
$GPGGA,085652.80,3135.4481900,N,12046.7536759,E,4,20,1.2,2.8673,M,8.321,M,01,0004*60
$GPHPD,1957,32230.600,144.62,-0.44,13.11,31.5908032,120.7792279,2.867,13632198.286,24926698.991,2.867,-0.920,0.101,-0.890,0.548,0.950,0.608,0.000,20,20,4*6D
$GPGGA,085653.00,3135.4480746,N,12046.7537696,E,4,20,1.2,2.8682,M,8.321,M,01,0004*69
$GPHPD,1957,32230.800,144.60,0.02,13.15,31.5908012,120.7792295,2.868,13632200.115,24926700.792,2.868,-0.862,0.048,-0.922,0.548,0.950,0.608,0.000,20,20,4*4F
$GPGGA,085653.20,3135.4479580,N,12046.7538625,E,4,20,1.2,2.8687,M,8.321,M,01,0004*67
$GPHPD,1957,32231.000,144.76,-0.68,13.17,31.5907993,120.7792310,2.869,13632201.959,24926702.592,2.869,-0.897,0.082,-0.917,0.549,0.950,0.705,0.000,20,20,4*67
$GPGGA,085653.40,3135.4478393,N,12046.7539571,E,4,20,1.2,2.8774,M,8.321,M,01,0004*6A
$GPHPD,1957,32231.200,145.04,-0.86,13.20,31.5907973,120.7792326,2.877,13632203.837,24926704.424,2.877,-0.914,0.105,-0.901,0.549,0.950,0.705,0.000,20,20,4*6C
$GPGGA,085653.60,3135.4477219,N,12046.7540537,E,4,20,1.2,2.8825,M,8.321,M,00,0004*62
$GPHPD,1957,32231.400,144.82,-1.06,13.20,31.5907954,120.7792342,2.883,13632205.700,24926706.272,2.883,-0.942,0.119,-0.921,0.563,0.955,0.630,0.000,20,20,4*67
$GPGGA,085653.80,3135.4476050,N,12046.7541472,E,4,20,1.2,2.8618,M,8.321,M,00,0004*63
$GPHPD,1957,32231.600,145.33,-1.60,13.23,31.5907934,120.7792358,2.862,13632207.550,24926708.080,2.862,-0.970,0.140,-0.907,0.563,0.955,0.630,0.000,20,20,4*6D
$GPGGA,085654.00,3135.4474873,N,12046.7542418,E,4,20,1.2,2.8640,M,8.321,M,01,0004*64
$GPHPD,1957,32231.800,145.23,-1.41,13.26,31.5907915,120.7792374,2.864,13632209.413,24926709.906,2.864,-0.917,0.037,-0.957,0.563,0.956,0.739,0.000,20,19,4*63
$GPGGA,085654.20,3135.4473683,N,12046.7543361,E,4,19,1.2,2.8590,M,8.321,M,01,0004*6C
$GPHPD,1957,32232.000,145.11,-1.22,13.25,31.5907895,120.7792389,2.859,13632211.295,24926711.736,2.859,-0.904,0.084,-0.950,0.563,0.956,0.739,0.000,19,19,4*66
$GPGGA,085654.40,3135.4472472,N,12046.7544301,E,4,19,1.3,2.8564,M,8.321,M,01,0004*6C
$GPHPD,1957,32232.200,145.11,-0.98,13.23,31.5907875,120.7792405,2.856,13632213.205,24926713.575,2.856,-0.906,0.074,-0.953,0.563,0.956,0.739,0.000,19,18,4*6C
$GPGGA,085654.60,3135.4471289,N,12046.7545280,E,4,19,1.2,2.8506,M,8.321,M,01,0004*63
$GPHPD,1957,32232.400,145.07,-1.26,13.21,31.5907855,120.7792421,2.851,13632215.084,24926715.444,2.851,-0.956,0.116,-0.933,0.549,0.950,0.705,0.000,19,18,4*60
$GPGGA,085654.80,3135.4470081,N,12046.7546220,E,4,18,1.3,2.8523,M,8.321,M,00,0004*69
$GPHPD,1957,32232.600,145.44,-1.01,13.22,31.5907835,120.7792437,2.852,13632216.990,24926717.281,2.852,-0.934,0.054,-0.979,0.552,0.957,0.706,0.000,18,17,4*6D
$GPGGA,085655.00,3135.4468883,N,12046.7547137,E,4,19,1.3,2.8495,M,8.321,M,01,0004*6B
$GPHPD,1957,32232.800,145.01,-0.74,13.22,31.5907815,120.7792452,2.850,13632218.878,24926719.084,2.850,-0.924,0.090,-0.964,0.563,0.950,0.884,0.000,19,17,4*64
$GPGGA,085655.20,3135.4467729,N,12046.7548137,E,4,20,1.3,2.8523,M,8.321,M,01,0004*60
$GPHPD,1957,32233.000,144.97,-1.31,13.22,31.5907795,120.7792469,2.852,13632220.720,24926720.962,2.852,-0.944,0.078,-0.928,0.552,0.957,0.706,0.000,20,16,4*6D
$GPGGA,085655.40,3135.4466523,N,12046.7549079,E,4,20,1.3,2.8568,M,8.321,M,01,0004*6A
$GPHPD,1957,32233.200,144.96,-1.26,13.22,31.5907775,120.7792485,2.857,13632222.624,24926722.800,2.857,-0.937,0.093,-0.935,0.548,0.950,0.608,0.000,20,17,4*6B
$GPGGA,085655.60,3135.4465311,N,12046.7550042,E,4,20,1.3,2.8437,M,8.321,M,00,0004*66
$GPHPD,1957,32233.400,145.16,-0.74,13.23,31.5907755,120.7792501,2.844,13632224.540,24926724.667,2.844,-0.960,0.168,-0.933,0.548,0.950,0.608,0.000,20,17,4*63
$GPGGA,085655.80,3135.4464118,N,12046.7550937,E,4,20,1.3,2.8439,M,8.321,M,00,0004*67
$GPHPD,1957,32233.600,145.09,-0.43,13.23,31.5907735,120.7792516,2.844,13632226.416,24926726.441,2.844,-0.930,0.090,-0.959,0.619,0.979,0.614,0.000,20,17,4*61
$GPGGA,085656.00,3135.4462918,N,12046.7551950,E,4,19,1.4,2.8368,M,8.321,M,01,0004*6D
$GPHPD,1957,32233.800,144.56,-0.33,13.21,31.5907715,120.7792533,2.837,13632228.326,24926728.361,2.837,-0.917,0.120,-0.945,0.619,0.979,0.614,0.000,19,17,4*6D
$GPGGA,085656.20,3135.4461718,N,12046.7552900,E,4,18,1.3,2.8378,M,8.321,M,01,0004*63
$GPHPD,1957,32234.000,145.16,-0.28,13.21,31.5907695,120.7792548,2.838,13632230.223,24926730.205,2.838,-0.969,0.097,-0.933,0.619,0.979,0.614,0.000,18,17,4*6B
$GPGGA,085656.40,3135.4460550,N,12046.7553827,E,4,19,1.3,2.8357,M,8.321,M,01,0004*63
$GPHPD,1957,32234.200,145.35,-0.56,13.23,31.5907676,120.7792564,2.836,13632232.070,24926732.003,2.836,-0.918,0.090,-0.938,0.619,0.979,0.614,0.000,19,17,4*6B
$GPGGA,085656.60,3135.4459353,N,12046.7554789,E,4,19,1.3,2.8484,M,8.321,M,01,0004*6B
$GPHPD,1957,32234.400,145.13,0.43,13.21,31.5907656,120.7792580,2.848,13632233.965,24926733.860,2.848,-0.929,0.088,-0.935,0.619,0.979,0.614,0.000,19,17,4*4C
$GPGGA,085656.80,3135.4458160,N,12046.7555774,E,4,18,1.3,2.8441,M,8.321,M,00,0004*6C
$GPHPD,1957,32234.600,144.93,-0.15,13.21,31.5907636,120.7792596,2.844,13632235.859,24926735.743,2.844,-0.975,0.166,-0.889,0.619,0.979,0.614,0.000,18,17,4*67
$GPGGA,085657.00,3135.4456941,N,12046.7556727,E,4,18,1.3,2.8404,M,8.321,M,01,0004*65
$GPHPD,1957,32234.800,145.09,-0.15,13.20,31.5907616,120.7792612,2.840,13632237.784,24926737.602,2.840,-0.960,0.119,-0.925,0.621,0.979,0.709,0.000,18,16,4*60
$GPGGA,085657.20,3135.4455784,N,12046.7557677,E,4,18,1.3,2.8429,M,8.321,M,01,0004*69
$GPHPD,1957,32235.000,145.23,-0.31,13.20,31.5907596,120.7792628,2.843,13632239.620,24926739.421,2.843,-0.943,0.105,-0.959,0.619,0.979,0.614,0.000,18,17,4*69
$GPGGA,085657.40,3135.445401,N,12046.7558566,E,4,19,1.3,2.8487,M,8.321,M,01,0004*6B
$GPHPD,1957,32235.200,145.06,-0.12,13.19,31.5907577,120.7792643,2.849,13632241.480,24926741.182,2.849,-0.943,0.103,-0.929,0.619,0.979,0.614,0.000,19,16,4*60
$GPGGA,085657.60,3135.4453396,N,12046.7559504,E,4,19,1.3,2.8415,M,8.321,M,00,0004*6A
$GPHPD,1957,32235.400,145.21,-0.30,13.19,31.5907557,120.7792658,2.842,13632243.382,24926743.014,2.842,-0.930,0.154,-0.911,0.659,0.997,0.646,0.000,19,16,4*6E
$GPGGA,085657.80,3135.4452233,N,12046.7560528,E,4,20,1.3,2.8466,M,8.321,M,00,0004*61
$GPHPD,1957,32235.600,144.88,-0.35,13.19,31.5907537,120.7792675,2.847,13632245.241,24926744.926,2.847,-0.903,0.102,-0.939,0.659,0.997,0.646,0.000,20,16,4*66
$GPGGA,085658.00,3135.4451047,N,12046.7561448,E,4,20,1.3,2.8340,M,8.321,M,01,0004*60
$GPHPD,1957,32235.800,145.15,-0.70,13.18,31.5907517,120.7792691,2.834,13632247.112,24926746.726,2.834,-0.997,0.099,-0.908,0.642,0.979,0.682,0.000,20,16,4*60
$GPGGA,085658.20,3135.4449875,N,12046.7562345,E,4,19,1.3,2.8234,M,8.321,M,01,0004*63
$GPHPD,1957,32236.000,144.89,-1.33,13.18,31.5907498,120.7792706,2.823,13632248.959,24926748.490,2.823,-0.884,0.076,-0.963,0.590,0.958,0.741,0.000,19,17,4*6D
$GPGGA,085658.40,3135.4448722,N,12046.7563315,E,4,19,1.3,2.8284,M,8.321,M,01,0004*66
$GPHPD,1957,32236.200,144.96,-1.12,13.17,31.5907479,120.7792722,2.828,13632250.793,24926750.331,2.828,-0.875,0.091,-0.941,0.549,0.949,0.705,0.000,19,18,4*6C
$GPGGA,085658.60,3135.4447544,N,12046.7564238,E,4,19,1.3,2.8332,M,8.321,M,01,0004*6C
$GPHPD,1957,32236.400,145.03,-1.25,13.18,31.5907459,120.7792737,2.833,13632252.653,24926752.130,2.833,-0.935,0.085,-0.930,0.549,0.949,0.705,0.000,19,16,4*6C
$GPGGA,085658.80,3135.4446344,N,12046.7565159,E,4,19,1.3,2.8290,M,8.321,M,01,0004*69
$GPHPD,1957,32236.600,145.18,-1.00,13.20,31.5907439,120.7792753,2.829,13632254.544,24926753.940,2.829,-0.936,0.146,-0.897,0.549,0.949,0.705,0.000,19,16,4*60
$GPGGA,085659.00,3135.4445175,N,12046.7566120,E,4,19,1.3,2.8313,M,8.321,M,02,0004*67
$GPHPD,1957,32236.800,144.83,-1.70,13.18,31.5907420,120.7792769,2.831,13632256.400,24926755.779,2.831,-0.886,0.143,-0.948,0.552,0.957,0.706,0.000,19,16,4*6B
$GPGGA,085659.20,3135.4444016,N,12046.7567064,E,4,19,1.3,2.8262,M,8.321,M,02,0004*67
$GPHPD,1957,32237.000,144.77,-1.71,13.17,31.5907400,120.7792784,2.826,13632258.237,24926757.592,2.826,-0.954,0.188,-0.898,0.552,0.957,0.706,0.000,19,16,4*6A
$GPGGA,085659.40,3135.4442832,N,12046.7567960,E,4,19,1.3,2.8092,M,8.321,M,02,0004*69
$GPHPD,1957,32237.200,144.86,-1.44,13.18,31.5907381,120.7792799,2.809,13632260.100,24926759.362,2.809,-0.942,0.138,-0.909,0.552,0.957,0.706,0.000,19,16,4*63
$GPGGA,085659.60,3135.4441695,N,12046.7568923,E,4,19,1.3,2.8170,M,8.321,M,02,0004*6E
$GPHPD,1957,32237.400,144.44,-0.64,13.17,31.5907362,120.7792815,2.817,13632261.911,24926761.185,2.817,-0.900,0.079,-0.929,0.551,0.956,0.609,0.000,19,16,4*64
$GPGGA,085659.80,3135.4440529,N,12046.7569824,E,4,19,1.3,2.8067,M,8.321,M,00,0004*67
$GPHPD,1957,32237.600,144.42,-0.94,13.17,31.5907342,120.7792830,2.807,13632263.749,24926762.951,2.807,-0.950,0.151,-0.886,0.632,0.981,0.614,0.000,19,17,4*62
$GPGGA,085700.00,3135.4439380,N,12046.7570790,E,4,20,1.2,2.7954,M,8.321,M,01,0004*6D
$GPHPD,1957,32237.800,144.58,-0.91,13.20,31.5907323,120.7792847,2.795,13632265.577,24926764.785,2.795,-0.873,0.067,-0.943,0.551,0.956,0.609,0.000,20,17,4*6F
$GPGGA,085700.20,3135.4438227,N,12046.7571743,E,4,20,1.2,2.7965,M,8.321,M,01,0004*6F
$GPHPD,1957,32238.000,144.71,-0.49,13.21,31.5907304,120.7792862,2.797,13632267.408,24926766.605,2.797,-0.914,0.042,-0.926,0.551,0.956,0.609,0.000,20,17,4*61
$GPGGA,085700.40,3135.4437081,N,12046.7572686,E,4,20,1.2,2.7959,M,8.321,M,01,0004*6C
$GPHPD,1957,32238.200,145.15,-0.70,13.21,31.5907285,120.7792878,2.796,13632269.227,24926768.410,2.796,-0.943,0.104,-0.903,0.551,0.956,0.609,0.000,20,17,4*62
$GPGGA,085700.60,3135.4435925,N,12046.7573598,E,4,20,1.2,2.7883,M,8.321,M,01,0004*60
$GPHPD,1957,32238.400,145.18,-0.08,13.17,31.5907265,120.7792893,2.788,13632271.054,24926770.182,2.788,-0.940,0.114,-0.893,0.551,0.956,0.609,0.000,20,17,4*6A
$GPGGA,085700.80,3135.4434707,N,12046.7574567,E,4,20,1.2,2.7987,M,8.321,M,01,0004*63
$GPHPD,1957,32238.600,145.41,-0.26,13.15,31.5907245,120.7792909,2.799,13632272.980,24926772.060,2.799,-0.913,0.083,-0.925,0.551,0.956,0.609,0.000,20,17,4*63
$GPGGA,085701.00,3135.4433539,N,12046.7575499,E,4,20,1.2,2.7984,M,8.321,M,02,0004*63
$GPHPD,1957,32238.800,145.46,-0.21,13.16,31.5907226,120.7792925,2.798,13632274.828,24926773.864,2.798,-0.952,0.147,-0.907,0.552,0.956,0.706,0.000,20,17,4*6C
$GPGGA,085701.20,3135.4432356,N,12046.7576497,E,4,20,1.3,2.8056,M,8.321,M,02,0004*6A
$GPHPD,1957,32239.000,145.26,-0.30,13.14,31.5907206,120.7792942,2.806,13632276.710,24926775.756,2.806,-0.946,0.106,-0.914,0.634,0.981,0.709,0.000,20,17,4*68
$GPGGA,085701.40,3135.4431155,N,12046.7577405,E,4,19,1.3,2.8000,M,8.321,M,02,0004*6D
$GPHPD,1957,32239.200,145.42,-0.24,13.12,31.5907186,120.7792957,2.800,13632278.600,24926777.550,2.800,-0.977,0.109,-0.913,0.552,0.956,0.706,0.000,19,16,4*6B
$GPGGA,085701.60,3135.4429970,N,12046.7578353,E,4,19,1.3,2.8030,M,8.321,M,02,0004*61
$GPHPD,1957,32239.400,145.13,-0.24,13.12,31.5907166,120.7792973,2.803,13632280.476,24926779.384,2.803,-0.942,0.105,-0.928,0.552,0.956,0.706,0.000,19,15,4*65
$GPGGA,085701.80,3135.4428771,N,12046.7579243,E,4,19,1.3,2.7959,M,8.321,M,00,0004*6B
$GPHPD,1957,32239.600,145.21,-0.47,13.10,31.5907146,120.7792987,2.796,13632282.359,24926781.155,2.796,-0.928,0.095,-0.941,0.552,0.956,0.706,0.000,19,15,4*62
$GPGGA,085702.00,3135.4427575,N,12046.7580193,E,4,19,1.3,2.8014,M,8.321,M,01,0004*6F
$GPHPD,1957,32239.800,144.92,-0.87,13.10,31.5907126,120.7793003,2.801,13632284.250,24926782.997,2.801,-0.874,0.081,-0.970,0.552,0.956,0.706,0.000,19,15,4*6F
$GPGGA,085702.20,3135.4426357,N,12046.7581168,E,4,18,1.3,2.8145,M,8.321,M,01,0004*6B
$GPHPD,1957,32240.000,144.48,-1.27,13.08,31.5907106,120.7793019,2.815,13632286.178,24926784.882,2.815,-0.899,0.151,-0.973,0.567,0.957,0.884,0.000,18,15,4*62
$GPGGA,085702.40,3135.4425207,N,12046.7582138,E,4,19,1.3,2.8006,M,8.321,M,01,0004*6B
$GPHPD,1957,32240.200,144.35,-1.31,13.08,31.5907087,120.7793036,2.801,13632288.008,24926786.721,2.801,-0.985,0.160,-0.929,0.552,0.956,0.706,0.000,19,14,4*67
$GPGGA,085702.60,3135.4424009,N,12046.7583067,E,4,18,1.3,2.7952,M,8.321,M,01,0004*68
$GPHPD,1957,32240.400,144.75,-1.05,13.10,31.5907067,120.7793051,2.795,13632289.898,24926788.539,2.795,-0.943,0.061,-0.937,0.552,0.956,0.706,0.000,18,15,4*64
$GPGGA,085702.80,3135.4422818,N,12046.7584016,E,4,18,1.3,2.7982,M,8.321,M,00,0004*65
$GPHPD,1957,32240.600,144.39,-0.94,13.10,31.5907047,120.7793067,2.798,13632291.782,24926790.377,2.798,-0.974,0.085,-0.956,0.552,0.956,0.706,0.000,18,16,4*62
$GPGGA,085703.00,3135.4421624,N,12046.7584998,E,4,18,1.3,2.7848,M,8.321,M,01,0004*67
$GPHPD,1957,32240.800,144.33,-1.96,13.11,31.5907027,120.7793083,2.785,13632293.677,24926792.256,2.785,-0.938,0.123,-0.933,0.551,0.956,0.609,0.000,18,16,4*6A
$GPGGA,085703.20,3135.4420454,N,12046.7585987,E,4,18,1.3,2.7737,M,8.321,M,01,0004*69
$GPHPD,1957,32241.000,144.58,-1.22,13.12,31.5907008,120.7793100,2.774,13632295.539,24926794.130,2.774,-0.958,0.078,-0.944,0.551,0.956,0.609,0.000,18,16,4*66
$GPGGA,085703.40,3135.4419237,N,12046.7586970,E,4,17,1.4,2.7761,M,8.321,M,01,0004*66
$GPHPD,1957,32241.200,144.49,-0.05,13.12,31.5906987,120.7793116,2.776,13632297.467,24926796.024,2.776,-0.928,0.038,-0.973,0.551,0.956,0.609,0.000,17,16,4*6E
$GPGGA,085703.60,3135.4418031,N,12046.7587904,E,4,17,1.3,2.7717,M,8.321,M,00,0004*64
$GPHPD,1957,32241.400,144.63,-0.08,13.11,31.5906967,120.7793132,2.772,13632299.369,24926797.852,2.772,-0.968,0.094,-0.955,0.551,0.956,0.609,0.000,17,16,4*6F
$GPGGA,085703.80,3135.4416850,N,12046.7588902,E,4,17,1.3,2.7694,M,8.321,M,00,0004*68
$GPHPD,1957,32241.600,144.75,-0.08,13.08,31.5906948,120.7793148,2.769,13632301.249,24926799.743,2.769,-0.936,0.076,-0.960,0.551,0.956,0.609,0.000,17,16,4*61
$GPGGA,085704.00,3135.4415625,N,12046.7589891,E,4,17,1.2,2.7713,M,8.321,M,01,0004*6C
$GPHPD,1957,32241.800,145.23,0.05,13.08,31.5906927,120.7793165,2.771,13632303.189,24926801.649,2.771,-0.973,0.096,-0.963,0.551,0.956,0.609,0.000,17,17,4*4E
$GPGGA,085704.20,3135.4414455,N,12046.7590831,E,4,17,1.2,2.7670,M,8.321,M,01,0004*6C
$GPHPD,1957,32242.000,145.36,-0.28,13.06,31.5906908,120.7793181,2.767,13632305.042,24926803.464,2.767,-0.982,0.097,-0.949,0.551,0.956,0.609,0.000,17,17,4*62
$GPGGA,085704.40,3135.4413236,N,12046.7591820,E,4,18,1.2,2.7738,M,8.321,M,01,0004*6D
$GPHPD,1957,32242.200,145.19,0.07,13.04,31.5906887,120.7793197,2.774,13632306.974,24926805.366,2.774,-0.918,0.069,-0.954,0.552,0.956,0.706,0.000,18,17,4*4E
$GPGGA,085704.60,3135.4412020,N,12046.7592753,E,4,18,1.3,2.7785,M,8.321,M,00,0004*65
$GPHPD,1957,32242.400,145.44,-0.73,13.05,31.5906867,120.7793213,2.779,13632308.890,24926807.199,2.779,-0.958,0.106,-0.964,0.552,0.956,0.706,0.000,18,18,4*6B
$GPGGA,085704.80,3135.4410800,N,12046.7593684,E,4,18,1.2,2.7755,M,8.321,M,00,0004*65
$GPHPD,1957,32242.600,145.40,-1.65,13.04,31.5906847,120.7793228,2.776,13632310.812,24926809.032,2.776,-0.953,0.139,-0.937,0.552,0.956,0.706,0.000,18,18,4*6C
$GPGGA,085705.00,3135.4409583,N,12046.7594637,E,4,17,1.3,2.7753,M,8.321,M,01,0004*64
$GPHPD,1957,32242.800,145.35,-1.15,13.05,31.5906826,120.7793244,2.775,13632312.733,24926810.890,2.775,-0.896,0.117,-0.980,0.569,0.960,0.740,0.000,17,16,4*6B
$GPGGA,085705.20,3135.4408366,N,12046.7595601,E,4,17,1.3,2.7732,M,8.321,M,01,0004*69
$GPHPD,1957,32243.000,145.19,-0.71,13.07,31.5906806,120.7793260,2.773,13632314.657,24926812.761,2.773,-0.943,0.110,-0.951,0.552,0.956,0.706,0.000,17,16,4*62
$GPGGA,085705.40,3135.4407185,N,12046.7596535,E,4,17,1.3,2.7767,M,8.321,M,01,0004*68
$GPHPD,1957,32243.200,145.12,-0.58,13.08,31.5906786,120.7793276,2.777,13632316.524,24926814.575,2.777,-0.922,0.112,-0.970,0.552,0.956,0.706,0.000,17,16,4*6D
$GPGGA,085705.60,3135.4405989,N,12046.7597485,E,4,17,1.3,2.7538,M,8.321,M,00,0004*6E
$GPHPD,1957,32243.400,145.48,-0.78,13.11,31.5906766,120.7793291,2.754,13632318.415,24926816.417,2.754,-0.915,0.136,-0.952,0.552,0.956,0.706,0.000,17,16,4*61
$GPGGA,085705.80,3135.4404763,N,12046.7598431,E,4,17,1.3,2.7623,M,8.321,M,00,0004*62
$GPHPD,1957,32243.600,144.96,0.34,13.09,31.5906746,120.7793307,2.762,13632320.349,24926818.272,2.762,-0.904,0.027,-0.985,0.689,0.997,0.757,0.000,17,15,4*4B
$GPGGA,085706.00,3135.4403608,N,12046.7599378,E,4,18,1.2,2.7608,M,8.321,M,01,0004*6F
$GPHPD,1957,32243.800,144.48,0.27,13.11,31.5906727,120.7793323,2.761,13632322.181,24926820.086,2.761,-0.973,0.120,-0.940,0.552,0.956,0.706,0.000,18,15,4*46
$GPGGA,085706.20,3135.4402406,N,12046.7600272,E,4,18,1.2,2.7573,M,8.322,M,01,0004*64
$GPHPD,1957,32244.000,144.90,0.56,13.11,31.5906707,120.7793338,2.757,13632324.070,24926821.864,2.757,-0.930,0.072,-0.953,0.552,0.956,0.707,0.000,18,16,4*4F
$GPGGA,085706.40,3135.440116,N,12046.7601256,E,4,18,1.3,2.7540,M,8.322,M,01,0004*60
$GPHPD,1957,32244.200,144.80,0.09,13.12,31.5906687,120.7793354,2.754,13632325.959,24926823.743,2.754,-0.894,0.115,-0.947,0.552,0.956,0.707,0.000,18,16,4*47
$GPGGA,085706.60,3135.4400021,N,12046.7602159,E,4,18,1.3,2.7602,M,8.322,M,00,0004*6E
$GPHPD,1957,32244.400,144.89,0.29,13.11,31.5906667,120.7793369,2.760,13632327.840,24926825.528,2.760,-0.938,0.079,-0.924,0.551,0.956,0.609,0.000,18,16,4*4E
$GPGGA,085706.80,3135.4398883,N,12046.7603206,E,4,17,1.3,2.7665,M,8.322,M,00,0004*60
$GPHPD,1957,32244.600,144.49,-0.65,13.10,31.5906648,120.7793387,2.767,13632329.668,24926827.453,2.767,-0.927,0.140,-0.928,0.632,0.981,0.614,0.000,17,16,4*6A
$GPGGA,085707.00,3135.4397712,N,12046.7604204,E,4,17,1.3,2.7631,M,8.322,M,01,0004*64
$GPHPD,1957,32244.800,144.97,-0.67,13.12,31.5906629,120.7793403,2.763,13632331.534,24926829.339,2.763,-0.948,0.080,-0.934,0.549,0.949,0.706,0.000,17,16,4*6D
$GPGGA,085707.20,3135.4396540,N,12046.7605129,E,4,17,1.3,2.7652,M,8.322,M,01,0004*6A
$GPHPD,1957,32245.000,145.20,-1.33,13.10,31.5906609,120.7793419,2.765,13632333.386,24926831.136,2.765,-0.979,0.115,-0.912,0.549,0.949,0.706,0.000,17,16,4*60
$GPGGA,085707.40,3135.4395353,N,12046.7606027,E,4,17,1.3,2.7677,M,8.322,M,01,0004*60
$GPHPD,1957,32245.200,144.89,-1.41,13.09,31.5906589,120.7793434,2.768,13632335.254,24926832.910,2.768,-0.928,0.079,-0.938,0.549,0.949,0.706,0.000,17,16,4*69
$GPGGA,085707.60,3135.4394197,N,12046.7607000,E,4,17,1.3,2.7604,M,8.322,M,00,0004*68
$GPHPD,1957,32245.400,144.54,-1.20,13.10,31.5906570,120.7793450,2.760,13632337.093,24926834.757,2.760,-0.927,0.139,-0.911,0.621,0.979,0.710,0.000,17,16,4*6C
$GPGGA,085707.80,3135.4393029,N,12046.7607945,E,4,17,1.3,2.7479,M,8.322,M,00,0004*65
$GPHPD,1957,32245.600,144.75,-1.38,13.12,31.5906550,120.7793466,2.748,13632338.943,24926836.576,2.748,-0.917,0.065,-0.926,0.549,0.949,0.706,0.000,17,16,4*6F
$GPGGA,085708.00,3135.4391877,N,12046.7608895,E,4,18,1.3,2.7609,M,8.322,M,01,0004*6B
$GPHPD,1957,32245.800,144.74,-0.59,13.13,31.5906531,120.7793482,2.761,13632340.772,24926838.393,2.761,-0.910,0.008,-0.953,0.548,0.949,0.608,0.000,18,16,4*65
$GPGGA,085708.20,3135.4390725,N,12046.7609804,E,4,18,1.3,2.7469,M,8.322,M,01,0004*6D
$GPHPD,1957,32246.000,144.84,-0.29,13.11,31.5906512,120.7793497,2.747,13632342.593,24926840.160,2.747,-0.962,0.117,-0.900,0.549,0.949,0.706,0.000,18,17,4*6C
$GPGGA,085708.40,3135.4389576,N,12046.7610778,E,4,17,1.3,2.7409,M,8.322,M,01,0004*62
$GPHPD,1957,32246.200,144.82,-0.33,13.11,31.5906493,120.7793513,2.741,13632344.422,24926842.003,2.741,-0.897,0.085,-0.901,0.548,0.948,0.608,0.000,17,16,4*6C
$GPGGA,085708.60,3135.4388379,N,12046.7611696,E,4,17,1.3,2.7355,M,8.322,M,00,0004*67
$GPHPD,1957,32246.400,145.41,-0.12,13.09,31.5906473,120.7793528,2.736,13632346.308,24926843.807,2.736,-0.941,0.078,-0.909,0.549,0.949,0.706,0.000,17,17,4*66
$GPGGA,085708.80,3135.4387183,N,12046.7612569,E,4,17,1.3,2.7385,M,8.322,M,00,0004*6C
$GPHPD,1957,32246.600,145.72,-0.07,13.10,31.5906453,120.7793543,2.739,13632348.184,24926845.556,2.739,-0.890,0.070,-0.967,0.574,0.952,0.708,0.000,17,16,4*66
$GPGGA,085709.00,3135.4386034,N,12046.7613547,E,4,17,1.3,2.7294,M,8.322,M,01,0004*64
$GPHPD,1957,32246.800,145.44,0.28,13.11,31.5906434,120.7793559,2.729,13632350.014,24926847.404,2.729,-0.906,0.120,-0.928,0.549,0.949,0.706,0.000,17,16,4*48
$GPGGA,085709.20,3135.4384859,N,12046.7614506,E,4,17,1.3,2.7378,M,8.322,M,01,0004*66
$GPHPD,1957,32247.000,145.25,0.18,13.10,31.5906414,120.7793575,2.738,13632351.878,24926849.245,2.738,-0.915,0.095,-0.932,0.549,0.949,0.706,0.000,17,16,4*40
$GPGGA,085709.40,3135.4383655,N,12046.7615484,E,4,18,1.3,2.7464,M,8.322,M,01,0004*6A
$GPHPD,1957,32247.200,145.50,-0.21,13.13,31.5906394,120.7793591,2.746,13632353.786,24926851.125,2.746,-0.958,0.111,-0.899,0.549,0.949,0.706,0.000,18,16,4*6A
$GPGGA,085709.60,3135.4382483,N,12046.7616376,E,4,18,1.3,2.7384,M,8.322,M,00,0004*61
$GPHPD,1957,32247.400,145.12,0.21,13.13,31.5906375,120.7793606,2.738,13632355.632,24926852.883,2.738,-1.004,0.168,-0.914,0.574,0.952,0.708,0.000,18,17,4*4B
$GPGGA,085709.80,3135.4381311,N,12046.7617271,E,4,19,1.3,2.7543,M,8.322,M,00,0004*6B
$GPHPD,1957,32247.600,144.70,0.34,13.12,31.5906355,120.7793621,2.754,13632357.478,24926854.645,2.754,-0.930,0.132,-0.917,0.549,0.948,0.706,0.000,19,17,4*4B
$GPGGA,085710.00,3135.4380115,N,12046.7618211,E,4,19,1.3,2.7427,M,8.322,M,01,0004*67
$GPHPD,1957,32247.800,144.59,0.71,13.12,31.5906335,120.7793637,2.743,13632359.367,24926856.475,2.743,-0.917,0.151,-0.903,0.549,0.948,0.706,0.000,19,17,4*4F
$GPGGA,085710.20,3135.4378961,N,12046.7619212,E,4,19,1.3,2.7462,M,8.322,M,01,0004*6A
$GPHPD,1957,32248.000,144.53,0.47,13.12,31.5906316,120.7793654,2.746,13632361.209,24926858.354,2.746,-0.918,0.129,-0.929,0.548,0.942,0.662,0.000,19,17,4*4B
$GPGGA,085710.40,3135.4377779,N,12046.7620139,E,4,19,1.3,2.7438,M,8.322,M,01,0004*6B
$GPHPD,1957,32248.200,144.80,-0.65,13.13,31.5906296,120.7793669,2.744,13632363.076,24926860.160,2.744,-0.922,0.119,-0.937,0.546,0.942,0.580,0.000,19,17,4*6E
$GPGGA,085710.60,3135.4376623,N,12046.7621132,E,4,19,1.3,2.7614,M,8.322,M,00,0004*61
$GPHPD,1957,32248.400,144.90,-0.27,13.14,31.5906277,120.7793686,2.761,13632364.919,24926862.030,2.761,-0.924,0.066,-0.940,0.548,0.948,0.608,0.000,19,17,4*6F
$GPGGA,085710.80,3135.4375498,N,12046.7622124,E,4,19,1.3,2.7553,M,8.322,M,00,0004*6A
$GPHPD,1957,32248.600,144.89,-0.91,13.17,31.5906258,120.7793702,2.755,13632366.718,24926863.882,2.755,-0.938,0.131,-0.881,0.548,0.948,0.608,0.000,19,17,4*64
$GPGGA,085711.00,3135.4374296,N,12046.7623036,E,4,19,1.5,2.7514,M,8.322,M,01,0004*6D
$GPHPD,1957,32248.800,145.46,-0.51,13.19,31.5906238,120.7793717,2.751,13632368.610,24926865.681,2.751,-0.944,0.090,-0.896,0.548,0.948,0.608,0.000,19,18,4*6C
$GPGGA,085711.20,3135.4373143,N,12046.7623969,E,4,18,1.3,2.7556,M,8.322,M,01,0004*61
$GPHPD,1957,32249.000,145.27,-0.96,13.20,31.5906219,120.7793733,2.756,13632370.437,24926867.478,2.756,-0.837,0.066,-1.017,0.576,0.945,0.655,0.000,18,17,4*64
$GPGGA,085711.40,3135.4371972,N,12046.7624928,E,4,18,1.3,2.7497,M,8.322,M,01,0004*61
$GPHPD,1957,32249.200,145.27,-0.60,13.19,31.5906200,120.7793749,2.750,13632372.294,24926869.316,2.750,-0.968,0.115,-0.886,0.578,0.945,0.846,0.000,18,17,4*61
$GPGGA,085711.60,3135.4370788,N,12046.7625758,E,4,18,1.3,2.7443,M,8.322,M,00,0004*69
$GPHPD,1957,32249.400,145.03,-0.54,13.21,31.5906180,120.7793763,2.744,13632374.145,24926871.006,2.744,-0.901,0.095,-0.942,0.576,0.945,0.655,0.000,18,16,4*60
$GPGGA,085711.80,3135.4369662,N,12046.7626772,E,4,18,1.3,2.7391,M,8.322,M,00,0004*69
$GPHPD,1957,32249.600,144.98,-0.25,13.22,31.5906161,120.7793780,2.739,13632375.949,24926872.885,2.739,-0.920,0.082,-0.912,0.559,0.945,0.682,0.000,18,16,4*64
$GPGGA,085712.00,3135.4368501,N,12046.7627690,E,4,18,1.3,2.7392,M,8.322,M,01,0004*6B
$GPHPD,1957,32249.800,145.10,0.34,13.24,31.5906142,120.7793795,2.739,13632377.784,24926874.668,2.739,-0.867,0.062,-0.941,0.578,0.945,0.846,0.000,18,16,4*4C
$GPGGA,085712.20,3135.4367340,N,12046.7628585,E,4,17,1.3,2.7371,M,8.322,M,01,0004*6F
$GPHPD,1957,32250.000,144.87,-0.03,13.27,31.5906122,120.7793810,2.737,13632379.615,24926876.423,2.737,-0.905,0.112,-0.930,0.559,0.945,0.594,0.000,17,16,4*6E
$GPGGA,085712.40,3135.4366165,N,12046.7629539,E,4,17,1.3,2.7247,M,8.322,M,01,0004*6F
$GPHPD,1957,32250.200,145.00,-0.23,13.31,31.5906103,120.7793826,2.725,13632381.477,24926878.257,2.725,-0.879,0.102,-0.916,0.548,0.941,0.662,0.000,17,16,4*6A
$GPGGA,085712.60,3135.4365024,N,12046.7630479,E,4,17,1.3,2.7307,M,8.322,M,01,0004*62
$GPHPD,1957,32250.400,145.13,0.26,13.34,31.5906084,120.7793841,2.731,13632383.288,24926880.055,2.731,-0.907,0.047,-0.953,0.549,0.948,0.706,0.000,17,15,4*4E
$GPGGA,085712.80,3135.436327,N,12046.7631388,E,4,17,1.3,2.7315,M,8.322,M,01,0004*6A
$GPHPD,1957,32250.600,145.18,0.16,13.32,31.5906064,120.7793856,2.732,13632385.173,24926881.848,2.732,-0.947,0.074,-0.931,0.549,0.948,0.706,0.000,17,16,4*4D
$GPGGA,085713.00,3135.4362676,N,12046.7632361,E,4,16,1.3,2.7444,M,8.322,M,02,0004*6D
$GPHPD,1957,32250.800,145.08,-0.31,13.31,31.5906045,120.7793873,2.744,13632387.005,24926883.692,2.744,-0.905,0.103,-0.936,0.559,0.945,0.682,0.000,16,15,4*67
$GPGGA,085713.20,3135.4361523,N,12046.7633267,E,4,16,1.3,2.7327,M,8.322,M,02,0004*6B
$GPHPD,1957,32251.000,145.14,-1.21,13.29,31.5906025,120.7793888,2.733,13632388.826,24926885.456,2.733,-0.946,0.164,-0.908,0.621,0.978,0.710,0.000,16,15,4*61
$GPGGA,085713.40,3135.4360368,N,12046.7634161,E,4,16,1.3,2.7150,M,8.322,M,02,0004*65
$GPHPD,1957,32251.200,145.14,-1.32,13.27,31.5906006,120.7793903,2.715,13632390.648,24926887.206,2.715,-0.912,0.110,-0.921,0.644,0.976,0.686,0.000,16,14,4*69
$GPGGA,085713.60,3135.4359190,N,12046.7635083,E,4,15,1.3,2.7200,M,8.322,M,02,0004*61
$GPHPD,1957,32251.400,144.82,-0.71,13.24,31.5905987,120.7793918,2.720,13632392.508,24926889.004,2.720,-0.866,0.056,-0.962,0.621,0.978,0.710,0.000,15,14,4*60
$GPGGA,085713.80,3135.4358017,N,12046.7636024,E,4,15,1.3,2.7167,M,8.322,M,00,0004*6E
$GPHPD,1957,32251.600,144.87,-0.64,13.23,31.5905967,120.7793934,2.717,13632394.365,24926890.822,2.717,-0.929,0.085,-0.916,0.691,0.976,0.686,0.000,15,14,4*67
$GPGGA,085714.00,3135.4356849,N,12046.7636906,E,4,15,1.3,2.7086,M,8.322,M,01,0004*6A
$GPHPD,1957,32251.800,144.95,-1.08,13.21,31.5905947,120.7793948,2.709,13632396.203,24926892.565,2.709,-0.915,0.060,-0.934,0.655,0.967,0.664,0.000,15,14,4*65
$GPGGA,085714.20,3135.4355678,N,12046.7637827,E,4,15,1.3,2.7026,M,8.322,M,01,0004*6E
$GPHPD,1957,32252.000,144.74,-0.28,13.20,31.5905928,120.7793964,2.703,13632398.053,24926894.358,2.703,-0.900,0.077,-0.935,0.660,0.979,0.711,0.000,15,14,4*6A
$GPGGA,085714.40,3135.4354518,N,12046.7638759,E,4,15,1.3,2.6985,M,8.322,M,01,0004*64
$GPHPD,1957,32252.200,144.59,0.37,13.16,31.5905909,120.7793979,2.699,13632399.889,24926896.157,2.699,-0.903,0.059,-0.928,0.660,0.979,0.711,0.000,15,14,4*4C
$GPGGA,085714.60,3135.4353353,N,12046.7639702,E,4,14,1.3,2.7014,M,8.322,M,00,0004*67
$GPHPD,1957,32252.400,144.86,0.23,13.13,31.5905889,120.7793995,2.701,13632401.735,24926897.972,2.701,-0.888,0.061,-0.940,0.660,0.979,0.711,0.000,14,14,4*45
$GPGGA,085714.80,3135.4352139,N,12046.7640659,E,4,14,1.3,2.7151,M,8.322,M,00,0004*67
$GPHPD,1957,32252.600,144.92,-0.38,13.11,31.5905869,120.7794011,2.715,13632403.654,24926899.833,2.715,-0.910,0.078,-0.907,0.660,0.979,0.711,0.000,14,13,4*69
$GPGGA,085715.00,3135.4350941,N,12046.7641609,E,4,14,1.3,2.7041,M,8.322,M,01,0004*6E
$GPHPD,1957,32252.800,145.10,-0.50,13.11,31.5905849,120.7794027,2.704,13632405.548,24926901.676,2.704,-0.957,0.138,-0.924,0.660,0.979,0.616,0.000,14,13,4*63
$GPGGA,085715.20,3135.4349737,N,12046.7642632,E,4,16,1.3,2.7117,M,8.322,M,01,0004*60
$GPHPD,1957,32253.000,144.95,-0.11,13.09,31.5905829,120.7794044,2.712,13632407.465,24926903.611,2.712,-0.946,0.112,-0.938,0.660,0.979,0.711,0.000,16,13,4*67
$GPGGA,085715.40,3135.4348550,N,12046.7643571,E,4,16,1.3,2.7148,M,8.322,M,01,0004*6B
$GPHPD,1957,32253.200,144.94,-0.94,13.07,31.5905809,120.7794060,2.715,13632409.341,24926905.434,2.715,-0.996,0.116,-0.928,0.573,0.944,0.664,0.000,16,14,4*6C
$GPGGA,085715.60,3135.4347360,N,12046.7644553,E,4,16,1.3,2.7131,M,8.322,M,00,0004*6B
$GPHPD,1957,32253.400,145.12,-2.02,13.07,31.5905789,120.7794076,2.713,13632411.231,24926907.311,2.713,-0.970,0.116,-0.929,0.688,0.967,0.637,0.000,16,15,4*6D
$GPGGA,085715.80,3135.4346172,N,12046.7645560,E,4,16,1.4,2.7164,M,8.322,M,00,0004*63
$GPHPD,1957,32253.600,144.68,-1.09,13.06,31.5905770,120.7794093,2.716,13632413.122,24926909.217,2.716,-0.945,0.077,-0.949,0.688,0.967,0.637,0.000,16,15,4*6B
$GPGGA,085716.00,3135.4344981,N,12046.7646520,E,4,17,1.4,2.7120,M,8.322,M,01,0004*69
$GPHPD,1957,32253.800,144.92,-0.47,13.04,31.5905750,120.7794109,2.712,13632415.008,24926911.069,2.712,-0.932,0.069,-0.949,0.671,0.976,0.668,0.000,17,16,4*65
$GPGGA,085716.20,3135.4343784,N,12046.7647421,E,4,16,1.4,2.7111,M,8.322,M,01,0004*65
$GPHPD,1957,32254.000,144.83,-0.76,13.05,31.5905730,120.7794124,2.711,13632416.891,24926912.852,2.711,-0.977,0.128,-0.918,0.641,0.978,0.682,0.000,16,16,4*61
$GPGGA,085716.40,3135.4342602,N,12046.7648411,E,4,16,1.4,2.7078,M,8.322,M,01,0004*6F
$GPHPD,1957,32254.200,144.92,-1.38,13.06,31.5905710,120.7794140,2.708,13632418.771,24926914.734,2.708,-0.931,0.086,-0.941,0.674,0.976,0.861,0.000,16,16,4*6D
$GPGGA,085716.60,3135.4341380,N,12046.7649359,E,4,16,1.4,2.7007,M,8.322,M,00,0004*62
$GPHPD,1957,32254.400,145.13,-1.09,13.08,31.5905690,120.7794156,2.701,13632420.699,24926916.589,2.701,-0.954,0.090,-0.949,0.590,0.954,0.979,0.000,16,15,4*65
$GPGGA,085716.80,3135.4340177,N,12046.7650347,E,4,16,1.4,2.7041,M,8.322,M,00,0004*62
$GPHPD,1957,32254.600,144.81,-0.20,13.10,31.5905670,120.7794172,2.704,13632422.608,24926918.480,2.704,-0.900,0.086,-0.972,0.559,0.942,0.800,0.000,16,15,4*69
$GPGGA,085717.00,3135.4338956,N,12046.7651310,E,4,16,1.4,2.7051,M,8.322,M,01,0004*6C
$GPHPD,1957,32254.800,145.06,-0.41,13.13,31.5905649,120.7794189,2.705,13632424.537,24926920.353,2.705,-0.923,0.081,-0.967,0.559,0.942,0.800,0.000,16,15,4*6A
$GPGGA,085717.20,3135.4337768,N,12046.7652298,E,4,15,1.4,2.6968,M,8.322,M,01,0004*61
$GPHPD,1957,32255.000,144.95,-0.85,13.15,31.5905629,120.7794205,2.697,13632426.425,24926922.236,2.697,-0.969,0.120,-0.946,0.563,0.948,0.885,0.000,15,15,4*6D
$GPGGA,085717.40,3135.4336534,N,12046.7653221,E,4,15,1.4,2.6843,M,8.322,M,01,0004*66
$GPHPD,1957,32255.200,145.18,-0.38,13.18,31.5905609,120.7794220,2.684,13632428.365,24926924.067,2.684,-0.923,0.072,-0.979,0.643,0.978,0.898,0.000,15,15,4*62
$GPGGA,085717.60,3135.4335330,N,12046.7654194,E,4,15,1.5,2.6802,M,8.322,M,00,0004*6A
$GPHPD,1957,32255.400,145.29,-0.40,13.19,31.5905589,120.7794237,2.680,13632430.272,24926925.942,2.680,-0.964,0.103,-0.951,0.715,1.001,1.033,0.000,15,15,4*66
$GPGGA,085717.80,3135.4334138,N,12046.7655151,E,4,16,1.5,2.6970,M,8.322,M,00,0004*60
$GPHPD,1957,32255.600,145.32,-0.41,13.19,31.5905569,120.7794253,2.697,13632432.159,24926927.790,2.697,-0.915,0.057,-0.986,0.674,0.976,0.861,0.000,16,15,4*67
$GPGGA,085718.00,3135.4332946,N,12046.7656085,E,4,16,1.5,2.6823,M,8.322,M,01,0004*6D
$GPHPD,1957,32255.800,145.21,-1.08,13.18,31.5905549,120.7794268,2.682,13632434.042,24926929.610,2.682,-0.999,0.158,-0.911,0.715,1.001,1.033,0.000,16,14,4*63
$GPGGA,085718.20,3135.4331746,N,12046.7657066,E,4,16,1.5,2.6872,M,8.322,M,01,0004*6A
$GPHPD,1957,32256.000,145.49,-0.64,13.17,31.5905529,120.7794284,2.687,13632435.945,24926931.492,2.687,-0.912,0.058,-0.963,0.715,1.001,1.033,0.000,16,15,4*6E
$GPGGA,085718.40,3135.4330558,N,12046.7657988,E,4,16,1.5,2.6910,M,8.322,M,01,0004*6C
$GPHPD,1957,32256.200,145.31,-1.57,13.12,31.5905509,120.7794300,2.691,13632437.819,24926933.295,2.691,-0.949,0.082,-0.942,0.659,0.996,0.756,0.000,16,15,4*61
$GPGGA,085718.60,3135.4329397,N,12046.7658913,E,4,16,1.5,2.6947,M,8.322,M,00,0004*6D
$GPHPD,1957,32256.400,145.44,-1.33,13.14,31.5905490,120.7794315,2.695,13632439.656,24926935.087,2.695,-0.924,0.114,-0.938,0.659,0.996,0.756,0.000,16,15,4*60
$GPGGA,085718.80,3135.4328197,N,12046.7659878,E,4,16,1.5,2.6885,M,8.322,M,00,0004*62
$GPHPD,1957,32256.600,145.34,-1.26,13.16,31.5905470,120.7794331,2.689,13632441.556,24926936.949,2.689,-0.939,0.127,-0.897,0.659,0.996,0.756,0.000,16,15,4*67
$GPGGA,085719.00,3135.4326990,N,12046.7660779,E,4,16,1.5,2.6839,M,8.322,M,01,0004*68
$GPHPD,1957,32256.800,145.44,-1.30,13.17,31.5905450,120.7794346,2.684,13632443.453,24926938.738,2.684,-0.950,0.111,-0.939,0.621,0.978,0.710,0.000,16,15,4*68
$GPGGA,085719.20,3135.4325815,N,12046.7661710,E,4,16,1.5,2.6825,M,8.322,M,01,0004*66
$GPHPD,1957,32257.000,145.38,-1.24,13.18,31.5905430,120.7794362,2.683,13632445.311,24926940.545,2.683,-0.945,0.143,-0.936,0.621,0.978,0.710,0.000,16,14,4*6D
$GPGGA,085719.40,3135.4324643,N,12046.7662675,E,4,16,1.5,2.6775,M,8.322,M,01,0004*67
$GPHPD,1957,32257.200,145.19,-1.03,13.16,31.5905411,120.7794378,2.678,13632447.171,24926942.391,2.678,-0.926,0.107,-0.940,0.621,0.978,0.710,0.000,16,15,4*61
$GPGGA,085719.60,3135.4323444,N,12046.7663634,E,4,16,1.5,2.6694,M,8.322,M,00,0004*6C
$GPHPD,1957,32257.400,145.45,-0.88,13.16,31.5905391,120.7794394,2.669,13632449.068,24926944.246,2.669,-0.919,0.065,-0.941,0.659,0.996,0.756,0.000,16,15,4*6E
$GPGGA,085719.80,3135.4322252,N,12046.7664608,E,4,15,1.5,2.6724,M,8.322,M,00,0004*63
$GPHPD,1957,32257.600,145.54,-0.85,13.12,31.5905371,120.7794410,2.672,13632450.959,24926946.114,2.672,-0.938,0.098,-0.974,0.674,0.976,0.861,0.000,15,15,4*6B
$GPGGA,085720.00,3135.4321071,N,12046.7665526,E,4,15,1.5,2.6731,M,8.322,M,01,0004*6A
$GPHPD,1957,32257.800,145.21,-0.62,13.09,31.5905351,120.7794425,2.673,13632452.822,24926947.909,2.673,-0.959,0.110,-0.940,0.674,0.976,0.861,0.000,15,15,4*6B
$GPGGA,085720.20,3135.4319881,N,12046.7666467,E,4,15,1.5,2.6749,M,8.322,M,01,0004*6C
$GPHPD,1957,32258.000,145.14,-0.60,13.10,31.5905331,120.7794441,2.675,13632454.703,24926949.736,2.675,-0.947,0.115,-0.933,0.674,0.976,0.861,0.000,15,14,4*6D
$GPGGA,085720.40,3135.4318705,N,12046.7667405,E,4,15,1.5,2.6650,M,8.322,M,01,0004*64
$GPHPD,1957,32258.200,145.23,-0.58,13.11,31.5905312,120.7794457,2.665,13632456.564,24926951.552,2.665,-0.926,0.122,-0.940,0.631,0.966,0.803,0.000,15,14,4*6C
$GPGGA,085720.60,3135.4317510,N,12046.7668362,E,4,15,1.5,2.6636,M,8.322,M,00,0004*67
$GPHPD,1957,32258.400,145.09,-0.24,13.12,31.5905292,120.7794473,2.664,13632458.455,24926953.402,2.664,-0.895,0.074,-0.962,0.643,0.978,0.898,0.000,15,14,4*6D
$GPGGA,085720.80,3135.4316339,N,12046.7669277,E,4,15,1.5,2.6565,M,8.322,M,00,0004*64
$GPHPD,1957,32258.600,145.01,-0.27,13.11,31.5905272,120.7794488,2.657,13632460.304,24926955.187,2.657,-0.944,0.092,-0.933,0.715,1.000,1.033,0.000,15,14,4*67
$GPGGA,085721.00,3135.4315182,N,12046.7670208,E,4,15,1.5,2.6578,M,8.322,M,01,0004*61
$GPHPD,1957,32258.800,145.26,0.61,13.11,31.5905253,120.7794503,2.658,13632462.136,24926956.983,2.658,-0.905,0.072,-0.945,0.715,1.000,1.033,0.000,15,14,4*46
$GPGGA,085721.20,3135.4314002,N,12046.7671166,E,4,16,1.5,2.6663,M,8.322,M,01,0004*6B
$GPHPD,1957,32259.000,145.02,0.02,13.13,31.5905233,120.7794519,2.666,13632464.006,24926958.826,2.666,-0.906,0.112,-0.890,0.621,0.978,0.710,0.000,16,14,4*4F
$GPGGA,085721.40,3135.4312829,N,12046.7672093,E,4,17,1.5,2.6558,M,8.322,M,01,0004*68
$GPHPD,1957,32259.200,144.90,-0.27,13.11,31.5905214,120.7794535,2.656,13632465.860,24926960.627,2.656,-0.961,0.145,-0.876,0.621,0.978,0.710,0.000,17,15,4*62
$GPGGA,085721.60,3135.4311701,N,12046.7673088,E,4,17,1.3,2.6599,M,8.322,M,00,0004*6D
$GPHPD,1957,32259.400,144.75,0.37,13.13,31.5905195,120.7794551,2.660,13632467.664,24926962.483,2.660,-0.918,0.137,-0.934,0.615,0.966,0.664,0.000,17,17,4*4B
$GPGGA,085721.80,3135.4310524,N,12046.7674059,E,4,17,1.4,2.6538,M,8.322,M,00,0004*60
$GPHPD,1957,32259.600,144.87,0.26,13.15,31.5905175,120.7794568,2.654,13632469.533,24926964.339,2.654,-0.942,0.101,-0.910,0.615,0.966,0.664,0.000,17,17,4*45
$GPGGA,085722.00,3135.4309305,N,12046.7674897,E,4,17,1.3,2.6536,M,8.322,M,01,0004*64
$GPHPD,1957,32259.800,144.97,0.11,13.17,31.5905155,120.7794582,2.654,13632471.434,24926966.060,2.654,-0.930,0.094,-0.937,0.715,1.000,1.033,0.000,17,16,4*48
$GPGGA,085722.20,3135.4308143,N,12046.7675905,E,4,16,1.5,2.6433,M,8.322,M,01,0004*6F
$GPHPD,1957,32260.000,144.69,-0.57,13.16,31.5905136,120.7794598,2.643,13632473.289,24926967.952,2.643,-0.931,0.129,-0.929,0.631,0.966,0.803,0.000,16,16,4*6D
$GPGGA,085722.40,3135.4306952,N,12046.7676847,E,4,16,1.5,2.6397,M,8.322,M,01,0004*62
$GPHPD,1957,32260.200,144.94,-0.27,13.15,31.5905116,120.7794614,2.640,13632475.171,24926969.781,2.640,-0.937,0.094,-0.951,0.715,1.000,1.033,0.000,16,16,4*6B
$GPGGA,085722.60,3135.4305794,N,12046.7677808,E,4,16,1.5,2.6511,M,8.322,M,00,0004*64
$GPHPD,1957,32260.400,144.84,-0.96,13.14,31.5905097,120.7794630,2.651,13632477.011,24926971.614,2.651,-0.927,0.051,-0.951,0.715,1.000,1.033,0.000,16,15,4*63
$GPGGA,085722.80,3135.4304618,N,12046.7678731,E,4,16,1.5,2.6533,M,8.322,M,00,0004*64
$GPHPD,1957,32260.600,145.25,-0.55,13.12,31.5905077,120.7794646,2.653,13632478.868,24926973.412,2.653,-0.971,0.137,-0.887,0.715,1.000,1.033,0.000,16,15,4*6A
$GPGGA,085723.00,3135.4303412,N,12046.7679673,E,4,16,1.5,2.6486,M,8.322,M,01,0004*6A
$GPHPD,1957,32260.800,145.21,-1.39,13.10,31.5905057,120.7794661,2.649,13632480.772,24926975.250,2.649,-0.953,0.164,-0.898,0.715,1.000,1.033,0.000,16,15,4*63
$GPGGA,085723.20,3135.4302234,N,12046.7680595,E,4,16,1.5,2.6450,M,8.322,M,01,0004*6D
$GPHPD,1957,32261.000,145.23,-0.75,13.08,31.5905037,120.7794677,2.645,13632482.632,24926977.048,2.645,-0.931,0.126,-0.947,0.715,1.000,1.034,0.000,16,15,4*61
$GPGGA,085723.40,3135.4301043,N,12046.7681543,E,4,16,1.5,2.6468,M,8.322,M,01,0004*6B
$GPHPD,1957,32261.200,144.84,-0.47,13.08,31.5905017,120.7794692,2.647,13632484.516,24926978.884,2.647,-0.901,0.117,-0.945,0.715,1.000,1.034,0.000,16,15,4*60
$GPGGA,085723.60,3135.4299800,N,12046.7682524,E,4,17,1.5,2.6430,M,8.322,M,00,0004*69
$GPHPD,1957,32261.400,145.45,-0.55,13.02,31.5904997,120.7794709,2.643,13632486.481,24926980.791,2.643,-0.923,0.131,-0.934,0.659,0.995,0.756,0.000,17,15,4*6D
$GPGGA,085723.80,3135.4298631,N,12046.7683450,E,4,18,1.5,2.6390,M,8.322,M,00,0004*6B
$GPHPD,1957,32261.600,145.68,-0.34,12.98,31.5904977,120.7794724,2.639,13632488.329,24926982.588,2.639,-0.979,0.129,-0.940,0.659,0.995,0.756,0.000,18,16,4*6E
$GPGGA,085724.00,3135.4297422,N,12046.7684382,E,4,18,1.5,2.6400,M,8.322,M,01,0004*6B
$GPHPD,1957,32261.800,145.64,-0.11,12.94,31.5904957,120.7794740,2.640,13632490.235,24926984.416,2.640,-0.927,0.094,-0.961,0.659,0.995,0.646,0.000,18,17,4*6C
$GPGGA,085724.20,3135.4296216,N,12046.7685337,E,4,17,1.5,2.6492,M,8.322,M,01,0004*62
$GPHPD,1957,32262.000,145.47,-0.35,12.97,31.5904937,120.7794756,2.649,13632492.142,24926986.270,2.649,-0.922,0.127,-0.959,0.659,0.995,0.646,0.000,17,16,4*6E
$GPGGA,085724.40,3135.4295042,N,12046.7686309,E,4,18,1.5,2.6472,M,8.322,M,01,0004*6B
$GPHPD,1957,32262.200,145.55,-0.01,12.96,31.5904917,120.7794772,2.647,13632494.006,24926988.126,2.647,-0.955,0.133,-0.947,0.659,0.995,0.646,0.000,18,16,4*61
$GPGGA,085724.60,3135.4293817,N,12046.7687206,E,4,18,1.6,2.6420,M,8.322,M,00,0004*6D
$GPHPD,1957,32262.400,145.61,-0.01,12.99,31.5904897,120.7794787,2.642,13632495.928,24926989.921,2.642,-0.955,0.116,-0.935,0.659,0.995,0.646,0.000,18,16,4*64
$GPGGA,085724.80,3135.4292630,N,12046.7688123,E,4,18,1.5,2.6408,M,8.322,M,00,0004*6B
$GPHPD,1957,32262.600,145.56,-0.24,13.00,31.5904877,120.7794802,2.641,13632497.800,24926991.717,2.641,-0.894,0.084,-0.975,0.619,0.977,0.614,0.000,18,16,4*6E
$GPGGA,085725.00,3135.4291476,N,12046.7689179,E,4,17,1.3,2.6462,M,8.322,M,01,0004*6B
$GPHPD,1957,32262.800,144.86,-0.15,13.05,31.5904858,120.7794820,2.646,13632499.653,24926993.663,2.646,-0.894,0.128,-0.956,0.619,0.977,0.614,0.000,17,16,4*69
$GPGGA,085725.20,3135.4290284,N,12046.7690078,E,4,17,1.3,2.6313,M,8.322,M,01,0004*6A
$GPHPD,1957,32263.000,144.79,-0.33,13.08,31.5904838,120.7794835,2.631,13632501.528,24926995.441,2.631,-0.910,0.111,-0.954,0.619,0.977,0.614,0.000,17,16,4*65
$GPGGA,085725.40,3135.4289074,N,12046.7690995,E,4,16,1.3,2.6264,M,8.322,M,01,0004*63
$GPHPD,1957,32263.200,144.71,-0.12,13.08,31.5904818,120.7794850,2.626,13632503.433,24926997.251,2.626,-0.853,0.079,-0.966,0.621,0.977,0.711,0.000,16,16,4*67
$GPGGA,085725.60,3135.4287878,N,12046.7691937,E,4,16,1.3,2.6335,M,8.322,M,00,0004*66
$GPHPD,1957,32263.400,144.62,-0.28,13.10,31.5904798,120.7794866,2.634,13632505.323,24926999.083,2.634,-0.955,0.080,-0.931,0.634,0.979,0.711,0.000,16,16,4*6B
$GPGGA,085725.80,3135.4286691,N,12046.7692907,E,4,16,1.3,2.6201,M,8.322,M,00,0004*66
$GPHPD,1957,32263.600,144.42,-0.52,13.14,31.5904778,120.7794882,2.620,13632507.205,24927000.944,2.620,-0.964,0.112,-0.912,0.632,0.979,0.614,0.000,16,16,4*60
$GPGGA,085726.00,3135.4285530,N,12046.7693893,E,4,16,1.3,2.6222,M,8.322,M,01,0004*6B
$GPHPD,1957,32263.800,144.61,0.09,13.15,31.5904759,120.7794898,2.622,13632509.054,24927002.809,2.622,-0.906,0.058,-0.977,0.632,0.979,0.614,0.000,16,16,4*4F
$GPGGA,085726.20,3135.4284323,N,12046.7694853,E,4,16,1.3,2.6218,M,8.322,M,01,0004*6E
$GPHPD,1957,32264.000,144.86,0.16,13.17,31.5904739,120.7794914,2.622,13632510.963,24927004.670,2.622,-0.945,0.058,-0.929,0.632,0.979,0.614,0.000,16,16,4*49
$GPGGA,085726.40,3135.4283145,N,12046.7695835,E,4,16,1.3,2.6122,M,8.322,M,01,0004*66
$GPHPD,1957,32264.200,144.97,-0.49,13.14,31.5904719,120.7794931,2.612,13632512.835,24927006.540,2.612,-0.956,0.121,-0.928,0.632,0.979,0.614,0.000,16,16,4*64
$GPGGA,085726.60,3135.4281974,N,12046.7696804,E,4,16,1.3,2.6222,M,8.322,M,00,0004*6F
$GPHPD,1957,32264.400,145.61,-1.24,13.14,31.5904700,120.7794947,2.622,13632514.695,24927008.390,2.622,-0.923,0.037,-0.982,0.632,0.979,0.614,0.000,16,16,4*6A
$GPGGA,085726.80,3135.4280802,N,12046.7697777,E,4,16,1.3,2.6320,M,8.322,M,00,0004*69
$GPHPD,1957,32264.600,144.93,-0.50,13.14,31.5904680,120.7794963,2.632,13632516.557,24927010.246,2.632,-0.959,0.123,-0.932,0.632,0.979,0.614,0.000,16,15,4*64
$GPGGA,085727.00,3135.4279644,N,12046.7698715,E,4,16,1.3,2.6227,M,8.322,M,01,0004*66
$GPHPD,1957,32264.800,145.13,0.18,13.13,31.5904661,120.7794979,2.623,13632518.392,24927012.051,2.623,-0.992,0.137,-0.903,0.632,0.979,0.614,0.000,16,15,4*46
$GPGGA,085727.20,3135.4278501,N,12046.7699649,E,4,16,1.3,2.6207,M,8.322,M,01,0004*6C
$GPHPD,1957,32265.000,144.86,-0.16,13.12,31.5904642,120.7794994,2.621,13632520.205,24927013.843,2.621,-0.934,0.075,-0.917,0.632,0.979,0.614,0.000,16,15,4*62
$GPGGA,085727.40,3135.4277313,N,12046.7700620,E,4,17,1.3,2.6253,M,8.322,M,01,0004*6E
$GPHPD,1957,32265.200,144.82,-0.20,13.12,31.5904622,120.7795010,2.625,13632522.089,24927015.705,2.625,-0.913,0.100,-0.917,0.632,0.979,0.614,0.000,17,15,4*6B
$GPGGA,085727.60,3135.4276158,N,12046.7701515,E,4,17,1.3,2.6077,M,8.322,M,00,0004*61
$GPHPD,1957,32265.400,144.80,-0.14,13.13,31.5904603,120.7795025,2.608,13632523.911,24927017.457,2.608,-0.963,0.122,-0.887,0.681,0.980,0.712,0.000,17,16,4*66
$GPGGA,085727.80,3135.4275010,N,12046.7702453,E,4,17,1.3,2.6178,M,8.322,M,00,0004*6F
$GPHPD,1957,32265.600,144.99,-0.13,13.13,31.5904584,120.7795041,2.618,13632525.731,24927019.257,2.618,-0.851,0.068,-0.927,0.632,0.979,0.614,0.000,17,17,4*6B
$GPGGA,085728.00,3135.4273789,N,12046.7703428,E,4,18,1.3,2.6147,M,8.322,M,01,0004*66
$GPHPD,1957,32265.800,144.75,0.37,13.14,31.5904563,120.7795057,2.615,13632527.663,24927021.143,2.615,-0.948,0.127,-0.888,0.632,0.979,0.614,0.000,18,17,4*44
$GPGGA,085728.20,3135.4272662,N,12046.7704326,E,4,18,1.3,2.6208,M,8.322,M,01,0004*67
$GPHPD,1957,32266.000,144.78,0.70,13.14,31.5904544,120.7795072,2.621,13632529.446,24927022.882,2.621,-0.964,0.117,-0.925,0.619,0.977,0.614,0.000,18,17,4*43
$GPGGA,085728.40,3135.4271491,N,12046.7705333,E,4,18,1.3,2.6273,M,8.322,M,01,0004*65
$GPHPD,1957,32266.200,144.83,0.03,13.14,31.5904525,120.7795089,2.627,13632531.314,24927024.779,2.627,-0.916,0.143,-0.922,0.619,0.977,0.614,0.000,18,17,4*45
$GPGGA,085728.60,3135.4270251,N,12046.7706224,E,4,18,1.3,2.6227,M,8.322,M,00,0004*68
$GPHPD,1957,32266.400,144.76,0.05,13.15,31.5904504,120.7795104,2.623,13632533.256,24927026.575,2.623,-0.961,0.122,-0.916,0.620,0.977,0.711,0.000,18,17,4*4E
$GPGGA,085728.80,3135.4269085,N,12046.7707160,E,4,18,1.3,2.6250,M,8.322,M,00,0004*67
$GPHPD,1957,32266.600,144.50,-0.34,13.14,31.5904485,120.7795119,2.625,13632535.101,24927028.383,2.625,-0.958,0.140,-0.909,0.659,0.994,0.646,0.000,18,17,4*64
$GPGGA,085729.00,3135.4267925,N,12046.7708072,E,4,17,1.3,2.6150,M,8.322,M,01,0004*63
$GPHPD,1957,32266.800,144.31,-0.60,13.10,31.5904465,120.7795135,2.615,13632536.934,24927030.158,2.615,-0.954,0.127,-0.920,0.620,0.977,0.711,0.000,17,17,4*61
$GPGGA,085729.20,3135.4266758,N,12046.7709022,E,4,17,1.3,2.6263,M,8.322,M,01,0004*63
$GPHPD,1957,32267.000,144.52,-0.92,13.09,31.5904446,120.7795150,2.626,13632538.784,24927031.983,2.626,-0.912,0.118,-0.935,0.620,0.977,0.711,0.000,17,16,4*65
$GPGGA,085729.40,3135.4265574,N,12046.7709940,E,4,17,1.3,2.6144,M,8.322,M,01,0004*61
$GPHPD,1957,32267.200,144.48,-1.54,13.07,31.5904426,120.7795166,2.614,13632540.652,24927033.779,2.614,-0.946,0.104,-0.903,0.620,0.977,0.711,0.000,17,16,4*6F
$GPGGA,085729.60,3135.4264447,N,12046.7710907,E,4,17,1.3,2.6145,M,8.322,M,00,0004*68
$GPHPD,1957,32267.400,144.45,-1.02,13.09,31.5904407,120.7795182,2.615,13632542.449,24927035.601,2.615,-0.929,0.095,-0.949,0.620,0.977,0.711,0.000,17,16,4*6C
$GPGGA,085729.80,3135.4263287,N,12046.7711835,E,4,17,1.3,2.6025,M,8.322,M,00,0004*6D
$GPHPD,1957,32267.600,144.65,-1.21,13.09,31.5904388,120.7795197,2.603,13632544.284,24927037.396,2.603,-0.938,0.107,-0.904,0.620,0.977,0.711,0.000,17,16,4*62
$GPGGA,085730.00,3135.4262146,N,12046.7712834,E,4,18,1.3,2.6155,M,8.322,M,01,0004*68
$GPHPD,1957,32267.800,144.49,-1.17,13.08,31.5904369,120.7795214,2.616,13632546.107,24927039.265,2.616,-0.938,0.097,-0.923,0.620,0.977,0.711,0.000,18,16,4*6A
$GPGGA,085730.20,3135.4260970,N,12046.7713722,E,4,18,1.3,2.6065,M,8.322,M,01,0004*6E
$GPHPD,1957,32268.000,144.54,-1.11,13.09,31.5904350,120.7795229,2.607,13632547.958,24927041.020,2.607,-0.953,0.094,-0.903,0.620,0.977,0.711,0.000,18,17,4*60
$GPGGA,085730.40,3135.4259837,N,12046.7714730,E,4,18,1.3,2.5973,M,8.322,M,01,0004*69
$GPHPD,1957,32268.200,144.69,-0.86,13.11,31.5904331,120.7795246,2.597,13632549.771,24927042.896,2.597,-0.908,0.081,-0.942,0.619,0.977,0.614,0.000,18,17,4*68
$GPGGA,085730.60,3135.4258676,N,12046.7715698,E,4,18,1.3,2.6048,M,8.322,M,00,0004*60
$GPHPD,1957,32268.400,144.93,-0.82,13.12,31.5904311,120.7795262,2.605,13632551.617,24927044.739,2.605,-0.926,0.098,-0.919,0.620,0.977,0.711,0.000,18,17,4*68
$GPGGA,085730.80,3135.4257464,N,12046.7716610,E,4,18,1.3,2.6003,M,8.322,M,00,0004*6C
$GPHPD,1957,32268.600,144.93,-0.89,13.13,31.5904291,120.7795277,2.600,13632553.523,24927046.544,2.600,-0.967,0.152,-0.890,0.619,0.977,0.614,0.000,18,17,4*6D
$GPGGA,085731.00,3135.4256338,N,12046.7717581,E,4,18,1.3,2.5870,M,8.322,M,01,0004*6E
$GPHPD,1957,32268.800,145.01,-0.55,13.13,31.5904272,120.7795293,2.587,13632555.319,24927048.371,2.587,-0.942,0.104,-0.934,0.619,0.977,0.614,0.000,18,17,4*63
$GPGGA,085731.20,3135.4255160,N,12046.7718527,E,4,18,1.3,2.5906,M,8.322,M,01,0004*63
$GPHPD,1957,32269.000,144.97,-0.36,13.15,31.5904253,120.7795309,2.591,13632557.184,24927050.197,2.591,-0.914,0.089,-0.942,0.619,0.977,0.614,0.000,18,17,4*67
$GPGGA,085731.40,3135.4253961,N,12046.7719478,E,4,18,1.3,2.6043,M,8.322,M,01,0004*6B
$GPHPD,1957,32269.200,145.03,-0.62,13.14,31.5904233,120.7795325,2.604,13632559.080,24927052.042,2.604,-0.934,0.100,-0.940,0.619,0.977,0.614,0.000,18,17,4*61
$GPGGA,085731.60,3135.4252745,N,12046.7720408,E,4,18,1.3,2.5861,M,8.322,M,00,0004*67
$GPHPD,1957,32269.400,144.81,-0.79,13.12,31.5904212,120.7795340,2.586,13632560.996,24927053.872,2.586,-0.975,0.189,-0.887,0.619,0.977,0.614,0.000,18,17,4*60
$GPGGA,085731.80,3135.4251570,N,12046.7721375,E,4,18,1.3,2.5886,M,8.322,M,00,0004*6B
$GPHPD,1957,32269.600,144.40,-0.11,13.11,31.5904193,120.7795356,2.589,13632562.861,24927055.722,2.589,-0.954,0.117,-0.931,0.659,0.994,0.646,0.000,18,17,4*6E
$GPGGA,085732.00,3135.4250383,N,12046.7722364,E,4,18,1.3,2.5946,M,8.322,M,01,0004*64
$GPHPD,1957,32269.800,144.62,-0.51,13.11,31.5904173,120.7795373,2.595,13632564.747,24927057.606,2.595,-0.934,0.082,-0.949,0.659,0.994,0.646,0.000,18,17,4*61
$GPGGA,085732.20,3135.4249192,N,12046.7723358,E,4,18,1.3,2.5967,M,8.322,M,01,0004*61
$GPHPD,1957,32270.000,144.40,-0.36,13.08,31.5904153,120.7795389,2.597,13632566.640,24927059.498,2.597,-0.953,0.096,-0.942,0.620,0.977,0.711,0.000,18,17,4*6F
$GPGGA,085732.40,3135.4247944,N,12046.7724169,E,4,18,1.3,2.5934,M,8.322,M,01,0004*6B
$GPHPD,1957,32270.200,144.51,-0.61,13.08,31.5904132,120.7795403,2.593,13632568.577,24927061.202,2.593,-0.957,0.105,-0.936,0.620,0.977,0.711,0.000,18,16,4*67
$GPGGA,085732.60,3135.4246791,N,12046.7725196,E,4,18,1.3,2.5932,M,8.322,M,00,0004*68
$GPHPD,1957,32270.400,144.30,-0.26,13.07,31.5904113,120.7795420,2.593,13632570.423,24927063.112,2.593,-0.941,0.153,-0.909,0.633,0.979,0.711,0.000,18,17,4*64
$GPGGA,085732.80,3135.4245632,N,12046.7726143,E,4,18,1.3,2.5763,M,8.322,M,00,0004*6C
$GPHPD,1957,32270.600,145.02,-0.95,13.08,31.5904094,120.7795436,2.576,13632572.261,24927064.929,2.576,-0.939,0.121,-0.933,0.620,0.977,0.711,0.000,18,17,4*62
$GPGGA,085733.00,3135.4244447,N,12046.7727157,E,4,17,1.3,2.5836,M,8.322,M,01,0004*61
$GPHPD,1957,32270.800,144.86,-0.97,13.10,31.5904074,120.7795453,2.584,13632574.150,24927066.842,2.584,-0.913,0.081,-0.950,0.620,0.976,0.711,0.000,17,17,4*66
$GPGGA,085733.20,3135.4243258,N,12046.7728118,E,4,17,1.3,2.5865,M,8.322,M,01,0004*6E
$GPHPD,1957,32271.000,144.22,-1.16,13.11,31.5904054,120.7795469,2.587,13632576.034,24927068.693,2.587,-0.966,0.088,-0.942,0.632,0.978,0.614,0.000,17,17,4*6F
$GPGGA,085733.40,3135.4242072,N,12046.7729069,E,4,17,1.3,2.5871,M,8.322,M,01,0004*60
$GPHPD,1957,32271.200,144.40,-1.44,13.12,31.5904035,120.7795484,2.587,13632577.911,24927070.530,2.587,-0.972,0.126,-0.923,0.633,0.979,0.711,0.000,17,17,4*66
$GPGGA,085733.60,3135.4240891,N,12046.7730062,E,4,17,1.3,2.5752,M,8.322,M,00,0004*69
$GPHPD,1957,32271.400,143.73,-0.77,13.13,31.5904015,120.7795501,2.575,13632579.790,24927072.415,2.575,-0.940,0.102,-0.945,0.632,0.978,0.614,0.000,17,17,4*67
$GPGGA,085733.80,3135.4239726,N,12046.7731017,E,4,17,1.3,2.5753,M,8.322,M,00,0004*68
$GPHPD,1957,32271.600,143.65,-1.36,13.13,31.5903995,120.7795517,2.575,13632581.638,24927074.245,2.575,-0.936,0.068,-0.954,0.632,0.978,0.614,0.000,17,17,4*6A
$GPGGA,085734.00,3135.4238563,N,12046.7732009,E,4,17,1.3,2.5768,M,8.322,M,01,0004*60
$GPHPD,1957,32271.800,143.87,-1.17,13.16,31.5903976,120.7795533,2.577,13632583.491,24927076.119,2.577,-0.946,0.050,-0.932,0.632,0.978,0.614,0.000,17,17,4*62
$GPGGA,085734.20,3135.4237370,N,12046.7732989,E,4,17,1.3,2.5685,M,8.322,M,01,0004*6A
$GPHPD,1957,32272.000,144.83,-0.78,13.19,31.5903956,120.7795550,2.569,13632585.384,24927077.995,2.569,-0.966,0.068,-0.916,0.632,0.978,0.614,0.000,17,17,4*6D
$GPGGA,085734.40,3135.4236209,N,12046.7733992,E,4,17,1.3,2.5782,M,8.322,M,01,0004*6F
$GPHPD,1957,32272.200,144.96,-1.00,13.21,31.5903937,120.7795567,2.578,13632587.236,24927079.880,2.578,-0.970,0.066,-0.926,0.632,0.978,0.614,0.000,17,17,4*66
$GPGGA,085734.60,3135.4235019,N,12046.7734980,E,4,17,1.3,2.5719,M,8.323,M,00,0004*6B
$GPHPD,1957,32272.400,145.11,-1.10,13.19,31.5903917,120.7795583,2.572,13632589.127,24927081.765,2.572,-0.972,0.086,-0.937,0.632,0.978,0.614,0.000,17,17,4*6E
$GPGGA,085734.80,3135.4233840,N,12046.7735933,E,4,17,1.3,2.5731,M,8.323,M,00,0004*64
$GPHPD,1957,32272.600,145.71,-0.42,13.20,31.5903897,120.7795599,2.573,13632590.995,24927083.600,2.573,-0.999,0.080,-0.913,0.632,0.978,0.614,0.000,17,17,4*68
$GPGGA,085735.00,3135.4232667,N,12046.7736915,E,4,18,1.3,2.5661,M,8.323,M,01,0004*6A
$GPHPD,1957,32272.800,145.48,-0.37,13.17,31.5903878,120.7795615,2.566,13632592.860,24927085.468,2.566,-0.942,0.062,-0.952,0.633,0.978,0.711,0.000,18,17,4*6A
