1.77,31.5934365,120.7770405,2.664,13629688.426,24924196.435,2.664,0.414,-0.036,0.359,0.682,1.267,0.742,0.000,17,17,4*43
$GPGGA,091459.00,3135.6062496,N,12046.6223754,E,4,17,1.5,2.6642,M,8.311,M,01,0004*6E
$GPHPD,1957,33316.800,322.05,0.06,11.91,31.5934375,120.7770396,2.664,13629687.430,24924195.405,2.664,0.479,-0.059,0.420,0.597,1.218,0.740,0.000,17,17,4*68
$GPGGA,091459.20,3135.6063030,N,12046.6223257,E,4,17,1.5,2.6692,M,8.311,M,01,0004*6E
$GPHPD,1957,33317.000,322.11,-0.30,11.86,31.5934384,120.7770388,2.669,13629686.571,24924194.494,2.669,0.519,-0.012,0.490,0.597,1.218,0.740,0.000,17,17,4*44
$GPGGA,091459.40,3135.6063473,N,12046.6222859,E,4,17,1.5,2.6720,M,8.311,M,01,0004*66
$GPHPD,1957,33317.200,321.97,-0.16,11.76,31.5934391,120.7770381,2.672,13629685.862,24924193.757,2.672,0.461,-0.026,0.425,0.597,1.218,0.740,0.000,17,17,4*4D
$GPGGA,091459.60,3135.6063817,N,12046.6222568,E,4,17,1.5,2.6692,M,8.311,M,00,0004*6C
$GPHPD,1957,33317.400,322.05,-0.61,11.68,31.5934397,120.7770376,2.669,13629685.314,24924193.205,2.669,0.369,0.001,0.355,0.597,1.218,0.740,0.000,17,17,4*6D
$GPGGA,091459.80,3135.6064077,N,12046.6222341,E,4,17,1.5,2.6618,M,8.311,M,00,0004*64
$GPHPD,1957,33317.600,321.84,-0.14,11.64,31.5934401,120.7770372,2.662,13629684.899,24924192.780,2.662,0.284,-0.039,0.263,0.597,1.218,0.740,0.000,17,17,4*41
$GPGGA,091500.00,3135.6064281,N,12046.6222155,E,4,17,1.5,2.6614,M,8.311,M,01,0004*60
$GPHPD,1957,33317.800,322.03,-0.26,11.64,31.5934405,120.7770369,2.661,13629684.572,24924192.437,2.661,0.241,-0.058,0.191,0.597,1.218,0.740,0.000,17,17,4*4B
$GPGGA,091500.20,3135.6064459,N,12046.6222012,E,4,17,1.5,2.6612,M,8.311,M,01,0004*65
$GPHPD,1957,33318.000,321.89,-0.15,11.66,31.5934408,120.7770367,2.661,13629684.290,24924192.161,2.661,0.182,-0.005,0.163,0.597,1.218,0.740,0.000,17,17,4*48
$GPGGA,091500.40,3135.6064611,N,12046.6221885,E,4,17,1.5,2.6622,M,8.311,M,01,0004*6B
$GPHPD,1957,33318.200,321.82,-0.37,11.69,31.5934410,120.7770365,2.662,13629684.048,24924191.919,2.662,0.138,-0.004,0.146,0.597,1.218,0.740,0.000,17,17,4*41
$GPGGA,091500.60,3135.6064730,N,12046.6221767,E,4,17,1.5,2.6634,M,8.311,M,00,0004*6E
$GPHPD,1957,33318.400,321.77,-0.45,11.72,31.5934412,120.7770363,2.663,13629683.856,24924191.708,2.663,0.115,0.007,0.127,0.597,1.218,0.740,0.000,17,17,4*6E
$GPGGA,091500.80,3135.6064824,N,12046.6221680,E,4,17,1.5,2.6670,M,8.311,M,00,0004*62
$GPHPD,1957,33318.600,321.83,-0.40,11.77,31.5934414,120.7770361,2.667,13629683.704,24924191.548,2.667,0.115,-0.017,0.093,0.597,1.218,0.740,0.000,17,17,4*4F
$GPGGA,091501.00,3135.6064923,N,12046.6221578,E,4,17,1.5,2.6726,M,8.311,M,01,0004*6A
$GPHPD,1957,33318.800,321.85,-0.18,11.82,31.5934415,120.7770360,2.673,13629683.543,24924191.368,2.673,0.092,-0.012,0.077,0.597,1.218,0.740,0.000,17,17,4*44
$GPGGA,091501.20,3135.6065047,N,12046.6221480,E,4,17,1.5,2.6668,M,8.311,M,01,0004*6F
$GPHPD,1957,33319.000,321.82,-0.20,11.90,31.5934417,120.7770358,2.667,13629683.347,24924191.177,2.667,0.079,0.009,0.089,0.597,1.218,0.740,0.000,17,17,4*66
$GPGGA,091501.40,3135.6065180,N,12046.6221355,E,4,17,1.5,2.6717,M,8.311,M,01,0004*65
$GPHPD,1957,33319.200,321.79,-0.30,12.00,31.5934420,120.7770356,2.672,13629683.133,24924190.949,2.672,0.097,-0.011,0.085,0.597,1.218,0.740,0.000,17,17,4*4C
$GPGGA,091501.60,3135.6065340,N,12046.6221194,E,4,17,1.5,2.6679,M,8.311,M,00,0004*6E
$GPHPD,1957,33319.400,321.84,-0.42,12.12,31.5934422,120.7770353,2.668,13629682.873,24924190.662,2.668,0.108,0.004,0.106,0.597,1.218,0.740,0.000,17,17,4*67
$GPGGA,091501.80,3135.6065591,N,12046.6220990,E,4,17,1.5,2.6593,M,8.311,M,00,0004*60
$GPHPD,1957,33319.600,321.84,-0.28,12.27,31.5934427,120.7770350,2.659,13629682.475,24924190.270,2.659,0.166,-0.016,0.123,0.597,1.217,0.740,0.000,17,17,4*4A
$GPGGA,091502.00,3135.6065913,N,12046.6220702,E,4,17,1.5,2.6540,M,8.311,M,01,0004*67
$GPHPD,1957,33319.800,321.62,-0.21,12.44,31.5934432,120.7770345,2.654,13629681.960,24924189.735,2.654,0.230,-0.060,0.173,0.597,1.217,0.740,0.000,17,17,4*42
$GPGGA,091502.20,3135.6066315,N,12046.6220347,E,4,17,1.5,2.6568,M,8.311,M,01,0004*65
$GPHPD,1957,33320.000,322.02,-0.54,12.57,31.5934439,120.7770339,2.657,13629681.317,24924189.073,2.657,0.293,-0.040,0.239,0.597,1.217,0.740,0.000,17,17,4*4C
$GPGGA,091502.40,3135.6066816,N,12046.6219896,E,4,17,1.5,2.6638,M,8.311,M,01,0004*60
$GPHPD,1957,33320.200,321.91,-0.44,12.71,31.5934447,120.7770332,2.664,13629680.514,24924188.237,2.664,0.336,-0.014,0.320,0.597,1.217,0.740,0.000,17,17,4*41
$GPGGA,091502.60,3135.6067389,N,12046.6219388,E,4,17,1.5,2.6602,M,8.311,M,00,0004*62
$GPHPD,1957,33320.400,322.05,-0.44,12.84,31.5934456,120.7770323,2.660,13629679.598,24924187.291,2.660,0.418,0.001,0.399,0.619,1.237,0.784,0.000,17,17,4*6D
$GPGGA,091502.80,3135.6068034,N,12046.6218830,E,4,17,1.5,2.6613,M,8.311,M,00,0004*6F
$GPHPD,1957,33320.600,322.13,-0.60,12.95,31.5934467,120.7770314,2.661,13629678.569,24924186.243,2.661,0.477,-0.015,0.447,0.597,1.217,0.740,0.000,17,17,4*43
$GPGGA,091503.00,3135.6068751,N,12046.6218169,E,4,17,1.5,2.6614,M,8.311,M,01,0004*61
$GPHPD,1957,33320.800,322.22,-0.61,13.04,31.5934479,120.7770303,2.661,13629677.417,24924185.028,2.661,0.544,-0.040,0.502,0.619,1.237,0.784,0.000,17,17,4*4B
$GPGGA,091503.20,3135.6069543,N,12046.6217488,E,4,17,1.5,2.6596,M,8.311,M,01,0004*6F
$GPHPD,1957,33321.000,322.53,-0.48,13.10,31.5934492,120.7770291,2.660,13629676.154,24924183.746,2.660,0.612,-0.042,0.570,0.597,1.217,0.740,0.000,17,17,4*47
$GPGGA,091503.40,3135.6070386,N,12046.6216736,E,4,17,1.5,2.6595,M,8.311,M,01,0004*6A
$GPHPD,1957,33321.200,322.38,-0.24,13.16,31.5934506,120.7770279,2.660,13629674.805,24924182.348,2.660,0.670,-0.045,0.619,0.597,1.217,0.740,0.000,17,17,4*45
$GPGGA,091503.60,3135.6071264,N,12046.6215970,E,4,17,1.5,2.6637,M,8.311,M,00,0004*61
$GPHPD,1957,33321.400,322.63,-0.39,13.21,31.5934521,120.7770266,2.664,13629673.403,24924180.913,2.664,0.705,-0.052,0.654,0.597,1.217,0.740,0.000,17,17,4*49
$GPGGA,091503.80,3135.6072189,N,12046.6215188,E,4,17,1.5,2.6612,M,8.311,M,00,0004*64
$GPHPD,1957,33321.600,322.50,-0.16,13.26,31.5934536,120.7770253,2.661,13629671.931,24924179.432,2.661,0.737,-0.052,0.699,0.597,1.217,0.740,0.000,17,17,4*47
$GPGGA,091504.00,3135.6073155,N,12046.6214337,E,4,17,1.5,2.6527,M,8.311,M,01,0004*68
$GPHPD,1957,33321.800,322.38,-0.01,13.30,31.5934553,120.7770239,2.653,13629670.386,24924177.843,2.653,0.779,-0.092,0.719,0.597,1.217,0.740,0.000,17,17,4*45
$GPGGA,091504.20,3135.6074127,N,12046.6213489,E,4,17,1.5,2.6522,M,8.311,M,01,0004*68
$GPHPD,1957,33322.000,322.43,0.06,13.33,31.5934569,120.7770225,2.652,13629668.834,24924176.255,2.652,0.818,-0.082,0.731,0.597,1.217,0.740,0.000,17,17,4*6B
$GPGGA,091504.40,3135.6075137,N,12046.6212602,E,4,17,1.5,2.6642,M,8.311,M,01,0004*6B
$GPHPD,1957,33322.200,322.50,-0.18,13.37,31.5934586,120.7770210,2.664,13629667.220,24924174.597,2.664,0.856,-0.100,0.760,0.619,1.237,0.784,0.000,17,17,4*4B
$GPGGA,091504.60,3135.6076172,N,12046.6211680,E,4,17,1.5,2.6645,M,8.311,M,00,0004*64
$GPHPD,1957,33322.400,322.60,-0.83,13.41,31.5934603,120.7770195,2.665,13629665.564,24924172.883,2.665,0.835,-0.015,0.805,0.597,1.217,0.740,0.000,17,17,4*45
$GPGGA,091504.80,3135.6077230,N,12046.6210740,E,4,17,1.5,2.6648,M,8.311,M,00,0004*6F
$GPHPD,1957,33322.600,322.45,-0.30,13.42,31.5934621,120.7770179,2.665,13629663.871,24924171.133,2.665,0.890,-0.038,0.808,0.597,1.217,0.740,0.000,17,17,4*4A
$GPGGA,091505.00,3135.6078291,N,12046.6209814,E,4,17,1.5,2.6642,M,8.311,M,01,0004*6F
$GPHPD,1957,33322.800,322.50,-0.47,13.42,31.5934638,120.7770164,2.664,13629662.177,24924169.399,2.664,0.909,-0.081,0.826,0.682,1.266,0.742,0.000,17,17,4*4D
$GPGGA,091505.20,3135.6079372,N,12046.6208865,E,4,17,1.5,2.6667,M,8.311,M,01,0004*60
$GPHPD,1957,33323.000,322.54,-0.27,13.42,31.5934656,120.7770148,2.667,13629660.449,24924167.625,2.667,0.912,-0.090,0.842,0.619,1.237,0.784,0.000,17,17,4*42
$GPGGA,091505.40,3135.6080466,N,12046.6207893,E,4,17,1.5,2.6591,M,8.311,M,01,0004*6E
$GPHPD,1957,33323.200,322.60,-0.92,13.42,31.5934674,120.7770132,2.659,13629658.699,24924165.816,2.659,0.893,-0.048,0.858,0.597,1.217,0.740,0.000,17,17,4*45
$GPGGA,091505.60,3135.6081553,N,12046.6206945,E,4,17,1.5,2.6568,M,8.311,M,00,0004*66
$GPHPD,1957,33323.400,322.55,-0.78,13.41,31.5934693,120.7770116,2.657,13629656.963,24924164.040,2.657,0.948,-0.068,0.834,0.682,1.266,0.742,0.000,17,17,4*4F
$GPGGA,091505.80,3135.6082673,N,12046.6205960,E,4,17,1.5,2.6570,M,8.311,M,00,0004*67
$GPHPD,1957,33323.600,322.56,-0.83,13.39,31.5934711,120.7770099,2.657,13629655.173,24924162.200,2.657,0.931,-0.111,0.840,0.682,1.266,0.742,0.000,17,17,4*40
$GPGGA,091506.00,3135.6083758,N,12046.6204989,E,4,17,1.5,2.6503,M,8.311,M,01,0004*66
$GPHPD,1957,33323.800,322.63,-1.58,13.38,31.5934729,120.7770083,2.650,13629653.436,24924160.397,2.650,0.935,-0.080,0.871,0.682,1.266,0.742,0.000,17,17,4*4E
$GPGGA,091506.20,3135.6084850,N,12046.6203998,E,4,17,1.5,2.6548,M,8.311,M,01,0004*6C
$GPHPD,1957,33324.000,322.75,-1.29,13.37,31.5934748,120.7770067,2.655,13629651.685,24924158.567,2.655,0.950,-0.091,0.847,0.682,1.266,0.742,0.000,17,17,4*4E
$GPGGA,091506.40,3135.6085982,N,12046.6203059,E,4,17,1.5,2.6459,M,8.311,M,01,0004*60
$GPHPD,1957,33324.200,322.59,-0.95,13.35,31.5934766,120.7770051,2.646,13629649.887,24924156.775,2.646,0.939,-0.062,0.863,0.682,1.266,0.742,0.000,17,17,4*40
$GPGGA,091506.60,3135.6087098,N,12046.6202098,E,4,17,1.5,2.6397,M,8.311,M,00,0004*6A
$GPHPD,1957,33324.400,322.58,-0.96,13.30,31.5934785,120.7770035,2.640,13629648.107,24924154.967,2.640,0.957,-0.092,0.863,0.682,1.266,0.742,0.000,17,17,4*46
$GPGGA,091506.80,3135.6088229,N,12046.6201109,E,4,17,1.5,2.6332,M,8.311,M,00,0004*66
$GPHPD,1957,33324.600,322.67,-0.79,13.28,31.5934804,120.7770018,2.633,13629646.301,24924153.116,2.633,0.944,-0.092,0.864,0.682,1.266,0.742,0.000,17,17,4*4F
$GPGGA,091507.00,3135.6089346,N,12046.6200113,E,4,17,1.5,2.6406,M,8.311,M,01,0004*6D
$GPHPD,1957,33324.800,322.83,-0.71,13.27,31.5934822,120.7770002,2.641,13629644.513,24924151.264,2.641,0.971,-0.113,0.851,0.682,1.266,0.742,0.000,17,17,4*48
$GPGGA,091507.20,3135.6090496,N,12046.6199145,E,4,17,1.5,2.6310,M,8.311,M,01,0004*6D
$GPHPD,1957,33325.000,322.85,-0.55,13.27,31.5934842,120.7769986,2.631,13629642.684,24924149.427,2.631,0.955,-0.087,0.880,0.682,1.266,0.742,0.000,17,17,4*4F
$GPGGA,091507.40,3135.6091619,N,12046.6198106,E,4,17,1.5,2.6337,M,8.311,M,01,0004*6C
$GPHPD,1957,33325.200,322.88,-0.46,13.29,31.5934860,120.7769968,2.634,13629640.878,24924147.521,2.634,0.981,-0.128,0.876,0.682,1.266,0.742,0.000,17,17,4*4E
$GPGGA,091507.60,3135.6092783,N,12046.6197142,E,4,17,1.5,2.6322,M,8.311,M,00,0004*65
$GPHPD,1957,33325.400,323.17,-1.03,13.30,31.5934880,120.7769952,2.632,13629639.030,24924145.681,2.632,0.965,-0.066,0.889,0.682,1.266,0.742,0.000,17,17,4*40
$GPGGA,091507.80,3135.6093939,N,12046.6196150,E,4,17,1.5,2.6240,M,8.311,M,00,0004*62
$GPHPD,1957,33325.600,322.90,-0.46,13.29,31.5934899,120.7769936,2.624,13629637.188,24924143.811,2.624,0.983,-0.101,0.899,0.682,1.266,0.742,0.000,17,16,4*4B
$GPGGA,091508.00,3135.6095085,N,12046.6195147,E,4,17,1.5,2.6324,M,8.311,M,01,0004*6A
$GPHPD,1957,33325.800,323.15,-0.94,13.29,31.5934918,120.7769919,2.632,13629635.357,24924141.935,2.632,0.987,-0.125,0.888,0.682,1.266,0.742,0.000,17,16,4*46
$GPGGA,091508.20,3135.6096236,N,12046.6194136,E,4,17,1.5,2.6304,M,8.311,M,01,0004*64
$GPHPD,1957,33326.000,322.84,-0.49,13.29,31.5934937,120.7769902,2.630,13629633.518,24924140.045,2.630,0.946,-0.032,0.918,0.682,1.266,0.742,0.000,17,16,4*45
$GPGGA,091508.40,3135.6097396,N,12046.6193112,E,4,17,1.5,2.6290,M,8.311,M,01,0004*65
$GPHPD,1957,33326.200,322.74,-0.55,13.33,31.5934957,120.7769885,2.629,13629631.663,24924138.135,2.629,0.965,-0.039,0.904,0.682,1.266,0.742,0.000,17,16,4*45
$GPGGA,091508.60,3135.6098572,N,12046.6192100,E,4,17,1.5,2.6293,M,8.311,M,00,0004*64
$GPHPD,1957,33326.400,322.71,-0.94,13.33,31.5934976,120.7769868,2.629,13629629.788,24924136.230,2.629,0.990,-0.038,0.906,0.682,1.266,0.742,0.000,17,16,4*47
$GPGGA,091508.80,3135.6099732,N,12046.6191065,E,4,17,1.5,2.6283,M,8.311,M,00,0004*6D
$GPHPD,1957,33326.600,322.62,-0.20,13.33,31.5934996,120.7769851,2.628,13629627.931,24924134.307,2.628,0.967,-0.057,0.943,0.682,1.266,0.742,0.000,17,16,4*49
$GPGGA,091509.00,3135.6100929,N,12046.6190057,E,4,17,1.5,2.6178,M,8.311,M,01,0004*67
$GPHPD,1957,33326.800,322.61,-0.40,13.33,31.5935015,120.7769834,2.618,13629626.027,24924132.394,2.618,0.971,-0.043,0.927,0.682,1.266,0.742,0.000,17,16,4*41
$GPGGA,091509.20,3135.6102063,N,12046.6188992,E,4,17,1.5,2.6261,M,8.311,M,01,0004*62
$GPHPD,1957,33327.000,322.40,-0.17,13.34,31.5935034,120.7769817,2.626,13629624.201,24924130.450,2.626,1.003,-0.095,0.914,0.682,1.266,0.742,0.000,17,16,4*43
$GPGGA,091509.40,3135.6103280,N,12046.6187949,E,4,17,1.5,2.6241,M,8.311,M,01,0004*61
$GPHPD,1957,33327.200,322.57,-0.75,13.33,31.5935055,120.7769799,2.624,13629622.262,24924128.484,2.624,0.989,-0.054,0.914,0.682,1.266,0.742,0.000,17,16,4*4E
$GPGGA,091509.60,3135.6104421,N,12046.6186944,E,4,17,1.5,2.6237,M,8.311,M,00,0004*65
$GPHPD,1957,33327.400,322.56,-0.68,13.31,31.5935074,120.7769782,2.624,13629620.438,24924126.607,2.624,1.005,-0.066,0.935,0.682,1.266,0.743,0.000,17,16,4*4D
$GPGGA,091509.80,3135.6105600,N,12046.6185920,E,4,17,1.5,2.6216,M,8.311,M,00,0004*69
$GPHPD,1957,33327.600,322.58,-1.10,13.31,31.5935093,120.7769765,2.622,13629618.556,24924124.686,2.622,0.967,-0.050,0.921,0.682,1.266,0.743,0.000,17,16,4*4A
$GPGGA,091510.00,3135.6106757,N,12046.6184861,E,4,17,1.5,2.6150,M,8.311,M,01,0004*6C
$GPHPD,1957,33327.800,322.57,-1.00,13.34,31.5935113,120.7769748,2.615,13629616.699,24924122.735,2.615,0.980,-0.087,0.918,0.682,1.266,0.743,0.000,17,16,4*41
$GPGGA,091510.20,3135.6107928,N,12046.6183853,E,4,17,1.5,2.6116,M,8.311,M,01,0004*6D
$GPHPD,1957,33328.000,322.77,-0.79,13.34,31.5935132,120.7769731,2.612,13629614.831,24924120.838,2.612,1.015,-0.096,0.891,0.682,1.266,0.743,0.000,17,16,4*4C
$GPGGA,091510.40,3135.6109102,N,12046.6182815,E,4,17,1.5,2.6067,M,8.311,M,01,0004*61
$GPHPD,1957,33328.200,322.59,-0.23,13.33,31.5935152,120.7769714,2.607,13629612.954,24924118.903,2.607,0.982,-0.083,0.903,0.682,1.266,0.743,0.000,17,16,4*45
$GPGGA,091510.60,3135.6110272,N,12046.6181789,E,4,17,1.5,2.6085,M,8.311,M,00,0004*6B
$GPHPD,1957,33328.400,322.44,-0.66,13.31,31.5935171,120.7769696,2.609,13629611.085,24924116.985,2.609,0.979,-0.079,0.921,0.682,1.266,0.743,0.000,17,16,4*41
$GPGGA,091510.80,3135.6111455,N,12046.6180747,E,4,17,1.5,2.5957,M,8.311,M,00,0004*61
$GPHPD,1957,33328.600,322.41,-0.44,13.32,31.5935191,120.7769679,2.596,13629609.194,24924115.039,2.596,0.974,-0.091,0.927,0.682,1.266,0.743,0.000,17,16,4*42
$GPGGA,091511.00,3135.6112640,N,12046.6179709,E,4,17,1.5,2.6051,M,8.311,M,01,0004*6C
$GPHPD,1957,33328.800,322.63,-0.19,13.30,31.5935211,120.7769662,2.605,13629607.301,24924113.098,2.605,1.020,-0.089,0.913,0.682,1.266,0.743,0.000,17,16,4*4D
$GPGGA,091511.20,3135.6113832,N,12046.6178655,E,4,17,1.5,2.6037,M,8.311,M,01,0004*6D
$GPHPD,1957,33329.000,322.51,0.02,13.28,31.5935231,120.7769644,2.604,13629605.394,24924111.133,2.604,0.970,-0.045,0.953,0.682,1.266,0.743,0.000,17,16,4*68
$GPGGA,091511.40,3135.6115011,N,12046.6177624,E,4,17,1.5,2.5938,M,8.311,M,01,0004*68
$GPHPD,1957,33329.200,322.40,-0.19,13.29,31.5935250,120.7769627,2.594,13629603.511,24924109.203,2.594,1.004,-0.067,0.937,0.682,1.266,0.743,0.000,17,16,4*43
$GPGGA,091511.60,3135.6116181,N,12046.6176566,E,4,17,1.5,2.5975,M,8.311,M,00,0004*6D
$GPHPD,1957,33329.400,322.49,-0.21,13.28,31.5935270,120.7769609,2.598,13629601.636,24924107.246,2.598,1.030,-0.092,0.925,0.682,1.266,0.743,0.000,17,15,4*4E
$GPGGA,091511.80,3135.6117359,N,12046.6175506,E,4,17,1.5,2.5916,M,8.311,M,00,0004*65
$GPHPD,1957,33329.600,322.37,-0.52,13.22,31.5935289,120.7769592,2.592,13629599.748,24924105.282,2.592,1.010,-0.042,0.923,0.734,1.310,0.797,0.000,17,16,4*43
$GPGGA,091512.00,3135.6118544,N,12046.6174471,E,4,17,1.5,2.6024,M,8.311,M,01,0004*61
$GPHPD,1957,33329.800,322.32,-0.21,13.19,31.5935309,120.7769575,2.602,13629597.856,24924103.344,2.602,1.015,-0.068,0.926,0.682,1.266,0.743,0.000,17,17,4*4B
$GPGGA,091512.20,3135.6119744,N,12046.6173436,E,4,17,1.5,2.6005,M,8.311,M,01,0004*67
$GPHPD,1957,33330.000,322.38,-1.08,13.18,31.5935329,120.7769557,2.601,13629595.942,24924101.397,2.601,0.984,-0.028,0.936,0.734,1.310,0.797,0.000,17,16,4*43
$GPGGA,091512.40,3135.6120899,N,12046.6172381,E,4,17,1.5,2.6032,M,8.311,M,01,0004*6A
$GPHPD,1957,33330.200,322.48,-0.97,13.19,31.5935348,120.7769540,2.603,13629594.088,24924099.453,2.603,1.008,-0.071,0.935,0.682,1.266,0.743,0.000,17,16,4*46
$GPGGA,091512.60,3135.6122113,N,12046.6171353,E,4,17,1.5,2.5946,M,8.311,M,00,0004*65
$GPHPD,1957,33330.400,322.32,-0.87,13.19,31.5935369,120.7769523,2.595,13629592.156,24924097.506,2.595,0.992,-0.026,0.948,0.734,1.310,0.797,0.000,17,16,4*47
$GPGGA,091512.80,3135.6123295,N,12046.6170290,E,4,16,1.7,2.5871,M,8.311,M,00,0004*6E
$GPHPD,1957,33330.600,322.34,-0.72,13.21,31.5935388,120.7769505,2.587,13629590.262,24924095.536,2.587,1.015,-0.085,0.944,0.691,1.270,0.857,0.000,16,15,4*44
$GPGGA,091513.00,3135.6124463,N,12046.6169233,E,4,16,1.7,2.5878,M,8.311,M,01,0004*66
$GPHPD,1957,33330.800,322.49,-0.62,13.22,31.5935408,120.7769487,2.588,13629588.389,24924093.581,2.588,1.033,-0.112,0.906,0.813,1.345,1.161,0.000,16,14,4*43
$GPGGA,091513.20,3135.6125641,N,12046.6168170,E,4,16,1.8,2.5801,M,8.311,M,01,0004*63
$GPHPD,1957,33331.000,322.28,-0.58,13.24,31.5935427,120.7769470,2.580,13629586.501,24924091.614,2.580,1.043,-0.096,0.880,0.813,1.345,1.161,0.000,16,14,4*47
$GPGGA,091513.40,3135.6126822,N,12046.6167146,E,4,16,1.8,2.5826,M,8.311,M,01,0004*62
$GPHPD,1957,33331.200,322.32,-0.38,13.25,31.5935447,120.7769452,2.583,13629584.617,24924089.691,2.583,1.017,-0.092,0.921,0.813,1.345,1.161,0.000,16,14,4*42
$GPGGA,091513.60,3135.6128007,N,12046.6166101,E,4,16,1.6,2.5799,M,8.311,M,00,0004*67
$GPHPD,1957,33331.400,322.21,-0.09,13.28,31.5935467,120.7769435,2.580,13629582.722,24924087.741,2.580,0.984,-0.042,0.949,0.813,1.345,1.161,0.000,16,14,4*48
$GPGGA,091513.80,3135.6129186,N,12046.6165046,E,4,16,1.6,2.5804,M,8.311,M,00,0004*6A
$GPHPD,1957,33331.600,322.22,-0.04,13.29,31.5935486,120.7769417,2.580,13629580.834,24924085.783,2.580,1.015,-0.098,0.910,0.813,1.345,1.161,0.000,16,14,4*47
$GPGGA,091514.00,3135.6130380,N,12046.6164002,E,4,17,1.6,2.5713,M,8.311,M,01,0004*61
$GPHPD,1957,33331.800,322.27,-0.15,13.30,31.5935506,120.7769400,2.571,13629578.927,24924083.829,2.571,0.986,-0.060,0.949,0.686,1.276,0.790,0.000,17,14,4*44
$GPGGA,091514.20,3135.6131548,N,12046.6162946,E,4,17,1.6,2.5830,M,8.311,M,01,0004*61
$GPHPD,1957,33332.000,322.19,-0.20,13.29,31.5935526,120.7769382,2.583,13629577.055,24924081.875,2.583,1.020,-0.101,0.919,0.686,1.276,0.790,0.000,17,15,4*4D
$GPGGA,091514.40,3135.6132689,N,12046.6161895,E,4,17,1.6,2.5732,M,8.311,M,01,0004*6B
$GPHPD,1957,33332.200,322.20,-0.31,13.30,31.5935545,120.7769365,2.573,13629575.222,24924079.944,2.573,0.989,-0.038,0.946,0.686,1.276,0.790,0.000,17,15,4*4F
$GPGGA,091514.60,3135.6133887,N,12046.6160844,E,4,17,1.5,2.5807,M,8.311,M,00,0004*6E
$GPHPD,1957,33332.400,322.33,-0.55,13.31,31.5935565,120.7769347,2.581,13629573.308,24924077.979,2.581,0.977,-0.032,0.927,0.686,1.276,0.790,0.000,17,15,4*49
$GPGGA,091514.80,3135.6135070,N,12046.6159829,E,4,17,1.5,2.5766,M,8.311,M,00,0004*6F
$GPHPD,1957,33332.600,322.47,-1.16,13.29,31.5935585,120.7769330,2.577,13629571.422,24924076.066,2.577,1.001,-0.036,0.950,0.682,1.266,0.743,0.000,17,15,4*44
$GPGGA,091515.00,3135.6136239,N,12046.6158770,E,4,17,1.5,2.5779,M,8.311,M,01,0004*67
$GPHPD,1957,33332.800,322.26,-1.16,13.28,31.5935604,120.7769313,2.578,13629569.547,24924074.108,2.578,0.999,-0.085,0.920,0.682,1.266,0.743,0.000,17,15,4*41
$GPGGA,091515.20,3135.6137403,N,12046.6157734,E,4,17,1.5,2.5816,M,8.311,M,01,0004*62
$GPHPD,1957,33333.000,322.33,-1.30,13.29,31.5935623,120.7769296,2.582,13629567.685,24924072.181,2.582,1.004,-0.072,0.914,0.682,1.266,0.743,0.000,17,15,4*47
$GPGGA,091515.40,3135.6138579,N,12046.6156702,E,4,17,1.5,2.5743,M,8.311,M,01,0004*6C
$GPHPD,1957,33333.200,322.35,-1.22,13.28,31.5935643,120.7769278,2.574,13629565.806,24924070.252,2.574,0.996,-0.045,0.923,0.682,1.266,0.743,0.000,17,15,4*4C
$GPGGA,091515.60,3135.6139746,N,12046.6155658,E,4,17,1.5,2.5661,M,8.311,M,00,0004*6C
$GPHPD,1957,33333.400,322.24,-0.77,13.25,31.5935662,120.7769261,2.566,13629563.937,24924068.314,2.566,0.983,-0.050,0.937,0.682,1.266,0.743,0.000,17,15,4*47
$GPGGA,091515.80,3135.6140927,N,12046.6154684,E,4,17,1.5,2.5641,M,8.311,M,00,0004*67
$GPHPD,1957,33333.600,322.29,-0.89,13.26,31.5935682,120.7769245,2.564,13629562.062,24924066.452,2.564,1.000,-0.078,0.884,0.682,1.266,0.743,0.000,17,14,4*40
$GPGGA,091516.00,3135.6142090,N,12046.6153637,E,4,17,1.5,2.5641,M,8.311,M,01,0004*65
$GPHPD,1957,33333.800,322.11,-0.67,13.28,31.5935702,120.7769227,2.564,13629560.199,24924064.512,2.564,0.989,-0.088,0.900,0.682,1.266,0.743,0.000,17,14,4*4D
$GPGGA,091516.20,3135.6143242,N,12046.6152632,E,4,17,1.5,2.5652,M,8.311,M,01,0004*6D
$GPHPD,1957,33334.000,322.28,-0.86,13.29,31.5935721,120.7769211,2.565,13629558.359,24924062.630,2.565,0.999,-0.104,0.908,0.682,1.266,0.743,0.000,17,14,4*4E
$GPGGA,091516.40,3135.6144386,N,12046.6151601,E,4,17,1.5,2.5644,M,8.311,M,01,0004*61
$GPHPD,1957,33334.200,321.99,-1.09,13.30,31.5935740,120.7769193,2.564,13629556.526,24924060.720,2.564,0.972,-0.070,0.906,0.682,1.266,0.743,0.000,17,14,4*4E
$GPGGA,091516.60,3135.6145524,N,12046.6150575,E,4,17,1.5,2.5648,M,8.311,M,00,0004*60
$GPHPD,1957,33334.400,322.03,-0.68,13.29,31.5935759,120.7769176,2.565,13629554.702,24924058.820,2.565,0.977,-0.050,0.921,0.682,1.266,0.743,0.000,17,14,4*45
$GPGGA,091516.80,3135.6146687,N,12046.6149578,E,4,17,1.5,2.5658,M,8.311,M,00,0004*63
$GPHPD,1957,33334.600,322.18,-1.17,13.30,31.5935778,120.7769160,2.566,13629552.849,24924056.941,2.566,0.976,-0.039,0.888,0.682,1.266,0.743,0.000,17,14,4*4A
$GPGGA,091517.00,3135.6147804,N,12046.6148553,E,4,17,1.5,2.5587,M,8.311,M,01,0004*66
$GPHPD,1957,33334.800,322.25,-0.86,13.30,31.5935797,120.7769143,2.559,13629551.055,24924055.055,2.559,0.969,-0.070,0.908,0.682,1.266,0.743,0.000,17,14,4*40
$GPGGA,091517.20,3135.6148954,N,12046.6147546,E,4,17,1.5,2.5489,M,8.311,M,01,0004*6B
$GPHPD,1957,33335.000,322.27,-0.81,13.30,31.5935816,120.7769126,2.549,13629549.218,24924053.171,2.549,0.963,-0.052,0.894,0.735,1.310,0.797,0.000,17,14,4*40
$GPGGA,091517.40,3135.6150082,N,12046.6146513,E,4,17,1.5,2.5517,M,8.311,M,01,0004*61
$GPHPD,1957,33335.200,322.13,-0.53,13.31,31.5935835,120.7769109,2.552,13629547.407,24924051.269,2.552,0.998,-0.111,0.875,0.682,1.266,0.743,0.000,17,14,4*40
$GPGGA,091517.60,3135.6151206,N,12046.6145482,E,4,17,1.5,2.5455,M,8.311,M,00,0004*60
$GPHPD,1957,33335.400,322.23,-0.34,13.32,31.5935853,120.7769091,2.546,13629545.602,24924049.371,2.546,0.978,-0.062,0.891,0.682,1.266,0.743,0.000,17,14,4*42
$GPGGA,091517.80,3135.6152347,N,12046.6144496,E,4,17,1.5,2.5376,M,8.311,M,00,0004*6B
$GPHPD,1957,33335.600,322.24,-0.39,13.30,31.5935872,120.7769075,2.538,13629543.782,24924047.518,2.538,0.990,-0.049,0.878,0.682,1.266,0.743,0.000,17,14,4*41
$GPGGA,091518.00,3135.6153489,N,12046.6143493,E,4,17,1.5,2.5384,M,8.311,M,01,0004*66
$GPHPD,1957,33335.800,321.98,0.07,13.29,31.5935891,120.7769058,2.538,13629541.957,24924045.643,2.538,0.981,-0.104,0.875,0.682,1.266,0.743,0.000,17,15,4*6E
$GPGGA,091518.20,3135.6154589,N,12046.6142482,E,4,17,1.5,2.5413,M,8.311,M,01,0004*6A
$GPHPD,1957,33336.000,321.88,0.33,13.29,31.5935910,120.7769041,2.541,13629540.190,24924043.784,2.541,0.958,-0.090,0.900,0.682,1.266,0.743,0.000,17,15,4*66
$GPGGA,091518.40,3135.6155717,N,12046.6141485,E,4,17,1.5,2.5400,M,8.311,M,01,0004*6E
$GPHPD,1957,33336.200,322.10,0.30,13.30,31.5935929,120.7769025,2.540,13629538.386,24924041.925,2.540,0.952,-0.050,0.881,0.682,1.266,0.743,0.000,17,15,4*66
$GPGGA,091518.60,3135.6156820,N,12046.6140479,E,4,17,1.5,2.5467,M,8.311,M,00,0004*66
$GPHPD,1957,33336.400,321.76,0.34,13.31,31.5935947,120.7769008,2.547,13629536.616,24924040.069,2.547,0.960,-0.070,0.883,0.682,1.266,0.743,0.000,17,15,4*62
$GPGGA,091518.80,3135.6157939,N,12046.6139482,E,4,17,1.5,2.5367,M,8.311,M,00,0004*6D
$GPHPD,1957,33336.600,322.15,0.09,13.30,31.5935966,120.7768991,2.537,13629534.825,24924038.216,2.537,0.945,-0.044,0.884,0.682,1.266,0.743,0.000,17,15,4*6C
$GPGGA,091519.00,3135.6159036,N,12046.6138496,E,4,17,1.5,2.5501,M,8.311,M,01,0004*6F
$GPHPD,1957,33336.800,322.04,0.31,13.32,31.5935984,120.7768975,2.550,13629533.068,24924036.388,2.550,0.978,-0.116,0.840,0.686,1.275,0.790,0.000,17,15,4*6B
$GPGGA,091519.20,3135.6160156,N,12046.6137487,E,4,17,1.5,2.5486,M,8.311,M,01,0004*61
$GPHPD,1957,33337.000,322.16,-0.40,13.33,31.5936003,120.7768958,2.549,13629531.273,24924034.519,2.549,0.918,-0.016,0.880,0.682,1.266,0.743,0.000,17,15,4*44
$GPGGA,091519.40,3135.6161255,N,12046.6136510,E,4,17,1.5,2.5562,M,8.311,M,01,0004*63
$GPHPD,1957,33337.200,322.19,-0.78,13.35,31.5936021,120.7768942,2.556,13629529.515,24924032.701,2.556,0.951,-0.049,0.880,0.682,1.266,0.743,0.000,17,15,4*4B
$GPGGA,091519.60,3135.6162363,N,12046.6135526,E,4,17,1.5,2.5613,M,8.311,M,00,0004*64
$GPHPD,1957,33337.400,322.15,-1.22,13.37,31.5936039,120.7768925,2.561,13629527.742,24924030.870,2.561,0.937,-0.028,0.887,0.682,1.266,0.743,0.000,17,15,4*40
$GPGGA,091519.80,3135.6163484,N,12046.6134543,E,4,17,1.5,2.5612,M,8.311,M,00,0004*66
$GPHPD,1957,33337.600,322.14,-1.68,13.38,31.5936058,120.7768909,2.561,13629525.951,24924029.031,2.561,0.917,-0.009,0.891,0.682,1.266,0.743,0.000,17,15,4*46
$GPGGA,091520.00,3135.6164615,N,12046.6133527,E,4,17,1.5,2.5515,M,8.311,M,01,0004*69
$GPHPD,1957,33337.800,322.24,-1.55,13.38,31.5936077,120.7768892,2.552,13629524.139,24924027.148,2.552,0.917,-0.013,0.899,0.682,1.266,0.743,0.000,17,15,4*4E
$GPGGA,091520.20,3135.6165776,N,12046.6132526,E,4,17,1.5,2.5380,M,8.311,M,01,0004*64
$GPHPD,1957,33338.000,322.12,-1.44,13.37,31.5936096,120.7768875,2.538,13629522.288,24924025.265,2.538,0.946,-0.022,0.911,0.682,1.266,0.743,0.000,17,15,4*43
$GPGGA,091520.40,3135.6166897,N,12046.6131546,E,4,17,1.5,2.5362,M,8.311,M,01,0004*68
$GPHPD,1957,33338.200,322.20,-1.15,13.34,31.5936115,120.7768859,2.536,13629520.497,24924023.430,2.536,0.985,-0.107,0.900,0.682,1.266,0.743,0.000,17,15,4*40
$GPGGA,091520.60,3135.6168036,N,12046.6130539,E,4,17,1.5,2.5412,M,8.311,M,00,0004*6F
$GPHPD,1957,33338.400,322.13,-0.74,13.32,31.5936134,120.7768842,2.541,13629518.676,24924021.553,2.541,0.961,-0.083,0.865,0.682,1.266,0.743,0.000,17,15,4*4A
$GPGGA,091520.80,3135.6169165,N,12046.6129522,E,4,17,1.5,2.5360,M,8.311,M,00,0004*67
$GPHPD,1957,33338.600,322.11,-0.60,13.30,31.5936153,120.7768825,2.536,13629516.867,24924019.669,2.536,0.950,-0.070,0.901,0.682,1.266,0.743,0.000,17,15,4*41
$GPGGA,091521.00,3135.6170307,N,12046.6128521,E,4,17,1.5,2.5322,M,8.311,M,01,0004*65
$GPHPD,1957,33338.800,322.21,-0.79,13.28,31.5936172,120.7768809,2.532,13629515.042,24924017.797,2.532,0.975,-0.077,0.883,0.735,1.310,0.798,0.000,17,15,4*42
$GPGGA,091521.20,3135.6171423,N,12046.6127520,E,4,17,1.5,2.5191,M,8.311,M,01,0004*63
$GPHPD,1957,33339.000,322.11,-0.24,13.30,31.5936190,120.7768792,2.519,13629513.255,24924015.941,2.519,0.982,-0.099,0.873,0.682,1.266,0.743,0.000,17,14,4*40
$GPGGA,091521.40,3135.6172533,N,12046.6126507,E,4,17,1.5,2.5208,M,8.311,M,01,0004*61
$GPHPD,1957,33339.200,321.84,0.03,13.30,31.5936209,120.7768775,2.521,13629511.473,24924014.073,2.521,0.981,-0.128,0.851,0.682,1.266,0.743,0.000,17,14,4*6E
$GPGGA,091521.60,3135.6173651,N,12046.6125508,E,4,17,1.5,2.5249,M,8.311,M,00,0004*6D
$GPHPD,1957,33339.400,321.95,-0.41,13.31,31.5936228,120.7768758,2.525,13629509.683,24924012.217,2.525,0.969,-0.065,0.871,0.682,1.266,0.743,0.000,17,16,4*42
$GPGGA,091521.80,3135.6174765,N,12046.6124496,E,4,17,1.6,2.5325,M,8.311,M,00,0004*6D
$GPHPD,1957,33339.600,321.80,0.53,13.32,31.5936246,120.7768742,2.533,13629507.896,24924010.348,2.533,0.966,-0.057,0.876,0.682,1.266,0.743,0.000,17,15,4*6D
$GPGGA,091522.00,3135.6175888,N,12046.6123494,E,4,17,1.5,2.5260,M,8.311,M,01,0004*6C
$GPHPD,1957,33339.800,321.91,0.20,13.35,31.5936265,120.7768725,2.526,13629506.099,24924008.486,2.526,0.939,-0.036,0.895,0.682,1.266,0.743,0.000,17,16,4*69
$GPGGA,091522.20,3135.6177011,N,12046.6122484,E,4,17,1.5,2.5300,M,8.311,M,01,0004*63
$GPHPD,1957,33340.000,322.10,0.12,13.39,31.5936284,120.7768708,2.530,13629504.299,24924006.614,2.530,0.946,-0.055,0.881,0.682,1.266,0.743,0.000,17,16,4*67
$GPGGA,091522.40,3135.6178121,N,12046.6121474,E,4,17,1.5,2.5216,M,8.311,M,01,0004*62
$GPHPD,1957,33340.200,321.95,0.28,13.43,31.5936302,120.7768691,2.522,13629502.519,24924004.750,2.522,0.963,-0.054,0.881,0.682,1.266,0.743,0.000,17,16,4*6D
$GPGGA,091522.60,3135.6179250,N,12046.6120454,E,4,17,1.5,2.5273,M,8.311,M,00,0004*65
$GPHPD,1957,33340.400,322.24,0.49,13.46,31.5936321,120.7768674,2.527,13629500.709,24924002.863,2.527,0.984,-0.056,0.874,0.686,1.275,0.790,0.000,17,16,4*6B
$GPGGA,091522.80,3135.6180399,N,12046.6119473,E,4,17,1.5,2.5309,M,8.311,M,00,0004*6A
$GPHPD,1957,33340.600,322.46,-0.18,13.49,31.5936340,120.7768658,2.531,13629498.878,24924001.011,2.531,0.983,-0.060,0.881,0.686,1.275,0.790,0.000,17,16,4*4D
$GPGGA,091523.00,3135.6181542,N,12046.6118458,E,4,17,1.5,2.5272,M,8.311,M,01,0004*66
$GPHPD,1957,33340.800,322.69,-0.78,13.50,31.5936359,120.7768641,2.527,13629497.050,24923999.122,2.527,0.953,-0.054,0.907,0.682,1.266,0.743,0.000,17,16,4*4E
$GPGGA,091523.20,3135.6182686,N,12046.6117461,E,4,17,1.5,2.5251,M,8.311,M,01,0004*68
$GPHPD,1957,33341.000,322.28,-0.34,13.49,31.5936378,120.7768624,2.525,13629495.223,24923997.253,2.525,0.978,-0.046,0.902,0.682,1.266,0.743,0.000,17,16,4*42
$GPGGA,091523.40,3135.6183838,N,12046.6116391,E,4,17,1.5,2.5295,M,8.311,M,01,0004*65
$GPHPD,1957,33341.200,322.32,-0.37,13.46,31.5936397,120.7768607,2.530,13629493.371,24923995.292,2.530,0.970,-0.068,0.901,0.682,1.266,0.743,0.000,17,16,4*4F
$GPGGA,091523.60,3135.6184983,N,12046.6115406,E,4,17,1.5,2.5374,M,8.311,M,00,0004*64
$GPHPD,1957,33341.400,322.31,-0.97,13.43,31.5936416,120.7768590,2.537,13629491.545,24923993.438,2.537,0.984,-0.039,0.916,0.682,1.266,0.743,0.000,17,16,4*4C
$GPGGA,091523.80,3135.6186152,N,12046.6114394,E,4,17,1.5,2.5231,M,8.311,M,00,0004*61
$GPHPD,1957,33341.600,321.98,-1.27,13.43,31.5936436,120.7768573,2.523,13629489.680,24923991.537,2.523,0.961,-0.041,0.923,0.682,1.266,0.743,0.000,17,16,4*46
$GPGGA,091524.00,3135.6187319,N,12046.6113408,E,4,17,1.5,2.5308,M,8.311,M,01,0004*6D
$GPHPD,1957,33341.800,322.03,-0.63,13.41,31.5936455,120.7768557,2.531,13629487.823,24923989.669,2.531,0.991,-0.110,0.883,0.682,1.266,0.743,0.000,17,16,4*40
$GPGGA,091524.20,3135.6188440,N,12046.6112355,E,4,17,1.5,2.5299,M,8.311,M,01,0004*6C
$GPHPD,1957,33342.000,321.85,-0.85,13.39,31.5936474,120.7768539,2.530,13629486.018,24923987.746,2.530,0.934,-0.039,0.935,0.682,1.266,0.743,0.000,17,16,4*40
$GPGGA,091524.40,3135.6189625,N,12046.6111352,E,4,17,1.5,2.5214,M,8.310,M,01,0004*6A
$GPHPD,1957,33342.200,322.12,-1.25,13.39,31.5936494,120.7768523,2.521,13629484.132,24923985.847,2.521,0.971,-0.027,0.909,0.682,1.266,0.743,0.000,17,16,4*47
$GPGGA,091524.60,3135.6190738,N,12046.6110311,E,4,17,1.5,2.5239,M,8.310,M,00,0004*65
$GPHPD,1957,33342.400,322.00,-0.66,13.41,31.5936512,120.7768505,2.524,13629482.341,24923983.943,2.524,0.984,-0.087,0.903,0.735,1.310,0.798,0.000,17,16,4*42
$GPGGA,091524.80,3135.6191871,N,12046.6109305,E,4,17,1.5,2.5238,M,8.310,M,00,0004*64
$GPHPD,1957,33342.600,322.21,-0.88,13.43,31.5936531,120.7768488,2.524,13629480.528,24923982.071,2.524,0.962,-0.024,0.922,0.682,1.266,0.743,0.000,17,16,4*4F
$GPGGA,091525.00,3135.6192986,N,12046.6108285,E,4,17,1.6,2.5173,M,8.310,M,01,0004*61
$GPHPD,1957,33342.800,322.45,-1.11,13.41,31.5936550,120.7768471,2.517,13629478.738,24923980.191,2.517,0.975,-0.060,0.887,0.682,1.266,0.743,0.000,17,16,4*40
$GPGGA,091525.20,3135.6194140,N,12046.6107238,E,4,17,1.6,2.5190,M,8.310,M,01,0004*63
$GPHPD,1957,33343.000,322.48,-0.83,13.44,31.5936569,120.7768454,2.519,13629476.887,24923978.257,2.519,0.985,-0.079,0.873,0.735,1.310,0.798,0.000,17,16,4*4A
$GPGGA,091525.40,3135.6195288,N,12046.6106210,E,4,17,1.6,2.5105,M,8.310,M,01,0004*64
$GPHPD,1957,33343.200,322.25,-0.28,13.45,31.5936588,120.7768437,2.511,13629475.049,24923976.349,2.511,0.976,-0.033,0.902,0.735,1.310,0.798,0.000,17,16,4*45
$GPGGA,091525.60,3135.6196458,N,12046.6105168,E,4,17,1.5,2.5138,M,8.310,M,00,0004*6D
$GPHPD,1957,33343.400,322.09,-0.09,13.45,31.5936608,120.7768419,2.514,13629473.176,24923974.411,2.514,0.990,-0.072,0.892,0.682,1.265,0.743,0.000,17,16,4*47
$GPGGA,091525.80,3135.6197610,N,12046.6104143,E,4,17,1.5,2.5023,M,8.310,M,00,0004*6F
$GPHPD,1957,33343.600,321.86,-0.30,13.46,31.5936627,120.7768402,2.502,13629471.333,24923972.505,2.502,0.990,-0.062,0.908,0.682,1.265,0.743,0.000,17,15,4*4C
$GPGGA,091526.00,3135.6198797,N,12046.6103154,E,4,17,1.5,2.5079,M,8.310,M,01,0004*6A
$GPHPD,1957,33343.800,321.86,-0.04,13.49,31.5936647,120.7768386,2.508,13629469.447,24923970.621,2.508,1.030,-0.088,0.896,0.682,1.265,0.743,0.000,17,15,4*4D
$GPGGA,091526.20,3135.6199962,N,12046.6102062,E,4,17,1.5,2.5098,M,8.310,M,01,0004*67
$GPHPD,1957,33344.000,321.66,-0.66,13.49,31.5936666,120.7768368,2.510,13629467.571,24923968.626,2.510,0.962,-0.066,0.946,0.682,1.265,0.743,0.000,17,15,4*4C
$GPGGA,091526.40,3135.6201113,N,12046.6101016,E,4,17,1.5,2.5106,M,8.310,M,01,0004*6B
$GPHPD,1957,33344.200,321.76,-0.46,13.43,31.5936685,120.7768350,2.511,13629465.725,24923966.694,2.511,1.022,-0.037,0.932,0.682,1.265,0.743,0.000,17,15,4*4C
$GPGGA,091526.60,3135.6202250,N,12046.6099983,E,4,17,1.5,2.5039,M,8.310,M,01,0004*66
$GPHPD,1957,33344.400,321.86,-0.08,13.42,31.5936704,120.7768333,2.504,13629463.901,24923964.787,2.504,1.020,-0.050,0.906,0.682,1.265,0.743,0.000,17,15,4*48
$GPGGA,091526.80,3135.6203403,N,12046.6098975,E,4,17,1.5,2.5105,M,8.310,M,01,0004*6F
$GPHPD,1957,33344.600,322.04,-0.15,13.40,31.5936723,120.7768316,2.511,13629462.060,24923962.900,2.511,0.998,-0.064,0.892,0.682,1.265,0.744,0.000,17,15,4*40
$GPGGA,091527.00,3135.6204554,N,12046.6097952,E,4,17,1.5,2.5130,M,8.310,M,02,0004*6D
$GPHPD,1957,33344.800,322.36,-0.55,13.40,31.5936743,120.7768299,2.513,13629460.218,24923960.996,2.513,0.958,-0.027,0.915,0.682,1.265,0.744,0.000,17,15,4*4C
$GPGGA,091527.20,3135.6205680,N,12046.6096874,E,4,17,1.6,2.4941,M,8.310,M,02,0004*6C
$GPHPD,1957,33345.000,322.33,-0.53,13.38,31.5936761,120.7768281,2.494,13629458.401,24923959.041,2.494,0.938,-0.013,0.922,0.682,1.265,0.744,0.000,17,15,4*49
$GPGGA,091527.40,3135.6206828,N,12046.6095841,E,4,17,1.6,2.4982,M,8.310,M,02,0004*6F
$GPHPD,1957,33345.200,322.38,-0.30,13.42,31.5936780,120.7768264,2.498,13629456.562,24923957.127,2.498,1.005,-0.109,0.857,0.735,1.310,0.798,0.000,17,15,4*49
$GPGGA,091527.60,3135.6208001,N,12046.6094797,E,4,17,1.6,2.5061,M,8.310,M,02,0004*60
$GPHPD,1957,33345.400,322.15,-0.50,13.38,31.5936800,120.7768247,2.506,13629454.684,24923955.185,2.506,0.978,-0.043,0.909,0.682,1.265,0.744,0.000,17,16,4*45
$GPGGA,091527.80,3135.6209154,N,12046.6093779,E,4,17,1.6,2.5083,M,8.310,M,00,0004*67
$GPHPD,1957,33345.600,322.27,-0.50,13.36,31.5936819,120.7768230,2.508,13629452.841,24923953.286,2.508,0.979,-0.069,0.910,0.682,1.265,0.744,0.000,17,16,4*46
$GPGGA,091528.00,3135.6210261,N,12046.6092807,E,4,17,1.7,2.5098,M,8.310,M,01,0004*60
$GPHPD,1957,33345.800,322.06,-0.66,13.35,31.5936838,120.7768213,2.510,13629451.072,24923951.469,2.510,0.958,-0.071,0.898,0.735,1.310,0.799,0.000,17,16,4*44
$GPGGA,091528.20,3135.6211256,N,12046.6091942,E,4,17,1.7,2.5142,M,8.310,M,01,0004*62
$GPHPD,1957,33346.000,321.75,-0.46,13.20,31.5936854,120.7768199,2.514,13629449.484,24923949.847,2.514,0.919,-0.083,0.861,0.735,1.310,0.799,0.000,17,16,4*46
$GPGGA,091528.40,3135.6212075,N,12046.6091209,E,4,17,1.7,2.5001,M,8.310,M,01,0004*66
$GPHPD,1957,33346.200,321.84,-0.31,13.05,31.5936868,120.7768187,2.500,13629448.172,24923948.486,2.500,0.827,-0.044,0.780,0.735,1.310,0.799,0.000,17,16,4*47
$GPGGA,091528.60,3135.6212737,N,12046.6090617,E,4,17,1.7,2.5037,M,8.310,M,00,0004*6B
$GPHPD,1957,33346.400,322.05,-0.35,12.88,31.5936879,120.7768177,2.504,13629447.112,24923947.387,2.504,0.742,-0.117,0.609,0.735,1.310,0.799,0.000,17,16,4*4F
$GPGGA,091528.80,3135.6213236,N,12046.6090141,E,4,17,1.7,2.5047,M,8.310,M,00,0004*63
$GPHPD,1957,33346.600,322.13,-0.31,12.67,31.5936887,120.7768169,2.505,13629446.307,24923946.523,2.505,0.558,-0.044,0.523,0.735,1.310,0.799,0.000,17,16,4*4A
$GPGGA,091529.00,3135.6213585,N,12046.6089812,E,4,17,1.7,2.5079,M,8.310,M,01,0004*6E
$GPHPD,1957,33346.800,322.40,-0.45,12.48,31.5936893,120.7768164,2.508,13629445.745,24923945.923,2.508,0.430,0.009,0.410,0.735,1.310,0.799,0.000,17,16,4*60
$GPGGA,091529.20,3135.6213784,N,12046.6089626,E,4,17,1.7,2.5114,M,8.310,M,01,0004*6C
$GPHPD,1957,33347.000,322.36,-0.78,12.31,31.5936896,120.7768160,2.511,13629445.425,24923945.582,2.511,0.304,-0.006,0.285,0.735,1.310,0.799,0.000,17,16,4*43
$GPGGA,091529.40,3135.6213849,N,12046.6089573,E,4,17,1.7,2.5095,M,8.310,M,01,0004*6F
$GPHPD,1957,33347.200,322.44,-0.94,12.16,31.5936897,120.7768160,2.510,13629445.322,24923945.481,2.510,0.174,-0.001,0.163,0.735,1.310,0.799,0.000,17,16,4*49
$GPGGA,091529.60,3135.6213800,N,12046.6089599,E,4,17,1.7,2.5101,M,8.310,M,00,0004*69
$GPHPD,1957,33347.400,322.42,-0.89,12.10,31.5936897,120.7768160,2.510,13629445.397,24923945.541,2.510,0.056,-0.009,0.045,0.735,1.310,0.799,0.000,17,16,4*4C
$GPGGA,091529.80,3135.6213829,N,12046.6089600,E,4,17,1.6,2.5048,M,8.310,M,00,0004*62
$GPHPD,1957,33347.600,322.52,-0.98,12.22,31.5936897,120.7768160,2.505,13629445.356,24923945.525,2.505,-0.025,0.019,-0.026,0.735,1.310,0.799,0.000,17,16,4*6C
$GPGGA,091530.00,3135.6213816,N,12046.6089606,E,4,17,1.6,2.5023,M,8.310,M,01,0004*64
$GPHPD,1957,33347.800,322.28,-0.56,12.26,31.5936897,120.7768160,2.502,13629445.375,24923945.540,2.502,0.007,-0.013,0.002,0.735,1.310,0.799,0.000,17,16,4*4A
$GPGGA,091530.20,3135.6213795,N,12046.6089610,E,4,17,1.6,2.5033,M,8.310,M,01,0004*64
$GPHPD,1957,33348.000,322.37,-0.64,12.31,31.5936897,120.7768160,2.503,13629445.406,24923945.557,2.503,0.006,-0.009,-0.008,0.735,1.310,0.799,0.000,17,16,4*6C
$GPGGA,091530.40,3135.6213796,N,12046.6089606,E,4,17,1.5,2.5003,M,8.310,M,01,0004*66
$GPHPD,1957,33348.200,322.34,-0.63,12.36,31.5936897,120.7768160,2.500,13629445.404,24923945.551,2.500,-0.001,-0.006,-0.011,0.619,1.236,0.786,0.000,17,16,4*40
$GPGGA,091530.60,3135.6213816,N,12046.6089610,E,4,17,1.5,2.5035,M,8.310,M,00,0004*60
$GPHPD,1957,33348.400,322.23,-0.36,12.40,31.5936897,120.7768160,2.504,13629445.376,24923945.545,2.504,0.007,-0.013,-0.013,0.619,1.236,0.786,0.000,17,16,4*6B
$GPGGA,091530.80,3135.6213798,N,12046.6089601,E,4,17,1.5,2.5104,M,8.310,M,00,0004*64
$GPHPD,1957,33348.600,322.33,-0.45,12.45,31.5936897,120.7768160,2.510,13629445.400,24923945.544,2.510,-0.002,-0.023,0.021,0.619,1.236,0.786,0.000,17,16,4*69
$GPGGA,091531.00,3135.6213804,N,12046.6089601,E,4,17,1.5,2.5099,M,8.310,M,01,0004*63
$GPHPD,1957,33348.800,322.39,-1.01,12.50,31.5936897,120.7768160,2.510,13629445.391,24923945.541,2.510,-0.007,0.011,0.002,0.619,1.236,0.786,0.000,17,16,4*4A
$GPGGA,091531.20,3135.6213807,N,12046.6089622,E,4,17,1.5,2.5115,M,8.310,M,01,0004*66
$GPHPD,1957,33349.000,322.27,-0.68,12.54,31.5936897,120.7768160,2.512,13629445.391,24923945.564,2.512,0.004,0.002,-0.002,0.619,1.236,0.786,0.000,17,16,4*40
