$GPGGA,085226.80,3135.4311241,N,12046.7713307,E,4,19,1.2,2.4994,M,8.322,M,00,0004*6F
$GPHPD,1957,31964.600,320.19,0.32,15.46,31.5905187,120.7795222,2.499,13632476.414,24927011.255,2.499,0.509,0.003,0.446,0.552,0.939,0.589,0.000,19,18,4*4A
$GPGGA,085227.00,3135.4312000,N,12046.7712579,E,4,19,1.2,2.5111,M,8.322,M,01,0004*69
$GPHPD,1957,31964.800,320.02,-0.21,15.55,31.5905200,120.7795210,2.511,13632475.188,24927009.935,2.511,0.614,-0.012,0.528,0.552,0.939,0.589,0.000,19,18,4*42
$GPGGA,085227.20,3135.4312874,N,12046.7711748,E,4,19,1.2,2.4966,M,8.322,M,01,0004*6A
$GPHPD,1957,31965.000,320.03,0.06,15.61,31.5905215,120.7795196,2.497,13632473.779,24927008.424,2.497,0.670,0.019,0.619,0.552,0.939,0.589,0.000,19,18,4*4B
$GPGGA,085227.40,3135.4313811,N,12046.7710903,E,4,19,1.2,2.5021,M,8.322,M,01,0004*65
$GPHPD,1957,31965.200,320.01,0.07,15.62,31.5905230,120.7795182,2.502,13632472.277,24927006.859,2.502,0.803,-0.077,0.657,0.552,0.939,0.589,0.000,19,18,4*6C
$GPGGA,085227.60,3135.4314728,N,12046.7710010,E,4,19,1.2,2.5157,M,8.322,M,00,0004*6F
$GPHPD,1957,31965.400,319.69,0.62,15.56,31.5905245,120.7795167,2.516,13632470.793,24927005.249,2.516,0.811,-0.043,0.738,0.552,0.939,0.589,0.000,19,18,4*6A
$GPGGA,085227.80,3135.4315700,N,12046.7709085,E,4,19,1.2,2.5142,M,8.322,M,00,0004*6A
$GPHPD,1957,31965.600,319.94,-0.15,15.52,31.5905262,120.7795151,2.514,13632469.225,24927003.567,2.514,0.816,-0.009,0.756,0.614,0.956,0.591,0.000,19,18,4*4E
$GPGGA,085228.00,3135.4316667,N,12046.7708123,E,4,19,1.2,2.5196,M,8.322,M,01,0004*6A
$GPHPD,1957,31965.800,320.10,0.17,15.46,31.5905278,120.7795135,2.520,13632467.657,24927001.844,2.520,0.880,-0.038,0.753,0.552,0.939,0.589,0.000,19,18,4*6D
$GPGGA,085228.20,3135.4317621,N,12046.7707214,E,4,19,1.2,2.5058,M,8.322,M,01,0004*60
$GPHPD,1957,31966.000,320.52,0.63,15.36,31.5905294,120.7795120,2.506,13632466.118,24927000.193,2.506,0.862,-0.001,0.771,0.552,0.939,0.589,0.000,19,18,4*6B
$GPGGA,085228.40,3135.4318583,N,12046.7706350,E,4,19,1.2,2.5110,M,8.322,M,01,0004*6F
$GPHPD,1957,31966.200,320.96,0.56,15.26,31.5905310,120.7795106,2.511,13632464.577,24926998.591,2.511,0.893,-0.062,0.726,0.552,0.939,0.589,0.000,19,18,4*66
$GPGGA,085228.60,3135.4319470,N,12046.7705476,E,4,19,1.2,2.5252,M,8.322,M,01,0004*64
$GPHPD,1957,31966.400,321.19,-0.09,15.18,31.5905325,120.7795091,2.525,13632463.140,24926997.020,2.525,0.850,-0.050,0.739,0.563,0.939,0.599,0.000,19,18,4*41
$GPGGA,085228.80,3135.4320411,N,12046.7704655,E,4,19,1.2,2.5316,M,8.322,M,00,0004*65
$GPHPD,1957,31966.600,321.55,-0.02,15.12,31.5905340,120.7795078,2.532,13632461.637,24926995.482,2.532,0.800,0.006,0.737,0.563,0.939,0.599,0.000,19,18,4*60
$GPGGA,085229.00,3135.4321334,N,12046.7703828,E,4,19,1.2,2.5223,M,8.322,M,01,0004*68
$GPHPD,1957,31966.800,321.22,0.04,15.08,31.5905356,120.7795064,2.522,13632460.158,24926993.948,2.522,0.783,-0.012,0.746,0.563,0.939,0.599,0.000,19,18,4*6C
$GPGGA,085229.20,3135.4322235,N,12046.7702943,E,4,19,1.2,2.5299,M,8.322,M,01,0004*65
$GPHPD,1957,31967.000,321.41,0.32,15.01,31.5905371,120.7795049,2.530,13632458.699,24926992.356,2.530,0.796,-0.051,0.724,0.563,0.939,0.599,0.000,19,18,4*64
$GPGGA,085229.40,3135.4323184,N,12046.7702124,E,4,19,1.2,2.5325,M,8.322,M,01,0004*64
$GPHPD,1957,31967.200,321.75,0.31,14.95,31.5905386,120.7795035,2.533,13632457.186,24926990.816,2.533,0.800,0.002,0.736,0.563,0.939,0.599,0.000,19,17,4*41
$GPGGA,085229.60,3135.4324151,N,12046.7701284,E,4,19,1.2,2.5397,M,8.322,M,00,0004*6B
$GPHPD,1957,31967.400,321.78,0.42,14.90,31.5905403,120.7795021,2.540,13632455.642,24926989.240,2.540,0.805,-0.059,0.757,0.563,0.939,0.599,0.000,19,17,4*69
$GPGGA,085229.80,3135.4325105,N,12046.7700436,E,4,19,1.2,2.5412,M,8.322,M,00,0004*61
$GPHPD,1957,31967.600,321.93,0.08,14.88,31.5905418,120.7795007,2.541,13632454.115,24926987.662,2.541,0.795,-0.031,0.778,0.563,0.939,0.599,0.000,19,17,4*6C
$GPGGA,085230.00,3135.4326062,N,12046.7699577,E,4,19,1.2,2.5445,M,8.322,M,01,0004*64
$GPHPD,1957,31967.800,321.72,0.49,14.85,31.5905434,120.7794993,2.545,13632452.582,24926986.068,2.545,0.818,-0.078,0.771,0.563,0.939,0.599,0.000,19,17,4*61
$GPGGA,085230.20,3135.4327024,N,12046.7698726,E,4,19,1.2,2.5364,M,8.322,M,01,0004*66
$GPHPD,1957,31968.000,322.08,-0.23,14.82,31.5905450,120.7794979,2.536,13632451.043,24926984.482,2.536,0.832,-0.085,0.747,0.563,0.939,0.599,0.000,19,17,4*4E
$GPGGA,085230.40,3135.4327981,N,12046.7697810,E,4,19,1.2,2.5343,M,8.322,M,01,0004*66
$GPHPD,1957,31968.200,322.50,0.39,14.80,31.5905466,120.7794964,2.534,13632449.498,24926982.820,2.534,0.839,-0.112,0.722,0.563,0.939,0.599,0.000,19,17,4*62
$GPGGA,085230.60,3135.4329016,N,12046.7696917,E,4,19,1.2,2.5433,M,8.322,M,01,0004*6A
$GPHPD,1957,31968.400,322.39,0.17,14.80,31.5905484,120.7794949,2.543,13632447.847,24926981.141,2.543,0.852,-0.052,0.748,0.563,1.003,0.602,0.000,19,17,4*6D
$GPGGA,085230.80,3135.4330091,N,12046.7696032,E,4,19,1.2,2.5404,M,8.322,M,01,0004*69
$GPHPD,1957,31968.600,322.56,0.29,14.78,31.5905502,120.7794934,2.540,13632446.141,24926979.448,2.540,0.832,-0.010,0.816,0.563,1.003,0.602,0.000,19,17,4*68
$GPGGA,085231.00,3135.4331124,N,12046.7695104,E,4,19,1.2,2.5519,M,8.322,M,02,0004*67
$GPHPD,1957,31968.800,322.38,0.83,14.75,31.5905519,120.7794918,2.552,13632444.486,24926977.727,2.552,0.858,-0.056,0.846,0.563,1.003,0.602,0.000,19,17,4*64
$GPGGA,085231.20,3135.433278,N,12046.7694170,E,4,19,1.2,2.5523,M,8.322,M,02,0004*64
$GPHPD,1957,31969.000,322.42,0.52,14.74,31.5905536,120.7794903,2.552,13632442.800,24926975.987,2.552,0.866,0.005,0.834,0.563,0.939,0.599,0.000,19,17,4*4B
$GPGGA,085231.40,3135.4333271,N,12046.7693259,E,4,19,1.2,2.5418,M,8.322,M,02,0004*6F
$GPHPD,1957,31969.200,322.75,0.46,14.73,31.5905555,120.7794888,2.542,13632441.062,24926974.252,2.542,0.894,-0.059,0.835,0.563,0.939,0.599,0.000,19,17,4*6D
$GPGGA,085231.60,3135.4334366,N,12046.7692308,E,4,19,1.2,2.5476,M,8.322,M,02,0004*61
$GPHPD,1957,31969.400,322.56,0.46,14.72,31.5905573,120.7794872,2.548,13632439.314,24926972.468,2.548,0.924,-0.118,0.828,0.563,0.939,0.599,0.000,19,17,4*6C
$GPGGA,085231.80,3135.4335450,N,12046.7691316,E,4,19,1.2,2.5531,M,8.322,M,00,0004*60
$GPHPD,1957,31969.600,322.54,-0.11,14.71,31.5905591,120.7794855,2.553,13632437.574,24926970.641,2.553,0.925,-0.072,0.857,0.563,0.939,0.599,0.000,19,17,4*48
$GPGGA,085232.00,3135.433671,N,12046.7690370,E,4,19,1.2,2.5647,M,8.322,M,01,0004*68
$GPHPD,1957,31969.800,322.76,0.27,14.69,31.5905610,120.7794840,2.565,13632435.790,24926968.847,2.565,0.925,-0.046,0.883,0.563,0.939,0.599,0.000,19,17,4*6C
$GPGGA,085232.20,3135.4337639,N,12046.7689433,E,4,19,1.2,2.5588,M,8.322,M,01,0004*6C
$GPHPD,1957,31970.000,322.71,-0.19,14.65,31.5905627,120.7794824,2.559,13632434.083,24926967.095,2.559,0.902,-0.037,0.904,0.563,0.939,0.599,0.000,19,17,4*40
$GPGGA,085232.40,3135.4338749,N,12046.7688468,E,4,19,1.2,2.5570,M,8.322,M,01,0004*6B
$GPHPD,1957,31970.200,323.00,-0.49,14.60,31.5905646,120.7794808,2.557,13632432.311,24926965.285,2.557,0.918,-0.055,0.861,0.566,0.943,0.629,0.000,19,17,4*4E
$GPGGA,085232.60,3135.4339753,N,12046.7687591,E,4,19,1.2,2.5704,M,8.322,M,01,0004*6A
$GPHPD,1957,31970.400,323.09,-0.67,14.50,31.5905663,120.7794793,2.570,13632430.707,24926963.643,2.570,0.931,-0.098,0.834,0.566,0.943,0.629,0.000,19,17,4*47
$GPGGA,085232.80,3135.4340727,N,12046.7686741,E,4,19,1.2,2.5760,M,8.322,M,00,0004*64
$GPHPD,1957,31970.600,322.87,-0.19,14.39,31.5905679,120.7794779,2.576,13632429.152,24926962.051,2.576,0.828,-0.075,0.811,0.563,0.939,0.599,0.000,19,17,4*4C
$GPGGA,085233.00,3135.4341586,N,12046.7686010,E,4,19,1.2,2.5657,M,8.322,M,01,0004*62
$GPHPD,1957,31970.800,323.17,-0.06,14.22,31.5905693,120.7794767,2.566,13632427.783,24926960.669,2.566,0.798,-0.052,0.760,0.563,0.939,0.599,0.000,19,17,4*46
$GPGGA,085233.20,3135.4342355,N,12046.7685337,E,4,19,1.2,2.5719,M,8.322,M,01,0004*65
$GPHPD,1957,31971.000,323.24,0.23,14.05,31.5905706,120.7794756,2.572,13632426.555,24926959.410,2.572,0.724,-0.071,0.664,0.552,0.939,0.589,0.000,19,17,4*61
$GPGGA,085233.40,3135.4343020,N,12046.7684774,E,4,19,1.2,2.5796,M,8.322,M,01,0004*66
$GPHPD,1957,31971.200,323.35,0.32,13.91,31.5905717,120.7794746,2.580,13632425.496,24926958.344,2.580,0.649,-0.056,0.602,0.552,0.939,0.589,0.000,19,17,4*6D
$GPGGA,085233.60,3135.4343592,N,12046.7684302,E,4,19,1.2,2.5809,M,8.322,M,00,0004*65
$GPHPD,1957,31971.400,323.31,0.15,13.77,31.5905727,120.7794738,2.581,13632424.588,24926957.442,2.581,0.546,-0.061,0.526,0.552,0.939,0.589,0.000,19,17,4*64
$GPGGA,085233.80,3135.4344107,N,12046.7683920,E,4,19,1.2,2.5708,M,8.322,M,00,0004*67
$GPHPD,1957,31971.600,323.43,-0.11,13.65,31.5905735,120.7794732,2.571,13632423.779,24926956.681,2.571,0.454,-0.044,0.466,0.562,0.959,0.636,0.000,19,17,4*45
$GPGGA,085234.00,3135.4344511,N,12046.7683573,E,4,19,1.2,2.5637,M,8.322,M,01,0004*6D
$GPHPD,1957,31971.800,323.13,0.67,13.56,31.5905742,120.7794726,2.564,13632423.135,24926956.028,2.564,0.387,-0.055,0.383,0.562,0.959,0.636,0.000,19,17,4*69
$GPGGA,085234.20,3135.4344861,N,12046.7683273,E,4,19,1.2,2.5695,M,8.322,M,01,0004*6A
$GPHPD,1957,31972.000,323.31,0.26,13.50,31.5905748,120.7794721,2.570,13632422.577,24926955.462,2.570,0.340,-0.009,0.327,0.552,0.939,0.589,0.000,19,17,4*68
$GPGGA,085234.40,3135.434522,N,12046.7682967,E,4,19,1.2,2.5654,M,8.322,M,01,0004*62
$GPHPD,1957,31972.200,323.30,0.50,13.46,31.5905754,120.7794716,2.565,13632422.002,24926954.883,2.565,0.306,-0.015,0.296,0.552,0.939,0.589,0.000,19,17,4*65
$GPGGA,085234.60,3135.4345562,N,12046.7682681,E,4,19,1.2,2.5635,M,8.322,M,01,0004*63
$GPHPD,1957,31972.400,323.30,-0.08,13.47,31.5905759,120.7794711,2.564,13632421.461,24926954.340,2.564,0.290,-0.032,0.274,0.552,0.939,0.589,0.000,19,17,4*49
$GPGGA,085234.80,3135.4345906,N,12046.7682370,E,4,19,1.2,2.5670,M,8.322,M,00,0004*68
$GPHPD,1957,31972.600,323.66,-0.23,13.52,31.5905765,120.7794706,2.567,13632420.910,24926953.765,2.567,0.280,-0.025,0.257,0.552,0.939,0.589,0.000,19,17,4*44
$GPGGA,085235.00,3135.4346289,N,12046.7682064,E,4,19,1.2,2.5638,M,8.322,M,01,0004*65
$GPHPD,1957,31972.800,323.54,-0.10,13.61,31.5905771,120.7794701,2.564,13632420.304,24926953.173,2.564,0.280,-0.015,0.264,0.552,0.939,0.589,0.000,19,18,4*4B
$GPGGA,085235.20,3135.4346756,N,12046.7681698,E,4,19,1.2,2.5629,M,8.322,M,01,0004*66
$GPHPD,1957,31973.000,323.52,-0.22,13.72,31.5905779,120.7794695,2.563,13632419.566,24926952.459,2.563,0.309,-0.040,0.316,0.552,0.939,0.589,0.000,19,18,4*43
$GPGGA,085235.40,3135.4347221,N,12046.7681238,E,4,19,1.2,2.5656,M,8.322,M,01,0004*62
$GPHPD,1957,31973.200,323.50,0.01,13.83,31.5905787,120.7794687,2.566,13632418.813,24926951.634,2.566,0.354,-0.044,0.354,0.552,0.939,0.589,0.000,19,18,4*6D
$GPGGA,085235.60,3135.4347845,N,12046.7680739,E,4,19,1.2,2.5687,M,8.322,M,00,0004*60
$GPHPD,1957,31973.400,323.58,-0.39,13.93,31.5905797,120.7794679,2.569,13632417.825,24926950.669,2.569,0.414,-0.018,0.398,0.552,0.939,0.589,0.000,19,18,4*4D
$GPGGA,085235.80,3135.4348492,N,12046.7680187,E,4,19,1.2,2.5703,M,8.322,M,00,0004*69
$GPHPD,1957,31973.600,323.48,-0.28,13.99,31.5905808,120.7794670,2.570,13632416.794,24926949.627,2.570,0.472,-0.036,0.480,0.552,0.939,0.589,0.000,19,18,4*40
$GPGGA,085236.00,3135.4349217,N,12046.7679540,E,4,19,1.2,2.5711,M,8.322,M,01,0004*63
$GPHPD,1957,31973.800,323.33,0.26,14.08,31.5905820,120.7794659,2.571,13632415.634,24926948.424,2.571,0.533,-0.027,0.511,0.552,0.939,0.589,0.000,19,18,4*6A
$GPGGA,085236.20,3135.4350012,N,12046.7678853,E,4,19,1.2,2.5773,M,8.322,M,01,0004*64
$GPHPD,1957,31974.000,323.48,-0.02,14.15,31.5905834,120.7794648,2.577,13632414.365,24926947.133,2.577,0.618,-0.054,0.576,0.552,0.939,0.589,0.000,19,18,4*48
$GPGGA,085236.40,3135.4350870,N,12046.7678143,E,4,19,1.2,2.5761,M,8.322,M,01,0004*65
$GPHPD,1957,31974.200,323.59,0.12,14.21,31.5905848,120.7794636,2.576,13632413.003,24926945.777,2.576,0.655,-0.048,0.639,0.552,0.939,0.589,0.000,19,18,4*6F
$GPGGA,085236.60,3135.4351745,N,12046.7677401,E,4,19,1.2,2.5902,M,8.322,M,01,0004*68
$GPHPD,1957,31974.400,323.55,0.60,14.24,31.5905862,120.7794623,2.590,13632411.609,24926944.373,2.590,0.714,-0.076,0.677,0.552,0.939,0.589,0.000,19,18,4*65
$GPGGA,085236.80,3135.4352679,N,12046.7676626,E,4,19,1.2,2.5821,M,8.322,M,00,0004*6C
$GPHPD,1957,31974.600,323.57,0.06,14.24,31.5905878,120.7794610,2.582,13632410.126,24926942.895,2.582,0.698,-0.011,0.720,0.552,0.939,0.589,0.000,19,18,4*67
$GPGGA,085237.00,3135.4353633,N,12046.7675780,E,4,19,1.2,2.5940,M,8.322,M,01,0004*63
$GPHPD,1957,31974.800,323.42,0.94,14.26,31.5905894,120.7794596,2.594,13632408.599,24926941.319,2.594,0.732,-0.047,0.728,0.562,0.959,0.636,0.000,19,18,4*66
$GPGGA,085237.20,3135.4354615,N,12046.7674993,E,4,19,1.2,2.5838,M,8.322,M,01,0004*61
$GPHPD,1957,31975.000,323.37,0.54,14.28,31.5905910,120.7794583,2.584,13632407.045,24926939.798,2.584,0.771,-0.020,0.782,0.552,0.939,0.589,0.000,19,18,4*6B
$GPGGA,085237.40,3135.4355601,N,12046.7674119,E,4,19,1.2,2.5982,M,8.322,M,01,0004*69
$GPHPD,1957,31975.200,323.40,0.79,14.30,31.5905927,120.7794569,2.598,13632405.468,24926938.170,2.598,0.801,-0.094,0.760,0.552,0.939,0.589,0.000,19,18,4*6C
$GPGGA,085237.60,3135.4356616,N,12046.7673275,E,4,19,1.2,2.5913,M,8.322,M,00,0004*69
$GPHPD,1957,31975.400,323.59,0.26,14.33,31.5905944,120.7794555,2.591,13632403.855,24926936.561,2.591,0.797,-0.040,0.814,0.552,0.939,0.589,0.000,19,18,4*6A
$GPGGA,085237.80,3135.4357647,N,12046.7672402,E,4,19,1.2,2.5932,M,8.322,M,00,0004*66
$GPHPD,1957,31975.600,323.64,0.22,14.35,31.5905961,120.7794540,2.593,13632402.214,24926934.908,2.593,0.829,-0.070,0.789,0.552,0.939,0.589,0.000,19,18,4*6A
$GPGGA,085238.00,3135.4358709,N,12046.7671529,E,4,19,1.2,2.5991,M,8.322,M,01,0004*66
$GPHPD,1957,31975.800,323.72,0.11,14.35,31.5905978,120.7794525,2.599,13632400.528,24926933.237,2.599,0.826,-0.057,0.812,0.552,0.939,0.589,0.000,19,18,4*65
$GPGGA,085238.20,3135.4359787,N,12046.7670608,E,4,19,1.2,2.5951,M,8.322,M,01,0004*6E
$GPHPD,1957,31976.000,323.70,0.35,14.33,31.5905996,120.7794510,2.595,13632398.810,24926931.499,2.595,0.862,-0.090,0.822,0.552,0.939,0.589,0.000,19,18,4*62
$GPGGA,085238.40,3135.4360866,N,12046.7669699,E,4,19,1.2,2.6067,M,8.322,M,01,0004*6D
$GPHPD,1957,31976.200,323.79,-0.01,14.33,31.5906014,120.7794495,2.607,13632397.094,24926929.775,2.607,0.888,-0.081,0.840,0.562,0.959,0.636,0.000,19,18,4*4E
$GPGGA,085238.60,3135.4362007,N,12046.7668786,E,4,19,1.2,2.5948,M,8.322,M,01,0004*6B
$GPHPD,1957,31976.400,323.98,-0.04,14.31,31.5906033,120.7794480,2.595,13632395.288,24926928.009,2.595,0.872,-0.044,0.874,0.552,0.939,0.589,0.000,19,18,4*48
$GPGGA,085238.80,3135.4363116,N,12046.7667885,E,4,19,1.2,2.6003,M,8.322,M,00,0004*62
$GPHPD,1957,31976.600,324.12,-0.27,14.28,31.5906052,120.7794465,2.600,13632393.530,24926926.277,2.600,0.908,-0.110,0.871,0.552,0.939,0.589,0.000,19,18,4*44
$GPGGA,085239.00,3135.4364224,N,12046.7666951,E,4,19,1.2,2.6077,M,8.322,M,01,0004*65
$GPHPD,1957,31976.800,324.29,-0.07,14.24,31.5906070,120.7794449,2.608,13632391.767,24926924.506,2.608,0.889,-0.073,0.902,0.552,0.939,0.589,0.000,19,18,4*4A
$GPGGA,085239.20,3135.4365373,N,12046.7666058,E,4,19,1.2,2.5975,M,8.322,M,01,0004*6D
$GPHPD,1957,31977.000,324.57,-0.38,14.22,31.5906090,120.7794434,2.598,13632389.954,24926922.760,2.598,0.875,-0.048,0.887,0.552,0.939,0.589,0.000,19,18,4*40
$GPGGA,085239.40,3135.4366494,N,12046.7665145,E,4,19,1.2,2.5984,M,8.322,M,01,0004*66
$GPHPD,1957,31977.200,324.69,-0.43,14.17,31.5906108,120.7794419,2.598,13632388.177,24926921.006,2.598,0.880,-0.100,0.899,0.552,0.939,0.589,0.000,19,18,4*4E
$GPGGA,085239.60,3135.4367572,N,12046.7664255,E,4,19,1.2,2.6014,M,8.322,M,00,0004*6D
$GPHPD,1957,31977.400,324.74,0.18,14.10,31.5906126,120.7794404,2.601,13632386.465,24926919.305,2.601,0.881,-0.047,0.895,0.552,0.939,0.589,0.000,19,18,4*6C
$GPGGA,085239.80,3135.4368645,N,12046.7663398,E,4,19,1.2,2.5994,M,8.322,M,00,0004*6E
$GPHPD,1957,31977.600,325.00,-0.49,14.06,31.5906144,120.7794390,2.599,13632384.767,24926917.647,2.599,0.853,-0.063,0.855,0.552,0.939,0.589,0.000,19,18,4*47
$GPGGA,085240.00,3135.4369750,N,12046.7662526,E,4,19,1.2,2.6067,M,8.322,M,01,0004*69
$GPHPD,1957,31977.800,325.11,-0.27,14.04,31.5906163,120.7794375,2.607,13632383.021,24926915.952,2.607,0.853,-0.096,0.855,0.552,0.939,0.589,0.000,19,18,4*4C
$GPGGA,085240.20,3135.4370809,N,12046.7661643,E,4,19,1.2,2.6045,M,8.322,M,01,0004*63
$GPHPD,1957,31978.000,325.19,-0.72,14.05,31.5906180,120.7794361,2.605,13632381.338,24926914.271,2.605,0.852,-0.084,0.866,0.552,0.939,0.589,0.000,19,18,4*4A
$GPGGA,085240.40,3135.4371921,N,12046.7660787,E,4,19,1.2,2.5987,M,8.322,M,01,0004*63
$GPHPD,1957,31978.200,325.01,-0.06,14.05,31.5906199,120.7794346,2.599,13632379.585,24926912.591,2.599,0.862,-0.084,0.842,0.552,0.939,0.589,0.000,19,18,4*42
$GPGGA,085240.60,3135.4373018,N,12046.7659894,E,4,19,1.2,2.6105,M,8.322,M,01,0004*66
$GPHPD,1957,31978.400,324.89,0.27,14.06,31.5906217,120.7794332,2.611,13632377.846,24926910.876,2.611,0.883,-0.125,0.855,0.552,0.939,0.589,0.000,19,18,4*67
$GPGGA,085240.80,3135.4374135,N,12046.7659024,E,4,19,1.2,2.6068,M,8.322,M,01,0004*68
$GPHPD,1957,31978.600,324.97,-0.19,14.09,31.5906236,120.7794317,2.607,13632376.083,24926909.176,2.607,0.861,-0.076,0.883,0.552,0.939,0.589,0.000,19,18,4*40
$GPGGA,085241.00,3135.4375234,N,12046.7658112,E,4,19,1.2,2.6051,M,8.322,M,02,0004*6E
$GPHPD,1957,31978.800,324.80,0.00,14.10,31.5906254,120.7794302,2.605,13632374.337,24926907.436,2.605,0.880,-0.113,0.870,0.614,0.956,0.590,0.000,19,18,4*65
$GPGGA,085241.20,3135.4376341,N,12046.7657217,E,4,19,1.2,2.6186,M,8.322,M,02,0004*6E
$GPHPD,1957,31979.000,324.98,0.09,14.10,31.5906272,120.7794287,2.619,13632372.583,24926905.713,2.619,0.912,-0.111,0.870,0.552,0.938,0.589,0.000,19,17,4*6B
$GPGGA,085241.40,3135.4377466,N,12046.7656287,E,4,19,1.2,2.6104,M,8.322,M,02,0004*69
$GPHPD,1957,31979.200,324.86,-0.24,14.12,31.5906291,120.7794271,2.610,13632370.797,24926903.936,2.610,0.869,-0.076,0.900,0.552,0.938,0.589,0.000,19,18,4*4C
$GPGGA,085241.60,3135.4378587,N,12046.7655407,E,4,19,1.2,2.6201,M,8.322,M,02,0004*61
$GPHPD,1957,31979.400,324.89,0.40,14.13,31.5906310,120.7794257,2.620,13632369.026,24926902.222,2.620,0.914,-0.118,0.881,0.562,0.959,0.636,0.000,19,18,4*64
$GPGGA,085241.80,3135.4379750,N,12046.7654468,E,4,19,1.2,2.6122,M,8.322,M,00,0004*6E
$GPHPD,1957,31979.600,324.84,-0.26,14.14,31.5906329,120.7794241,2.612,13632367.184,24926900.413,2.612,0.873,-0.067,0.903,0.614,0.956,0.590,0.000,19,18,4*4D
$GPGGA,085242.00,3135.4380902,N,12046.7653544,E,4,19,1.2,2.6142,M,8.322,M,01,0004*65
$GPHPD,1957,31979.800,324.72,-0.41,14.12,31.5906348,120.7794226,2.614,13632365.361,24926898.628,2.614,0.926,-0.130,0.899,0.614,0.956,0.590,0.000,19,18,4*4A
$GPGGA,085242.20,3135.4382047,N,12046.7652603,E,4,19,1.2,2.6257,M,8.322,M,01,0004*6B
$GPHPD,1957,31980.000,324.60,0.07,14.09,31.5906367,120.7794210,2.626,13632363.544,24926896.826,2.626,0.906,-0.096,0.916,0.614,0.956,0.590,0.000,19,18,4*6A
$GPGGA,085242.40,3135.4383238,N,12046.7651659,E,4,19,1.2,2.6111,M,8.322,M,01,0004*6B
$GPHPD,1957,31980.200,324.67,0.13,14.07,31.5906387,120.7794194,2.611,13632361.661,24926894.995,2.611,0.880,-0.016,0.929,0.614,0.956,0.590,0.000,19,18,4*63
$GPGGA,085242.60,3135.4384383,N,12046.7650716,E,4,19,1.2,2.6223,M,8.322,M,01,0004*66
$GPHPD,1957,31980.400,324.76,0.65,14.05,31.5906406,120.7794179,2.622,13632359.843,24926893.191,2.622,0.948,-0.133,0.908,0.614,0.956,0.590,0.000,19,18,4*65
$GPGGA,085242.80,3135.4385558,N,12046.7649789,E,4,19,1.2,2.6276,M,8.322,M,00,0004*66
$GPHPD,1957,31980.600,324.78,0.09,14.04,31.5906426,120.7794163,2.628,13632357.986,24926891.389,2.628,0.930,-0.091,0.920,0.614,0.956,0.590,0.000,19,18,4*68
$GPGGA,085243.00,3135.4386741,N,12046.7648832,E,4,19,1.2,2.6237,M,8.322,M,01,0004*6C
$GPHPD,1957,31980.800,324.63,0.29,14.02,31.5906446,120.7794147,2.624,13632356.112,24926889.546,2.624,0.914,-0.095,0.938,0.614,0.956,0.590,0.000,19,18,4*6B
$GPGGA,085243.20,3135.4387900,N,12046.7647879,E,4,19,1.2,2.6290,M,8.322,M,01,0004*69
$GPHPD,1957,31981.000,324.71,0.29,14.03,31.5906465,120.7794131,2.629,13632354.273,24926887.722,2.629,0.944,-0.118,0.924,0.614,0.956,0.590,0.000,19,18,4*64
$GPGGA,085243.40,3135.4389090,N,12046.7646946,E,4,19,1.2,2.6309,M,8.322,M,01,0004*6C
$GPHPD,1957,31981.200,324.64,0.16,14.05,31.5906485,120.7794116,2.631,13632352.393,24926885.904,2.631,0.927,-0.086,0.924,0.614,0.956,0.590,0.000,19,18,4*61
$GPGGA,085243.60,3135.4390281,N,12046.7646009,E,4,19,1.2,2.6267,M,8.322,M,00,0004*6E
$GPHPD,1957,31981.400,324.73,-0.28,14.04,31.5906505,120.7794100,2.627,13632350.512,24926884.081,2.627,0.951,-0.121,0.928,0.614,0.956,0.590,0.000,19,18,4*47
$GPGGA,085243.80,3135.4391451,N,12046.7645056,E,4,19,1.2,2.6225,M,8.322,M,00,0004*65
$GPHPD,1957,31981.600,324.69,0.12,14.03,31.5906524,120.7794084,2.623,13632348.657,24926882.250,2.623,0.931,-0.100,0.940,0.614,0.956,0.590,0.000,19,18,4*6B
$GPGGA,085244.00,3135.4392635,N,12046.7644093,E,4,19,1.2,2.6249,M,8.322,M,01,0004*6A
$GPHPD,1957,31981.800,324.82,0.14,14.03,31.5906544,120.7794068,2.625,13632346.780,24926880.400,2.625,0.938,-0.115,0.922,0.614,0.956,0.590,0.000,19,18,4*6F
$GPGGA,085244.20,3135.4393832,N,12046.7643147,E,4,19,1.2,2.6206,M,8.322,M,01,0004*64
$GPHPD,1957,31982.000,324.88,-0.47,14.04,31.5906564,120.7794052,2.621,13632344.888,24926878.562,2.621,0.938,-0.084,0.938,0.614,0.956,0.590,0.000,19,18,4*4C
$GPGGA,085244.40,3135.4395000,N,12046.7642170,E,4,19,1.2,2.6228,M,8.322,M,01,0004*64
$GPHPD,1957,31982.200,324.99,-0.21,14.04,31.5906583,120.7794036,2.623,13632343.031,24926876.704,2.623,0.959,-0.131,0.925,0.614,0.955,0.590,0.000,19,18,4*43
$GPGGA,085244.60,3135.4396231,N,12046.7641227,E,4,19,1.2,2.6194,M,8.322,M,01,0004*63
$GPHPD,1957,31982.400,325.07,-0.03,14.05,31.5906604,120.7794020,2.619,13632341.091,24926874.850,2.619,0.951,-0.097,0.936,0.614,0.955,0.590,0.000,19,18,4*4A
$GPGGA,085244.80,3135.4397420,N,12046.7640283,E,4,19,1.2,2.6230,M,8.322,M,00,0004*69
$GPHPD,1957,31982.600,325.04,0.00,14.06,31.5906624,120.7794005,2.623,13632339.211,24926873.019,2.623,0.945,-0.118,0.943,0.614,0.955,0.590,0.000,19,18,4*65
$GPGGA,085245.00,3135.4398601,N,12046.7639310,E,4,19,1.2,2.6347,M,8.322,M,01,0004*6B
$GPHPD,1957,31982.800,325.02,-0.05,14.06,31.5906643,120.7793989,2.635,13632337.336,24926871.158,2.635,0.932,-0.120,0.950,0.614,0.955,0.590,0.000,19,17,4*44
$GPGGA,085245.20,3135.4399798,N,12046.7638338,E,4,19,1.2,2.6401,M,8.322,M,01,0004*67
$GPHPD,1957,31983.000,324.93,-0.11,14.02,31.5906663,120.7793972,2.640,13632335.439,24926869.289,2.640,0.950,-0.102,0.940,0.614,0.955,0.590,0.000,19,17,4*4A
$GPGGA,085245.40,3135.4401010,N,12046.7637399,E,4,19,1.2,2.6362,M,8.322,M,01,0004*66
$GPHPD,1957,31983.200,324.79,0.90,13.98,31.5906684,120.7793957,2.636,13632333.527,24926867.451,2.636,0.944,-0.093,0.953,0.614,0.955,0.590,0.000,19,17,4*69
$GPGGA,085245.60,3135.4402188,N,12046.7636437,E,4,19,1.2,2.6372,M,8.322,M,00,0004*65
$GPHPD,1957,31983.400,324.86,0.04,13.98,31.5906703,120.7793941,2.637,13632331.659,24926865.605,2.637,0.960,-0.130,0.940,0.614,0.955,0.590,0.000,19,17,4*6E
$GPGGA,085245.80,3135.4403388,N,12046.7635488,E,4,19,1.2,2.6446,M,8.322,M,00,0004*6F
$GPHPD,1957,31983.600,324.75,0.36,13.97,31.5906723,120.7793925,2.645,13632329.762,24926863.762,2.645,0.967,-0.146,0.934,0.614,0.955,0.590,0.000,19,17,4*6D
$GPGGA,085246.00,3135.4404568,N,12046.7634531,E,4,18,1.2,2.6438,M,8.322,M,01,0004*60
$GPHPD,1957,31983.800,324.59,0.34,13.97,31.5906743,120.7793909,2.644,13632327.892,24926861.921,2.644,0.926,-0.078,0.956,0.614,0.955,0.590,0.000,18,17,4*6E
$GPGGA,085246.20,3135.4405756,N,12046.7633579,E,4,18,1.2,2.6464,M,8.322,M,01,0004*6E
$GPHPD,1957,31984.000,324.68,0.01,13.98,31.5906763,120.7793893,2.646,13632326.012,24926860.081,2.646,0.949,-0.113,0.946,0.614,0.955,0.590,0.000,18,17,4*6D
$GPGGA,085246.40,3135.4406929,N,12046.7632585,E,4,18,1.2,2.6525,M,8.322,M,01,0004*6B
$GPHPD,1957,31984.200,324.68,-0.47,13.99,31.5906782,120.7793876,2.653,13632324.144,24926858.200,2.653,0.927,-0.080,0.946,0.637,0.957,0.602,0.000,18,17,4*4D
$GPGGA,085246.60,3135.4408147,N,12046.7631638,E,4,18,1.2,2.6449,M,8.322,M,01,0004*6A
$GPHPD,1957,31984.400,324.98,-0.15,13.99,31.5906802,120.7793861,2.645,13632322.222,24926856.349,2.645,0.938,-0.079,0.941,0.613,0.955,0.590,0.000,18,17,4*46
$GPGGA,085246.80,3135.4409322,N,12046.7630657,E,4,18,1.2,2.6541,M,8.322,M,00,0004*64
$GPHPD,1957,31984.600,324.90,0.28,13.97,31.5906822,120.7793844,2.654,13632320.355,24926854.482,2.654,0.959,-0.095,0.946,0.613,0.955,0.590,0.000,18,17,4*67
$GPGGA,085247.00,3135.4410513,N,12046.7629688,E,4,18,1.2,2.6600,M,8.322,M,01,0004*6C
$GPHPD,1957,31984.800,325.11,-0.35,13.96,31.5906842,120.7793828,2.660,13632318.467,24926852.620,2.660,0.946,-0.073,0.942,0.613,0.955,0.590,0.000,18,17,4*4E
$GPGGA,085247.20,3135.4411704,N,12046.7628721,E,4,18,1.2,2.6609,M,8.322,M,01,0004*61
$GPHPD,1957,31985.000,325.30,-0.59,13.96,31.5906862,120.7793812,2.661,13632316.579,24926850.760,2.661,0.925,-0.070,0.963,0.613,0.955,0.590,0.000,18,17,4*47
$GPGGA,085247.40,3135.4412905,N,12046.7627768,E,4,18,1.2,2.6584,M,8.322,M,01,0004*6F
$GPHPD,1957,31985.200,325.52,-0.73,13.94,31.5906882,120.7793796,2.658,13632314.680,24926848.912,2.658,0.936,-0.072,0.943,0.613,0.955,0.590,0.000,18,17,4*41
$GPGGA,085247.60,3135.4414127,N,12046.7626848,E,4,18,1.2,2.6544,M,8.322,M,00,0004*62
$GPHPD,1957,31985.400,325.31,-0.07,13.93,31.5906902,120.7793781,2.654,13632312.758,24926847.091,2.654,0.945,-0.111,0.941,0.634,0.984,0.641,0.000,18,17,4*42
$GPGGA,085247.80,3135.4415334,N,12046.7625924,E,4,18,1.2,2.6495,M,8.322,M,00,0004*68
$GPHPD,1957,31985.600,325.27,-0.10,13.92,31.5906922,120.7793765,2.650,13632310.856,24926845.274,2.650,0.945,-0.134,0.941,0.613,0.955,0.590,0.000,18,17,4*41
$GPGGA,085248.00,3135.4416511,N,12046.7624954,E,4,18,1.2,2.6496,M,8.322,M,01,0004*69
$GPHPD,1957,31985.800,325.12,0.12,13.92,31.5906942,120.7793749,2.650,13632308.988,24926843.419,2.650,0.959,-0.166,0.933,0.613,0.955,0.590,0.000,18,17,4*61
$GPGGA,085248.20,3135.4417703,N,12046.7624023,E,4,18,1.2,2.6569,M,8.322,M,01,0004*63
$GPHPD,1957,31986.000,325.19,0.14,13.92,31.5906962,120.7793734,2.657,13632307.106,24926841.602,2.657,0.952,-0.122,0.924,0.613,0.955,0.590,0.000,18,17,4*69
$GPGGA,085248.40,3135.4418877,N,12046.7623114,E,4,18,1.2,2.6535,M,8.322,M,01,0004*6D
$GPHPD,1957,31986.200,325.21,-0.01,13.92,31.5906981,120.7793719,2.654,13632305.254,24926839.822,2.654,0.937,-0.098,0.941,0.613,0.955,0.590,0.000,18,17,4*4E
$GPGGA,085248.60,3135.4420058,N,12046.7622147,E,4,18,1.2,2.6616,M,8.322,M,01,0004*64
$GPHPD,1957,31986.400,325.08,0.44,13.94,31.5907001,120.7793702,2.662,13632303.381,24926837.969,2.662,0.923,-0.113,0.928,0.613,0.955,0.590,0.000,18,17,4*64
$GPGGA,085248.80,3135.4421253,N,12046.7621205,E,4,18,1.2,2.6676,M,8.322,M,00,0004*63
$GPHPD,1957,31986.600,325.17,-0.16,13.97,31.5907021,120.7793687,2.668,13632301.492,24926836.137,2.668,0.913,-0.078,0.931,0.613,0.955,0.590,0.000,18,17,4*4D
$GPGGA,085249.00,3135.4422412,N,12046.7620248,E,4,18,1.2,2.6697,M,8.322,M,01,0004*6C
$GPHPD,1957,31986.800,325.09,0.12,13.97,31.5907040,120.7793671,2.670,13632299.652,24926834.308,2.670,0.930,-0.115,0.939,0.613,0.955,0.590,0.000,18,17,4*6A
$GPGGA,085249.20,3135.4423623,N,12046.7619315,E,4,18,1.3,2.6661,M,8.322,M,01,0004*64
$GPHPD,1957,31987.000,325.12,-0.25,13.98,31.5907060,120.7793655,2.666,13632297.743,24926832.478,2.666,0.935,-0.101,0.921,0.613,0.955,0.590,0.000,18,17,4*4B
$GPGGA,085249.40,3135.4424836,N,12046.7618366,E,4,19,1.3,2.6651,M,8.322,M,01,0004*68
$GPHPD,1957,31987.200,324.99,0.29,13.99,31.5907081,120.7793639,2.665,13632295.828,24926830.627,2.665,0.913,-0.091,0.952,0.613,0.955,0.590,0.000,19,17,4*6D
$GPGGA,085249.60,3135.4425984,N,12046.7617423,E,4,19,1.3,2.6757,M,8.322,M,00,0004*6C
$GPHPD,1957,31987.400,324.77,0.47,14.00,31.5907100,120.7793624,2.676,13632294.006,24926828.822,2.676,0.937,-0.113,0.947,0.552,0.938,0.589,0.000,19,17,4*6B
$GPGGA,085249.80,3135.4427212,N,12046.7616488,E,4,19,1.3,2.6617,M,8.322,M,00,0004*61
$GPHPD,1957,31987.600,324.85,-0.05,13.99,31.5907120,120.7793608,2.662,13632292.072,24926826.979,2.662,0.914,-0.076,0.952,0.613,0.955,0.590,0.000,19,17,4*42
$GPGGA,085250.00,3135.4428400,N,12046.7615541,E,4,18,1.3,2.6666,M,8.322,M,01,0004*6A
$GPHPD,1957,31987.800,324.70,0.37,13.99,31.5907140,120.7793592,2.667,13632290.193,24926825.146,2.667,0.953,-0.123,0.932,0.562,0.938,0.599,0.000,18,17,4*65
$GPGGA,085250.20,3135.4429575,N,12046.7614568,E,4,19,1.3,2.6679,M,8.322,M,01,0004*6F
$GPHPD,1957,31988.000,324.99,-0.09,13.99,31.5907160,120.7793576,2.668,13632288.327,24926823.288,2.668,0.931,-0.097,0.945,0.577,0.960,0.656,0.000,19,17,4*4C
$GPGGA,085250.40,3135.4430775,N,12046.7613616,E,4,19,1.3,2.6733,M,8.322,M,01,0004*61
$GPHPD,1957,31988.200,325.10,0.31,13.99,31.5907180,120.7793560,2.673,13632286.429,24926821.441,2.673,0.950,-0.108,0.928,0.552,0.938,0.589,0.000,19,17,4*67
$GPGGA,085250.60,3135.4431949,N,12046.7612690,E,4,19,1.3,2.6797,M,8.322,M,01,0004*62
$GPHPD,1957,31988.400,325.10,0.13,13.99,31.5907199,120.7793545,2.680,13632284.574,24926819.641,2.680,0.937,-0.070,0.946,0.552,0.938,0.589,0.000,19,17,4*6B
$GPGGA,085250.80,3135.4433124,N,12046.7611733,E,4,19,1.3,2.6814,M,8.322,M,00,0004*63
$GPHPD,1957,31988.600,325.12,0.28,13.97,31.5907219,120.7793529,2.681,13632282.711,24926817.803,2.681,0.906,-0.098,0.950,0.552,0.938,0.589,0.000,19,17,4*6E
$GPGGA,085251.00,3135.4434333,N,12046.7610786,E,4,19,1.2,2.6727,M,8.322,M,01,0004*69
$GPHPD,1957,31988.800,325.02,0.01,13.99,31.5907239,120.7793513,2.673,13632280.802,24926815.957,2.673,0.923,-0.095,0.946,0.562,0.938,0.599,0.000,19,18,4*62
$GPGGA,085251.20,3135.4435499,N,12046.7609850,E,4,19,1.2,2.6767,M,8.322,M,01,0004*65
$GPHPD,1957,31989.000,325.31,0.25,13.99,31.5907258,120.7793498,2.677,13632278.956,24926814.150,2.677,0.951,-0.143,0.926,0.562,0.938,0.599,0.000,19,18,4*68
$GPGGA,085251.40,3135.4436694,N,12046.7608947,E,4,19,1.2,2.6812,M,8.322,M,01,0004*64
$GPHPD,1957,31989.200,325.11,0.14,13.99,31.5907278,120.7793482,2.681,13632277.076,24926812.365,2.681,0.915,-0.101,0.925,0.613,0.955,0.590,0.000,19,18,4*67
$GPGGA,085251.60,3135.4437850,N,12046.7607994,E,4,19,1.2,2.6903,M,8.322,M,00,0004*60
$GPHPD,1957,31989.400,325.22,0.05,13.99,31.5907298,120.7793467,2.690,13632275.241,24926810.543,2.690,0.922,-0.113,0.944,0.613,0.955,0.590,0.000,19,17,4*6F
$GPGGA,085251.80,3135.4439051,N,12046.7607051,E,4,19,1.2,2.6862,M,8.322,M,00,0004*6F
$GPHPD,1957,31989.600,325.14,0.26,14.00,31.5907318,120.7793451,2.686,13632273.344,24926808.706,2.686,0.908,-0.072,0.948,0.552,0.938,0.589,0.000,19,17,4*6D
$GPGGA,085252.00,3135.4440233,N,12046.7606126,E,4,19,1.2,2.6808,M,8.322,M,01,0004*61
$GPHPD,1957,31989.800,325.21,0.50,14.00,31.5907337,120.7793435,2.681,13632271.477,24926806.903,2.681,0.908,-0.095,0.951,0.552,0.938,0.589,0.000,19,17,4*6A
$GPGGA,085252.20,3135.4441422,N,12046.7605169,E,4,19,1.2,2.6937,M,8.322,M,01,0004*61
$GPHPD,1957,31990.000,325.41,0.30,14.01,31.5907357,120.7793419,2.694,13632269.594,24926805.056,2.694,0.926,-0.120,0.928,0.552,0.938,0.589,0.000,19,17,4*61
$GPGGA,085252.40,3135.4442613,N,12046.7604234,E,4,19,1.2,2.6974,M,8.321,M,01,0004*6A
$GPHPD,1957,31990.200,325.56,0.27,14.01,31.5907377,120.7793404,2.697,13632267.713,24926803.235,2.697,0.924,-0.093,0.946,0.613,0.955,0.590,0.000,19,17,4*69
$GPGGA,085252.60,3135.4443808,N,12046.7603276,E,4,19,1.2,2.6973,M,8.321,M,01,0004*6B
$GPHPD,1957,31990.400,325.64,0.37,14.00,31.5907397,120.7793388,2.697,13632265.822,24926801.384,2.697,0.919,-0.081,0.957,0.613,0.955,0.590,0.000,19,17,4*68
$GPGGA,085252.80,3135.4445020,N,12046.7602325,E,4,19,1.2,2.6923,M,8.321,M,00,0004*63
$GPHPD,1957,31990.600,325.61,0.56,13.98,31.5907417,120.7793372,2.692,13632263.907,24926799.532,2.692,0.931,-0.084,0.955,0.634,0.984,0.641,0.000,19,17,4*6A
$GPGGA,085253.00,3135.4446218,N,12046.7601383,E,4,18,1.2,2.7021,M,8.321,M,01,0004*65
$GPHPD,1957,31990.800,325.67,0.41,13.96,31.5907437,120.7793356,2.702,13632262.015,24926797.698,2.702,0.967,-0.140,0.934,0.613,0.955,0.590,0.000,18,17,4*62
$GPGGA,085253.20,3135.4447415,N,12046.7600464,E,4,18,1.2,2.6938,M,8.321,M,01,0004*62
$GPHPD,1957,31991.000,325.68,-0.16,13.97,31.5907457,120.7793341,2.694,13632260.128,24926795.893,2.694,0.922,-0.056,0.955,0.613,0.955,0.590,0.000,18,17,4*40
$GPGGA,085253.40,3135.4448642,N,12046.7599537,E,4,18,1.2,2.6983,M,8.321,M,01,0004*6F
$GPHPD,1957,31991.200,325.63,-0.17,13.97,31.5907477,120.7793326,2.698,13632258.198,24926794.061,2.698,0.949,-0.152,0.935,0.613,0.955,0.590,0.000,18,17,4*41
$GPGGA,085253.60,3135.4449848,N,12046.7598574,E,4,18,1.2,2.7021,M,8.321,M,00,0004*6F
$GPHPD,1957,31991.400,325.57,0.05,13.95,31.5907497,120.7793310,2.702,13632256.289,24926792.197,2.702,0.961,-0.146,0.944,0.613,0.955,0.590,0.000,18,17,4*6D
$GPGGA,085253.80,3135.4451038,N,12046.7597655,E,4,18,1.2,2.7011,M,8.321,M,00,0004*6B
$GPHPD,1957,31991.600,325.35,0.58,13.94,31.5907517,120.7793294,2.701,13632254.413,24926790.396,2.701,0.951,-0.111,0.949,0.613,0.955,0.590,0.000,18,17,4*6C
$GPGGA,085254.00,3135.4452240,N,12046.7596710,E,4,18,1.2,2.7033,M,8.321,M,01,0004*6A
$GPHPD,1957,31991.800,325.53,-0.08,13.93,31.5907537,120.7793279,2.703,13632252.514,24926788.557,2.703,0.928,-0.158,0.935,0.634,0.984,0.641,0.000,18,17,4*40
$GPGGA,085254.20,3135.4453441,N,12046.7595762,E,4,18,1.2,2.7089,M,8.321,M,01,0004*69
$GPHPD,1957,31992.000,325.40,0.36,13.94,31.5907557,120.7793263,2.709,13632250.616,24926786.715,2.709,0.941,-0.140,0.941,0.613,0.955,0.590,0.000,18,17,4*69
$GPGGA,085254.40,3135.4454625,N,12046.7594829,E,4,18,1.2,2.7161,M,8.321,M,01,0004*6E
$GPHPD,1957,31992.200,325.48,0.12,13.93,31.5907577,120.7793247,2.716,13632248.745,24926784.900,2.716,0.932,-0.089,0.963,0.634,0.983,0.641,0.000,18,17,4*61
$GPGGA,085254.60,3135.4455817,N,12046.7593869,E,4,18,1.2,2.7099,M,8.321,M,01,0004*67
$GPHPD,1957,31992.400,325.31,-0.02,13.93,31.5907597,120.7793231,2.710,13632246.858,24926783.048,2.710,0.909,-0.089,0.962,0.613,0.955,0.590,0.000,18,17,4*4D
$GPGGA,085254.80,3135.4456984,N,12046.7592901,E,4,18,1.3,2.7252,M,8.321,M,00,0004*6A
$GPHPD,1957,31992.600,325.54,-0.29,13.96,31.5907616,120.7793215,2.725,13632245.004,24926781.202,2.725,0.963,-0.142,0.914,0.619,0.960,0.616,0.000,18,16,4*4B
$GPGGA,085255.00,3135.4458172,N,12046.7591968,E,4,18,1.3,2.7155,M,8.321,M,01,0004*65
$GPHPD,1957,31992.800,325.57,-0.89,13.98,31.5907636,120.7793199,2.716,13632243.127,24926779.385,2.716,0.921,-0.072,0.956,0.619,0.960,0.616,0.000,18,16,4*4A
$GPGGA,085255.20,3135.4459345,N,12046.7591002,E,4,18,1.3,2.7187,M,8.321,M,01,0004*6A
$GPHPD,1957,31993.000,325.46,-0.27,14.00,31.5907656,120.7793183,2.719,13632241.265,24926777.537,2.719,0.941,-0.138,0.937,0.619,0.960,0.616,0.000,18,16,4*44
$GPGGA,085255.40,3135.4460546,N,12046.7590117,E,4,18,1.3,2.7107,M,8.321,M,01,0004*6F
$GPHPD,1957,31993.200,325.71,-0.72,14.00,31.5907676,120.7793169,2.711,13632239.380,24926775.771,2.711,0.940,-0.087,0.948,0.619,0.960,0.616,0.000,18,16,4*4F
$GPGGA,085255.60,3135.4461717,N,12046.7589169,E,4,18,1.3,2.7144,M,8.321,M,00,0004*6D
$GPHPD,1957,31993.400,325.55,-0.02,14.04,31.5907695,120.7793153,2.714,13632237.525,24926773.946,2.714,0.938,-0.178,0.923,0.619,0.960,0.616,0.000,18,16,4*40
$GPGGA,085255.80,3135.4462902,N,12046.7588258,E,4,18,1.3,2.7096,M,8.321,M,00,0004*64
$GPHPD,1957,31993.600,325.51,0.19,14.08,31.5907715,120.7793138,2.710,13632235.657,24926772.157,2.710,0.923,-0.112,0.922,0.619,0.960,0.616,0.000,18,16,4*63
$GPGGA,085256.00,3135.4464086,N,12046.7587335,E,4,18,1.3,2.7135,M,8.321,M,01,0004*60
$GPHPD,1957,31993.800,325.24,0.34,14.09,31.5907735,120.7793122,2.714,13632233.788,24926770.355,2.714,0.935,-0.123,0.915,0.619,0.960,0.616,0.000,18,16,4*6E
$GPGGA,085256.20,3135.4465255,N,12046.7586399,E,4,18,1.3,2.7186,M,8.321,M,01,0004*60
$GPHPD,1957,31994.000,325.23,0.62,14.11,31.5907754,120.7793107,2.719,13632231.938,24926768.545,2.719,0.912,-0.099,0.934,0.619,0.960,0.616,0.000,18,16,4*63
$GPGGA,085256.40,3135.4466436,N,12046.7585489,E,4,18,1.3,2.7095,M,8.321,M,01,0004*60
$GPHPD,1957,31994.200,325.35,0.58,14.14,31.5907774,120.7793091,2.710,13632230.076,24926766.760,2.710,0.909,-0.072,0.911,0.619,0.960,0.616,0.000,18,16,4*67
$GPGGA,085256.60,3135.4467622,N,12046.7584564,E,4,18,1.3,2.7167,M,8.321,M,01,0004*6B
$GPHPD,1957,31994.400,324.95,0.72,14.15,31.5907794,120.7793076,2.717,13632228.204,24926764.954,2.717,0.936,-0.168,0.904,0.619,0.960,0.616,0.000,18,16,4*63
$GPGGA,085256.80,3135.4468766,N,12046.7583616,E,4,18,1.3,2.7269,M,8.321,M,00,0004*66
$GPHPD,1957,31994.600,325.03,0.69,14.17,31.5907813,120.7793060,2.727,13632226.387,24926763.145,2.727,0.909,-0.126,0.924,0.619,0.960,0.616,0.000,18,16,4*6F
$GPGGA,085257.00,3135.4469953,N,12046.7582685,E,4,18,1.3,2.7252,M,8.321,M,01,0004*64
$GPHPD,1957,31994.800,325.09,0.61,14.16,31.5907833,120.7793045,2.725,13632224.512,24926761.331,2.725,0.906,-0.094,0.925,0.619,0.960,0.616,0.000,18,16,4*6A
$GPGGA,085257.20,3135.4471119,N,12046.7581753,E,4,18,1.3,2.7286,M,8.321,M,01,0004*69
$GPHPD,1957,31995.000,324.98,0.43,14.16,31.5907852,120.7793029,2.729,13632222.667,24926759.529,2.729,0.906,-0.082,0.931,0.619,0.960,0.616,0.000,18,16,4*66
$GPGGA,085257.40,3135.4472309,N,12046.7580798,E,4,18,1.3,2.7269,M,8.321,M,01,0004*68
$GPHPD,1957,31995.200,324.96,0.22,14.17,31.5907872,120.7793013,2.727,13632220.783,24926757.684,2.727,0.916,-0.097,0.936,0.619,0.960,0.616,0.000,18,16,4*66
$GPGGA,085257.60,3135.4473466,N,12046.7579868,E,4,18,1.3,2.7352,M,8.321,M,00,0004*6B
$GPHPD,1957,31995.400,325.09,0.12,14.17,31.5907891,120.7792998,2.735,13632218.952,24926755.889,2.735,0.918,-0.099,0.931,0.648,0.964,0.636,0.000,18,16,4*6F
$GPGGA,085257.80,3135.4474631,N,12046.7578931,E,4,18,1.3,2.7350,M,8.321,M,00,0004*6C
$GPHPD,1957,31995.600,324.90,0.54,14.17,31.5907911,120.7792982,2.735,13632217.107,24926754.081,2.735,0.936,-0.105,0.920,0.648,0.964,0.636,0.000,18,16,4*62
$GPGGA,085258.00,3135.4475808,N,12046.7577986,E,4,18,1.3,2.7351,M,8.321,M,01,0004*6D
$GPHPD,1957,31995.800,324.95,0.50,14.18,31.5907930,120.7792966,2.735,13632215.244,24926752.256,2.735,0.923,-0.089,0.937,0.619,0.960,0.616,0.000,18,16,4*66
$GPGGA,085258.20,3135.4476977,N,12046.7577061,E,4,18,1.3,2.7408,M,8.321,M,01,0004*6E
$GPHPD,1957,31996.000,324.91,0.70,14.18,31.5907950,120.7792951,2.741,13632213.396,24926750.460,2.741,0.938,-0.115,0.924,0.619,0.960,0.616,0.000,18,16,4*6C
$GPGGA,085258.40,3135.4478126,N,12046.7576148,E,4,18,1.3,2.7567,M,8.321,M,01,0004*69
$GPHPD,1957,31996.200,324.61,0.92,14.18,31.5907969,120.7792936,2.757,13632211.579,24926748.690,2.757,0.936,-0.119,0.918,0.619,0.960,0.616,0.000,18,16,4*6A
$GPGGA,085258.60,3135.4479313,N,12046.7575231,E,4,18,1.3,2.7416,M,8.321,M,01,0004*67
$GPHPD,1957,31996.400,324.67,0.94,14.20,31.5907989,120.7792921,2.742,13632209.707,24926746.893,2.742,0.895,-0.071,0.933,0.619,0.960,0.616,0.000,18,16,4*60
$GPGGA,085258.80,3135.4480462,N,12046.7574249,E,4,18,1.3,2.7471,M,8.321,M,00,0004*60
$GPHPD,1957,31996.600,324.52,1.19,14.24,31.5908008,120.7792904,2.747,13632207.876,24926745.040,2.747,0.930,-0.138,0.921,0.619,0.960,0.616,0.000,18,16,4*6F
$GPGGA,085259.00,3135.4481664,N,12046.7573309,E,4,18,1.3,2.7562,M,8.321,M,01,0004*6C
$GPHPD,1957,31996.800,324.69,1.29,14.24,31.5908028,120.7792888,2.756,13632205.978,24926743.206,2.756,0.932,-0.081,0.913,0.618,0.960,0.616,0.000,18,16,4*67
$GPGGA,085259.20,3135.4482836,N,12046.7572406,E,4,18,1.3,2.7544,M,8.321,M,01,0004*69
$GPHPD,1957,31997.000,324.99,0.77,14.25,31.5908047,120.7792873,2.754,13632204.130,24926741.435,2.754,0.932,-0.094,0.947,0.618,0.960,0.616,0.000,18,16,4*63
$GPGGA,085259.40,3135.4483962,N,12046.7571426,E,4,18,1.3,2.7621,M,8.321,M,01,0004*6F
$GPHPD,1957,31997.200,324.71,0.60,14.27,31.5908066,120.7792857,2.762,13632202.332,24926739.598,2.762,0.924,-0.125,0.933,0.618,0.960,0.615,0.000,18,16,4*65
$GPGGA,085259.60,3135.4485132,N,12046.7570491,E,4,18,1.3,2.7668,M,8.321,M,00,0004*67
$GPHPD,1957,31997.400,324.98,0.39,14.29,31.5908086,120.7792842,2.767,13632200.481,24926737.789,2.767,0.926,-0.093,0.919,0.618,0.960,0.615,0.000,18,16,4*6B
$GPGGA,085259.80,3135.4486316,N,12046.7569524,E,4,18,1.3,2.7698,M,8.321,M,00,0004*66
$GPHPD,1957,31997.600,325.21,0.47,14.27,31.5908105,120.7792825,2.770,13632198.603,24926735.934,2.770,0.911,-0.083,0.929,0.618,0.960,0.615,0.000,18,16,4*60
$GPGGA,085300.00,3135.4487502,N,12046.7568555,E,4,18,1.3,2.7751,M,8.321,M,01,0004*63
$GPHPD,1957,31997.800,325.27,0.15,14.27,31.5908125,120.7792809,2.775,13632196.722,24926734.075,2.775,0.933,-0.110,0.932,0.618,0.960,0.615,0.000,18,16,4*63
$GPGGA,085300.20,3135.4488686,N,12046.7567643,E,4,18,1.3,2.7737,M,8.321,M,01,0004*6A
$GPHPD,1957,31998.000,325.39,0.12,14.26,31.5908145,120.7792794,2.774,13632194.856,24926732.285,2.774,0.933,-0.084,0.954,0.618,0.960,0.615,0.000,18,16,4*69
$GPGGA,085300.40,3135.4489850,N,12046.7566688,E,4,18,1.3,2.7775,M,8.321,M,01,0004*68
$GPHPD,1957,31998.200,325.08,0.17,14.26,31.5908164,120.7792778,2.778,13632193.009,24926730.456,2.778,0.911,-0.088,0.937,0.618,0.960,0.615,0.000,18,16,4*6B
$GPGGA,085300.60,3135.4491033,N,12046.7565759,E,4,18,1.3,2.7828,M,8.321,M,01,0004*67
$GPHPD,1957,31998.400,325.23,0.30,14.28,31.5908184,120.7792763,2.783,13632191.140,24926728.647,2.783,0.939,-0.099,0.917,0.618,0.960,0.615,0.000,18,16,4*66
$GPGGA,085300.80,3135.4492241,N,12046.7564828,E,4,18,1.3,2.7877,M,8.321,M,00,0004*6E
$GPHPD,1957,31998.600,325.22,0.25,14.28,31.5908204,120.7792747,2.788,13632189.236,24926726.821,2.788,0.913,-0.067,0.956,0.618,0.960,0.615,0.000,18,16,4*6B
$GPGGA,085301.00,3135.4493438,N,12046.7563888,E,4,18,1.3,2.7921,M,8.321,M,01,0004*60
$GPHPD,1957,31998.800,324.84,0.28,14.25,31.5908224,120.7792731,2.792,13632187.345,24926724.991,2.792,0.919,-0.106,0.954,0.618,0.960,0.615,0.000,18,16,4*66
$GPGGA,085301.20,3135.4494610,N,12046.7562897,E,4,18,1.3,2.7988,M,8.321,M,01,0004*61
$GPHPD,1957,31999.000,324.89,0.05,14.23,31.5908244,120.7792715,2.799,13632185.480,24926723.113,2.799,0.925,-0.100,0.952,0.618,0.960,0.615,0.000,18,16,4*6D
$GPGGA,085301.40,3135.4495803,N,12046.7561924,E,4,18,1.3,2.7974,M,8.321,M,01,0004*63
$GPHPD,1957,31999.200,324.46,0.12,14.20,31.5908263,120.7792699,2.797,13632183.588,24926721.245,2.797,0.932,-0.074,0.947,0.647,0.998,0.690,0.000,18,16,4*64
$GPGGA,085301.60,3135.4496971,N,12046.7561017,E,4,18,1.3,2.8127,M,8.321,M,00,0004*6F
$GPHPD,1957,31999.400,324.74,-0.11,14.18,31.5908283,120.7792684,2.813,13632181.745,24926719.471,2.813,0.993,-0.134,0.907,0.702,1.016,0.745,0.000,18,16,4*42
$GPGGA,085301.80,3135.4498205,N,12046.7560022,E,4,18,1.3,2.7938,M,8.321,M,00,0004*69
$GPHPD,1957,31999.600,325.01,0.01,14.18,31.5908303,120.7792667,2.794,13632179.791,24926717.553,2.794,0.907,-0.075,0.946,0.702,1.016,0.745,0.000,18,16,4*66
$GPGGA,085302.00,3135.4499414,N,12046.7559023,E,4,18,1.3,2.7991,M,8.321,M,01,0004*6C
$GPHPD,1957,31999.800,324.82,0.70,14.16,31.5908324,120.7792650,2.799,13632177.871,24926715.644,2.799,0.957,-0.122,0.944,0.648,0.964,0.636,0.000,18,16,4*60
$GPGGA,085302.20,3135.4500638,N,12046.7558063,E,4,18,1.3,2.8028,M,8.321,M,01,0004*62
$GPHPD,1957,32000.000,324.93,0.62,14.13,31.5908344,120.7792634,2.803,13632175.938,24926713.774,2.803,1.001,-0.094,0.940,0.618,0.960,0.615,0.000,18,16,4*69
$GPGGA,085302.40,3135.4501847,N,12046.7557073,E,4,18,1.3,2.8071,M,8.321,M,01,0004*61
$GPHPD,1957,32000.200,324.61,0.68,14.11,31.5908364,120.7792618,2.807,13632174.020,24926711.876,2.807,0.951,-0.102,0.971,0.648,0.963,0.636,0.000,18,16,4*6A
$GPGGA,085302.60,3135.4503073,N,12046.7556102,E,4,18,1.3,2.8100,M,8.321,M,01,0004*6F
$GPHPD,1957,32000.400,324.28,1.61,14.08,31.5908385,120.7792602,2.810,13632172.082,24926709.992,2.810,0.958,-0.114,0.980,0.648,0.963,0.636,0.000,18,16,4*69
$GPGGA,085302.80,3135.4504293,N,12046.7555162,E,4,18,1.3,2.8195,M,8.321,M,00,0004*62
$GPHPD,1957,32000.600,324.74,0.53,14.03,31.5908405,120.7792586,2.820,13632170.159,24926708.148,2.820,0.953,-0.086,0.970,0.648,0.963,0.636,0.000,18,16,4*6C
$GPGGA,085303.00,3135.4505460,N,12046.7554205,E,4,18,1.3,2.8274,M,8.321,M,01,0004*6E
$GPHPD,1957,32000.800,324.69,0.63,14.07,31.5908424,120.7792570,2.827,13632168.307,24926706.314,2.827,0.921,-0.080,0.995,0.648,0.963,0.636,0.000,18,16,4*6E
$GPGGA,085303.20,3135.4506621,N,12046.7553265,E,4,18,1.3,2.8249,M,8.321,M,01,0004*67
$GPHPD,1957,32001.000,324.75,-0.02,14.17,31.5908444,120.7792554,2.825,13632166.467,24926704.505,2.825,0.910,-0.060,0.949,0.648,0.963,0.636,0.000,18,16,4*47
$GPGGA,085303.40,3135.4507728,N,12046.7552316,E,4,18,1.3,2.8345,M,8.321,M,01,0004*61
$GPHPD,1957,32001.200,324.74,0.24,14.21,31.5908462,120.7792539,2.835,13632164.703,24926702.716,2.835,0.945,-0.103,0.900,0.618,0.960,0.615,0.000,18,16,4*6C
$GPGGA,085303.60,3135.450865,N,12046.7551361,E,4,18,1.3,2.8445,M,8.321,M,00,0004*6F
$GPHPD,1957,32001.400,325.19,0.15,14.20,31.5908481,120.7792523,2.845,13632162.894,24926700.902,2.845,0.902,-0.058,0.899,0.618,0.960,0.615,0.000,18,16,4*66
$GPGGA,085303.80,3135.4510004,N,12046.7550514,E,4,18,1.3,2.8303,M,8.321,M,00,0004*67
$GPHPD,1957,32001.600,325.13,-0.32,14.15,31.5908500,120.7792509,2.830,13632161.105,24926699.218,2.830,0.910,-0.044,0.912,0.618,0.960,0.615,0.000,18,16,4*4F
$GPGGA,085304.00,3135.4511045,N,12046.7549663,E,4,18,1.3,2.8282,M,8.321,M,01,0004*6E
$GPHPD,1957,32001.800,324.93,-0.01,14.06,31.5908517,120.7792494,2.828,13632159.454,24926697.585,2.828,0.896,-0.164,0.876,0.618,0.960,0.615,0.000,18,15,4*42
$GPGGA,085304.20,3135.4512004,N,12046.7548839,E,4,18,1.3,2.8449,M,8.321,M,01,0004*6B
$GPHPD,1957,32002.000,324.98,-0.04,13.97,31.5908533,120.7792481,2.845,13632157.925,24926696.033,2.845,0.846,-0.108,0.833,0.620,1.018,0.618,0.000,18,16,4*42
$GPGGA,085304.40,3135.4512894,N,12046.7548153,E,4,18,1.3,2.8390,M,8.321,M,01,0004*6A
$GPHPD,1957,32002.200,325.27,-0.19,13.84,31.5908548,120.7792469,2.839,13632156.522,24926694.688,2.839,0.775,-0.023,0.773,0.618,0.960,0.615,0.000,18,16,4*42
$GPGGA,085304.60,3135.4513674,N,12046.7547549,E,4,18,1.3,2.8405,M,8.321,M,01,0004*62
$GPHPD,1957,32002.400,325.04,0.20,13.68,31.5908561,120.7792459,2.841,13632155.291,24926693.505,2.841,0.683,-0.056,0.700,0.618,0.960,0.615,0.000,18,16,4*6B
$GPGGA,085304.80,3135.4514335,N,12046.7547017,E,4,18,1.3,2.8380,M,8.321,M,00,0004*6E
$GPHPD,1957,32002.600,324.83,0.12,13.53,31.5908572,120.7792450,2.838,13632154.245,24926692.479,2.838,0.593,-0.061,0.634,0.618,0.959,0.615,0.000,18,16,4*6C
$GPGGA,085305.00,3135.4514889,N,12046.7546605,E,4,18,1.3,2.8243,M,8.321,M,01,0004*60
$GPHPD,1957,32002.800,324.84,0.14,13.39,31.5908581,120.7792443,2.824,13632153.374,24926691.660,2.824,0.522,-0.064,0.526,0.618,0.959,0.615,0.000,18,16,4*63
$GPGGA,085305.20,3135.4515307,N,12046.7546219,E,4,18,1.3,2.8368,M,8.321,M,01,0004*6F
$GPHPD,1957,32003.000,324.60,0.17,13.28,31.5908588,120.7792437,2.837,13632152.702,24926690.951,2.837,0.451,-0.107,0.409,0.618,0.959,0.615,0.000,18,16,4*6C
$GPGGA,085305.40,3135.4515645,N,12046.7545994,E,4,18,1.3,2.8274,M,8.321,M,01,0004*6B
$GPHPD,1957,32003.200,324.89,-0.28,13.16,31.5908594,120.7792433,2.827,13632152.176,24926690.483,2.827,0.333,0.010,0.352,0.618,0.959,0.615,0.000,18,16,4*6B
$GPGGA,085305.60,3135.4515848,N,12046.7545799,E,4,18,1.3,2.8327,M,8.321,M,00,0004*6F
$GPHPD,1957,32003.400,324.75,-0.01,13.04,31.5908597,120.7792430,2.833,13632151.849,24926690.129,2.833,0.264,-0.063,0.240,0.618,0.959,0.615,0.000,18,16,4*4D
$GPGGA,085305.80,3135.4515971,N,12046.7545696,E,4,18,1.3,2.8307,M,8.321,M,00,0004*66
$GPHPD,1957,32003.600,324.66,0.14,12.93,31.5908600,120.7792428,2.831,13632151.653,24926689.934,2.831,0.170,-0.007,0.178,0.618,0.959,0.615,0.000,18,16,4*6A
$GPGGA,085306.00,3135.4516017,N,12046.7545656,E,4,18,1.3,2.8337,M,8.321,M,01,0004*69
$GPHPD,1957,32003.800,324.86,-0.03,12.86,31.5908600,120.7792428,2.834,13632151.580,24926689.859,2.834,0.099,-0.004,0.100,0.618,0.959,0.615,0.000,18,16,4*48
$GPGGA,085306.20,3135.4516001,N,12046.7545665,E,4,18,1.3,2.8337,M,8.321,M,01,0004*6C
$GPHPD,1957,32004.000,324.82,0.22,12.81,31.5908600,120.7792428,2.834,13632151.604,24926689.879,2.834,0.038,0.003,0.041,0.618,0.959,0.615,0.000,18,16,4*42
$GPGGA,085306.40,3135.4516014,N,12046.7545661,E,4,18,1.3,2.8361,M,8.321,M,01,0004*69
$GPHPD,1957,32004.200,324.97,0.17,12.87,31.5908600,120.7792428,2.836,13632151.585,24926689.866,2.836,-0.003,-0.010,-0.009,0.618,0.959,0.615,0.000,18,16,4*6B
$GPGGA,085306.60,3135.4516001,N,12046.7545673,E,4,18,1.3,2.8378,M,8.321,M,01,0004*64
$GPHPD,1957,32004.400,324.77,0.05,12.92,31.5908600,120.7792428,2.838,13632151.606,24926689.888,2.838,-0.003,0.001,0.011,0.618,0.959,0.615,0.000,18,16,4*65
$GPGGA,085306.80,3135.4516022,N,12046.7545681,E,4,18,1.3,2.8411,M,8.321,M,00,0004*6F
$GPHPD,1957,32004.600,324.92,-0.06,12.96,31.5908600,120.7792428,2.841,13632151.578,24926689.886,2.841,-0.005,0.007,0.003,0.618,0.959,0.615,0.000,18,16,4*41
$GPGGA,085307.00,3135.4516021,N,12046.7545676,E,4,18,1.3,2.8361,M,8.321,M,01,0004*6C
$GPHPD,1957,32004.800,324.69,-0.02,13.01,31.5908600,120.7792428,2.836,13632151.578,24926689.880,2.836,-0.003,0.012,0.016,0.618,0.959,0.615,0.000,18,16,4*40
$GPGGA,085307.20,3135.4516033,N,12046.7545681,E,4,18,1.3,2.8307,M,8.321,M,01,0004*65
$GPHPD,1957,32005.000,324.81,-0.04,13.05,31.5908601,120.7792428,2.831,13632151.562,24926689.879,2.831,0.006,-0.004,0.001,0.613,0.954,0.590,0.000,18,16,4*4D
$GPGGA,085307.40,3135.4516037,N,12046.7545672,E,4,18,1.3,2.8320,M,8.321,M,01,0004*6E
$GPHPD,1957,32005.200,324.73,0.25,13.10,31.5908601,120.7792428,2.832,13632151.554,24926689.866,2.832,0.005,-0.011,0.002,0.613,0.954,0.590,0.000,18,16,4*67
