$GPGGA,082028.00,3135.3235185,N,12046.6818536,E,4,15,1.5,2.8274,M,8.318,M,01,0004*6C
$GPHPD,1957,30045.800,144.04,-0.64,11.90,31.5887253,120.7780309,2.827,13633825.884,24926558.468,2.827,-0.595,0.053,-0.573,0.760,1.132,0.754,0.000,15,11,4*61
$GPGGA,082028.20,3135.3234453,N,12046.6819151,E,4,15,1.5,2.8341,M,8.318,M,01,0004*62
$GPHPD,1957,30046.000,143.73,0.08,11.95,31.5887241,120.7780319,2.834,13633827.048,24926559.636,2.834,-0.547,-0.030,-0.585,0.760,1.132,0.754,0.000,15,11,4*61
$GPGGA,082028.40,3135.3233731,N,12046.6819779,E,4,14,1.5,2.8366,M,8.318,M,01,0004*6C
$GPHPD,1957,30046.200,143.56,0.21,12.02,31.5887229,120.7780330,2.837,13633828.201,24926560.813,2.837,-0.605,0.063,-0.555,0.760,1.132,0.754,0.000,14,11,4*46
$GPGGA,082028.60,3135.3232973,N,12046.6820431,E,4,14,1.5,2.8358,M,8.318,M,00,0004*6E
$GPHPD,1957,30046.400,143.51,-0.03,12.09,31.5887216,120.7780341,2.836,13633829.410,24926562.041,2.836,-0.616,0.064,-0.566,0.760,1.132,0.754,0.000,14,11,4*64
$GPGGA,082028.80,3135.3232183,N,12046.6821097,E,4,15,1.5,2.8312,M,8.318,M,00,0004*61
$GPHPD,1957,30046.600,143.48,-0.23,12.17,31.5887203,120.7780352,2.831,13633830.667,24926563.303,2.831,-0.659,0.074,-0.600,0.760,1.132,0.754,0.000,15,11,4*63
$GPGGA,082029.00,3135.3231385,N,12046.6821826,E,4,15,1.5,2.8353,M,8.318,M,01,0004*69
$GPHPD,1957,30046.800,143.25,-0.41,12.27,31.5887190,120.7780364,2.835,13633831.948,24926564.647,2.835,-0.617,-0.008,-0.624,0.759,1.063,0.740,0.000,15,12,4*4F
$GPGGA,082029.20,3135.3230519,N,12046.6822582,E,4,15,1.5,2.8299,M,8.318,M,01,0004*6E
$GPHPD,1957,30047.000,143.02,-0.18,12.33,31.5887175,120.7780376,2.830,13633833.331,24926566.063,2.830,-0.691,0.012,-0.648,0.759,1.063,0.740,0.000,15,12,4*64
$GPGGA,082029.40,3135.3229644,N,12046.6823342,E,4,15,1.5,2.8420,M,8.318,M,01,0004*64
$GPHPD,1957,30047.200,142.97,-0.59,12.40,31.5887161,120.7780389,2.842,13633834.728,24926567.489,2.842,-0.717,0.050,-0.673,0.759,1.063,0.740,0.000,15,12,4*64
$GPGGA,082029.60,3135.3228742,N,12046.6824148,E,4,15,1.5,2.8366,M,8.318,M,00,0004*6B
$GPHPD,1957,30047.400,142.94,-1.67,12.46,31.5887146,120.7780402,2.837,13633836.173,24926568.985,2.837,-0.780,0.075,-0.673,0.759,1.063,0.740,0.000,15,12,4*67
$GPGGA,082029.80,3135.3227842,N,12046.6824933,E,4,15,1.5,2.8459,M,8.318,M,00,0004*6A
$GPHPD,1957,30047.600,142.67,-1.79,12.51,31.5887131,120.7780416,2.846,13633837.610,24926570.456,2.846,-0.748,0.008,-0.736,0.759,1.063,0.740,0.000,15,12,4*62
$GPGGA,082030.00,3135.3226899,N,12046.6825779,E,4,15,1.5,2.8379,M,8.318,M,01,0004*68
$GPHPD,1957,30047.800,142.31,-1.70,12.53,31.5887115,120.7780430,2.838,13633839.121,24926572.025,2.838,-0.804,0.088,-0.670,0.759,1.063,0.740,0.000,15,12,4*63
$GPGGA,082030.20,3135.3226013,N,12046.6826605,E,4,15,1.5,2.8445,M,8.318,M,01,0004*61
$GPHPD,1957,30048.000,142.25,-1.37,12.55,31.5887100,120.7780443,2.845,13633840.547,24926573.537,2.845,-0.803,-0.006,-0.750,0.759,1.063,0.740,0.000,15,12,4*46
$GPGGA,082030.40,3135.3225092,N,12046.6827484,E,4,15,1.5,2.8308,M,8.318,M,01,0004*69
$GPHPD,1957,30048.200,141.76,-0.68,12.56,31.5887085,120.7780458,2.831,13633842.033,24926575.133,2.831,-0.778,0.052,-0.698,0.759,1.063,0.740,0.000,15,12,4*67
$GPGGA,082030.60,3135.3224182,N,12046.6828308,E,4,15,1.4,2.8364,M,8.318,M,00,0004*6C
$GPHPD,1957,30048.400,141.82,-1.05,12.56,31.5887070,120.7780472,2.836,13633843.493,24926576.656,2.836,-0.775,-0.032,-0.741,0.759,1.063,0.740,0.000,15,12,4*49
$GPGGA,082030.80,3135.3223293,N,12046.6829173,E,4,15,1.4,2.8349,M,8.318,M,00,0004*66
$GPHPD,1957,30048.600,141.56,-0.49,12.56,31.5887055,120.7780486,2.835,13633844.930,24926578.217,2.835,-0.805,0.058,-0.693,0.759,1.063,0.740,0.000,15,12,4*6C
$GPGGA,082031.00,3135.3222419,N,12046.6829976,E,4,15,1.4,2.8328,M,8.318,M,01,0004*61
$GPHPD,1957,30048.800,141.05,-0.71,12.53,31.5887040,120.7780500,2.833,13633846.335,24926579.694,2.833,-0.797,0.031,-0.705,0.759,1.063,0.740,0.000,15,12,4*67
$GPGGA,082031.20,3135.3221565,N,12046.6830796,E,4,16,1.4,2.8369,M,8.318,M,01,0004*64
$GPHPD,1957,30049.000,140.72,-1.39,12.51,31.5887026,120.7780513,2.837,13633847.714,24926581.180,2.837,-0.780,0.008,-0.695,0.759,1.063,0.740,0.000,16,12,4*66
$GPGGA,082031.40,3135.3220676,N,12046.6831630,E,4,16,1.4,2.8314,M,8.318,M,01,0004*64
$GPHPD,1957,30049.200,140.52,-1.47,12.51,31.5887011,120.7780527,2.831,13633849.145,24926582.703,2.831,-0.775,0.019,-0.683,0.634,1.018,0.705,0.000,16,12,4*64
$GPGGA,082031.60,3135.3219847,N,12046.6832415,E,4,16,1.4,2.8332,M,8.318,M,00,0004*63
$GPHPD,1957,30049.400,140.18,-1.20,12.50,31.5886997,120.7780540,2.833,13633850.482,24926584.132,2.833,-0.781,0.042,-0.678,0.634,1.018,0.705,0.000,16,12,4*6E
$GPGGA,082031.80,3135.3219031,N,12046.6833223,E,4,16,1.4,2.8431,M,8.318,M,00,0004*62
$GPHPD,1957,30049.600,140.10,-0.90,12.50,31.5886984,120.7780554,2.843,13633851.804,24926585.581,2.843,-0.740,0.029,-0.678,0.634,1.018,0.705,0.000,16,12,4*67
$GPGGA,082032.00,3135.3218207,N,12046.6834041,E,4,16,1.4,2.8402,M,8.318,M,01,0004*6F
$GPHPD,1957,30049.800,139.75,-1.31,12.48,31.5886970,120.7780567,2.840,13633853.141,24926587.047,2.840,-0.756,0.027,-0.643,0.634,1.018,0.705,0.000,16,12,4*6A
$GPGGA,082032.20,3135.3217414,N,12046.6834813,E,4,15,1.4,2.8420,M,8.318,M,01,0004*6A
$GPHPD,1957,30050.000,139.55,-0.94,12.47,31.5886957,120.7780580,2.842,13633854.423,24926588.440,2.842,-0.747,0.018,-0.645,0.634,1.018,0.705,0.000,15,12,4*66
$GPGGA,082032.40,3135.3216641,N,12046.6835596,E,4,15,1.4,2.8396,M,8.318,M,01,0004*64
$GPHPD,1957,30050.200,139.02,-1.07,12.47,31.5886944,120.7780593,2.840,13633855.680,24926589.834,2.840,-0.722,-0.005,-0.619,0.759,1.063,0.740,0.000,15,12,4*45
$GPGGA,082032.60,3135.3215873,N,12046.6836373,E,4,15,1.4,2.8352,M,8.318,M,00,0004*6D
$GPHPD,1957,30050.400,138.90,-1.28,12.47,31.5886931,120.7780606,2.835,13633856.928,24926591.218,2.835,-0.701,-0.002,-0.597,0.759,1.063,0.740,0.000,15,12,4*49
$GPGGA,082032.80,3135.3215119,N,12046.6837129,E,4,15,1.4,2.8331,M,8.318,M,00,0004*6F
$GPHPD,1957,30050.600,138.83,-1.22,12.48,31.5886919,120.7780619,2.833,13633858.152,24926592.569,2.833,-0.702,-0.009,-0.592,0.759,1.063,0.740,0.000,15,12,4*4C
$GPGGA,082033.00,3135.3214350,N,12046.6837932,E,4,15,1.4,2.8323,M,8.318,M,01,0004*68
$GPHPD,1957,30050.800,138.60,-0.27,12.48,31.5886906,120.7780632,2.832,13633859.407,24926593.984,2.832,-0.674,-0.029,-0.595,0.759,1.063,0.740,0.000,15,12,4*43
$GPGGA,082033.20,3135.3213613,N,12046.6838676,E,4,15,1.4,2.8254,M,8.318,M,01,0004*6E
$GPHPD,1957,30051.000,138.32,-0.75,12.48,31.5886894,120.7780645,2.825,13633860.604,24926595.311,2.825,-0.716,-0.022,-0.610,0.759,1.063,0.740,0.000,15,12,4*4B
$GPGGA,082033.40,3135.3212883,N,12046.6839419,E,4,16,1.4,2.8249,M,8.318,M,01,0004*6B
$GPHPD,1957,30051.200,138.41,-1.21,12.49,31.5886881,120.7780657,2.825,13633861.792,24926596.632,2.825,-0.689,-0.043,-0.600,0.759,1.063,0.740,0.000,16,12,4*41
$GPGGA,082033.60,3135.3212191,N,12046.6840166,E,4,16,1.4,2.8213,M,8.318,M,00,0004*6E
$GPHPD,1957,30051.400,137.93,-0.12,12.49,31.5886870,120.7780669,2.821,13633862.926,24926597.935,2.821,-0.697,-0.010,-0.565,0.759,1.063,0.740,0.000,16,13,4*46
$GPGGA,082033.80,3135.3211465,N,12046.6840879,E,4,16,1.4,2.8312,M,8.318,M,00,0004*6A
$GPHPD,1957,30051.600,137.88,-1.08,12.49,31.5886858,120.7780681,2.831,13633864.101,24926599.217,2.831,-0.665,-0.008,-0.567,0.759,1.063,0.740,0.000,16,13,4*40
$GPGGA,082034.00,3135.3210774,N,12046.6841618,E,4,16,1.4,2.8323,M,8.318,M,01,0004*6C
$GPHPD,1957,30051.800,137.55,-0.78,12.50,31.5886846,120.7780694,2.832,13633865.232,24926600.511,2.832,-0.679,0.027,-0.546,0.759,1.063,0.740,0.000,16,13,4*65
$GPGGA,082034.20,3135.3210101,N,12046.6842352,E,4,16,1.4,2.8182,M,8.318,M,01,0004*6B
$GPHPD,1957,30052.000,137.76,-1.31,12.49,31.5886835,120.7780706,2.818,13633866.337,24926601.788,2.818,-0.676,0.060,-0.543,0.759,1.063,0.740,0.000,16,13,4*68
$GPGGA,082034.40,3135.3209434,N,12046.6843042,E,4,16,1.4,2.8245,M,8.318,M,01,0004*6D
$GPHPD,1957,30052.200,137.84,-0.93,12.48,31.5886824,120.7780717,2.825,13633867.424,24926603.008,2.825,-0.631,-0.053,-0.567,0.759,1.063,0.740,0.000,16,13,4*4E
$GPGGA,082034.60,3135.3208768,N,12046.6843746,E,4,16,1.4,2.8151,M,8.318,M,00,0004*60
$GPHPD,1957,30052.400,137.45,-0.67,12.49,31.5886813,120.7780729,2.815,13633868.513,24926604.245,2.815,-0.653,0.023,-0.511,0.759,1.063,0.740,0.000,16,13,4*6F
$GPGGA,082034.80,3135.3208128,N,12046.6844450,E,4,16,1.5,2.8033,M,8.318,M,00,0004*6B
$GPHPD,1957,30052.600,137.31,-1.44,12.49,31.5886802,120.7780741,2.803,13633869.564,24926605.466,2.803,-0.628,-0.039,-0.549,0.760,1.133,0.754,0.000,16,13,4*4B
$GPGGA,082035.00,3135.3207451,N,12046.6845139,E,4,16,1.5,2.8117,M,8.318,M,01,0004*6B
$GPHPD,1957,30052.800,137.21,-1.48,12.48,31.5886791,120.7780752,2.812,13633870.665,24926606.691,2.812,-0.617,-0.052,-0.539,0.759,1.063,0.740,0.000,16,13,4*40
$GPGGA,082035.20,3135.3206828,N,12046.6845825,E,4,16,1.5,2.8231,M,8.318,M,01,0004*69
$GPHPD,1957,30053.000,137.06,-1.45,12.46,31.5886780,120.7780764,2.823,13633871.689,24926607.881,2.823,-0.635,0.004,-0.535,0.759,1.063,0.740,0.000,16,13,4*65
$GPGGA,082035.40,3135.3206217,N,12046.6846501,E,4,16,1.5,2.8092,M,8.318,M,01,0004*6A
$GPHPD,1957,30053.200,137.30,-1.48,12.45,31.5886770,120.7780775,2.809,13633872.694,24926609.052,2.809,-0.642,0.032,-0.472,0.759,1.063,0.740,0.000,16,13,4*63
$GPGGA,082035.60,3135.3205579,N,12046.6847163,E,4,16,1.5,2.8083,M,8.318,M,00,0004*64
$GPHPD,1957,30053.400,137.45,-1.36,12.45,31.5886760,120.7780786,2.808,13633873.734,24926610.221,2.808,-0.615,-0.038,-0.504,0.759,1.063,0.740,0.000,16,13,4*42
$GPGGA,082035.80,3135.3204948,N,12046.6847832,E,4,16,1.5,2.8054,M,8.318,M,00,0004*62
$GPHPD,1957,30053.600,137.56,-1.03,12.46,31.5886749,120.7780797,2.805,13633874.765,24926611.395,2.805,-0.608,-0.010,-0.493,0.759,1.063,0.740,0.000,16,13,4*49
$GPGGA,082036.00,3135.3204365,N,12046.6848436,E,4,16,1.4,2.8124,M,8.318,M,01,0004*6D
$GPHPD,1957,30053.800,137.94,-1.47,12.47,31.5886739,120.7780807,2.812,13633875.716,24926612.463,2.812,-0.599,-0.026,-0.488,0.759,1.063,0.740,0.000,16,13,4*45
$GPGGA,082036.20,3135.3203720,N,12046.6849068,E,4,16,1.4,2.8048,M,8.318,M,01,0004*68
$GPHPD,1957,30054.000,138.03,-0.93,12.47,31.5886729,120.7780818,2.805,13633876.760,24926613.601,2.805,-0.581,0.010,-0.477,0.759,1.063,0.740,0.000,16,13,4*68
$GPGGA,082036.40,3135.3203104,N,12046.6849690,E,4,16,1.4,2.8077,M,8.318,M,01,0004*63
$GPHPD,1957,30054.200,138.09,-1.09,12.47,31.5886718,120.7780828,2.808,13633877.761,24926614.709,2.808,-0.544,-0.070,-0.537,0.759,1.063,0.740,0.000,16,13,4*4A
$GPGGA,082036.60,3135.3202491,N,12046.6850337,E,4,16,1.4,2.8038,M,8.318,M,00,0004*63
$GPHPD,1957,30054.400,138.30,-2.16,12.47,31.5886708,120.7780839,2.804,13633878.763,24926615.846,2.804,-0.575,-0.012,-0.497,0.759,1.063,0.740,0.000,16,13,4*4F
$GPGGA,082036.80,3135.3201906,N,12046.6850934,E,4,16,1.4,2.8057,M,8.318,M,00,0004*6D
$GPHPD,1957,30054.600,138.82,-1.79,12.47,31.5886698,120.7780849,2.806,13633879.714,24926616.907,2.806,-0.570,0.033,-0.477,0.759,1.063,0.740,0.000,16,13,4*62
$GPGGA,082037.00,3135.3201316,N,12046.6851517,E,4,16,1.4,2.7950,M,8.318,M,01,0004*63
$GPHPD,1957,30054.800,138.97,-1.23,12.46,31.5886689,120.7780859,2.795,13633880.670,24926617.953,2.795,-0.544,0.016,-0.474,0.759,1.063,0.740,0.000,16,13,4*61
$GPGGA,082037.20,3135.3200693,N,12046.6852110,E,4,16,1.4,2.7980,M,8.318,M,01,0004*65
$GPHPD,1957,30055.000,139.26,-1.38,12.47,31.5886678,120.7780869,2.798,13633881.676,24926619.031,2.798,-0.527,-0.001,-0.484,0.759,1.063,0.740,0.000,16,13,4*40
$GPGGA,082037.40,3135.3200096,N,12046.6852760,E,4,16,1.4,2.7992,M,8.318,M,01,0004*62
$GPHPD,1957,30055.200,139.39,-1.27,12.49,31.5886668,120.7780879,2.799,13633882.655,24926620.162,2.799,-0.561,0.016,-0.470,0.759,1.063,0.740,0.000,16,13,4*61
$GPGGA,082037.60,3135.3199501,N,12046.6853322,E,4,16,1.4,2.7954,M,8.318,M,00,0004*60
$GPHPD,1957,30055.400,139.69,-1.23,12.51,31.5886658,120.7780889,2.795,13633883.614,24926621.186,2.795,-0.566,-0.030,-0.478,0.759,1.063,0.740,0.000,16,13,4*4A
$GPGGA,082037.80,3135.3198833,N,12046.6853917,E,4,16,1.4,2.7907,M,8.318,M,00,0004*69
$GPHPD,1957,30055.600,139.71,-1.21,12.53,31.5886647,120.7780899,2.791,13633884.683,24926622.293,2.791,-0.506,-0.024,-0.489,0.759,1.063,0.740,0.000,16,13,4*4E
$GPGGA,082038.00,3135.3198249,N,12046.6854524,E,4,16,1.4,2.7950,M,8.318,M,01,0004*61
$GPHPD,1957,30055.800,139.55,-0.98,12.54,31.5886637,120.7780909,2.795,13633885.636,24926623.364,2.795,-0.543,-0.020,-0.529,0.759,1.063,0.740,0.000,16,13,4*44
$GPGGA,082038.20,3135.3197627,N,12046.6855132,E,4,16,1.4,2.7965,M,8.318,M,01,0004*64
$GPHPD,1957,30056.000,140.11,-1.16,12.55,31.5886627,120.7780919,2.797,13633886.642,24926624.460,2.797,-0.569,0.023,-0.488,0.759,1.063,0.740,0.000,16,13,4*6F
$GPGGA,082038.40,3135.3196991,N,12046.6855744,E,4,16,1.4,2.7972,M,8.318,M,01,0004*60
$GPHPD,1957,30056.200,140.26,-1.30,12.55,31.5886617,120.7780929,2.797,13633887.670,24926625.568,2.797,-0.556,-0.020,-0.488,0.759,1.063,0.740,0.000,16,13,4*47
$GPGGA,082038.60,3135.3196313,N,12046.6856304,E,4,16,1.4,2.7946,M,8.318,M,00,0004*67
$GPHPD,1957,30056.400,140.61,-0.30,12.58,31.5886605,120.7780938,2.795,13633888.746,24926626.638,2.795,-0.579,0.035,-0.501,0.759,1.063,0.740,0.000,16,13,4*67
$GPGGA,082038.80,3135.3195665,N,12046.6856922,E,4,16,1.4,2.7945,M,8.318,M,00,0004*63
$GPHPD,1957,30056.600,140.44,-1.15,12.61,31.5886594,120.7780949,2.795,13633889.792,24926627.760,2.795,-0.558,0.012,-0.509,0.759,1.063,0.740,0.000,16,13,4*68
$GPGGA,082039.00,3135.3194994,N,12046.6857533,E,4,16,1.4,2.7994,M,8.318,M,01,0004*6A
$GPHPD,1957,30056.800,140.50,-0.72,12.62,31.5886583,120.7780959,2.799,13633890.869,24926628.888,2.799,-0.586,0.047,-0.520,0.759,1.063,0.740,0.000,16,13,4*6A
$GPGGA,082039.20,3135.3194361,N,12046.6858146,E,4,16,1.4,2.7971,M,8.318,M,01,0004*6A
$GPHPD,1957,30057.000,140.73,-0.38,12.62,31.5886573,120.7780969,2.797,13633891.892,24926629.995,2.797,-0.557,0.001,-0.530,0.759,1.063,0.740,0.000,16,13,4*66
$GPGGA,082039.40,3135.3193749,N,12046.6858706,E,4,16,1.4,2.7948,M,8.318,M,01,0004*6D
$GPHPD,1957,30057.200,140.48,-0.48,12.61,31.5886562,120.7780978,2.795,13633892.875,24926631.027,2.795,-0.566,-0.015,-0.529,0.759,1.063,0.740,0.000,16,13,4*49
$GPGGA,082039.60,3135.3193156,N,12046.6859312,E,4,16,1.4,2.7919,M,8.318,M,00,0004*62
$GPHPD,1957,30057.400,140.43,-1.23,12.61,31.5886553,120.7780989,2.792,13633893.840,24926632.103,2.792,-0.542,-0.025,-0.502,0.721,1.035,0.667,0.000,16,13,4*43
$GPGGA,082039.80,3135.3192558,N,12046.6859875,E,4,16,1.4,2.7813,M,8.318,M,00,0004*66
$GPHPD,1957,30057.600,140.51,-1.14,12.61,31.5886543,120.7780998,2.781,13633894.803,24926633.130,2.781,-0.566,-0.018,-0.466,0.721,1.035,0.667,0.000,16,13,4*4D
$GPGGA,082040.00,3135.3191975,N,12046.6860485,E,4,16,1.4,2.7842,M,8.318,M,01,0004*6C
$GPHPD,1957,30057.800,140.33,-0.82,12.62,31.5886533,120.7781008,2.784,13633895.755,24926634.205,2.784,-0.533,0.022,-0.474,0.721,1.035,0.667,0.000,16,13,4*64
$GPGGA,082040.20,3135.3191357,N,12046.6861017,E,4,16,1.4,2.7869,M,8.318,M,01,0004*63
$GPHPD,1957,30058.000,140.31,-1.25,12.62,31.5886523,120.7781017,2.787,13633896.740,24926635.206,2.787,-0.549,-0.001,-0.472,0.721,1.035,0.667,0.000,16,13,4*40
$GPGGA,082040.40,3135.3190747,N,12046.6861563,E,4,16,1.4,2.7913,M,8.318,M,01,0004*6B
$GPHPD,1957,30058.200,140.20,-0.81,12.62,31.5886512,120.7781026,2.791,13633897.717,24926636.219,2.791,-0.541,0.032,-0.475,0.721,1.035,0.667,0.000,16,13,4*61
$GPGGA,082040.60,3135.3190176,N,12046.6862124,E,4,16,1.4,2.7901,M,8.318,M,00,0004*6B
$GPHPD,1957,30058.400,140.03,-0.99,12.60,31.5886503,120.7781035,2.790,13633898.642,24926637.228,2.790,-0.522,0.028,-0.462,0.721,1.035,0.667,0.000,16,13,4*6A
$GPGGA,082040.80,3135.3189644,N,12046.6862652,E,4,16,1.4,2.7968,M,8.318,M,00,0004*62
$GPHPD,1957,30058.600,140.25,-1.02,12.61,31.5886494,120.7781044,2.797,13633899.505,24926638.175,2.797,-0.507,0.017,-0.492,0.721,1.035,0.667,0.000,16,13,4*66
$GPGGA,082041.00,3135.3189076,N,12046.6863193,E,4,16,1.4,2.7969,M,8.318,M,01,0004*67
$GPHPD,1957,30058.800,140.42,-0.65,12.60,31.5886485,120.7781053,2.797,13633900.421,24926639.158,2.797,-0.506,0.026,-0.432,0.721,1.035,0.667,0.000,16,13,4*6F
$GPGGA,082041.20,3135.3188501,N,12046.6863681,E,4,16,1.4,2.7944,M,8.318,M,01,0004*6A
$GPHPD,1957,30059.000,140.41,-0.71,12.58,31.5886475,120.7781061,2.794,13633901.337,24926640.081,2.794,-0.516,0.010,-0.427,0.721,1.035,0.667,0.000,16,13,4*6F
$GPGGA,082041.40,3135.3187987,N,12046.6864224,E,4,17,1.4,2.7952,M,8.318,M,01,0004*6B
$GPHPD,1957,30059.200,140.24,-1.31,12.58,31.5886466,120.7781070,2.795,13633902.177,24926641.035,2.795,-0.465,0.021,-0.455,0.721,1.035,0.667,0.000,17,13,4*61
$GPGGA,082041.60,3135.3187457,N,12046.6864702,E,4,17,1.4,2.7774,M,8.318,M,00,0004*63
$GPHPD,1957,30059.400,140.58,-0.80,12.58,31.5886458,120.7781078,2.777,13633903.026,24926641.920,2.777,-0.489,0.025,-0.391,0.721,1.035,0.667,0.000,17,13,4*62
$GPGGA,082041.80,3135.3186889,N,12046.6865204,E,4,17,1.4,2.7802,M,8.318,M,00,0004*6F
$GPHPD,1957,30059.600,140.71,-0.56,12.59,31.5886448,120.7781087,2.780,13633903.935,24926642.856,2.780,-0.450,-0.018,-0.434,0.721,1.035,0.667,0.000,17,13,4*47
$GPGGA,082042.00,3135.3186316,N,12046.6865776,E,4,17,1.4,2.7768,M,8.318,M,01,0004*6B
$GPHPD,1957,30059.800,140.51,-0.13,12.61,31.5886439,120.7781096,2.777,13633904.865,24926643.879,2.777,-0.479,0.037,-0.445,0.721,1.035,0.667,0.000,17,13,4*65
$GPGGA,082042.20,3135.3185736,N,12046.6866300,E,4,17,1.4,2.7789,M,8.318,M,01,0004*65
$GPHPD,1957,30060.000,140.96,-0.35,12.65,31.5886429,120.7781105,2.779,13633905.795,24926644.848,2.779,-0.506,0.036,-0.453,0.723,1.101,0.680,0.000,17,13,4*60
$GPGGA,082042.40,3135.3185086,N,12046.6866928,E,4,17,1.4,2.7688,M,8.318,M,01,0004*6F
$GPHPD,1957,30060.200,140.90,-0.35,12.71,31.5886418,120.7781115,2.769,13633906.845,24926645.984,2.769,-0.520,0.036,-0.458,0.721,1.035,0.667,0.000,17,13,4*61
$GPGGA,082042.60,3135.3184434,N,12046.6867522,E,4,17,1.4,2.7735,M,8.318,M,00,0004*60
$GPHPD,1957,30060.400,141.37,-0.68,12.77,31.5886407,120.7781125,2.774,13633907.891,24926647.080,2.774,-0.524,-0.026,-0.509,0.723,1.101,0.680,0.000,17,13,4*4F
$GPGGA,082042.80,3135.3183727,N,12046.6868178,E,4,17,1.4,2.7778,M,8.318,M,00,0004*65
$GPHPD,1957,30060.600,141.16,-0.46,12.83,31.5886395,120.7781136,2.778,13633909.029,24926648.282,2.778,-0.602,0.070,-0.512,0.721,1.035,0.667,0.000,17,13,4*63
$GPGGA,082043.00,3135.3182944,N,12046.6868849,E,4,17,1.3,2.7861,M,8.318,M,01,0004*6C
$GPHPD,1957,30060.800,141.43,-0.31,12.89,31.5886382,120.7781147,2.786,13633910.277,24926649.547,2.786,-0.608,0.040,-0.544,0.621,1.004,0.651,0.000,17,13,4*65
$GPGGA,082043.20,3135.3182131,N,12046.6869591,E,4,17,1.3,2.7773,M,8.318,M,01,0004*61
$GPHPD,1957,30061.000,141.09,-0.66,12.96,31.5886369,120.7781160,2.777,13633911.582,24926650.915,2.777,-0.670,0.037,-0.601,0.621,1.004,0.651,0.000,17,13,4*6C
$GPGGA,082043.40,3135.3181331,N,12046.6870370,E,4,17,1.3,2.7796,M,8.318,M,01,0004*6C
$GPHPD,1957,30061.200,141.41,-1.26,13.02,31.5886356,120.7781173,2.780,13633912.876,24926652.320,2.780,-0.692,0.057,-0.632,0.621,1.004,0.651,0.000,17,13,4*64
$GPGGA,082043.60,3135.3180461,N,12046.6871143,E,4,17,1.3,2.7827,M,8.318,M,00,0004*6A
$GPHPD,1957,30061.400,141.95,-0.87,13.05,31.5886341,120.7781186,2.783,13633914.268,24926653.759,2.783,-0.739,0.074,-0.621,0.621,1.004,0.651,0.000,17,13,4*61
$GPGGA,082043.80,3135.3179551,N,12046.6871930,E,4,17,1.3,2.7645,M,8.318,M,00,0004*66
$GPHPD,1957,30061.600,141.89,-0.08,13.06,31.5886326,120.7781199,2.765,13633915.720,24926655.237,2.765,-0.732,0.016,-0.669,0.621,1.004,0.651,0.000,17,13,4*65
$GPGGA,082044.00,3135.3178592,N,12046.6872723,E,4,17,1.3,2.7836,M,8.318,M,01,0004*63
$GPHPD,1957,30061.800,141.98,-0.47,13.08,31.5886310,120.7781212,2.784,13633917.243,24926656.752,2.784,-0.738,0.008,-0.735,0.621,1.004,0.651,0.000,17,13,4*61
$GPGGA,082044.20,3135.3177674,N,12046.6873609,E,4,17,1.3,2.7746,M,8.318,M,01,0004*65
$GPHPD,1957,30062.000,141.98,-1.49,13.10,31.5886295,120.7781227,2.775,13633918.727,24926658.355,2.775,-0.832,0.158,-0.697,0.621,1.004,0.651,0.000,17,13,4*6B
$GPGGA,082044.40,3135.3176784,N,12046.6874420,E,4,17,1.3,2.7751,M,8.318,M,01,0004*64
$GPHPD,1957,30062.200,142.49,-1.40,13.10,31.5886280,120.7781240,2.775,13633920.155,24926659.851,2.775,-0.795,0.026,-0.745,0.634,1.019,0.705,0.000,17,13,4*60
$GPGGA,082044.60,3135.3175869,N,12046.6875244,E,4,18,1.3,2.7669,M,8.318,M,00,0004*68
$GPHPD,1957,30062.400,142.80,-1.06,13.10,31.5886264,120.7781254,2.767,13633921.622,24926661.377,2.767,-0.813,0.061,-0.729,0.634,1.019,0.705,0.000,18,13,4*6B
$GPGGA,082044.80,3135.3174883,N,12046.6876064,E,4,17,1.4,2.7658,M,8.318,M,00,0004*6A
$GPHPD,1957,30062.600,142.86,-0.63,13.09,31.5886248,120.7781268,2.766,13633923.189,24926662.940,2.766,-0.763,-0.047,-0.791,0.580,1.035,0.741,0.000,17,13,4*42
$GPGGA,082045.00,3135.3173874,N,12046.6876930,E,4,17,1.4,2.7591,M,8.318,M,01,0004*63
$GPHPD,1957,30062.800,142.60,-0.76,13.09,31.5886231,120.7781282,2.759,13633924.797,24926664.571,2.759,-0.832,0.081,-0.746,0.580,1.035,0.741,0.000,17,13,4*6A
$GPGGA,082045.20,3135.3172921,N,12046.6877760,E,4,17,1.3,2.7530,M,8.318,M,01,0004*67
$GPHPD,1957,30063.000,142.37,-1.53,13.09,31.5886215,120.7781296,2.753,13633926.319,24926666.127,2.753,-0.804,0.053,-0.811,0.580,1.035,0.741,0.000,17,13,4*66
$GPGGA,082045.40,3135.3171922,N,12046.6878647,E,4,17,1.3,2.7509,M,8.318,M,01,0004*60
$GPHPD,1957,30063.200,142.88,-1.58,13.10,31.5886199,120.7781311,2.751,13633927.918,24926667.778,2.751,-0.825,0.077,-0.760,0.636,1.035,0.763,0.000,17,12,4*6E
$GPGGA,082045.60,3135.3170929,N,12046.6879490,E,4,17,1.3,2.7487,M,8.318,M,00,0004*67
$GPHPD,1957,30063.400,143.04,-1.21,13.09,31.5886182,120.7781325,2.749,13633929.499,24926669.372,2.749,-0.828,0.026,-0.812,0.572,1.016,0.681,0.000,17,12,4*60
$GPGGA,082045.80,3135.3169895,N,12046.6880343,E,4,17,1.3,2.7627,M,8.318,M,00,0004*60
$GPHPD,1957,30063.600,142.78,-0.77,13.09,31.5886165,120.7781339,2.763,13633931.141,24926671.003,2.763,-0.801,-0.001,-0.808,0.572,1.016,0.681,0.000,17,12,4*43
$GPGGA,082046.00,3135.3168862,N,12046.6881236,E,4,17,1.3,2.7586,M,8.318,M,01,0004*69
$GPHPD,1957,30063.800,143.01,-1.34,13.08,31.5886148,120.7781354,2.759,13633932.789,24926672.681,2.759,-0.867,0.123,-0.754,0.572,1.016,0.681,0.000,17,12,4*65
$GPGGA,082046.20,3135.3167876,N,12046.6882104,E,4,17,1.3,2.7608,M,8.318,M,01,0004*65
$GPHPD,1957,30064.000,143.23,-1.33,13.07,31.5886131,120.7781368,2.761,13633934.365,24926674.302,2.761,-0.840,0.058,-0.812,0.572,1.016,0.681,0.000,17,12,4*6E
$GPGGA,082046.40,3135.3166884,N,12046.6882999,E,4,17,1.3,2.7522,M,8.318,M,01,0004*68
$GPHPD,1957,30064.200,143.36,-1.12,13.08,31.5886115,120.7781383,2.752,13633935.956,24926675.958,2.752,-0.854,0.053,-0.788,0.567,1.004,0.637,0.000,17,12,4*60
$GPGGA,082046.60,3135.3165863,N,12046.6883870,E,4,17,1.3,2.7615,M,8.318,M,00,0004*61
$GPHPD,1957,30064.400,143.24,-1.10,13.08,31.5886098,120.7781398,2.762,13633937.583,24926677.603,2.762,-0.860,0.071,-0.798,0.567,1.004,0.637,0.000,17,12,4*6A
$GPGGA,082046.80,3135.3164836,N,12046.6884766,E,4,17,1.3,2.7618,M,8.318,M,00,0004*6C
$GPHPD,1957,30064.600,143.23,-0.83,13.09,31.5886081,120.7781413,2.762,13633939.223,24926679.281,2.762,-0.879,0.106,-0.791,0.567,1.004,0.637,0.000,17,12,4*6A
$GPGGA,082047.00,3135.3163778,N,12046.6885624,E,4,17,1.3,2.7607,M,8.318,M,01,0004*6E
$GPHPD,1957,30064.800,143.41,-0.54,13.11,31.5886063,120.7781427,2.761,13633940.900,24926680.932,2.761,-0.849,0.027,-0.821,0.567,1.004,0.637,0.000,17,12,4*6C
$GPGGA,082047.20,3135.3162704,N,12046.6886579,E,4,16,1.4,2.7459,M,8.318,M,01,0004*61
$GPHPD,1957,30065.000,143.12,-0.50,13.12,31.5886045,120.7781443,2.746,13633942.619,24926682.708,2.746,-0.877,0.128,-0.834,0.576,1.018,0.686,0.000,16,13,4*62
$GPGGA,082047.40,3135.3161635,N,12046.6887486,E,4,17,1.4,2.7449,M,8.318,M,01,0004*67
$GPHPD,1957,30065.200,143.46,-0.41,13.12,31.5886027,120.7781458,2.745,13633944.321,24926684.424,2.745,-0.895,0.040,-0.870,0.567,1.079,0.653,0.000,17,14,4*66
$GPGGA,082047.60,3135.3160584,N,12046.6888393,E,4,16,1.4,2.7479,M,8.318,M,00,0004*62
$GPHPD,1957,30065.400,142.51,0.13,13.13,31.5886010,120.7781473,2.748,13633945.998,24926686.130,2.748,-0.868,0.091,-0.839,0.577,1.097,0.705,0.000,16,14,4*4B
$GPGGA,082047.80,3135.3159496,N,12046.6889306,E,4,16,1.4,2.7454,M,8.318,M,00,0004*66
$GPHPD,1957,30065.600,143.60,0.20,13.13,31.5885992,120.7781488,2.745,13633947.728,24926687.864,2.745,-0.881,0.035,-0.830,0.567,1.079,0.653,0.000,16,12,4*45
$GPGGA,082048.00,3135.3158385,N,12046.6890297,E,4,16,1.4,2.7483,M,8.318,M,01,0004*6F
$GPHPD,1957,30065.800,144.04,0.14,13.14,31.5885973,120.7781505,2.748,13633949.507,24926689.706,2.748,-0.910,0.117,-0.835,0.567,1.079,0.653,0.000,16,12,4*4C
$GPGGA,082048.20,3135.3157287,N,12046.6891153,E,4,16,1.4,2.7557,M,8.318,M,01,0004*63
$GPHPD,1957,30066.000,144.51,-0.20,13.14,31.5885955,120.7781519,2.756,13633951.240,24926691.377,2.756,-0.950,0.088,-0.859,0.567,1.079,0.653,0.000,16,12,4*6B
$GPGGA,082048.40,3135.3156154,N,12046.6892071,E,4,16,1.4,2.7566,M,8.318,M,01,0004*69
$GPHPD,1957,30066.200,143.94,0.17,13.14,31.5885936,120.7781535,2.757,13633953.036,24926693.143,2.757,-0.887,0.085,-0.853,0.639,1.100,0.660,0.000,16,12,4*48
$GPGGA,082048.60,3135.3155048,N,12046.6893035,E,4,17,1.4,2.7573,M,8.318,M,00,0004*61
$GPHPD,1957,30066.400,144.37,-0.08,13.15,31.5885917,120.7781551,2.757,13633954.802,24926694.950,2.757,-0.907,0.098,-0.856,0.577,1.098,0.705,0.000,17,13,4*6D
$GPGGA,082048.80,3135.3153923,N,12046.6893967,E,4,17,1.4,2.7533,M,8.318,M,00,0004*67
$GPHPD,1957,30066.600,144.77,-0.43,13.14,31.5885899,120.7781566,2.753,13633956.589,24926696.728,2.753,-0.887,0.035,-0.902,0.576,1.018,0.686,0.000,17,14,4*63
$GPGGA,082049.00,3135.3152768,N,12046.6894843,E,4,17,1.4,2.7604,M,8.318,M,01,0004*68
$GPHPD,1957,30066.800,144.69,-1.90,13.13,31.5885879,120.7781581,2.760,13633958.407,24926698.457,2.760,-0.917,0.070,-0.897,0.567,1.004,0.637,0.000,17,14,4*62
$GPGGA,082049.20,3135.3151601,N,12046.6895727,E,4,17,1.4,2.7554,M,8.318,M,01,0004*6D
$GPHPD,1957,30067.000,144.61,-1.66,13.12,31.5885860,120.7781595,2.755,13633960.244,24926700.202,2.755,-0.981,0.193,-0.840,0.576,1.018,0.686,0.000,17,14,4*64
$GPGGA,082049.40,3135.3150472,N,12046.6896757,E,4,18,1.3,2.7538,M,8.318,M,01,0004*6A
$GPHPD,1957,30067.200,144.84,-1.85,13.13,31.5885841,120.7781613,2.754,13633962.056,24926702.101,2.754,-0.869,0.065,-0.922,0.576,1.018,0.686,0.000,18,14,4*6B
$GPGGA,082049.60,3135.3149309,N,12046.6897639,E,4,18,1.3,2.7537,M,8.318,M,00,0004*6D
$GPHPD,1957,30067.400,144.97,-2.05,13.13,31.5885822,120.7781627,2.754,13633963.887,24926703.842,2.754,-0.953,0.081,-0.906,0.576,1.018,0.686,0.000,18,15,4*69
$GPGGA,082049.80,3135.3148167,N,12046.6898606,E,4,18,1.3,2.7510,M,8.318,M,00,0004*6E
$GPHPD,1957,30067.600,145.41,-1.23,13.13,31.5885803,120.7781643,2.751,13633965.705,24926705.673,2.751,-0.910,0.116,-0.932,0.576,1.018,0.686,0.000,18,15,4*61
$GPGGA,082050.00,3135.3147018,N,12046.6899570,E,4,18,1.3,2.7333,M,8.318,M,01,0004*6D
$GPHPD,1957,30067.800,145.25,-2.06,13.14,31.5885784,120.7781660,2.733,13633967.533,24926707.504,2.733,-0.941,0.076,-0.892,0.576,1.018,0.686,0.000,18,16,4*60
$GPGGA,082050.20,3135.3145833,N,12046.6900492,E,4,18,1.5,2.7298,M,8.318,M,01,0004*66
$GPHPD,1957,30068.000,145.04,-0.98,13.16,31.5885764,120.7781675,2.730,13633969.403,24926709.306,2.730,-0.873,-0.044,-1.007,0.661,1.058,0.706,0.000,18,16,4*4E
$GPGGA,082050.40,3135.3144653,N,12046.6901382,E,4,18,1.4,2.7427,M,8.318,M,01,0004*6D
$GPHPD,1957,30068.200,145.04,-0.07,13.17,31.5885744,120.7781690,2.743,13633971.259,24926711.066,2.743,-0.898,0.085,-0.955,0.580,1.123,0.688,0.000,18,16,4*62
$GPGGA,082050.60,3135.3143472,N,12046.6902336,E,4,18,1.3,2.7401,M,8.318,M,00,0004*67
$GPHPD,1957,30068.400,144.92,-0.84,13.15,31.5885725,120.7781706,2.740,13633973.130,24926712.903,2.740,-0.916,0.101,-0.936,0.576,1.018,0.686,0.000,18,16,4*6C
$GPGGA,082050.80,3135.3142276,N,12046.6903247,E,4,18,1.3,2.7430,M,8.318,M,00,0004*6E
$GPHPD,1957,30068.600,145.26,-0.46,13.16,31.5885705,120.7781721,2.743,13633975.014,24926714.698,2.743,-0.951,0.126,-0.919,0.576,1.018,0.686,0.000,18,16,4*6B
$GPGGA,082051.00,3135.3141132,N,12046.6904181,E,4,18,1.3,2.7276,M,8.318,M,01,0004*6C
$GPHPD,1957,30068.800,144.84,-0.59,13.18,31.5885686,120.7781736,2.728,13633976.828,24926716.490,2.728,-0.948,0.139,-0.932,0.576,1.018,0.686,0.000,18,16,4*63
$GPGGA,082051.20,3135.3139974,N,12046.6905161,E,4,18,1.3,2.7244,M,8.318,M,01,0004*65
$GPHPD,1957,30069.000,144.89,-0.84,13.17,31.5885666,120.7781753,2.724,13633978.672,24926718.346,2.724,-0.888,0.108,-0.947,0.576,1.019,0.686,0.000,18,16,4*64
$GPGGA,082051.40,3135.3138784,N,12046.6906076,E,4,18,1.3,2.7359,M,8.318,M,01,0004*6A
$GPHPD,1957,30069.200,145.28,-0.70,13.15,31.5885646,120.7781768,2.736,13633980.548,24926720.142,2.736,-0.929,0.078,-0.902,0.567,1.004,0.637,0.000,18,16,4*64
$GPGGA,082051.60,3135.3137582,N,12046.6906981,E,4,18,1.2,2.7471,M,8.318,M,00,0004*6F
$GPHPD,1957,30069.400,145.08,-1.37,13.15,31.5885626,120.7781783,2.747,13633982.439,24926721.933,2.747,-0.932,0.067,-0.931,0.567,1.004,0.637,0.000,18,17,4*6E
$GPGGA,082051.80,3135.3136370,N,12046.6907959,E,4,18,1.2,2.7403,M,8.318,M,00,0004*6A
$GPHPD,1957,30069.600,144.99,-1.46,13.15,31.5885606,120.7781799,2.740,13633984.358,24926723.818,2.740,-0.944,0.183,-0.907,0.572,1.016,0.681,0.000,18,16,4*62
$GPGGA,082052.00,3135.3135203,N,12046.6908946,E,4,18,1.2,2.7313,M,8.318,M,01,0004*61
$GPHPD,1957,30069.800,144.88,-0.25,13.15,31.5885587,120.7781816,2.731,13633986.216,24926725.687,2.731,-0.949,0.105,-0.936,0.637,1.033,0.646,0.000,18,16,4*62
$GPGGA,082052.20,3135.3134012,N,12046.6909845,E,4,18,1.2,2.7337,M,8.318,M,01,0004*65
$GPHPD,1957,30070.000,145.20,-0.36,13.15,31.5885567,120.7781831,2.734,13633988.090,24926727.464,2.734,-0.955,0.094,-0.948,0.637,1.033,0.646,0.000,18,16,4*6A
$GPGGA,082052.40,3135.3132830,N,12046.6910805,E,4,18,1.3,2.7267,M,8.318,M,01,0004*64
$GPHPD,1957,30070.200,145.02,0.11,13.13,31.5885547,120.7781847,2.727,13633989.964,24926729.310,2.727,-0.913,0.105,-0.934,0.637,1.033,0.646,0.000,18,16,4*4C
$GPGGA,082052.60,3135.3131662,N,12046.6911759,E,4,17,1.3,2.7264,M,8.318,M,00,0004*66
$GPHPD,1957,30070.400,145.10,0.59,13.15,31.5885528,120.7781863,2.726,13633991.816,24926731.140,2.726,-0.931,0.112,-0.950,0.637,1.033,0.646,0.000,17,16,4*44
$GPGGA,082052.80,3135.3130520,N,12046.6912701,E,4,17,1.3,2.7160,M,8.318,M,00,0004*65
$GPHPD,1957,30070.600,144.85,0.35,13.15,31.5885509,120.7781878,2.716,13633993.629,24926732.941,2.716,-0.930,0.106,-0.922,0.637,1.033,0.646,0.000,17,16,4*43
$GPGGA,082053.00,3135.3129321,N,12046.6913658,E,4,17,1.3,2.7331,M,8.318,M,01,0004*68
$GPHPD,1957,30070.800,144.95,1.04,13.13,31.5885489,120.7781894,2.733,13633995.526,24926734.793,2.733,-0.924,0.088,-0.920,0.637,1.033,0.646,0.000,17,16,4*4F
$GPGGA,082053.20,3135.3128143,N,12046.6914600,E,4,17,1.3,2.7309,M,8.318,M,01,0004*6C
$GPHPD,1957,30071.000,144.96,0.38,13.13,31.5885469,120.7781910,2.731,13633997.391,24926736.615,2.731,-0.958,0.131,-0.896,0.637,1.033,0.646,0.000,17,16,4*49
$GPGGA,082053.40,3135.3126945,N,12046.6915550,E,4,17,1.3,2.7318,M,8.318,M,01,0004*6D
$GPHPD,1957,30071.200,145.27,-0.01,13.13,31.5885449,120.7781926,2.732,13633999.285,24926738.457,2.732,-0.946,0.147,-0.918,0.661,1.058,0.707,0.000,17,16,4*63
$GPGGA,082053.60,3135.3125754,N,12046.6916489,E,4,17,1.3,2.7421,M,8.318,M,00,0004*68
$GPHPD,1957,30071.400,144.99,-0.42,13.13,31.5885429,120.7781941,2.742,13634001.167,24926740.283,2.742,-0.913,0.062,-0.955,0.637,1.033,0.646,0.000,17,16,4*64
$GPGGA,082053.80,3135.3124595,N,12046.6917464,E,4,17,1.3,2.7381,M,8.318,M,00,0004*67
$GPHPD,1957,30071.600,145.25,-1.06,13.13,31.5885410,120.7781958,2.738,13634003.011,24926742.133,2.738,-0.953,0.168,-0.912,0.647,1.041,0.686,0.000,17,16,4*69
$GPGGA,082054.00,3135.3123400,N,12046.6918403,E,4,17,1.3,2.7393,M,8.318,M,01,0004*6E
$GPHPD,1957,30071.800,145.50,-1.41,13.13,31.5885390,120.7781973,2.739,13634004.899,24926743.961,2.739,-0.967,0.133,-0.908,0.720,1.035,0.667,0.000,17,15,4*6C
$GPGGA,082054.20,3135.3122210,N,12046.6919313,E,4,17,1.3,2.7393,M,8.318,M,01,0004*6D
$GPHPD,1957,30072.000,145.48,-1.73,13.14,31.5885370,120.7781989,2.739,13634006.774,24926745.751,2.739,-0.938,0.100,-0.945,0.637,1.033,0.646,0.000,17,15,4*67
$GPGGA,082054.40,3135.3121037,N,12046.6920230,E,4,17,1.3,2.7404,M,8.318,M,01,0004*6C
$GPHPD,1957,30072.200,145.47,-1.56,13.14,31.5885351,120.7782004,2.740,13634008.626,24926747.540,2.740,-0.924,0.119,-0.934,0.637,1.033,0.646,0.000,17,15,4*6A
$GPGGA,082054.60,3135.3119851,N,12046.6921164,E,4,17,1.3,2.7467,M,8.318,M,00,0004*6A
$GPHPD,1957,30072.400,145.26,-1.55,13.13,31.5885331,120.7782019,2.747,13634010.500,24926749.356,2.747,-0.911,0.081,-0.926,0.637,1.033,0.646,0.000,17,15,4*61
$GPGGA,082054.80,3135.3118691,N,12046.6922087,E,4,17,1.3,2.7401,M,8.318,M,00,0004*68
$GPHPD,1957,30072.600,145.24,-1.26,13.13,31.5885312,120.7782035,2.740,13634012.335,24926751.144,2.740,-0.938,0.112,-0.928,0.637,1.033,0.646,0.000,17,15,4*6E
$GPGGA,082055.00,3135.3117481,N,12046.6923014,E,4,16,1.4,2.7354,M,8.318,M,01,0004*66
$GPHPD,1957,30072.800,145.33,-0.90,13.13,31.5885291,120.7782050,2.735,13634014.241,24926752.967,2.735,-0.879,0.101,-0.950,0.637,1.033,0.646,0.000,16,15,4*65
$GPGGA,082055.20,3135.3116323,N,12046.6923970,E,4,17,1.4,2.7205,M,8.318,M,01,0004*65
$GPHPD,1957,30073.000,145.46,-0.82,13.13,31.5885272,120.7782066,2.721,13634016.080,24926754.793,2.721,-0.910,0.096,-0.956,0.720,1.035,0.667,0.000,17,15,4*6F
$GPGGA,082055.40,3135.3115130,N,12046.6924849,E,4,17,1.4,2.7295,M,8.318,M,01,0004*65
$GPHPD,1957,30073.200,145.57,-0.64,13.14,31.5885252,120.7782081,2.730,13634017.953,24926756.548,2.730,-0.941,0.068,-0.942,0.637,1.033,0.646,0.000,17,15,4*6B
$GPGGA,082055.60,3135.3113964,N,12046.6925806,E,4,17,1.4,2.7208,M,8.318,M,00,0004*67
$GPHPD,1957,30073.400,145.13,-0.92,13.14,31.5885233,120.7782097,2.721,13634019.803,24926758.380,2.721,-0.915,0.143,-0.917,0.637,1.033,0.646,0.000,17,15,4*6B
$GPGGA,082055.80,3135.3112783,N,12046.6926750,E,4,17,1.4,2.7242,M,8.318,M,00,0004*6E
$GPHPD,1957,30073.600,145.42,-0.73,13.16,31.5885213,120.7782113,2.724,13634021.672,24926760.206,2.724,-0.934,0.103,-0.927,0.639,1.100,0.660,0.000,17,15,4*67
$GPGGA,082056.00,3135.3111612,N,12046.6927669,E,4,17,1.4,2.7262,M,8.318,M,01,0004*66
$GPHPD,1957,30073.800,145.49,-0.22,13.17,31.5885194,120.7782128,2.726,13634023.522,24926761.996,2.726,-0.921,0.097,-0.942,0.639,1.100,0.660,0.000,17,15,4*6F
$GPGGA,082056.20,3135.3110425,N,12046.6928585,E,4,17,1.4,2.7227,M,8.318,M,01,0004*6C
$GPHPD,1957,30074.000,145.59,-0.09,13.17,31.5885174,120.7782143,2.723,13634025.393,24926763.791,2.723,-0.937,0.131,-0.922,0.637,1.033,0.646,0.000,17,15,4*6D
$GPGGA,082056.40,3135.3109241,N,12046.6929524,E,4,17,1.4,2.7083,M,8.318,M,01,0004*60
$GPHPD,1957,30074.200,145.55,-0.08,13.18,31.5885154,120.7782159,2.708,13634027.266,24926765.613,2.708,-0.909,0.097,-0.953,0.637,1.033,0.646,0.000,17,15,4*66
$GPGGA,082056.60,3135.3108074,N,12046.6930490,E,4,17,1.4,2.7167,M,8.318,M,00,0004*6B
$GPHPD,1957,30074.400,145.67,0.56,13.19,31.5885135,120.7782175,2.717,13634029.119,24926767.457,2.717,-0.901,0.103,-0.978,0.637,1.033,0.646,0.000,17,15,4*47
$GPGGA,082056.80,3135.3106896,N,12046.6931414,E,4,17,1.4,2.7220,M,8.318,M,00,0004*62
$GPHPD,1957,30074.600,145.84,0.25,13.19,31.5885115,120.7782190,2.722,13634030.980,24926769.257,2.722,-0.948,0.109,-0.926,0.637,1.033,0.646,0.000,17,15,4*41
$GPGGA,082057.00,3135.3105704,N,12046.6932332,E,4,17,1.4,2.7246,M,8.318,M,01,0004*6D
$GPHPD,1957,30074.800,145.61,0.26,13.18,31.5885095,120.7782206,2.725,13634032.859,24926771.058,2.725,-0.908,0.086,-0.924,0.637,1.033,0.646,0.000,17,15,4*40
$GPGGA,082057.20,3135.3104497,N,12046.6933246,E,4,17,1.4,2.7281,M,8.318,M,01,0004*6F
$GPHPD,1957,30075.000,145.38,-0.43,13.21,31.5885075,120.7782221,2.728,13634034.759,24926772.862,2.728,-0.938,0.138,-0.924,0.637,1.033,0.646,0.000,17,15,4*66
$GPGGA,082057.40,3135.3103303,N,12046.6934205,E,4,17,1.4,2.7319,M,8.318,M,01,0004*64
$GPHPD,1957,30075.200,145.04,-0.42,13.21,31.5885055,120.7782237,2.732,13634036.649,24926774.714,2.732,-0.945,0.129,-0.937,0.637,1.033,0.646,0.000,17,15,4*6D
$GPGGA,082057.60,3135.3102137,N,12046.6935188,E,4,17,1.3,2.7395,M,8.318,M,00,0004*67
$GPHPD,1957,30075.400,145.23,-0.48,13.20,31.5885036,120.7782253,2.740,13634038.505,24926776.578,2.740,-0.948,0.127,-0.919,0.637,1.033,0.646,0.000,17,15,4*62
$GPGGA,082057.80,3135.3100951,N,12046.6936136,E,4,17,1.3,2.7436,M,8.318,M,00,0004*6B
$GPHPD,1957,30075.600,145.05,-1.00,13.20,31.5885016,120.7782269,2.744,13634040.382,24926778.411,2.744,-0.956,0.133,-0.901,0.637,1.033,0.646,0.000,17,15,4*67
$GPGGA,082058.00,3135.3099774,N,12046.6937080,E,4,18,1.3,2.7562,M,8.318,M,01,0004*67
$GPHPD,1957,30075.800,144.96,-0.97,13.22,31.5884996,120.7782285,2.756,13634042.245,24926780.235,2.756,-0.937,0.096,-0.925,0.637,1.033,0.646,0.000,18,15,4*62
$GPGGA,082058.20,3135.3098586,N,12046.6938035,E,4,18,1.3,2.7454,M,8.318,M,01,0004*6E
$GPHPD,1957,30076.000,145.01,-0.76,13.21,31.5884976,120.7782301,2.745,13634044.126,24926782.078,2.745,-0.945,0.131,-0.935,0.661,1.059,0.707,0.000,18,15,4*63
$GPGGA,082058.40,3135.3097400,N,12046.6939002,E,4,18,1.4,2.7370,M,8.318,M,01,0004*6B
$GPHPD,1957,30076.200,145.08,-1.31,13.19,31.5884957,120.7782317,2.737,13634046.007,24926783.934,2.737,-0.958,0.156,-0.891,0.661,1.059,0.707,0.000,18,16,4*64
$GPGGA,082058.60,3135.3096211,N,12046.6939966,E,4,17,1.3,2.7339,M,8.318,M,00,0004*61
$GPHPD,1957,30076.400,145.05,-0.24,13.19,31.5884937,120.7782333,2.734,13634047.891,24926785.789,2.734,-0.928,0.078,-0.948,0.661,1.059,0.707,0.000,17,16,4*62
$GPGGA,082058.80,3135.3095021,N,12046.6940942,E,4,17,1.3,2.7268,M,8.318,M,00,0004*60
$GPHPD,1957,30076.600,144.70,-0.40,13.19,31.5884917,120.7782349,2.727,13634049.779,24926787.658,2.727,-0.882,-0.013,-0.993,0.661,1.059,0.707,0.000,17,15,4*42
$GPGGA,082059.00,3135.3093822,N,12046.6941885,E,4,17,1.3,2.7304,M,8.318,M,01,0004*65
$GPHPD,1957,30076.800,144.87,-0.80,13.17,31.5884897,120.7782365,2.730,13634051.673,24926789.493,2.730,-0.943,0.082,-0.940,0.661,1.059,0.707,0.000,17,16,4*6C
$GPGGA,082059.20,3135.3092643,N,12046.6942804,E,4,17,1.3,2.7241,M,8.318,M,01,0004*65
$GPHPD,1957,30077.000,144.79,-1.30,13.16,31.5884877,120.7782380,2.724,13634053.534,24926791.288,2.724,-0.949,0.112,-0.949,0.661,1.059,0.707,0.000,17,15,4*65
$GPGGA,082059.40,3135.3091442,N,12046.6943783,E,4,17,1.3,2.7229,M,8.318,M,01,0004*6C
$GPHPD,1957,30077.200,144.56,-0.27,13.16,31.5884857,120.7782396,2.723,13634055.439,24926793.167,2.723,-0.925,0.083,-0.936,0.661,1.059,0.707,0.000,17,15,4*69
$GPGGA,082059.60,3135.3090244,N,12046.6944723,E,4,17,1.4,2.7289,M,8.318,M,00,0004*6E
$GPHPD,1957,30077.400,144.87,-0.88,13.15,31.5884837,120.7782412,2.729,13634057.331,24926794.998,2.729,-0.978,0.109,-0.935,0.661,1.059,0.707,0.000,17,15,4*62
$GPGGA,082059.80,3135.3089079,N,12046.6945697,E,4,18,1.4,2.7232,M,8.318,M,00,0004*64
$GPHPD,1957,30077.600,144.84,-1.22,13.14,31.5884818,120.7782428,2.723,13634059.183,24926796.851,2.723,-0.969,0.152,-0.934,0.720,1.035,0.667,0.000,18,15,4*6D
$GPGGA,082100.00,3135.3087897,N,12046.6946655,E,4,17,1.4,2.7095,M,8.318,M,01,0004*6B
$GPHPD,1957,30077.800,145.06,-0.95,13.13,31.5884798,120.7782444,2.710,13634061.056,24926798.694,2.710,-0.960,0.126,-0.921,0.759,1.064,0.740,0.000,17,15,4*6B
$GPGGA,082100.20,3135.3086731,N,12046.6947625,E,4,17,1.4,2.7072,M,8.319,M,01,0004*65
$GPHPD,1957,30078.000,145.05,-0.87,13.12,31.5884779,120.7782460,2.707,13634062.909,24926800.542,2.707,-0.926,0.072,-0.955,0.759,1.064,0.740,0.000,17,16,4*60
$GPGGA,082100.40,3135.3085519,N,12046.6948602,E,4,17,1.4,2.7045,M,8.319,M,01,0004*66
$GPHPD,1957,30078.200,145.06,-0.33,13.13,31.5884759,120.7782477,2.705,13634064.829,24926802.426,2.705,-0.914,0.072,-0.933,0.720,1.035,0.667,0.000,17,15,4*63
$GPGGA,082100.60,3135.3084360,N,12046.6949515,E,4,17,1.4,2.7215,M,8.319,M,00,0004*6F
$GPHPD,1957,30078.400,145.05,-0.62,13.12,31.5884739,120.7782492,2.722,13634066.660,24926804.202,2.722,-0.956,0.110,-0.947,0.759,1.064,0.740,0.000,17,15,4*67
$GPGGA,082100.80,3135.3083106,N,12046.6950492,E,4,17,1.4,2.7064,M,8.319,M,00,0004*66
$GPHPD,1957,30078.600,144.86,-0.86,13.09,31.5884718,120.7782508,2.706,13634068.640,24926806.110,2.706,-0.944,0.128,-0.907,0.759,1.064,0.740,0.000,17,15,4*6C
$GPGGA,082101.00,3135.3081939,N,12046.6951464,E,4,17,1.4,2.7118,M,8.319,M,01,0004*6A
$GPHPD,1957,30078.800,144.64,-0.04,13.10,31.5884699,120.7782524,2.712,13634070.494,24926807.961,2.712,-0.931,0.067,-0.985,0.759,1.064,0.740,0.000,17,15,4*65
$GPGGA,082101.20,3135.3080731,N,12046.6952409,E,4,17,1.4,2.7230,M,8.319,M,01,0004*6E
$GPHPD,1957,30079.000,144.82,-0.39,13.09,31.5884679,120.7782540,2.723,13634072.402,24926809.804,2.723,-0.961,0.100,-0.942,0.759,1.064,0.740,0.000,17,15,4*61
$GPGGA,082101.40,3135.3079532,N,12046.6953383,E,4,18,1.4,2.7117,M,8.319,M,01,0004*62
$GPHPD,1957,30079.200,144.95,-0.77,13.06,31.5884659,120.7782556,2.712,13634074.302,24926811.676,2.712,-0.972,0.178,-0.909,0.661,1.059,0.707,0.000,18,15,4*6C
$GPGGA,082101.60,3135.3078355,N,12046.6954341,E,4,18,1.4,2.7137,M,8.319,M,00,0004*6C
$GPHPD,1957,30079.400,144.91,-0.40,13.03,31.5884639,120.7782572,2.714,13634076.168,24926813.516,2.714,-0.944,0.087,-0.969,0.661,1.059,0.707,0.000,18,16,4*65
$GPGGA,082101.80,3135.3077130,N,12046.6955320,E,4,18,1.4,2.7116,M,8.319,M,00,0004*69
$GPHPD,1957,30079.600,145.12,0.27,13.03,31.5884619,120.7782589,2.712,13634078.107,24926815.410,2.712,-0.933,0.124,-0.935,0.637,1.033,0.646,0.000,18,16,4*4B
$GPGGA,082102.00,3135.3075946,N,12046.6956289,E,4,18,1.4,2.7205,M,8.319,M,01,0004*68
$GPHPD,1957,30079.800,145.13,-0.73,13.02,31.5884599,120.7782605,2.721,13634079.985,24926817.268,2.721,-0.969,0.139,-0.945,0.637,1.033,0.646,0.000,18,16,4*69
$GPGGA,082102.20,3135.3074729,N,12046.6957216,E,4,18,1.4,2.7211,M,8.319,M,01,0004*6E
$GPHPD,1957,30080.000,145.25,-1.11,13.00,31.5884579,120.7782620,2.721,13634081.902,24926819.094,2.721,-0.974,0.128,-0.919,0.637,1.033,0.646,0.000,18,16,4*6E
$GPGGA,082102.40,3135.3073531,N,12046.6958180,E,4,18,1.4,2.7154,M,8.319,M,01,0004*65
$GPHPD,1957,30080.200,145.06,-1.39,13.00,31.5884559,120.7782636,2.715,13634083.799,24926820.954,2.715,-0.975,0.202,-0.905,0.637,1.033,0.646,0.000,18,16,4*64
$GPGGA,082102.60,3135.3072337,N,12046.6959165,E,4,18,1.3,2.7263,M,8.319,M,00,0004*6D
$GPHPD,1957,30080.400,145.42,-0.75,13.00,31.5884539,120.7782653,2.726,13634085.695,24926822.836,2.726,-0.975,0.112,-0.910,0.637,1.033,0.646,0.000,18,16,4*64
$GPGGA,082102.80,3135.3071084,N,12046.6960090,E,4,18,1.3,2.7225,M,8.319,M,00,0004*68
$GPHPD,1957,30080.600,145.36,-0.81,13.00,31.5884518,120.7782668,2.723,13634087.662,24926824.681,2.723,-0.935,0.122,-0.946,0.637,1.033,0.646,0.000,18,16,4*6F
$GPGGA,082103.00,3135.3069912,N,12046.6961048,E,4,18,1.3,2.7106,M,8.319,M,01,0004*69
$GPHPD,1957,30080.800,145.23,-2.03,12.98,31.5884499,120.7782684,2.711,13634089.521,24926826.518,2.711,-0.933,0.124,-0.962,0.637,1.033,0.646,0.000,18,16,4*6A
$GPGGA,082103.20,3135.3068697,N,12046.6961981,E,4,18,1.3,2.7067,M,8.319,M,01,0004*62
$GPHPD,1957,30081.000,145.28,-0.53,12.97,31.5884478,120.7782700,2.707,13634091.436,24926828.351,2.707,-0.931,0.062,-0.967,0.637,1.033,0.646,0.000,18,16,4*6D
$GPGGA,082103.40,3135.3067514,N,12046.6962998,E,4,18,1.3,2.7111,M,8.319,M,01,0004*68
$GPHPD,1957,30081.200,145.21,-0.47,12.99,31.5884459,120.7782717,2.711,13634093.323,24926830.266,2.711,-0.955,0.140,-0.944,0.637,1.033,0.646,0.000,18,16,4*67
$GPGGA,082103.60,3135.3066314,N,12046.6963951,E,4,18,1.3,2.7154,M,8.319,M,00,0004*69
$GPHPD,1957,30081.400,145.36,-0.93,12.98,31.5884439,120.7782733,2.715,13634095.220,24926832.113,2.715,-0.948,0.105,-0.943,0.637,1.033,0.646,0.000,18,16,4*62
$GPGGA,082103.80,3135.3065095,N,12046.6964926,E,4,18,1.3,2.7088,M,8.319,M,00,0004*69
$GPHPD,1957,30081.600,145.48,-1.15,12.98,31.5884418,120.7782749,2.709,13634097.150,24926833.999,2.709,-0.942,0.094,-0.950,0.637,1.033,0.646,0.000,18,16,4*64
$GPGGA,082104.00,3135.3063910,N,12046.6965879,E,4,18,1.3,2.6999,M,8.319,M,01,0004*67
$GPHPD,1957,30081.800,145.37,-1.52,12.98,31.5884399,120.7782765,2.700,13634099.026,24926835.838,2.700,-0.963,0.111,-0.961,0.637,1.033,0.646,0.000,18,16,4*6E
$GPGGA,082104.20,3135.3062697,N,12046.6966801,E,4,18,1.3,2.7035,M,8.319,M,01,0004*66
$GPHPD,1957,30082.000,145.45,-0.61,12.99,31.5884378,120.7782780,2.704,13634100.936,24926837.655,2.704,-0.954,0.074,-0.964,0.637,1.033,0.646,0.000,18,16,4*69
$GPGGA,082104.40,3135.3061508,N,12046.6967779,E,4,18,1.3,2.7022,M,8.319,M,01,0004*61
$GPHPD,1957,30082.200,145.28,-1.22,12.98,31.5884358,120.7782796,2.702,13634102.823,24926839.527,2.702,-0.944,0.162,-0.952,0.637,1.033,0.646,0.000,18,16,4*6F
$GPGGA,082104.60,3135.3060297,N,12046.6968735,E,4,18,1.3,2.6974,M,8.319,M,00,0004*6E
$GPHPD,1957,30082.400,145.55,-1.36,12.95,31.5884338,120.7782812,2.697,13634104.737,24926841.384,2.697,-0.962,0.121,-0.932,0.637,1.033,0.646,0.000,18,16,4*67
$GPGGA,082104.80,3135.3059078,N,12046.6969658,E,4,18,1.3,2.6944,M,8.319,M,00,0004*61
$GPHPD,1957,30082.600,145.40,-1.34,12.95,31.5884318,120.7782828,2.694,13634106.656,24926843.207,2.694,-0.916,0.078,-0.966,0.637,1.033,0.646,0.000,18,16,4*6B
$GPGGA,082105.00,3135.3057920,N,12046.6970615,E,4,18,1.3,2.6983,M,8.319,M,01,0004*69
$GPHPD,1957,30082.800,145.28,-0.68,12.97,31.5884299,120.7782844,2.698,13634108.495,24926845.035,2.698,-0.942,0.123,-0.961,0.567,1.005,0.637,0.000,18,16,4*69
$GPGGA,082105.20,3135.3056682,N,12046.6971546,E,4,18,1.3,2.6969,M,8.319,M,01,0004*6D
$GPHPD,1957,30083.000,145.46,-0.55,12.99,31.5884278,120.7782859,2.697,13634110.442,24926846.878,2.697,-0.958,0.134,-0.908,0.577,1.019,0.686,0.000,18,16,4*6E
$GPGGA,082105.40,3135.3055532,N,12046.6972501,E,4,18,1.3,2.6881,M,8.319,M,01,0004*67
$GPHPD,1957,30083.200,145.09,-0.94,12.99,31.5884259,120.7782875,2.688,13634112.269,24926848.699,2.688,-0.928,0.100,-0.967,0.567,1.005,0.637,0.000,18,16,4*6A
$GPGGA,082105.60,3135.3054327,N,12046.6973419,E,4,18,1.3,2.6950,M,8.319,M,00,0004*63
$GPHPD,1957,30083.400,145.21,-0.23,12.99,31.5884239,120.7782890,2.695,13634114.167,24926850.508,2.695,-0.918,0.070,-0.947,0.567,1.005,0.637,0.000,18,16,4*69
$GPGGA,082105.80,3135.3053143,N,12046.6974373,E,4,18,1.3,2.6889,M,8.319,M,00,0004*63
$GPHPD,1957,30083.600,144.98,-0.41,13.00,31.5884219,120.7782906,2.689,13634116.042,24926852.347,2.689,-0.940,0.155,-0.927,0.567,1.005,0.637,0.000,18,16,4*67
$GPGGA,082106.00,3135.3051947,N,12046.6975340,E,4,18,1.3,2.7007,M,8.319,M,01,0004*69
$GPHPD,1957,30083.800,145.05,0.03,12.98,31.5884199,120.7782922,2.701,13634117.937,24926854.209,2.701,-0.939,0.115,-0.945,0.567,1.005,0.637,0.000,18,17,4*42
$GPGGA,082106.20,3135.3050734,N,12046.6976311,E,4,18,1.3,2.7041,M,8.319,M,01,0004*65
$GPHPD,1957,30084.000,144.98,-0.53,12.98,31.5884179,120.7782939,2.704,13634119.857,24926856.086,2.704,-0.965,0.155,-0.901,0.567,1.005,0.637,0.000,18,16,4*66
$GPGGA,082106.40,3135.3049573,N,12046.6977278,E,4,18,1.2,2.7016,M,8.319,M,01,0004*66
$GPHPD,1957,30084.200,144.93,-0.73,12.98,31.5884160,120.7782955,2.702,13634121.702,24926857.928,2.702,-0.968,0.135,-0.931,0.567,1.005,0.637,0.000,18,16,4*6F
$GPGGA,082106.60,3135.3048383,N,12046.6978210,E,4,18,1.2,2.6952,M,8.319,M,00,0004*64
$GPHPD,1957,30084.400,144.99,-0.72,12.98,31.5884140,120.7782970,2.695,13634123.581,24926859.745,2.695,-0.946,0.096,-0.916,0.567,1.005,0.637,0.000,18,16,4*66
$GPGGA,082106.80,3135.3047176,N,12046.6979148,E,4,18,1.2,2.6891,M,8.319,M,00,0004*6C
$GPHPD,1957,30084.600,145.18,-0.90,12.98,31.5884120,120.7782986,2.689,13634125.486,24926861.578,2.689,-0.929,0.086,-0.937,0.567,1.005,0.637,0.000,18,16,4*63
$GPGGA,082107.00,3135.3046009,N,12046.6980103,E,4,18,1.2,2.6886,M,8.319,M,01,0004*63
$GPHPD,1957,30084.800,145.17,-0.75,12.99,31.5884100,120.7783002,2.689,13634127.337,24926863.409,2.689,-0.924,0.096,-0.961,0.567,1.005,0.637,0.000,18,16,4*6B
$GPGGA,082107.20,3135.3044817,N,12046.6981056,E,4,18,1.2,2.6909,M,8.319,M,01,0004*62
$GPHPD,1957,30085.000,144.94,-0.16,12.98,31.5884080,120.7783018,2.691,13634129.224,24926865.252,2.691,-0.935,0.104,-0.930,0.567,1.005,0.637,0.000,18,16,4*63
$GPGGA,082107.40,3135.3043626,N,12046.6982010,E,4,18,1.2,2.6898,M,8.319,M,01,0004*67
$GPHPD,1957,30085.200,145.25,-0.71,12.95,31.5884060,120.7783034,2.690,13634131.109,24926867.096,2.690,-0.943,0.126,-0.930,0.567,1.005,0.637,0.000,18,16,4*6A
$GPGGA,082107.60,3135.3042435,N,12046.6982969,E,4,18,1.2,2.6880,M,8.319,M,00,0004*6B
$GPHPD,1957,30085.400,145.19,-0.93,12.92,31.5884041,120.7783049,2.688,13634132.995,24926868.946,2.688,-0.942,0.117,-0.937,0.567,1.005,0.637,0.000,18,16,4*60
$GPGGA,082107.80,3135.3041249,N,12046.6983935,E,4,18,1.2,2.6903,M,8.319,M,00,0004*69
$GPHPD,1957,30085.600,145.27,-0.81,12.94,31.5884021,120.7783066,2.690,13634134.875,24926870.801,2.690,-0.932,0.107,-0.968,0.567,1.005,0.637,0.000,18,16,4*6F
$GPGGA,082108.00,3135.3040044,N,12046.6984895,E,4,18,1.2,2.6948,M,8.319,M,01,0004*62
$GPHPD,1957,30085.800,145.21,-1.05,12.97,31.5884001,120.7783082,2.695,13634136.782,24926872.660,2.695,-0.946,0.112,-0.934,0.567,1.005,0.637,0.000,18,16,4*61
$GPGGA,082108.20,3135.3038832,N,12046.6985850,E,4,18,1.2,2.6917,M,8.319,M,01,0004*64
$GPHPD,1957,30086.000,145.13,-1.83,12.89,31.5883981,120.7783098,2.692,13634138.697,24926874.517,2.692,-0.943,0.070,-0.963,0.567,1.005,0.637,0.000,18,16,4*6B
$GPGGA,082108.40,3135.3037590,N,12046.6986785,E,4,18,1.2,2.6926,M,8.319,M,01,0004*6E
$GPHPD,1957,30086.200,145.15,-1.69,12.81,31.5883960,120.7783113,2.693,13634140.651,24926876.367,2.693,-0.957,0.123,-0.961,0.567,1.005,0.637,0.000,18,17,4*69
$GPGGA,082108.60,3135.3036371,N,12046.6987779,E,4,18,1.2,2.6897,M,8.319,M,00,0004*6C
$GPHPD,1957,30086.400,144.90,-1.63,12.75,31.5883940,120.7783130,2.690,13634142.584,24926878.275,2.690,-0.944,0.147,-0.974,0.567,1.005,0.637,0.000,18,17,4*60
$GPGGA,082108.80,3135.3035159,N,12046.6988693,E,4,18,1.2,2.6854,M,8.319,M,00,0004*6C
$GPHPD,1957,30086.600,145.11,-1.55,12.74,31.5883919,120.7783145,2.685,13634144.491,24926880.083,2.685,-0.963,0.099,-0.965,0.567,1.005,0.637,0.000,18,17,4*68
$GPGGA,082109.00,3135.3033985,N,12046.6989656,E,4,18,1.2,2.6795,M,8.319,M,01,0004*61
$GPHPD,1957,30086.800,145.08,-1.30,12.76,31.5883900,120.7783161,2.680,13634146.354,24926881.928,2.680,-0.943,0.150,-0.953,0.567,1.005,0.637,0.000,18,17,4*67
$GPGGA,082109.20,3135.3032801,N,12046.6990631,E,4,18,1.2,2.6763,M,8.319,M,01,0004*6F
$GPHPD,1957,30087.000,145.18,-1.11,12.75,31.5883880,120.7783177,2.676,13634148.233,24926883.792,2.676,-0.926,0.079,-0.947,0.567,1.005,0.637,0.000,18,16,4*6F
$GPGGA,082109.40,3135.3031594,N,12046.6991590,E,4,18,1.2,2.6671,M,8.319,M,01,0004*60
$GPHPD,1957,30087.200,145.08,-1.31,12.73,31.5883860,120.7783193,2.667,13634150.142,24926885.651,2.667,-0.924,0.068,-0.941,0.567,1.005,0.637,0.000,18,16,4*6C
$GPGGA,082109.60,3135.3030368,N,12046.6992574,E,4,18,1.2,2.6647,M,8.319,M,00,0004*6B
$GPHPD,1957,30087.400,145.04,-1.33,12.72,31.5883839,120.7783210,2.665,13634152.083,24926887.552,2.665,-0.921,0.079,-0.981,0.567,1.005,0.637,0.000,18,16,4*64
$GPGGA,082109.80,3135.3029127,N,12046.6993553,E,4,18,1.2,2.6726,M,8.319,M,00,0004*66
$GPHPD,1957,30087.600,145.08,-0.65,12.67,31.5883819,120.7783226,2.673,13634154.044,24926889.454,2.673,-0.969,0.094,-0.969,0.567,1.005,0.637,0.000,18,16,4*66
$GPGGA,082110.00,3135.3027906,N,12046.6994551,E,4,18,1.2,2.6670,M,8.319,M,01,0004*65
$GPHPD,1957,30087.800,144.85,-1.31,12.56,31.5883798,120.7783243,2.667,13634155.981,24926891.369,2.667,-1.009,0.151,-0.951,0.567,1.005,0.637,0.000,18,16,4*67
$GPGGA,082110.20,3135.3026656,N,12046.6995549,E,4,18,1.3,2.6529,M,8.319,M,01,0004*6A
$GPHPD,1957,30088.000,144.62,-1.37,12.62,31.5883778,120.7783259,2.653,13634157.959,24926893.300,2.653,-0.963,0.094,-0.981,0.567,1.005,0.637,0.000,18,16,4*66
$GPGGA,082110.40,3135.3025424,N,12046.6996528,E,4,17,1.3,2.6579,M,8.319,M,01,0004*66
$GPHPD,1957,30088.200,144.77,-0.90,12.72,31.5883757,120.7783275,2.658,13634159.907,24926895.197,2.658,-0.959,0.075,-1.002,0.637,1.033,0.646,0.000,17,16,4*6E
$GPGGA,082110.60,3135.3024141,N,12046.6997530,E,4,17,1.3,2.6536,M,8.319,M,00,0004*61
$GPHPD,1957,30088.400,144.69,-0.98,12.71,31.5883736,120.7783292,2.654,13634161.933,24926897.152,2.654,-0.968,0.127,-0.989,0.637,1.033,0.646,0.000,17,16,4*6A
$GPGGA,082110.80,3135.3022882,N,12046.6998539,E,4,17,1.3,2.6443,M,8.319,M,00,0004*6A
$GPHPD,1957,30088.600,144.74,-0.68,12.70,31.5883715,120.7783309,2.644,13634163.926,24926899.102,2.644,-1.002,0.139,-1.000,0.637,1.033,0.646,0.000,17,16,4*67
$GPGGA,082111.00,3135.3021653,N,12046.6999583,E,4,17,1.3,2.6484,M,8.319,M,01,0004*68
$GPHPD,1957,30088.800,144.80,-0.55,12.64,31.5883694,120.7783326,2.648,13634165.883,24926901.076,2.648,-0.994,0.090,-1.003,0.637,1.033,0.646,0.000,17,16,4*60
$GPGGA,082111.20,3135.3020424,N,12046.7000571,E,4,17,1.3,2.6567,M,8.319,M,01,0004*60
$GPHPD,1957,30089.000,144.71,-0.85,12.58,31.5883674,120.7783343,2.657,13634167.829,24926902.983,2.657,-0.998,0.098,-0.977,0.637,1.033,0.646,0.000,17,16,4*65
$GPGGA,082111.40,3135.3019207,N,12046.7001553,E,4,17,1.3,2.6498,M,8.319,M,01,0004*6B
$GPHPD,1957,30089.200,144.49,-0.73,12.62,31.5883653,120.7783359,2.650,13634169.757,24926904.875,2.650,-0.969,0.117,-0.951,0.637,1.033,0.646,0.000,17,16,4*68
$GPGGA,082111.60,3135.3017958,N,12046.7002566,E,4,17,1.3,2.6411,M,8.319,M,00,0004*63
$GPHPD,1957,30089.400,144.57,-0.65,12.70,31.5883633,120.7783376,2.641,13634171.736,24926906.824,2.641,-0.967,0.112,-0.957,0.637,1.033,0.646,0.000,17,16,4*6B
$GPGGA,082111.80,3135.3016721,N,12046.7003563,E,4,17,1.3,2.6510,M,8.319,M,00,0004*68
$GPHPD,1957,30089.600,144.58,-1.15,12.77,31.5883612,120.7783393,2.651,13634173.696,24926908.746,2.651,-0.974,0.091,-0.992,0.637,1.033,0.646,0.000,17,16,4*62
$GPGGA,082112.00,3135.3015471,N,12046.7004576,E,4,17,1.3,2.6402,M,8.319,M,01,0004*66
$GPHPD,1957,30089.800,144.87,-1.39,12.78,31.5883591,120.7783410,2.640,13634175.677,24926910.695,2.640,-0.997,0.127,-0.974,0.637,1.033,0.646,0.000,17,16,4*6D
$GPGGA,082112.20,3135.3014219,N,12046.7005584,E,4,17,1.3,2.6383,M,8.319,M,01,0004*6F
$GPHPD,1957,30090.000,144.58,-1.75,12.78,31.5883570,120.7783426,2.638,13634177.659,24926912.640,2.638,-0.984,0.083,-1.004,0.637,1.033,0.646,0.000,17,16,4*6B
$GPGGA,082112.40,3135.3012971,N,12046.7006655,E,4,17,1.3,2.6259,M,8.319,M,01,0004*60
$GPHPD,1957,30090.200,144.89,-1.09,12.78,31.5883550,120.7783444,2.626,13634179.649,24926914.657,2.626,-0.982,0.079,-0.997,0.637,1.033,0.646,0.000,17,16,4*66
$GPGGA,082112.60,3135.3011661,N,12046.7007653,E,4,17,1.3,2.6336,M,8.319,M,00,0004*61
$GPHPD,1957,30090.400,144.85,-1.04,12.79,31.5883528,120.7783461,2.634,13634181.712,24926916.623,2.634,-0.999,0.091,-1.024,0.637,1.033,0.646,0.000,17,16,4*6D
$GPGGA,082112.80,3135.3010396,N,12046.7008702,E,4,17,1.3,2.6212,M,8.319,M,00,0004*6E
$GPHPD,1957,30090.600,144.94,-1.42,12.73,31.5883507,120.7783478,2.621,13634183.722,24926918.625,2.621,-1.038,0.193,-1.019,0.637,1.033,0.646,0.000,17,16,4*65
$GPGGA,082113.00,3135.3009127,N,12046.7009725,E,4,17,1.3,2.6269,M,8.319,M,01,0004*6E
$GPHPD,1957,30090.800,145.02,-1.53,12.74,31.5883485,120.7783495,2.627,13634185.732,24926920.597,2.627,-0.998,0.081,-1.015,0.637,1.033,0.646,0.000,17,16,4*60
$GPGGA,082113.20,3135.3007867,N,12046.7010729,E,4,17,1.3,2.6304,M,8.319,M,01,0004*61
$GPHPD,1957,30091.000,145.00,-1.41,12.69,31.5883464,120.7783512,2.630,13634187.725,24926922.541,2.630,-1.010,0.077,-1.003,0.637,1.033,0.646,0.000,17,16,4*6E
$GPGGA,082113.40,3135.3006627,N,12046.7011787,E,4,17,1.3,2.6209,M,8.319,M,01,0004*65
$GPHPD,1957,30091.200,144.93,-1.62,12.65,31.5883444,120.7783530,2.621,13634189.701,24926924.539,2.621,-1.038,0.139,-0.976,0.637,1.033,0.646,0.000,17,16,4*62
$GPGGA,082113.60,3135.3005339,N,12046.7012767,E,4,17,1.3,2.6170,M,8.319,M,00,0004*6F
$GPHPD,1957,30091.400,145.15,-1.57,12.64,31.5883422,120.7783546,2.617,13634191.729,24926926.470,2.617,-1.010,0.097,-1.001,0.637,1.033,0.646,0.000,17,16,4*67
$GPGGA,082113.80,3135.3004086,N,12046.7013771,E,4,17,1.3,2.6080,M,8.319,M,00,0004*6F
$GPHPD,1957,30091.600,144.96,-1.12,12.67,31.5883401,120.7783563,2.608,13634193.712,24926928.410,2.608,-0.975,0.069,-1.006,0.637,1.033,0.646,0.000,17,16,4*64
$GPGGA,082114.00,3135.3002828,N,12046.7014780,E,4,17,1.3,2.6168,M,8.319,M,01,0004*65
$GPHPD,1957,30091.800,144.83,-1.30,12.71,31.5883380,120.7783580,2.617,13634195.704,24926930.359,2.617,-0.994,0.123,-1.006,0.637,1.033,0.646,0.000,17,16,4*68
$GPGGA,082114.20,3135.3001554,N,12046.7015780,E,4,17,1.3,2.5947,M,8.319,M,01,0004*65
$GPHPD,1957,30092.000,144.74,-1.24,12.74,31.5883359,120.7783596,2.595,13634197.716,24926932.306,2.595,-1.004,0.154,-0.976,0.637,1.033,0.646,0.000,17,16,4*6F
$GPGGA,082114.40,3135.3000287,N,12046.7016806,E,4,17,1.3,2.5932,M,8.319,M,01,0004*6B
$GPHPD,1957,30092.200,144.78,-0.85,12.77,31.5883338,120.7783613,2.593,13634199.724,24926934.281,2.593,-0.945,0.021,-1.048,0.637,1.033,0.646,0.000,17,16,4*6D
$GPGGA,082114.60,3135.2999019,N,12046.7017846,E,4,17,1.3,2.6041,M,8.319,M,00,0004*6E
$GPHPD,1957,30092.400,144.67,-1.14,12.82,31.5883317,120.7783631,2.604,13634201.736,24926936.273,2.604,-0.982,0.058,-1.010,0.637,1.033,0.646,0.000,17,16,4*6D
$GPGGA,082114.80,3135.2997808,N,12046.7018863,E,4,17,1.3,2.5958,M,8.319,M,00,0004*6C
$GPHPD,1957,30092.600,144.67,-1.37,12.88,31.5883297,120.7783648,2.596,13634203.662,24926938.205,2.596,-1.031,0.147,-0.986,0.637,1.033,0.646,0.000,17,16,4*66
$GPGGA,082115.00,3135.2996568,N,12046.7019885,E,4,17,1.3,2.5874,M,8.319,M,01,0004*68
$GPHPD,1957,30092.800,144.75,-1.21,12.88,31.5883276,120.7783665,2.587,13634205.631,24926940.159,2.587,-0.982,0.092,-0.980,0.637,1.033,0.646,0.000,17,16,4*66
$GPGGA,082115.20,3135.2995365,N,12046.7020834,E,4,17,1.3,2.5712,M,8.319,M,01,0004*6D
$GPHPD,1957,30093.000,144.83,-0.88,12.91,31.5883256,120.7783681,2.571,13634207.532,24926942.003,2.571,-0.969,0.054,-1.005,0.637,1.033,0.646,0.000,17,16,4*60
$GPGGA,082115.40,3135.2994208,N,12046.7021780,E,4,17,1.3,2.5792,M,8.319,M,01,0004*69
$GPHPD,1957,30093.200,144.75,-0.51,12.92,31.5883237,120.7783696,2.579,13634209.367,24926943.817,2.579,-0.923,0.058,-0.984,0.637,1.033,0.646,0.000,17,16,4*6A
$GPGGA,082115.60,3135.2993101,N,12046.7022693,E,4,17,1.3,2.5749,M,8.319,M,00,0004*61
$GPHPD,1957,30093.400,144.75,-0.72,12.93,31.5883218,120.7783712,2.575,13634211.125,24926945.563,2.575,-0.929,0.132,-0.905,0.620,1.007,0.598,0.000,17,16,4*66
$GPGGA,082115.80,3135.2991994,N,12046.7023532,E,4,17,1.3,2.5737,M,8.319,M,00,0004*69
$GPHPD,1957,30093.600,144.76,-0.31,12.90,31.5883200,120.7783726,2.574,13634212.867,24926947.219,2.574,-0.903,0.097,-0.887,0.620,1.007,0.598,0.000,17,16,4*64
$GPGGA,082116.00,3135.2990970,N,12046.7024380,E,4,17,1.3,2.5688,M,8.319,M,01,0004*65
$GPHPD,1957,30093.800,144.64,-0.42,12.89,31.5883183,120.7783740,2.569,13634214.494,24926948.837,2.569,-0.834,0.093,-0.859,0.620,1.007,0.598,0.000,17,16,4*60
$GPGGA,082116.20,3135.2989948,N,12046.7025182,E,4,17,1.3,2.5753,M,8.319,M,01,0004*62
$GPHPD,1957,30094.000,144.75,-0.20,12.93,31.5883166,120.7783753,2.575,13634216.108,24926950.399,2.575,-0.812,0.083,-0.821,0.620,1.007,0.598,0.000,17,16,4*67
$GPGGA,082116.40,3135.2988982,N,12046.7025977,E,4,17,1.3,2.5833,M,8.319,M,01,0004*68
$GPHPD,1957,30094.200,144.78,-0.33,12.93,31.5883150,120.7783766,2.583,13634217.641,24926951.920,2.583,-0.790,0.102,-0.790,0.620,1.007,0.598,0.000,17,16,4*63
$GPGGA,082116.60,3135.2988079,N,12046.7026711,E,4,17,1.3,2.5854,M,8.319,M,00,0004*6A
$GPHPD,1957,30094.400,144.78,-0.52,12.92,31.5883135,120.7783779,2.585,13634219.073,24926953.331,2.585,-0.788,0.089,-0.743,0.620,1.007,0.598,0.000,17,16,4*6A
$GPGGA,082116.80,3135.2987186,N,12046.7027451,E,4,17,1.3,2.5834,M,8.319,M,00,0004*6A
$GPHPD,1957,30094.600,144.69,-0.56,12.94,31.5883120,120.7783791,2.583,13634220.491,24926954.743,2.583,-0.734,0.116,-0.689,0.620,1.007,0.598,0.000,17,16,4*6B
$GPGGA,082117.00,3135.2986328,N,12046.7028122,E,4,17,1.3,2.5837,M,8.319,M,01,0004*68
