$GPGGA,083846.00,3135.3482228,N,12046.8090516,E,4,19,1.2,2.4609,M,8.325,M,01,0004*60
$GPHPD,1957,31143.800,236.01,-0.48,12.89,31.5891370,120.7801509,2.461,13633730.834,24927948.755,2.461,0.136,0.158,-0.114,0.560,0.979,0.599,0.000,19,19,4*4B
$GPGGA,083846.20,3135.3481982,N,12046.8090086,E,4,19,1.2,2.4621,M,8.325,M,01,0004*6C
$GPHPD,1957,31144.000,235.86,-0.45,13.00,31.5891366,120.7801501,2.462,13633731.097,24927948.380,2.462,0.191,0.214,-0.155,0.560,0.979,0.599,0.000,19,19,4*45
$GPGGA,083846.40,3135.3481711,N,12046.8089591,E,4,19,1.2,2.4592,M,8.325,M,01,0004*6E
$GPHPD,1957,31144.200,235.96,-0.36,13.13,31.5891362,120.7801493,2.459,13633731.383,24927947.941,2.459,0.226,0.287,-0.184,0.560,0.979,0.599,0.000,19,19,4*49
$GPGGA,083846.60,3135.3481347,N,12046.8088973,E,4,19,1.2,2.4595,M,8.325,M,00,0004*6C
$GPHPD,1957,31144.400,235.92,-0.46,13.25,31.5891356,120.7801483,2.460,13633731.776,24927947.407,2.460,0.278,0.311,-0.226,0.560,0.979,0.599,0.000,19,19,4*40
$GPGGA,083846.80,3135.3480955,N,12046.8088289,E,4,19,1.2,2.4562,M,8.325,M,00,0004*6C
$GPHPD,1957,31144.600,236.00,-0.22,13.37,31.5891349,120.7801471,2.456,13633732.195,24927946.810,2.456,0.306,0.389,-0.267,0.560,0.979,0.599,0.000,19,19,4*47
$GPGGA,083847.00,3135.3480519,N,12046.8087523,E,4,19,1.2,2.4553,M,8.325,M,01,0004*6A
$GPHPD,1957,31144.800,236.01,-0.43,13.47,31.5891342,120.7801459,2.455,13633732.661,24927946.140,2.455,0.371,0.424,-0.313,0.560,0.979,0.599,0.000,19,19,4*4B
$GPGGA,083847.20,3135.3480035,N,12046.8086660,E,4,19,1.2,2.4535,M,8.325,M,01,0004*66
$GPHPD,1957,31145.000,236.01,-0.22,13.56,31.5891334,120.7801444,2.454,13633733.175,24927945.381,2.454,0.418,0.504,-0.350,0.560,0.979,0.599,0.000,19,19,4*4B
$GPGGA,083847.40,3135.3479507,N,12046.8085727,E,4,19,1.2,2.4551,M,8.325,M,01,0004*61
$GPHPD,1957,31145.200,235.88,-0.49,13.66,31.5891325,120.7801429,2.455,13633733.738,24927944.563,2.455,0.454,0.552,-0.387,0.560,0.979,0.599,0.000,19,19,4*4B
$GPGGA,083847.60,3135.3478925,N,12046.8084739,E,4,19,1.2,2.4547,M,8.325,M,01,0004*67
$GPHPD,1957,31145.400,235.81,-0.48,13.72,31.5891315,120.7801412,2.455,13633734.366,24927943.710,2.455,0.513,0.576,-0.414,0.569,0.995,0.640,0.000,19,19,4*47
$GPGGA,083847.80,3135.3478338,N,12046.8083721,E,4,19,1.2,2.4495,M,8.325,M,00,0004*6E
$GPHPD,1957,31145.600,236.05,-0.11,13.78,31.5891306,120.7801395,2.450,13633734.996,24927942.824,2.450,0.524,0.632,-0.449,0.560,0.979,0.599,0.000,19,19,4*49
$GPGGA,083848.00,3135.3477739,N,12046.8082658,E,4,19,1.2,2.4518,M,8.325,M,01,0004*68
$GPHPD,1957,31145.800,236.07,0.14,13.84,31.5891296,120.7801378,2.452,13633735.633,24927941.891,2.452,0.561,0.645,-0.475,0.560,0.979,0.599,0.000,19,19,4*67
$GPGGA,083848.20,3135.3477120,N,12046.8081588,E,4,19,1.2,2.4482,M,8.325,M,01,0004*6B
$GPHPD,1957,31146.000,235.83,-0.39,13.89,31.5891285,120.7801360,2.448,13633736.298,24927940.961,2.448,0.565,0.677,-0.472,0.560,0.979,0.599,0.000,19,19,4*4C
$GPGGA,083848.40,3135.3476471,N,12046.8080480,E,4,19,1.2,2.4466,M,8.325,M,01,0004*6F
$GPHPD,1957,31146.200,235.74,-0.47,13.95,31.5891275,120.7801341,2.447,13633736.997,24927940.002,2.447,0.586,0.706,-0.483,0.560,0.979,0.599,0.000,19,19,4*42
$GPGGA,083848.60,3135.3475798,N,12046.8079318,E,4,19,1.2,2.4464,M,8.325,M,00,0004*69
$GPHPD,1957,31146.400,235.87,-0.14,14.01,31.5891263,120.7801322,2.446,13633737.720,24927938.992,2.446,0.588,0.741,-0.511,0.560,0.979,0.599,0.000,19,19,4*4D
$GPGGA,083848.80,3135.3475132,N,12046.8078118,E,4,19,1.2,2.4471,M,8.325,M,00,0004*66
$GPHPD,1957,31146.600,235.62,-0.64,14.01,31.5891252,120.7801302,2.447,13633738.425,24927937.933,2.447,0.624,0.740,-0.531,0.560,0.979,0.599,0.000,19,19,4*48
$GPGGA,083849.00,3135.3474443,N,12046.8076921,E,4,19,1.2,2.4501,M,8.325,M,01,0004*66
$GPHPD,1957,31146.800,235.67,-0.36,14.01,31.5891241,120.7801282,2.450,13633739.164,24927936.890,2.450,0.633,0.763,-0.526,0.560,0.979,0.599,0.000,19,19,4*46
$GPGGA,083849.20,3135.3473738,N,12046.8075724,E,4,19,1.2,2.4474,M,8.325,M,01,0004*67
$GPHPD,1957,31147.000,235.86,-0.51,14.04,31.5891229,120.7801262,2.447,13633739.925,24927935.857,2.447,0.649,0.765,-0.540,0.569,0.995,0.640,0.000,19,19,4*46
$GPGGA,083849.40,3135.3473016,N,12046.8074450,E,4,19,1.2,2.4491,M,8.325,M,01,0004*60
$GPHPD,1957,31147.200,235.70,-0.72,14.04,31.5891217,120.7801241,2.449,13633740.695,24927934.740,2.449,0.650,0.781,-0.556,0.560,0.979,0.599,0.000,19,19,4*4B
$GPGGA,083849.60,3135.3472327,N,12046.8073216,E,4,19,1.2,2.4538,M,8.325,M,01,0004*63
$GPHPD,1957,31147.400,236.02,-0.65,14.00,31.5891205,120.7801220,2.454,13633741.426,24927933.653,2.454,0.673,0.796,-0.568,0.560,0.979,0.599,0.000,19,19,4*48
$GPGGA,083849.80,3135.3471598,N,12046.8071957,E,4,19,1.2,2.4469,M,8.325,M,00,0004*64
$GPHPD,1957,31147.600,235.94,-0.75,13.97,31.5891193,120.7801199,2.447,13633742.209,24927932.559,2.447,0.681,0.812,-0.549,0.560,0.979,0.599,0.000,19,19,4*4E
$GPGGA,083850.00,3135.3470918,N,12046.8070722,E,4,19,1.2,2.4431,M,8.325,M,01,0004*60
$GPHPD,1957,31147.800,236.12,-0.42,13.96,31.5891182,120.7801179,2.443,13633742.927,24927931.465,2.443,0.673,0.801,-0.558,0.560,0.979,0.599,0.000,19,19,4*43
$GPGGA,083850.20,3135.3470195,N,12046.8069455,E,4,19,1.2,2.4344,M,8.325,M,01,0004*61
$GPHPD,1957,31148.000,236.01,-0.47,13.94,31.5891170,120.7801158,2.434,13633743.699,24927930.358,2.434,0.675,0.789,-0.562,0.560,0.979,0.599,0.000,19,19,4*4C
$GPGGA,083850.40,3135.3469486,N,12046.8068183,E,4,19,1.2,2.4371,M,8.325,M,01,0004*61
$GPHPD,1957,31148.200,236.09,-0.22,13.91,31.5891158,120.7801136,2.437,13633744.451,24927929.237,2.437,0.678,0.793,-0.566,0.560,0.979,0.599,0.000,19,19,4*41
$GPGGA,083850.60,3135.3468779,N,12046.8066935,E,4,19,1.2,2.4385,M,8.325,M,00,0004*60
$GPHPD,1957,31148.400,236.05,-0.32,13.88,31.5891146,120.7801116,2.439,13633745.205,24927928.143,2.439,0.684,0.802,-0.558,0.560,0.979,0.599,0.000,19,19,4*41
$GPGGA,083850.80,3135.3468073,N,12046.8065670,E,4,19,1.2,2.4378,M,8.325,M,00,0004*6C
$GPHPD,1957,31148.600,236.50,-0.14,13.87,31.5891135,120.7801095,2.438,13633745.954,24927927.028,2.438,0.673,0.818,-0.551,0.560,0.979,0.599,0.000,19,19,4*40
$GPGGA,083851.00,3135.3467336,N,12046.8064377,E,4,19,1.2,2.4419,M,8.325,M,01,0004*6A
$GPHPD,1957,31148.800,236.32,-0.10,13.86,31.5891122,120.7801073,2.442,13633746.741,24927925.898,2.442,0.681,0.798,-0.558,0.569,0.995,0.640,0.000,19,19,4*46
$GPGGA,083851.20,3135.3466612,N,12046.8063092,E,4,19,1.2,2.4343,M,8.325,M,01,0004*6D
$GPHPD,1957,31149.000,236.20,-0.61,13.84,31.5891110,120.7801052,2.434,13633747.512,24927924.769,2.434,0.679,0.849,-0.560,0.560,0.979,0.599,0.000,19,19,4*4C
$GPGGA,083851.40,3135.3465878,N,12046.8061774,E,4,19,1.2,2.4392,M,8.325,M,01,0004*6B
$GPHPD,1957,31149.200,236.42,-0.09,13.84,31.5891098,120.7801030,2.439,13633748.290,24927923.607,2.439,0.703,0.805,-0.583,0.569,0.995,0.640,0.000,19,19,4*48
$GPGGA,083851.60,3135.3465158,N,12046.8060463,E,4,19,1.2,2.4356,M,8.325,M,01,0004*6E
$GPHPD,1957,31149.400,236.51,-0.42,13.85,31.5891086,120.7801008,2.436,13633749.049,24927922.445,2.436,0.714,0.825,-0.578,0.560,0.979,0.599,0.000,19,19,4*48
$GPGGA,083851.80,3135.3464401,N,12046.8059124,E,4,19,1.2,2.4407,M,8.325,M,01,0004*67
$GPHPD,1957,31149.600,236.53,-0.27,13.88,31.5891073,120.7800985,2.441,13633749.856,24927921.271,2.441,0.708,0.840,-0.581,0.564,0.988,0.631,0.000,19,19,4*46
$GPGGA,083852.00,3135.3463672,N,12046.8057790,E,4,19,1.2,2.4374,M,8.325,M,01,0004*69
$GPHPD,1957,31149.800,236.88,-0.01,13.90,31.5891061,120.7800963,2.437,13633750.623,24927920.086,2.437,0.726,0.845,-0.590,0.560,0.979,0.599,0.000,19,19,4*45
$GPGGA,083852.20,3135.3462929,N,12046.8056463,E,4,19,1.2,2.4322,M,8.325,M,01,0004*66
$GPHPD,1957,31150.000,236.94,0.43,13.87,31.5891049,120.7800941,2.432,13633751.413,24927918.918,2.432,0.734,0.836,-0.591,0.560,0.979,0.599,0.000,19,19,4*6C
$GPGGA,083852.40,3135.3462175,N,12046.8055094,E,4,19,1.2,2.4456,M,8.325,M,01,0004*6A
$GPHPD,1957,31150.200,237.11,0.35,13.87,31.5891036,120.7800918,2.446,13633752.209,24927917.706,2.446,0.731,0.840,-0.592,0.560,0.979,0.599,0.000,19,19,4*60
$GPGGA,083852.60,3135.3461442,N,12046.8053719,E,4,19,1.2,2.4389,M,8.325,M,00,0004*6A
$GPHPD,1957,31150.400,237.17,0.27,13.88,31.5891024,120.7800895,2.439,13633752.974,24927916.474,2.439,0.728,0.881,-0.576,0.569,0.995,0.640,0.000,19,19,4*6E
$GPGGA,083852.80,3135.3460689,N,12046.8052340,E,4,19,1.2,2.4396,M,8.325,M,00,0004*67
$GPHPD,1957,31150.600,237.03,0.09,13.86,31.5891011,120.7800872,2.440,13633753.767,24927915.249,2.440,0.759,0.863,-0.590,0.560,0.979,0.599,0.000,19,19,4*6C
$GPGGA,083853.00,3135.3459955,N,12046.8050950,E,4,19,1.2,2.4399,M,8.325,M,01,0004*6D
$GPHPD,1957,31150.800,237.37,-0.17,13.83,31.5890999,120.7800849,2.440,13633754.530,24927914.000,2.440,0.755,0.874,-0.590,0.569,0.995,0.640,0.000,19,19,4*4D
$GPGGA,083853.20,3135.3459191,N,12046.8049552,E,4,19,1.2,2.4377,M,8.325,M,01,0004*69
$GPHPD,1957,31151.000,237.03,-0.72,13.82,31.5890987,120.7800826,2.438,13633755.335,24927912.759,2.438,0.753,0.890,-0.561,0.560,0.979,0.599,0.000,19,19,4*46
$GPGGA,083853.40,3135.3458447,N,12046.8048148,E,4,19,1.2,2.4374,M,8.325,M,01,0004*6D
$GPHPD,1957,31151.200,237.18,-0.54,13.83,31.5890974,120.7800802,2.437,13633756.110,24927911.498,2.437,0.762,0.897,-0.584,0.560,0.979,0.599,0.000,19,19,4*44
$GPGGA,083853.60,3135.3457678,N,12046.8046741,E,4,19,1.2,2.4379,M,8.325,M,01,0004*62
$GPHPD,1957,31151.400,237.10,-0.60,13.83,31.5890961,120.7800779,2.438,13633756.920,24927910.249,2.438,0.768,0.877,-0.591,0.560,0.979,0.599,0.000,19,19,4*4A
$GPGGA,083853.80,3135.3456912,N,12046.8045320,E,4,19,1.2,2.4409,M,8.325,M,00,0004*6F
$GPHPD,1957,31151.600,236.90,-0.97,13.79,31.5890949,120.7800755,2.441,13633757.722,24927908.981,2.441,0.775,0.870,-0.596,0.560,0.979,0.599,0.000,19,19,4*4F
$GPGGA,083854.00,3135.3456146,N,12046.8043910,E,4,19,1.2,2.4455,M,8.325,M,01,0004*6E
$GPHPD,1957,31151.800,237.14,-0.69,13.75,31.5890936,120.7800732,2.446,13633758.527,24927907.726,2.446,0.763,0.892,-0.595,0.560,0.979,0.599,0.000,19,19,4*44
$GPGGA,083854.20,3135.3455358,N,12046.8042518,E,4,19,1.2,2.4409,M,8.325,M,01,0004*6E
$GPHPD,1957,31152.000,237.31,-0.41,13.74,31.5890923,120.7800709,2.441,13633759.367,24927906.506,2.441,0.769,0.902,-0.585,0.560,0.979,0.599,0.000,19,19,4*4E
$GPGGA,083854.40,3135.3454643,N,12046.8041117,E,4,19,1.2,2.4394,M,8.325,M,01,0004*6D
$GPHPD,1957,31152.200,237.49,-0.25,13.74,31.5890911,120.7800685,2.439,13633760.102,24927905.232,2.439,0.761,0.891,-0.607,0.560,0.979,0.599,0.000,19,19,4*47
$GPGGA,083854.60,3135.3453886,N,12046.8039685,E,4,19,1.2,2.4348,M,8.325,M,00,0004*6C
$GPHPD,1957,31152.400,237.41,-0.59,13.73,31.5890898,120.7800661,2.435,13633760.889,24927903.946,2.435,0.774,0.877,-0.586,0.560,0.979,0.599,0.000,19,19,4*4D
$GPGGA,083854.80,3135.3453097,N,12046.8038286,E,4,19,1.2,2.4439,M,8.325,M,00,0004*6D
$GPHPD,1957,31152.600,237.23,-0.60,13.76,31.5890885,120.7800638,2.444,13633761.729,24927902.718,2.444,0.773,0.893,-0.596,0.560,0.979,0.599,0.000,19,19,4*48
$GPGGA,083855.00,3135.3452348,N,12046.8036869,E,4,19,1.2,2.4320,M,8.325,M,01,0004*6F
$GPHPD,1957,31152.800,237.59,-0.30,13.78,31.5890872,120.7800614,2.432,13633762.509,24927901.445,2.432,0.766,0.908,-0.597,0.569,0.995,0.640,0.000,19,19,4*47
$GPGGA,083855.20,3135.3451600,N,12046.8035426,E,4,19,1.2,2.4360,M,8.325,M,01,0004*67
$GPHPD,1957,31153.000,237.62,-0.13,13.77,31.5890860,120.7800590,2.436,13633763.282,24927900.140,2.436,0.797,0.850,-0.627,0.569,0.995,0.640,0.000,19,19,4*4A
$GPGGA,083855.40,3135.3450827,N,12046.8033983,E,4,19,1.2,2.4376,M,8.325,M,01,0004*68
$GPHPD,1957,31153.200,237.46,-0.59,13.75,31.5890847,120.7800566,2.438,13633764.090,24927898.849,2.438,0.789,0.899,-0.594,0.560,0.979,0.599,0.000,19,19,4*45
$GPGGA,083855.60,3135.3450023,N,12046.8032523,E,4,19,1.2,2.4391,M,8.325,M,01,0004*68
$GPHPD,1957,31153.400,237.60,-0.67,13.75,31.5890834,120.7800542,2.439,13633764.939,24927897.557,2.439,0.792,0.905,-0.598,0.560,0.979,0.599,0.000,19,19,4*4D
$GPGGA,083855.80,3135.3449284,N,12046.8031136,E,4,19,1.2,2.4295,M,8.325,M,00,0004*66
$GPHPD,1957,31153.600,237.67,-0.18,13.73,31.5890821,120.7800519,2.430,13633765.710,24927896.314,2.430,0.794,0.903,-0.615,0.560,0.979,0.599,0.000,19,19,4*4E
$GPGGA,083856.00,3135.3448536,N,12046.8029670,E,4,19,1.2,2.4401,M,8.325,M,01,0004*64
$GPHPD,1957,31153.800,237.80,0.09,13.72,31.5890809,120.7800495,2.440,13633766.478,24927894.981,2.440,0.788,0.866,-0.616,0.560,0.979,0.599,0.000,19,19,4*6C
$GPGGA,083856.20,3135.3447765,N,12046.8028236,E,4,19,1.2,2.4323,M,8.325,M,01,0004*6D
$GPHPD,1957,31154.000,237.79,-0.21,13.70,31.5890796,120.7800471,2.432,13633767.286,24927893.700,2.432,0.780,0.915,-0.581,0.560,0.979,0.599,0.000,19,19,4*45
$GPGGA,083856.40,3135.3446993,N,12046.8026795,E,4,19,1.2,2.4325,M,8.325,M,01,0004*69
$GPHPD,1957,31154.200,237.68,-0.38,13.68,31.5890783,120.7800447,2.433,13633768.093,24927892.412,2.433,0.791,0.887,-0.600,0.560,0.979,0.599,0.000,19,19,4*4F
$GPGGA,083856.60,3135.3446219,N,12046.8025363,E,4,19,1.2,2.4389,M,8.325,M,00,0004*6B
$GPHPD,1957,31154.400,237.90,0.26,13.65,31.5890770,120.7800423,2.439,13633768.905,24927891.135,2.439,0.792,0.879,-0.618,0.560,0.979,0.599,0.000,19,19,4*61
$GPGGA,083856.80,3135.3445449,N,12046.8023879,E,4,19,1.2,2.4374,M,8.325,M,00,0004*61
$GPHPD,1957,31154.600,237.75,-0.34,13.62,31.5890757,120.7800398,2.437,13633769.701,24927889.794,2.437,0.787,0.912,-0.605,0.560,0.979,0.599,0.000,19,19,4*48
$GPGGA,083857.00,3135.3444687,N,12046.8022453,E,4,19,1.2,2.4375,M,8.325,M,01,0004*6C
$GPHPD,1957,31154.800,237.66,-0.47,13.61,31.5890745,120.7800374,2.438,13633770.497,24927888.517,2.438,0.793,0.920,-0.594,0.560,0.979,0.599,0.000,19,19,4*41
$GPGGA,083857.20,3135.3443884,N,12046.8021020,E,4,19,1.2,2.4329,M,8.325,M,01,0004*6E
$GPHPD,1957,31155.000,237.62,-0.45,13.62,31.5890731,120.7800350,2.433,13633771.350,24927887.256,2.433,0.782,0.918,-0.601,0.560,0.979,0.599,0.000,19,19,4*4C
$GPGGA,083857.40,3135.3443134,N,12046.8019555,E,4,19,1.2,2.4356,M,8.325,M,01,0004*6E
$GPHPD,1957,31155.200,237.76,-0.33,13.62,31.5890719,120.7800326,2.436,13633772.121,24927885.926,2.436,0.785,0.905,-0.628,0.560,0.979,0.599,0.000,19,19,4*48
$GPGGA,083857.60,3135.3442374,N,12046.8018105,E,4,19,1.2,2.4328,M,8.325,M,01,0004*62
$GPHPD,1957,31155.400,237.62,-0.40,13.56,31.5890706,120.7800302,2.433,13633772.909,24927884.619,2.433,0.803,0.916,-0.602,0.560,0.979,0.599,0.000,19,19,4*4B
$GPGGA,083857.80,3135.3441580,N,12046.8016649,E,4,19,1.2,2.4348,M,8.325,M,00,0004*64
$GPHPD,1957,31155.600,237.57,-0.87,13.54,31.5890693,120.7800277,2.435,13633773.745,24927883.326,2.435,0.793,0.928,-0.599,0.560,0.979,0.599,0.000,19,19,4*4B
$GPGGA,083858.00,3135.3440806,N,12046.8015185,E,4,19,1.2,2.4375,M,8.325,M,01,0004*6A
$GPHPD,1957,31155.800,237.95,-0.46,13.51,31.5890680,120.7800253,2.438,13633774.550,24927882.010,2.438,0.801,0.887,-0.633,0.560,0.979,0.599,0.000,19,19,4*42
$GPGGA,083858.20,3135.3440043,N,12046.8013750,E,4,19,1.2,2.4348,M,8.325,M,01,0004*67
$GPHPD,1957,31156.000,237.91,-0.47,13.49,31.5890667,120.7800229,2.435,13633775.346,24927880.724,2.435,0.798,0.916,-0.609,0.560,0.979,0.599,0.000,19,19,4*4C
$GPGGA,083858.40,3135.3439288,N,12046.8012289,E,4,19,1.2,2.4357,M,8.325,M,01,0004*64
$GPHPD,1957,31156.200,237.85,-0.74,13.48,31.5890655,120.7800205,2.436,13633776.125,24927879.401,2.436,0.795,0.904,-0.607,0.560,0.979,0.599,0.000,19,19,4*43
$GPGGA,083858.60,3135.3438518,N,12046.8010807,E,4,19,1.2,2.4331,M,8.325,M,00,0004*66
$GPHPD,1957,31156.400,237.95,-0.67,13.48,31.5890642,120.7800180,2.433,13633776.922,24927878.062,2.433,0.805,0.895,-0.598,0.560,0.979,0.599,0.000,19,19,4*4B
$GPGGA,083858.80,3135.3437767,N,12046.8009370,E,4,19,1.2,2.4290,M,8.325,M,00,0004*64
$GPHPD,1957,31156.600,238.12,-0.38,13.48,31.5890629,120.7800156,2.429,13633777.700,24927876.766,2.429,0.808,0.928,-0.587,0.560,0.979,0.599,0.000,19,19,4*43
$GPGGA,083859.00,3135.3437031,N,12046.8007914,E,4,19,1.2,2.4231,M,8.325,M,01,0004*65
$GPHPD,1957,31156.800,238.31,-0.30,13.47,31.5890617,120.7800132,2.423,13633778.453,24927875.438,2.423,0.805,0.876,-0.607,0.560,0.979,0.599,0.000,19,19,4*49
$GPGGA,083859.20,3135.3436253,N,12046.8006460,E,4,19,1.2,2.4271,M,8.325,M,01,0004*6B
$GPHPD,1957,31157.000,238.07,-0.58,13.46,31.5890604,120.7800108,2.427,13633779.266,24927874.137,2.427,0.821,0.869,-0.605,0.560,0.979,0.599,0.000,19,19,4*41
$GPGGA,083859.40,3135.3435508,N,12046.8005001,E,4,19,1.2,2.4218,M,8.325,M,01,0004*68
$GPHPD,1957,31157.200,238.26,-0.71,13.48,31.5890592,120.7800083,2.422,13633780.031,24927872.811,2.422,0.804,0.901,-0.602,0.560,0.979,0.599,0.000,19,19,4*49
$GPGGA,083859.60,3135.3434742,N,12046.8003537,E,4,19,1.2,2.4245,M,8.325,M,01,0004*69
$GPHPD,1957,31157.400,238.45,-0.28,13.48,31.5890579,120.7800059,2.425,13633780.826,24927871.492,2.425,0.812,0.881,-0.601,0.560,0.979,0.599,0.000,19,19,4*43
$GPGGA,083859.80,3135.3433991,N,12046.8002078,E,4,19,1.2,2.4290,M,8.325,M,00,0004*66
$GPHPD,1957,31157.600,238.75,0.09,13.46,31.5890567,120.7800035,2.429,13633781.599,24927870.169,2.429,0.813,0.901,-0.599,0.560,0.979,0.599,0.000,19,19,4*65
$GPGGA,083900.00,3135.3433235,N,12046.8000603,E,4,19,1.2,2.4283,M,8.325,M,01,0004*6D
$GPHPD,1957,31157.800,238.64,-0.34,13.47,31.5890554,120.7800010,2.428,13633782.377,24927868.830,2.428,0.793,0.921,-0.580,0.560,0.979,0.599,0.000,19,19,4*4A
$GPGGA,083900.20,3135.3432454,N,12046.7999145,E,4,19,1.2,2.4230,M,8.325,M,01,0004*64
$GPHPD,1957,31158.000,238.50,-0.19,13.47,31.5890541,120.7799986,2.423,13633783.194,24927867.526,2.423,0.812,0.906,-0.597,0.560,0.979,0.599,0.000,19,19,4*46
$GPGGA,083900.40,3135.3431703,N,12046.7997680,E,4,19,1.2,2.4255,M,8.325,M,01,0004*63
$GPHPD,1957,31158.200,238.76,0.24,13.45,31.5890528,120.7799961,2.426,13633783.966,24927866.196,2.426,0.817,0.899,-0.614,0.560,0.979,0.599,0.000,19,19,4*66
$GPGGA,083900.60,3135.3430969,N,12046.7996224,E,4,19,1.2,2.4279,M,8.325,M,00,0004*66
$GPHPD,1957,31158.400,238.57,-0.27,13.43,31.5890516,120.7799937,2.428,13633784.717,24927864.868,2.428,0.804,0.923,-0.595,0.560,0.979,0.599,0.000,19,19,4*48
$GPGGA,083900.80,3135.3430245,N,12046.7994786,E,4,19,1.2,2.4279,M,8.325,M,00,0004*62
$GPHPD,1957,31158.600,238.41,-0.71,13.41,31.5890504,120.7799913,2.428,13633785.456,24927863.555,2.428,0.805,0.916,-0.577,0.560,0.979,0.599,0.000,19,19,4*41
$GPGGA,083901.00,3135.3429482,N,12046.7993325,E,4,19,1.2,2.4250,M,8.325,M,01,0004*6E
$GPHPD,1957,31158.800,238.36,-0.54,13.43,31.5890491,120.7799889,2.425,13633786.247,24927862.237,2.425,0.801,0.901,-0.573,0.560,0.979,0.599,0.000,19,19,4*44
$GPGGA,083901.20,3135.3428733,N,12046.7991882,E,4,19,1.2,2.4277,M,8.325,M,01,0004*65
$GPHPD,1957,31159.000,238.40,-0.87,13.42,31.5890479,120.7799865,2.428,13633787.021,24927860.932,2.428,0.799,0.920,-0.595,0.560,0.979,0.599,0.000,19,19,4*4D
$GPGGA,083901.40,3135.3427973,N,12046.7990412,E,4,19,1.2,2.4165,M,8.325,M,01,0004*62
$GPHPD,1957,31159.200,238.38,-0.90,13.39,31.5890466,120.7799840,2.417,13633787.805,24927859.602,2.417,0.797,0.903,-0.586,0.560,0.979,0.599,0.000,19,19,4*46
$GPGGA,083901.60,3135.3427253,N,12046.7988964,E,4,19,1.2,2.4142,M,8.325,M,01,0004*69
$GPHPD,1957,31159.400,238.63,-0.22,13.39,31.5890454,120.7799816,2.414,13633788.537,24927858.274,2.414,0.818,0.883,-0.608,0.560,0.979,0.599,0.000,19,19,4*46
$GPGGA,083901.80,3135.3426497,N,12046.7987498,E,4,19,1.2,2.4149,M,8.325,M,00,0004*63
$GPHPD,1957,31159.600,238.17,-0.46,13.39,31.5890442,120.7799792,2.415,13633789.317,24927856.946,2.415,0.807,0.889,-0.592,0.560,0.979,0.599,0.000,19,19,4*44
$GPGGA,083902.00,3135.3425754,N,12046.7986047,E,4,19,1.2,2.4170,M,8.325,M,01,0004*6B
$GPHPD,1957,31159.800,238.40,-0.69,13.39,31.5890429,120.7799767,2.417,13633790.081,24927855.629,2.417,0.809,0.893,-0.598,0.560,0.979,0.599,0.000,19,19,4*4C
$GPGGA,083902.20,3135.3424984,N,12046.7984575,E,4,19,1.2,2.4143,M,8.325,M,01,0004*6D
$GPHPD,1957,31160.000,238.59,-0.33,13.37,31.5890416,120.7799743,2.414,13633790.879,24927854.302,2.414,0.813,0.886,-0.591,0.560,0.979,0.599,0.000,19,19,4*49
$GPGGA,083902.40,3135.3424229,N,12046.7983117,E,4,19,1.2,2.4149,M,8.325,M,01,0004*6A
$GPHPD,1957,31160.200,238.48,-0.38,13.36,31.5890404,120.7799719,2.415,13633791.659,24927852.983,2.415,0.811,0.906,-0.601,0.560,0.979,0.599,0.000,19,19,4*44
$GPGGA,083902.60,3135.3423499,N,12046.7981657,E,4,19,1.2,2.4200,M,8.325,M,00,0004*6C
$GPHPD,1957,31160.400,238.60,-0.39,13.36,31.5890392,120.7799694,2.420,13633792.403,24927851.647,2.420,0.813,0.904,-0.599,0.560,0.979,0.599,0.000,19,19,4*4D
$GPGGA,083902.80,3135.3422737,N,12046.7980237,E,4,19,1.2,2.4188,M,8.325,M,00,0004*64
$GPHPD,1957,31160.600,238.45,-0.71,13.37,31.5890379,120.7799671,2.419,13633793.200,24927850.378,2.419,0.799,0.927,-0.575,0.560,0.979,0.599,0.000,19,19,4*49
$GPGGA,083903.00,3135.3422001,N,12046.7978755,E,4,19,1.2,2.4183,M,8.325,M,01,0004*63
$GPHPD,1957,31160.800,238.56,-0.60,13.37,31.5890367,120.7799646,2.418,13633793.948,24927849.019,2.418,0.796,0.891,-0.592,0.560,0.979,0.599,0.000,19,19,4*4F
$GPGGA,083903.20,3135.3421259,N,12046.7977309,E,4,19,1.2,2.4128,M,8.325,M,01,0004*6E
$GPHPD,1957,31161.000,238.53,-0.48,13.37,31.5890354,120.7799622,2.413,13633794.711,24927847.706,2.413,0.810,0.913,-0.590,0.560,0.979,0.599,0.000,19,19,4*41
$GPGGA,083903.40,3135.3420512,N,12046.7975856,E,4,19,1.2,2.4107,M,8.325,M,01,0004*6F
$GPHPD,1957,31161.200,238.46,-0.48,13.38,31.5890342,120.7799598,2.411,13633795.481,24927846.389,2.411,0.817,0.866,-0.599,0.560,0.979,0.599,0.000,19,19,4*49
$GPGGA,083903.60,3135.3419757,N,12046.7974418,E,4,19,1.2,2.4159,M,8.325,M,01,0004*68
$GPHPD,1957,31161.400,238.48,-0.66,13.37,31.5890329,120.7799574,2.416,13633796.264,24927845.094,2.416,0.803,0.897,-0.585,0.560,0.979,0.599,0.000,19,19,4*49
$GPGGA,083903.80,3135.3419004,N,12046.7972952,E,4,19,1.2,2.4155,M,8.325,M,00,0004*6F
$GPHPD,1957,31161.600,238.33,-0.77,13.36,31.5890317,120.7799549,2.416,13633797.040,24927843.764,2.416,0.795,0.907,-0.584,0.560,0.979,0.599,0.000,19,19,4*47
$GPGGA,083904.00,3135.3418262,N,12046.7971491,E,4,19,1.2,2.4113,M,8.325,M,01,0004*61
$GPHPD,1957,31161.800,238.63,-0.50,13.36,31.5890304,120.7799525,2.411,13633797.800,24927842.434,2.411,0.799,0.897,-0.596,0.560,0.979,0.599,0.000,19,19,4*4D
$GPGGA,083904.20,3135.3417510,N,12046.7970083,E,4,19,1.2,2.4123,M,8.325,M,01,0004*6B
$GPHPD,1957,31162.000,238.63,-0.27,13.36,31.5890292,120.7799501,2.412,13633798.586,24927841.173,2.412,0.813,0.893,-0.595,0.569,0.994,0.640,0.000,19,19,4*40
$GPGGA,083904.40,3135.3416749,N,12046.7968620,E,4,19,1.2,2.4083,M,8.325,M,01,0004*6F
$GPHPD,1957,31162.200,238.56,-0.36,13.38,31.5890279,120.7799477,2.408,13633799.373,24927839.852,2.408,0.795,0.901,-0.584,0.569,0.994,0.640,0.000,19,19,4*4C
$GPGGA,083904.60,3135.3416019,N,12046.7967167,E,4,19,1.2,2.4085,M,8.325,M,00,0004*63
$GPHPD,1957,31162.400,238.67,-0.22,13.39,31.5890267,120.7799453,2.409,13633800.118,24927838.524,2.409,0.804,0.895,-0.600,0.560,0.979,0.599,0.000,19,19,4*41
$GPGGA,083904.80,3135.3415261,N,12046.7965731,E,4,19,1.2,2.4060,M,8.325,M,00,0004*6F
$GPHPD,1957,31162.600,238.68,0.09,13.41,31.5890254,120.7799429,2.406,13633800.907,24927837.234,2.406,0.801,0.909,-0.581,0.560,0.979,0.599,0.000,19,19,4*6E
$GPGGA,083905.00,3135.3414520,N,12046.7964304,E,4,19,1.2,2.4104,M,8.325,M,01,0004*64
$GPHPD,1957,31162.800,238.32,-0.55,13.42,31.5890242,120.7799405,2.410,13633801.673,24927835.944,2.410,0.794,0.900,-0.585,0.560,0.979,0.599,0.000,19,19,4*4C
$GPGGA,083905.20,3135.3413755,N,12046.7962859,E,4,19,1.2,2.4111,M,8.325,M,01,0004*60
$GPHPD,1957,31163.000,238.44,-0.34,13.41,31.5890229,120.7799381,2.411,13633802.469,24927834.646,2.411,0.793,0.887,-0.579,0.560,0.979,0.599,0.000,19,19,4*4A
$GPGGA,083905.40,3135.3413042,N,12046.7961439,E,4,19,1.2,2.4105,M,8.325,M,01,0004*6B
$GPHPD,1957,31163.200,238.43,-0.45,13.43,31.5890217,120.7799357,2.411,13633803.197,24927833.349,2.411,0.789,0.902,-0.583,0.560,0.979,0.599,0.000,19,19,4*47
$GPGGA,083905.60,3135.3412287,N,12046.7960006,E,4,19,1.2,2.4044,M,8.325,M,01,0004*6E
$GPHPD,1957,31163.400,238.11,-0.70,13.45,31.5890205,120.7799333,2.404,13633803.982,24927832.060,2.404,0.784,0.886,-0.576,0.560,0.979,0.599,0.000,19,19,4*48
$GPGGA,083905.80,3135.3411531,N,12046.7958567,E,4,19,1.2,2.4064,M,8.325,M,00,0004*63
$GPHPD,1957,31163.600,238.18,-0.48,13.48,31.5890192,120.7799309,2.406,13633804.767,24927830.764,2.406,0.794,0.861,-0.591,0.560,0.979,0.599,0.000,19,19,4*43
$GPGGA,083906.00,3135.3410812,N,12046.7957187,E,4,19,1.2,2.4038,M,8.325,M,01,0004*68
$GPHPD,1957,31163.800,238.14,-0.61,13.52,31.5890180,120.7799286,2.404,13633805.511,24927829.518,2.404,0.779,0.914,-0.581,0.569,0.994,0.640,0.000,19,19,4*4B
$GPGGA,083906.20,3135.3410077,N,12046.7955771,E,4,19,1.2,2.3998,M,8.325,M,01,0004*68
$GPHPD,1957,31164.000,238.29,-0.37,13.54,31.5890168,120.7799263,2.400,13633806.271,24927828.238,2.400,0.775,0.861,-0.583,0.560,0.979,0.599,0.000,19,19,4*44
$GPGGA,083906.40,3135.3409332,N,12046.7954376,E,4,19,1.2,2.3940,M,8.325,M,01,0004*63
$GPHPD,1957,31164.200,238.16,-0.35,13.57,31.5890156,120.7799240,2.394,13633807.049,24927826.990,2.394,0.782,0.844,-0.591,0.560,0.979,0.599,0.000,19,19,4*44
$GPGGA,083906.60,3135.3408600,N,12046.7952969,E,4,19,1.2,2.3982,M,8.325,M,00,0004*69
$GPHPD,1957,31164.400,238.09,-0.49,13.58,31.5890143,120.7799216,2.398,13633807.806,24927825.719,2.398,0.779,0.865,-0.593,0.560,0.979,0.599,0.000,19,19,4*45
$GPGGA,083906.80,3135.3407858,N,12046.7951553,E,4,19,1.2,2.3997,M,8.325,M,00,0004*69
$GPHPD,1957,31164.600,238.09,-0.43,13.58,31.5890131,120.7799193,2.400,13633808.576,24927824.443,2.400,0.768,0.886,-0.573,0.560,0.979,0.599,0.000,19,19,4*4D
$GPGGA,083907.00,3135.3407156,N,12046.7950166,E,4,19,1.2,2.3958,M,8.325,M,01,0004*66
$GPHPD,1957,31164.800,238.31,0.10,13.60,31.5890119,120.7799169,2.396,13633809.294,24927823.179,2.396,0.767,0.880,-0.564,0.560,0.979,0.599,0.000,19,19,4*69
$GPGGA,083907.20,3135.3406407,N,12046.7948767,E,4,19,1.2,2.4008,M,8.325,M,01,0004*61
$GPHPD,1957,31165.000,238.10,0.06,13.64,31.5890107,120.7799146,2.401,13633810.077,24927821.927,2.401,0.773,0.869,-0.567,0.560,0.979,0.599,0.000,19,19,4*65
$GPGGA,083907.40,3135.3405676,N,12046.7947382,E,4,19,1.2,2.4075,M,8.325,M,01,0004*6A
$GPHPD,1957,31165.200,238.06,-0.06,13.66,31.5890095,120.7799123,2.408,13633810.838,24927820.682,2.408,0.765,0.870,-0.576,0.560,0.979,0.599,0.000,19,19,4*4B
$GPGGA,083907.60,3135.3404938,N,12046.7945962,E,4,19,1.2,2.4119,M,8.325,M,01,0004*61
$GPHPD,1957,31165.400,237.96,0.00,13.67,31.5890082,120.7799099,2.412,13633811.601,24927819.399,2.412,0.751,0.874,-0.568,0.560,0.979,0.598,0.000,19,19,4*6A
$GPGGA,083907.80,3135.3404222,N,12046.7944605,E,4,19,1.2,2.4019,M,8.325,M,00,0004*60
$GPHPD,1957,31165.600,238.06,-0.34,13.70,31.5890070,120.7799077,2.402,13633812.346,24927818.179,2.402,0.761,0.886,-0.565,0.569,0.994,0.640,0.000,19,19,4*48
$GPGGA,083908.00,3135.3403481,N,12046.7943217,E,4,19,1.2,2.4023,M,8.325,M,01,0004*67
$GPHPD,1957,31165.800,238.01,0.18,13.73,31.5890058,120.7799054,2.402,13633813.119,24927816.937,2.402,0.755,0.867,-0.566,0.569,0.994,0.640,0.000,19,19,4*64
$GPGGA,083908.20,3135.3402758,N,12046.7941836,E,4,19,1.2,2.4020,M,8.325,M,01,0004*6B
$GPHPD,1957,31166.000,237.88,-0.33,13.74,31.5890046,120.7799031,2.402,13633813.869,24927815.692,2.402,0.769,0.860,-0.581,0.560,0.978,0.598,0.000,19,19,4*4F
$GPGGA,083908.40,3135.3401986,N,12046.7940408,E,4,19,1.2,2.4051,M,8.325,M,01,0004*65
$GPHPD,1957,31166.200,237.95,-0.05,13.74,31.5890033,120.7799007,2.405,13633814.679,24927814.419,2.405,0.754,0.874,-0.575,0.560,0.978,0.598,0.000,19,19,4*4B
$GPGGA,083908.60,3135.3401251,N,12046.7939033,E,4,19,1.2,2.4034,M,8.325,M,00,0004*66
$GPHPD,1957,31166.400,238.07,-0.09,13.77,31.5890021,120.7798984,2.403,13633815.447,24927813.188,2.403,0.766,0.891,-0.589,0.560,0.978,0.598,0.000,19,19,4*4B
$GPGGA,083908.80,3135.3400502,N,12046.7937623,E,4,19,1.2,2.4026,M,8.325,M,00,0004*62
$GPHPD,1957,31166.600,237.86,-0.13,13.79,31.5890008,120.7798960,2.403,13633816.228,24927811.924,2.403,0.753,0.902,-0.586,0.560,0.978,0.598,0.000,19,19,4*49
$GPGGA,083909.00,3135.3399741,N,12046.7936209,E,4,19,1.2,2.4040,M,8.325,M,01,0004*65
$GPHPD,1957,31166.800,237.88,-0.13,13.80,31.5889996,120.7798937,2.404,13633817.025,24927810.661,2.404,0.760,0.909,-0.586,0.560,0.978,0.598,0.000,19,19,4*41
$GPGGA,083909.20,3135.3398996,N,12046.7934787,E,4,19,1.2,2.4106,M,8.325,M,01,0004*60
$GPHPD,1957,31167.000,237.83,-0.24,13.77,31.5889983,120.7798913,2.411,13633817.798,24927809.380,2.411,0.766,0.897,-0.592,0.569,0.994,0.640,0.000,19,19,4*46
$GPGGA,083909.40,3135.3398262,N,12046.7933399,E,4,19,1.2,2.4078,M,8.324,M,01,0004*63
$GPHPD,1957,31167.200,237.92,-0.26,13.73,31.5889971,120.7798890,2.408,13633818.562,24927808.133,2.408,0.772,0.905,-0.583,0.560,0.978,0.598,0.000,19,19,4*44
$GPGGA,083909.60,3135.3397506,N,12046.7931972,E,4,19,1.2,2.4118,M,8.324,M,01,0004*61
$GPHPD,1957,31167.400,237.79,-0.22,13.70,31.5889958,120.7798866,2.412,13633819.349,24927806.852,2.412,0.772,0.881,-0.585,0.560,0.978,0.598,0.000,19,19,4*47
$GPGGA,083909.80,3135.3396739,N,12046.7930547,E,4,19,1.2,2.4129,M,8.324,M,00,0004*68
$GPHPD,1957,31167.600,237.58,-0.31,13.68,31.5889946,120.7798842,2.413,13633820.152,24927805.580,2.413,0.784,0.884,-0.589,0.569,0.994,0.640,0.000,19,19,4*4A
$GPGGA,083910.00,3135.3396011,N,12046.7929158,E,4,19,1.2,2.4074,M,8.324,M,01,0004*6F
$GPHPD,1957,31167.800,237.73,-0.14,13.67,31.5889934,120.7798819,2.407,13633820.908,24927804.328,2.407,0.780,0.891,-0.597,0.569,0.994,0.640,0.000,19,19,4*43
$GPGGA,083910.20,3135.3395234,N,12046.7927715,E,4,19,1.2,2.4084,M,8.324,M,01,0004*65
$GPHPD,1957,31168.000,237.93,0.21,13.67,31.5889921,120.7798795,2.408,13633821.722,24927803.040,2.408,0.776,0.869,-0.595,0.569,0.994,0.640,0.000,19,19,4*6F
$GPGGA,083910.40,3135.3394485,N,12046.7926291,E,4,19,1.2,2.4096,M,8.324,M,01,0004*65
$GPHPD,1957,31168.200,237.70,0.05,13.67,31.5889908,120.7798772,2.410,13633822.500,24927801.759,2.410,0.775,0.919,-0.601,0.560,0.978,0.598,0.000,19,19,4*6E
$GPGGA,083910.60,3135.3393713,N,12046.7924852,E,4,19,1.2,2.4124,M,8.324,M,00,0004*62
$GPHPD,1957,31168.400,237.71,-0.29,13.64,31.5889895,120.7798748,2.412,13633823.307,24927800.472,2.412,0.781,0.920,-0.593,0.560,0.978,0.598,0.000,19,19,4*47
$GPGGA,083910.80,3135.3392945,N,12046.7923398,E,4,19,1.2,2.4105,M,8.324,M,00,0004*69
$GPHPD,1957,31168.600,237.71,-0.02,13.61,31.5889882,120.7798723,2.411,13633824.106,24927799.166,2.411,0.787,0.920,-0.588,0.560,0.978,0.598,0.000,19,19,4*45
$GPGGA,083911.00,3135.3392164,N,12046.7921953,E,4,19,1.2,2.4175,M,8.324,M,01,0004*62
$GPHPD,1957,31168.800,237.87,-0.03,13.62,31.5889869,120.7798699,2.418,13633824.926,24927797.877,2.418,0.797,0.904,-0.605,0.560,0.978,0.598,0.000,19,19,4*49
$GPGGA,083911.20,3135.3391403,N,12046.7920542,E,4,19,1.2,2.4143,M,8.324,M,01,0004*6F
$GPHPD,1957,31169.000,237.77,0.29,13.65,31.5889857,120.7798676,2.414,13633825.723,24927796.619,2.414,0.765,0.935,-0.593,0.560,0.978,0.598,0.000,19,19,4*6F
$GPGGA,083911.40,3135.3390597,N,12046.7919102,E,4,19,1.2,2.4126,M,8.324,M,01,0004*6D
$GPHPD,1957,31169.200,237.68,0.05,13.65,31.5889843,120.7798652,2.413,13633826.579,24927795.351,2.413,0.754,0.922,-0.587,0.569,0.994,0.640,0.000,19,19,4*66
$GPGGA,083911.60,3135.3389857,N,12046.7917690,E,4,19,1.2,2.4100,M,8.324,M,01,0004*60
$GPHPD,1957,31169.400,237.81,0.33,13.68,31.5889831,120.7798628,2.410,13633827.347,24927794.079,2.410,0.778,0.904,-0.617,0.569,0.994,0.640,0.000,19,19,4*65
$GPGGA,083911.80,3135.3389085,N,12046.7916280,E,4,19,1.2,2.4148,M,8.324,M,00,0004*60
$GPHPD,1957,31169.600,237.68,0.36,13.71,31.5889818,120.7798605,2.415,13633828.160,24927792.828,2.415,0.779,0.884,-0.612,0.569,0.994,0.640,0.000,19,19,4*66
$GPGGA,083912.00,3135.3388355,N,12046.7914845,E,4,19,1.2,2.4144,M,8.324,M,01,0004*68
$GPHPD,1957,31169.800,237.36,-0.33,13.72,31.5889806,120.7798581,2.414,13633828.909,24927791.522,2.414,0.766,0.911,-0.599,0.560,0.978,0.598,0.000,19,19,4*45
$GPGGA,083912.20,3135.3387586,N,12046.7913445,E,4,19,1.2,2.4193,M,8.324,M,01,0004*6C
$GPHPD,1957,31170.000,237.20,-0.18,13.74,31.5889793,120.7798557,2.419,13633829.720,24927790.281,2.419,0.783,0.883,-0.596,0.560,0.978,0.598,0.000,19,19,4*40
$GPGGA,083912.40,3135.3386785,N,12046.7912046,E,4,19,1.2,2.4229,M,8.324,M,01,0004*6E
$GPHPD,1957,31170.200,237.09,-0.71,13.75,31.5889780,120.7798534,2.423,13633830.577,24927789.060,2.423,0.757,0.905,-0.592,0.560,0.978,0.598,0.000,19,19,4*4F
$GPGGA,083912.60,3135.3386048,N,12046.7910630,E,4,19,1.2,2.4206,M,8.324,M,00,0004*63
$GPHPD,1957,31170.400,237.20,-0.29,13.80,31.5889767,120.7798511,2.421,13633831.340,24927787.781,2.421,0.762,0.899,-0.602,0.560,0.978,0.598,0.000,19,19,4*46
$GPGGA,083912.80,3135.3385283,N,12046.7909212,E,4,19,1.2,2.4161,M,8.324,M,00,0004*65
$GPHPD,1957,31170.600,237.05,-0.20,13.86,31.5889755,120.7798487,2.416,13633832.142,24927786.516,2.416,0.774,0.863,-0.609,0.560,0.978,0.598,0.000,19,19,4*44
$GPGGA,083913.00,3135.3384490,N,12046.7907785,E,4,19,1.2,2.4233,M,8.324,M,01,0004*69
$GPHPD,1957,31170.800,237.18,-0.32,13.86,31.5889742,120.7798463,2.423,13633832.982,24927785.256,2.423,0.779,0.887,-0.609,0.560,0.978,0.598,0.000,19,19,4*4A
$GPGGA,083913.20,3135.3383698,N,12046.7906401,E,4,19,1.2,2.4243,M,8.324,M,01,0004*6F
$GPHPD,1957,31171.000,237.26,0.03,13.84,31.5889728,120.7798440,2.424,13633833.829,24927784.048,2.424,0.771,0.912,-0.605,0.569,0.994,0.640,0.000,19,19,4*67
$GPGGA,083913.40,3135.3382926,N,12046.7904965,E,4,19,1.2,2.4290,M,8.324,M,01,0004*61
$GPHPD,1957,31171.200,237.38,0.20,13.82,31.5889715,120.7798416,2.429,13633834.637,24927782.766,2.429,0.755,0.894,-0.612,0.560,0.978,0.598,0.000,19,19,4*69
$GPGGA,083913.60,3135.3382163,N,12046.7903531,E,4,19,1.2,2.4298,M,8.324,M,01,0004*68
$GPHPD,1957,31171.400,237.14,-0.21,13.82,31.5889703,120.7798392,2.430,13633835.433,24927781.480,2.430,0.763,0.921,-0.605,0.560,0.978,0.598,0.000,19,19,4*42
$GPGGA,083913.80,3135.3381393,N,12046.7902092,E,4,19,1.2,2.4309,M,8.324,M,00,0004*6D
$GPHPD,1957,31171.600,237.09,-0.15,13.81,31.5889690,120.7798368,2.431,13633836.238,24927780.193,2.431,0.758,0.932,-0.584,0.560,0.978,0.598,0.000,19,19,4*4E
$GPGGA,083914.00,3135.3380624,N,12046.7900696,E,4,19,1.2,2.4258,M,8.324,M,01,0004*6E
$GPHPD,1957,31171.800,237.01,-0.26,13.79,31.5889677,120.7798345,2.426,13633837.050,24927778.957,2.426,0.780,0.911,-0.603,0.569,0.994,0.640,0.000,19,19,4*46
$GPGGA,083914.20,3135.3379861,N,12046.7899293,E,4,19,1.2,2.4234,M,8.324,M,01,0004*6F
$GPHPD,1957,31172.000,237.07,-0.13,13.78,31.5889664,120.7798322,2.423,13633837.852,24927777.709,2.423,0.758,0.906,-0.599,0.560,0.978,0.598,0.000,19,19,4*41
$GPGGA,083914.40,3135.3379069,N,12046.7897860,E,4,19,1.2,2.4290,M,8.324,M,01,0004*6F
$GPHPD,1957,31172.200,236.99,-0.15,13.76,31.5889651,120.7798298,2.429,13633838.690,24927776.441,2.429,0.772,0.894,-0.591,0.560,0.978,0.598,0.000,19,19,4*40
$GPGGA,083914.60,3135.3378314,N,12046.7896443,E,4,19,1.2,2.4245,M,8.324,M,00,0004*60
$GPHPD,1957,31172.400,237.35,0.24,13.73,31.5889639,120.7798274,2.425,13633839.478,24927775.172,2.425,0.768,0.914,-0.602,0.560,0.978,0.598,0.000,19,19,4*6F
$GPGGA,083914.80,3135.3377560,N,12046.7895027,E,4,19,1.2,2.4254,M,8.324,M,00,0004*61
$GPHPD,1957,31172.600,237.47,0.69,13.72,31.5889626,120.7798250,2.425,13633840.264,24927773.903,2.425,0.789,0.877,-0.615,0.560,0.978,0.598,0.000,19,19,4*68
$GPGGA,083915.00,3135.3376799,N,12046.7893629,E,4,19,1.2,2.4272,M,8.324,M,01,0004*66
$GPHPD,1957,31172.800,237.38,0.13,13.70,31.5889613,120.7798227,2.427,13633841.065,24927772.660,2.427,0.792,0.874,-0.614,0.560,0.978,0.598,0.000,19,19,4*66
$GPGGA,083915.20,3135.3376082,N,12046.7892253,E,4,19,1.2,2.4266,M,8.324,M,01,0004*64
$GPHPD,1957,31173.000,237.45,0.24,13.67,31.5889601,120.7798204,2.427,13633841.807,24927771.417,2.427,0.752,0.882,-0.594,0.560,0.978,0.598,0.000,19,19,4*66
$GPGGA,083915.40,3135.3375347,N,12046.7890903,E,4,19,1.2,2.4253,M,8.324,M,01,0004*61
$GPHPD,1957,31173.200,237.51,0.12,13.63,31.5889589,120.7798182,2.425,13633842.580,24927770.217,2.425,0.750,0.870,-0.569,0.560,0.978,0.598,0.000,19,19,4*65
$GPGGA,083915.60,3135.3374644,N,12046.7889600,E,4,19,1.2,2.4325,M,8.324,M,01,0004*60
$GPHPD,1957,31173.400,237.46,0.16,13.57,31.5889577,120.7798160,2.433,13633843.317,24927769.055,2.433,0.751,0.826,-0.578,0.560,0.978,0.598,0.000,19,19,4*6C
$GPGGA,083915.80,3135.3373910,N,12046.7888312,E,4,19,1.2,2.4339,M,8.324,M,00,0004*6C
$GPHPD,1957,31173.600,237.18,-0.43,13.51,31.5889565,120.7798139,2.434,13633844.101,24927767.928,2.434,0.703,0.845,-0.550,0.560,0.978,0.598,0.000,19,19,4*46
$GPGGA,083916.00,3135.3373232,N,12046.7887022,E,4,19,1.2,2.4317,M,8.324,M,01,0004*6E
$GPHPD,1957,31173.800,237.18,-0.50,13.45,31.5889554,120.7798117,2.432,13633844.805,24927766.767,2.432,0.696,0.830,-0.560,0.560,0.978,0.598,0.000,19,19,4*44
$GPGGA,083916.20,3135.3372596,N,12046.7885839,E,4,19,1.2,2.4295,M,8.324,M,01,0004*6F
$GPHPD,1957,31174.000,237.25,-0.29,13.39,31.5889543,120.7798097,2.430,13633845.471,24927765.711,2.430,0.691,0.781,-0.551,0.568,0.994,0.640,0.000,19,19,4*4F
$GPGGA,083916.40,3135.3371969,N,12046.7884688,E,4,19,1.2,2.4297,M,8.324,M,01,0004*61
$GPHPD,1957,31174.200,237.05,-0.87,13.34,31.5889533,120.7798078,2.430,13633846.131,24927764.687,2.430,0.662,0.716,-0.532,0.568,0.994,0.640,0.000,19,19,4*4A
$GPGGA,083916.60,3135.3371377,N,12046.7883583,E,4,19,1.2,2.4316,M,8.324,M,00,0004*60
$GPHPD,1957,31174.400,237.37,-0.45,13.29,31.5889523,120.7798060,2.432,13633846.750,24927763.699,2.432,0.630,0.718,-0.499,0.560,0.978,0.598,0.000,19,19,4*4B
$GPGGA,083916.80,3135.3370798,N,12046.7882555,E,4,19,1.2,2.4354,M,8.324,M,00,0004*66
$GPHPD,1957,31174.600,237.22,-0.31,13.23,31.5889513,120.7798043,2.435,13633847.366,24927762.796,2.435,0.630,0.658,-0.480,0.560,0.978,0.598,0.000,19,19,4*44
$GPGGA,083917.00,3135.3370292,N,12046.7881611,E,4,19,1.2,2.4382,M,8.324,M,01,0004*6A
$GPHPD,1957,31174.800,237.38,-0.47,13.15,31.5889505,120.7798027,2.438,13633847.895,24927761.952,2.438,0.555,0.668,-0.445,0.560,0.978,0.598,0.000,19,19,4*48
$GPGGA,083917.20,3135.3369825,N,12046.7880729,E,4,19,1.2,2.4353,M,8.324,M,01,0004*61
$GPHPD,1957,31175.000,237.28,-0.69,13.03,31.5889497,120.7798012,2.435,13633848.381,24927761.160,2.435,0.521,0.619,-0.407,0.560,0.978,0.598,0.000,19,19,4*4C
$GPGGA,083917.40,3135.3369428,N,12046.7879984,E,4,19,1.2,2.4359,M,8.324,M,01,0004*63
$GPHPD,1957,31175.200,237.44,-0.60,12.88,31.5889490,120.7798000,2.436,13633848.796,24927760.493,2.436,0.477,0.553,-0.367,0.560,0.978,0.598,0.000,19,19,4*4F
$GPGGA,083917.60,3135.3369118,N,12046.7879426,E,4,19,1.2,2.4398,M,8.324,M,01,0004*6F
$GPHPD,1957,31175.400,237.46,-0.68,12.72,31.5889485,120.7797990,2.440,13633849.124,24927760.000,2.440,0.404,0.455,-0.311,0.560,0.978,0.598,0.000,19,19,4*4F
$GPGGA,083932.40,3135.3297851,N,12046.7744972,E,4,19,1.2,2.4399,M,8.323,M,01,0004*65
$GPHPD,1957,31190.200,238.03,-0.88,12.11,31.5888298,120.7795750,2.440,13633923.360,24927639.318,2.440,0.768,0.878,-0.574,0.559,0.978,0.598,0.000,19,19,4*41
$GPGGA,083932.60,3135.3297355,N,12046.7744032,E,4,19,1.2,2.4401,M,8.323,M,00,0004*62
$GPHPD,1957,31190.400,238.30,-0.81,11.93,31.5888289,120.7795734,2.440,13633923.876,24927638.473,2.440,0.642,0.748,-0.469,0.559,0.978,0.598,0.000,19,19,4*4A
$GPGGA,083932.80,3135.3296949,N,12046.7743230,E,4,19,1.2,2.4382,M,8.323,M,00,0004*61
$GPHPD,1957,31190.600,238.18,-1.00,11.84,31.5888282,120.7795721,2.438,13633924.292,24927637.742,2.438,0.524,0.605,-0.393,0.559,0.978,0.598,0.000,19,19,4*43
$GPGGA,083933.00,3135.3296594,N,12046.7742539,E,4,19,1.2,2.4332,M,8.323,M,01,0004*61
$GPHPD,1957,31190.800,238.24,-0.83,11.80,31.5888277,120.7795709,2.433,13633924.657,24927637.116,2.433,0.440,0.502,-0.320,0.568,0.994,0.640,0.000,19,19,4*4F
$GPGGA,083933.20,3135.3296275,N,12046.7741946,E,4,19,1.2,2.4340,M,8.323,M,01,0004*69
$GPHPD,1957,31191.000,238.32,-0.54,11.75,31.5888271,120.7795699,2.434,13633924.992,24927636.586,2.434,0.394,0.427,-0.282,0.559,0.978,0.598,0.000,19,19,4*42
$GPGGA,083933.40,3135.3296023,N,12046.7741441,E,4,19,1.2,2.4320,M,8.323,M,01,0004*62
$GPHPD,1957,31191.200,238.61,-0.06,11.74,31.5888267,120.7795691,2.432,13633925.248,24927636.124,2.432,0.315,0.395,-0.241,0.559,0.978,0.598,0.000,19,19,4*46
$GPGGA,083933.60,3135.3295804,N,12046.7740984,E,4,19,1.2,2.4331,M,8.323,M,01,0004*6B
$GPHPD,1957,31191.400,238.60,-0.35,11.78,31.5888263,120.7795683,2.433,13633925.467,24927635.700,2.433,0.280,0.315,-0.210,0.568,0.994,0.640,0.000,19,19,4*45
$GPGGA,083933.80,3135.3295548,N,12046.7740546,E,4,19,1.2,2.4321,M,8.323,M,00,0004*62
$GPHPD,1957,31191.600,238.52,-0.36,11.83,31.5888259,120.7795676,2.432,13633925.743,24927635.321,2.432,0.259,0.301,-0.179,0.559,0.978,0.598,0.000,19,19,4*4B
$GPGGA,083934.00,3135.3295337,N,12046.7740102,E,4,19,1.2,2.4304,M,8.323,M,01,0004*61
$GPHPD,1957,31191.800,238.63,-0.62,11.91,31.5888256,120.7795668,2.430,13633925.954,24927634.908,2.430,0.244,0.251,-0.197,0.568,0.994,0.640,0.000,19,19,4*43
$GPGGA,083934.20,3135.3295080,N,12046.7739629,E,4,19,1.2,2.4353,M,8.323,M,01,0004*6E
$GPHPD,1957,31192.000,238.34,-0.30,12.04,31.5888251,120.7795660,2.435,13633926.224,24927634.487,2.435,0.258,0.247,-0.178,0.568,0.994,0.640,0.000,19,19,4*43
$GPGGA,083934.40,3135.3294824,N,12046.7739118,E,4,19,1.2,2.4283,M,8.323,M,01,0004*66
$GPHPD,1957,31192.200,238.72,-0.44,12.16,31.5888247,120.7795652,2.428,13633926.485,24927634.020,2.428,0.249,0.313,-0.190,0.568,0.994,0.640,0.000,19,19,4*47
$GPGGA,083934.60,3135.3294536,N,12046.7738581,E,4,19,1.2,2.4323,M,8.323,M,00,0004*65
$GPHPD,1957,31192.400,238.49,-0.21,12.27,31.5888242,120.7795643,2.432,13633926.786,24927633.540,2.432,0.294,0.285,-0.211,0.568,0.994,0.640,0.000,19,19,4*4D
$GPGGA,083934.80,3135.3294216,N,12046.7737962,E,4,19,1.2,2.4281,M,8.323,M,00,0004*69
$GPHPD,1957,31192.600,238.54,-0.15,12.41,31.5888237,120.7795633,2.428,13633927.116,24927632.979,2.428,0.296,0.344,-0.219,0.568,0.994,0.640,0.000,19,19,4*4E
$GPGGA,083935.00,3135.3293879,N,12046.7737294,E,4,19,1.2,2.4325,M,8.323,M,01,0004*68
$GPHPD,1957,31192.800,238.74,-0.01,12.54,31.5888231,120.7795622,2.433,13633927.461,24927632.370,2.433,0.349,0.370,-0.266,0.568,0.994,0.640,0.000,19,19,4*4F
$GPGGA,083935.20,3135.3293494,N,12046.7736545,E,4,19,1.2,2.4275,M,8.323,M,01,0004*6B
$GPHPD,1957,31193.000,238.54,-0.41,12.69,31.5888225,120.7795609,2.428,13633927.857,24927631.691,2.428,0.371,0.434,-0.264,0.568,0.994,0.640,0.000,19,19,4*4C
$GPGGA,083935.40,3135.3293062,N,12046.7735755,E,4,19,1.2,2.4289,M,8.323,M,01,0004*63
$GPHPD,1957,31193.200,238.44,-0.06,12.84,31.5888218,120.7795596,2.429,13633928.312,24927630.989,2.429,0.428,0.439,-0.311,0.568,0.994,0.640,0.000,19,19,4*43
$GPGGA,083935.60,3135.3292619,N,12046.7734897,E,4,19,1.2,2.4310,M,8.323,M,01,0004*6B
$GPHPD,1957,31193.400,238.64,-0.07,12.95,31.5888210,120.7795582,2.431,13633928.769,24927630.212,2.431,0.424,0.524,-0.329,0.568,0.994,0.640,0.000,19,19,4*40
$GPGGA,083935.80,3135.3292147,N,12046.7733953,E,4,19,1.2,2.4305,M,8.323,M,00,0004*62
$GPHPD,1957,31193.600,238.63,-0.18,13.06,31.5888202,120.7795566,2.431,13633929.250,24927629.349,2.431,0.481,0.540,-0.352,0.568,0.994,0.640,0.000,19,19,4*41
$GPGGA,083936.00,3135.3291644,N,12046.7732965,E,4,19,1.2,2.4307,M,8.323,M,01,0004*69
$GPHPD,1957,31193.800,238.54,-0.07,13.14,31.5888194,120.7795549,2.431,13633929.766,24927628.450,2.431,0.516,0.583,-0.375,0.568,0.994,0.640,0.000,19,19,4*4C
$GPGGA,083936.20,3135.3291102,N,12046.7731934,E,4,19,1.2,2.4287,M,8.323,M,01,0004*60
$GPHPD,1957,31194.000,238.47,-0.22,13.21,31.5888185,120.7795532,2.429,13633930.329,24927627.522,2.429,0.534,0.634,-0.386,0.576,1.010,0.691,0.000,19,19,4*44
$GPGGA,083936.40,3135.3290558,N,12046.7730857,E,4,19,1.2,2.4292,M,8.323,M,01,0004*6D
$GPHPD,1957,31194.200,238.66,0.05,13.25,31.5888176,120.7795514,2.429,13633930.886,24927626.539,2.429,0.583,0.601,-0.448,0.576,1.010,0.691,0.000,19,19,4*6B
$GPGGA,083936.60,3135.3289983,N,12046.7729739,E,4,19,1.2,2.4304,M,8.323,M,00,0004*6D
$GPHPD,1957,31194.400,238.58,-0.17,13.33,31.5888166,120.7795496,2.430,13633931.478,24927625.526,2.430,0.599,0.673,-0.422,0.576,1.010,0.691,0.000,19,19,4*40
$GPGGA,083936.80,3135.3289380,N,12046.7728602,E,4,19,1.2,2.4316,M,8.323,M,00,0004*61
$GPHPD,1957,31194.600,238.58,-0.02,13.38,31.5888156,120.7795477,2.432,13633932.106,24927624.505,2.432,0.628,0.693,-0.449,0.576,1.010,0.691,0.000,19,19,4*44
$GPGGA,083937.00,3135.3288774,N,12046.7727432,E,4,19,1.2,2.4316,M,8.323,M,01,0004*69
$GPHPD,1957,31194.800,238.69,-0.17,13.44,31.5888146,120.7795457,2.432,13633932.732,24927623.447,2.432,0.633,0.704,-0.478,0.576,1.010,0.691,0.000,19,19,4*42
$GPGGA,083937.20,3135.3288145,N,12046.7726204,E,4,19,1.2,2.4284,M,8.323,M,01,0004*67
$GPHPD,1957,31195.000,238.63,0.10,13.49,31.5888136,120.7795437,2.428,13633933.379,24927622.332,2.428,0.663,0.701,-0.481,0.568,0.993,0.640,0.000,19,19,4*6F
$GPGGA,083937.40,3135.3287510,N,12046.7724977,E,4,19,1.2,2.4369,M,8.323,M,01,0004*65
$GPHPD,1957,31195.200,238.58,0.22,13.54,31.5888125,120.7795416,2.437,13633934.035,24927621.222,2.437,0.668,0.758,-0.497,0.576,1.010,0.691,0.000,19,19,4*66
$GPGGA,083937.60,3135.3286826,N,12046.7723697,E,4,19,1.3,2.4356,M,8.323,M,01,0004*65
$GPHPD,1957,31195.400,238.75,0.55,13.55,31.5888114,120.7795395,2.436,13633934.749,24927620.076,2.436,0.673,0.773,-0.489,0.576,1.010,0.691,0.000,19,19,4*62
$GPGGA,083937.80,3135.3286162,N,12046.7722394,E,4,19,1.2,2.4404,M,8.323,M,00,0004*65
$GPHPD,1957,31195.600,238.73,0.33,13.54,31.5888103,120.7795373,2.440,13633935.431,24927618.891,2.440,0.700,0.816,-0.535,0.576,1.010,0.691,0.000,19,19,4*61
$GPGGA,083938.00,3135.3285495,N,12046.7721093,E,4,19,1.2,2.4370,M,8.323,M,01,0004*6E
$GPHPD,1957,31195.800,238.66,0.33,13.53,31.5888092,120.7795352,2.437,13633936.117,24927617.710,2.437,0.718,0.801,-0.511,0.576,1.010,0.691,0.000,19,19,4*64
$GPGGA,083938.20,3135.3284784,N,12046.7719749,E,4,19,1.2,2.4354,M,8.323,M,01,0004*63
$GPHPD,1957,31196.000,238.79,0.84,13.50,31.5888080,120.7795329,2.435,13633936.857,24927616.503,2.435,0.719,0.815,-0.525,0.568,0.993,0.640,0.000,19,19,4*6E
$GPGGA,083938.40,3135.3284117,N,12046.7718457,E,4,19,1.2,2.4392,M,8.323,M,01,0004*6E
$GPHPD,1957,31196.200,238.92,1.02,13.49,31.5888069,120.7795308,2.439,13633937.545,24927615.333,2.439,0.726,0.820,-0.547,0.568,0.993,0.640,0.000,19,19,4*6D
$GPGGA,083938.60,3135.3283420,N,12046.7717114,E,4,19,1.2,2.4387,M,8.323,M,00,0004*62
$GPHPD,1957,31196.400,238.65,0.55,13.46,31.5888057,120.7795285,2.439,13633938.265,24927614.119,2.439,0.716,0.827,-0.525,0.568,0.993,0.640,0.000,19,19,4*67
$GPGGA,083938.80,3135.3282748,N,12046.7715801,E,4,19,1.2,2.4433,M,8.323,M,00,0004*67
$GPHPD,1957,31196.600,238.64,0.57,13.44,31.5888046,120.7795263,2.443,13633938.956,24927612.926,2.443,0.732,0.805,-0.534,0.568,0.993,0.640,0.000,19,19,4*63
$GPGGA,083939.00,3135.3282061,N,12046.7714490,E,4,19,1.2,2.4320,M,8.323,M,01,0004*63
$GPHPD,1957,31196.800,238.75,0.59,13.43,31.5888034,120.7795242,2.432,13633939.669,24927611.745,2.432,0.722,0.818,-0.531,0.568,0.993,0.640,0.000,19,19,4*60
$GPGGA,083939.20,3135.3281374,N,12046.7713185,E,4,19,1.2,2.4397,M,8.323,M,01,0004*6F
$GPHPD,1957,31197.000,238.60,0.70,13.41,31.5888023,120.7795220,2.440,13633940.383,24927610.571,2.440,0.726,0.799,-0.553,0.568,0.993,0.640,0.000,19,19,4*6B
$GPGGA,083939.40,3135.3280697,N,12046.7711875,E,4,19,1.2,2.4490,M,8.323,M,01,0004*64
$GPHPD,1957,31197.200,238.58,0.57,13.40,31.5888012,120.7795198,2.449,13633941.081,24927609.385,2.449,0.729,0.809,-0.548,0.568,0.993,0.640,0.000,19,19,4*62
$GPGGA,083939.60,3135.3280010,N,12046.7710554,E,4,19,1.2,2.4447,M,8.323,M,01,0004*6A
$GPHPD,1957,31197.400,238.17,-0.40,13.40,31.5888000,120.7795176,2.445,13633941.792,24927608.192,2.445,0.699,0.856,-0.518,0.568,0.993,0.640,0.000,19,19,4*42
$GPGGA,083939.80,3135.3279314,N,12046.7709219,E,4,19,1.2,2.4476,M,8.323,M,00,0004*60
$GPHPD,1957,31197.600,237.91,-0.75,13.40,31.5887989,120.7795154,2.448,13633942.512,24927606.987,2.448,0.729,0.820,-0.540,0.568,0.993,0.640,0.000,19,19,4*4D
$GPGGA,083940.00,3135.3278602,N,12046.7707857,E,4,19,1.2,2.4481,M,8.323,M,01,0004*62
$GPHPD,1957,31197.800,237.91,-0.91,13.43,31.5887977,120.7795131,2.448,13633943.250,24927605.758,2.448,0.728,0.831,-0.546,0.568,0.993,0.640,0.000,19,19,4*40
$GPGGA,083940.20,3135.3277921,N,12046.7706509,E,4,19,1.2,2.4522,M,8.323,M,01,0004*6E
$GPHPD,1957,31198.000,237.97,-0.86,13.44,31.5887965,120.7795108,2.452,13633943.947,24927604.529,2.452,0.735,0.866,-0.554,0.570,1.008,0.737,0.000,19,19,4*4E
$GPGGA,083940.40,3135.3277178,N,12046.7705126,E,4,19,1.2,2.4465,M,8.323,M,01,0004*64
$GPHPD,1957,31198.200,237.47,-1.54,13.44,31.5887953,120.7795085,2.447,13633944.725,24927603.293,2.447,0.728,0.876,-0.509,0.570,1.008,0.737,0.000,19,19,4*47
$GPGGA,083940.60,3135.3276477,N,12046.7703765,E,4,19,1.2,2.4499,M,8.323,M,00,0004*68
$GPHPD,1957,31198.400,237.39,-1.58,13.45,31.5887941,120.7795063,2.450,13633945.447,24927602.060,2.450,0.758,0.857,-0.573,0.568,0.993,0.640,0.000,19,19,4*4C
$GPGGA,083940.80,3135.3275672,N,12046.7702352,E,4,18,1.3,2.4325,M,8.323,M,00,0004*63
$GPHPD,1957,31198.600,237.19,-1.90,13.45,31.5887928,120.7795039,2.433,13633946.307,24927600.824,2.433,0.747,0.851,-0.573,0.568,0.993,0.640,0.000,18,19,4*4B
$GPGGA,083941.00,3135.3274931,N,12046.7700940,E,4,19,1.3,2.4384,M,8.323,M,01,0004*63
$GPHPD,1957,31198.800,237.95,-0.28,13.45,31.5887916,120.7795016,2.438,13633947.076,24927599.552,2.438,0.781,0.845,-0.605,0.570,1.008,0.737,0.000,19,18,4*47
$GPGGA,083941.20,3135.3274175,N,12046.7699548,E,4,19,1.3,2.4379,M,8.323,M,01,0004*6E
$GPHPD,1957,31199.000,237.93,-0.40,13.44,31.5887903,120.7794992,2.438,13633947.870,24927598.314,2.438,0.771,0.865,-0.584,0.568,0.993,0.640,0.000,19,19,4*48
$GPGGA,083941.40,3135.3273433,N,12046.7698141,E,4,19,1.3,2.4353,M,8.323,M,01,0004*6C
$GPHPD,1957,31199.200,238.01,-0.49,13.43,31.5887891,120.7794969,2.435,13633948.642,24927597.049,2.435,0.754,0.899,-0.582,0.568,0.993,0.640,0.000,19,19,4*48
$GPGGA,083941.60,3135.3272695,N,12046.7696719,E,4,19,1.3,2.4291,M,8.323,M,01,0004*6B
$GPHPD,1957,31199.400,237.88,-0.28,13.45,31.5887878,120.7794945,2.429,13633949.405,24927595.763,2.429,0.763,0.882,-0.583,0.568,0.993,0.640,0.000,19,19,4*4A
$GPGGA,083941.80,3135.3271917,N,12046.7695305,E,4,19,1.3,2.4385,M,8.323,M,00,0004*6C
$GPHPD,1957,31199.600,237.86,-0.27,13.46,31.5887865,120.7794922,2.439,13633950.226,24927594.510,2.439,0.785,0.870,-0.593,0.568,0.993,0.640,0.000,19,19,4*4B
$GPGGA,083942.00,3135.3271192,N,12046.7693902,E,4,19,1.3,2.4317,M,8.323,M,01,0004*63
$GPHPD,1957,31199.800,237.85,-0.30,13.48,31.5887853,120.7794898,2.432,13633950.974,24927593.240,2.432,0.763,0.906,-0.588,0.568,0.993,0.640,0.000,19,19,4*40
$GPGGA,083942.20,3135.3270437,N,12046.7692473,E,4,19,1.2,2.4291,M,8.323,M,01,0004*6E
$GPHPD,1957,31200.000,237.86,-0.17,13.49,31.5887841,120.7794875,2.429,13633951.760,24927591.956,2.429,0.776,0.880,-0.595,0.570,1.008,0.737,0.000,19,19,4*4D
$GPGGA,083942.40,3135.3269679,N,12046.7691038,E,4,19,1.2,2.4290,M,8.323,M,01,0004*61
$GPHPD,1957,31200.200,237.83,-0.11,13.50,31.5887828,120.7794851,2.429,13633952.548,24927590.667,2.429,0.787,0.894,-0.594,0.568,0.993,0.640,0.000,19,19,4*42
$GPGGA,083942.60,3135.3268927,N,12046.7689654,E,4,19,1.2,2.4333,M,8.323,M,00,0004*6A
$GPHPD,1957,31200.400,237.75,-0.25,13.51,31.5887815,120.7794828,2.433,13633953.338,24927589.435,2.433,0.783,0.882,-0.609,0.568,0.993,0.640,0.000,19,19,4*42
$GPGGA,083942.80,3135.3268156,N,12046.7688177,E,4,19,1.2,2.4268,M,8.323,M,00,0004*62
$GPHPD,1957,31200.600,237.97,-0.34,13.53,31.5887803,120.7794803,2.427,13633954.137,24927588.102,2.427,0.767,0.898,-0.596,0.568,0.993,0.640,0.000,19,19,4*4E
$GPGGA,083943.00,3135.3267395,N,12046.7686744,E,4,19,1.2,2.4278,M,8.323,M,01,0004*61
$GPHPD,1957,31200.800,237.76,-0.11,13.55,31.5887790,120.7794779,2.428,13633954.930,24927586.817,2.428,0.800,0.903,-0.600,0.568,0.993,0.640,0.000,19,19,4*44
$GPGGA,083943.20,3135.3266621,N,12046.7685314,E,4,19,1.2,2.4289,M,8.323,M,01,0004*64
$GPHPD,1957,31201.000,237.70,-0.13,13.57,31.5887777,120.7794755,2.429,13633955.743,24927585.543,2.429,0.789,0.876,-0.595,0.568,0.993,0.640,0.000,19,19,4*4A
$GPGGA,083943.40,3135.3265865,N,12046.7683885,E,4,19,1.2,2.4307,M,8.323,M,01,0004*6D
$GPHPD,1957,31201.200,237.73,-0.25,13.59,31.5887764,120.7794731,2.431,13633956.530,24927584.259,2.431,0.779,0.905,-0.597,0.568,0.993,0.640,0.000,19,19,4*40
$GPGGA,083943.60,3135.3265139,N,12046.7682478,E,4,19,1.2,2.4296,M,8.323,M,01,0004*69
$GPHPD,1957,31201.400,237.65,-0.15,13.59,31.5887752,120.7794708,2.430,13633957.278,24927582.985,2.430,0.773,0.913,-0.599,0.568,0.993,0.640,0.000,19,19,4*48
$GPGGA,083943.80,3135.3264359,N,12046.7681022,E,4,19,1.2,2.4257,M,8.323,M,00,0004*66
$GPHPD,1957,31201.600,237.79,-0.35,13.60,31.5887739,120.7794684,2.426,13633958.094,24927581.683,2.426,0.787,0.872,-0.586,0.568,0.993,0.640,0.000,19,19,4*41
$GPGGA,083944.00,3135.3263598,N,12046.7679611,E,4,19,1.2,2.4279,M,8.323,M,01,0004*69
$GPHPD,1957,31201.800,237.69,-0.28,13.60,31.5887727,120.7794660,2.428,13633958.892,24927580.424,2.428,0.790,0.882,-0.603,0.568,0.993,0.640,0.000,19,19,4*40
$GPGGA,083944.20,3135.3262846,N,12046.7678189,E,4,19,1.2,2.4274,M,8.323,M,01,0004*6E
$GPHPD,1957,31202.000,237.82,-0.31,13.60,31.5887714,120.7794636,2.427,13633959.674,24927579.147,2.427,0.784,0.884,-0.609,0.568,0.993,0.640,0.000,19,19,4*4D
$GPGGA,083944.40,3135.3262095,N,12046.7676774,E,4,19,1.2,2.4215,M,8.323,M,01,0004*63
$GPHPD,1957,31202.200,237.61,0.01,13.61,31.5887702,120.7794613,2.422,13633960.457,24927577.877,2.422,0.783,0.897,-0.595,0.568,0.993,0.640,0.000,19,19,4*63
$GPGGA,083944.60,3135.3261333,N,12046.7675374,E,4,19,1.2,2.4193,M,8.323,M,00,0004*66
$GPHPD,1957,31202.400,237.83,-0.12,13.62,31.5887689,120.7794590,2.419,13633961.258,24927576.632,2.419,0.772,0.887,-0.604,0.568,0.993,0.640,0.000,19,19,4*4D
$GPGGA,083944.80,3135.3260552,N,12046.7673906,E,4,19,1.2,2.4211,M,8.323,M,00,0004*68
$GPHPD,1957,31202.600,237.71,0.11,13.62,31.5887676,120.7794565,2.421,13633962.073,24927575.316,2.421,0.775,0.880,-0.609,0.568,0.993,0.640,0.000,19,19,4*63
$GPGGA,083945.00,3135.3259808,N,12046.7672486,E,4,19,1.2,2.4240,M,8.323,M,01,0004*68
$GPHPD,1957,31202.800,237.72,-0.15,13.61,31.5887663,120.7794541,2.424,13633962.845,24927574.037,2.424,0.784,0.918,-0.597,0.568,0.993,0.640,0.000,19,19,4*40
$GPGGA,083945.20,3135.3259049,N,12046.7671071,E,4,19,1.2,2.4231,M,8.323,M,01,0004*6E
$GPHPD,1957,31203.000,237.62,-0.03,13.60,31.5887651,120.7794518,2.423,13633963.639,24927572.772,2.423,0.789,0.876,-0.590,0.568,0.993,0.640,0.000,19,19,4*44
$GPGGA,083945.40,3135.3258295,N,12046.7669659,E,4,19,1.2,2.4221,M,8.323,M,01,0004*6E
$GPHPD,1957,31203.200,237.61,-0.24,13.60,31.5887638,120.7794494,2.422,13633964.426,24927571.508,2.422,0.786,0.880,-0.604,0.568,0.993,0.640,0.000,19,19,4*45
$GPGGA,083945.60,3135.3257508,N,12046.7668211,E,4,19,1.2,2.4193,M,8.323,M,01,0004*63
$GPHPD,1957,31203.400,237.66,-0.06,13.60,31.5887625,120.7794470,2.419,13633965.253,24927570.219,2.419,0.780,0.868,-0.602,0.568,0.993,0.640,0.000,19,19,4*47
$GPGGA,083945.80,3135.3256778,N,12046.7666826,E,4,19,1.2,2.4200,M,8.323,M,00,0004*61
$GPHPD,1957,31203.600,237.57,0.08,13.58,31.5887613,120.7794447,2.420,13633966.012,24927568.974,2.420,0.788,0.905,-0.612,0.568,0.993,0.640,0.000,19,19,4*60
$GPGGA,083946.00,3135.3255992,N,12046.7665366,E,4,19,1.2,2.4290,M,8.323,M,01,0004*67
$GPHPD,1957,31203.800,237.60,-0.08,13.57,31.5887600,120.7794423,2.429,13633966.836,24927567.670,2.429,0.776,0.881,-0.598,0.568,0.993,0.640,0.000,19,19,4*4F
$GPGGA,083946.20,3135.3255243,N,12046.7663952,E,4,19,1.2,2.4235,M,8.323,M,01,0004*66
$GPHPD,1957,31204.000,237.51,-0.38,13.57,31.5887587,120.7794399,2.424,13633967.616,24927566.401,2.424,0.774,0.925,-0.588,0.568,0.993,0.640,0.000,19,19,4*4F
$GPGGA,083946.40,3135.3254470,N,12046.7662534,E,4,19,1.2,2.4240,M,8.323,M,01,0004*68
$GPHPD,1957,31204.200,237.49,-0.03,13.58,31.5887575,120.7794376,2.424,13633968.429,24927565.141,2.424,0.794,0.851,-0.620,0.568,0.993,0.640,0.000,19,19,4*41
$GPGGA,083946.60,3135.3253701,N,12046.7661097,E,4,19,1.2,2.4274,M,8.323,M,00,0004*61
$GPHPD,1957,31204.400,237.48,-0.14,13.59,31.5887562,120.7794352,2.427,13633969.233,24927563.855,2.427,0.779,0.891,-0.620,0.568,0.993,0.640,0.000,19,19,4*48
$GPGGA,083946.80,3135.3252944,N,12046.7659696,E,4,19,1.2,2.4279,M,8.323,M,00,0004*60
$GPHPD,1957,31204.600,237.59,0.10,13.59,31.5887549,120.7794328,2.428,13633970.027,24927562.606,2.428,0.775,0.905,-0.598,0.568,0.993,0.640,0.000,19,19,4*61
$GPGGA,083947.00,3135.3252175,N,12046.7658280,E,4,19,1.2,2.4281,M,8.323,M,01,0004*67
$GPHPD,1957,31204.800,237.63,-0.36,13.59,31.5887536,120.7794305,2.428,13633970.835,24927561.346,2.428,0.763,0.890,-0.591,0.568,0.993,0.640,0.000,19,19,4*42
$GPGGA,083947.20,3135.3251392,N,12046.7656835,E,4,19,1.2,2.4234,M,8.323,M,01,0004*69
$GPHPD,1957,31205.000,237.55,-0.05,13.58,31.5887523,120.7794281,2.423,13633971.657,24927560.059,2.423,0.770,0.898,-0.597,0.568,0.993,0.640,0.000,19,19,4*4D
$GPGGA,083947.40,3135.3250642,N,12046.7655407,E,4,19,1.2,2.4261,M,8.323,M,01,0004*68
$GPHPD,1957,31205.200,237.70,0.20,13.56,31.5887511,120.7794257,2.426,13633972.435,24927558.773,2.426,0.789,0.873,-0.623,0.568,0.993,0.640,0.000,19,19,4*68
$GPGGA,083947.60,3135.3249868,N,12046.7653989,E,4,19,1.2,2.4232,M,8.323,M,01,0004*6F
$GPHPD,1957,31205.400,237.56,-0.04,13.55,31.5887498,120.7794233,2.423,13633973.250,24927557.513,2.423,0.778,0.906,-0.592,0.568,0.993,0.640,0.000,19,19,4*4B
$GPGGA,083947.80,3135.3249099,N,12046.7652540,E,4,19,1.2,2.4281,M,8.323,M,00,0004*66
$GPHPD,1957,31205.600,237.60,0.01,13.57,31.5887485,120.7794209,2.428,13633974.052,24927556.213,2.428,0.774,0.866,-0.610,0.568,0.993,0.640,0.000,19,19,4*60
$GPGGA,083948.00,3135.3248334,N,12046.7651113,E,4,19,1.2,2.4336,M,8.323,M,01,0004*69
$GPHPD,1957,31205.800,237.52,-0.20,13.55,31.5887472,120.7794185,2.434,13633974.852,24927554.937,2.434,0.783,0.926,-0.592,0.568,0.993,0.640,0.000,19,19,4*4F
$GPGGA,083948.20,3135.3247573,N,12046.7649669,E,4,19,1.2,2.4315,M,8.323,M,01,0004*63
$GPHPD,1957,31206.000,237.51,-0.15,13.53,31.5887460,120.7794161,2.432,13633975.643,24927553.639,2.432,0.777,0.919,-0.592,0.568,0.993,0.640,0.000,19,19,4*40
$GPGGA,083948.40,3135.3246770,N,12046.7648236,E,4,19,1.2,2.4313,M,8.323,M,01,0004*6C
$GPHPD,1957,31206.200,237.48,-0.30,13.53,31.5887446,120.7794137,2.431,13633976.496,24927552.378,2.431,0.789,0.900,-0.601,0.563,0.985,0.630,0.000,19,19,4*49
$GPGGA,083948.60,3135.3246033,N,12046.7646799,E,4,19,1.2,2.4227,M,8.323,M,00,0004*67
$GPHPD,1957,31206.400,237.67,-0.24,13.53,31.5887434,120.7794113,2.423,13633977.254,24927551.073,2.423,0.785,0.898,-0.626,0.559,0.977,0.598,0.000,19,19,4*4A
$GPGGA,083948.80,3135.3245248,N,12046.7645372,E,4,19,1.2,2.4264,M,8.323,M,00,0004*61
$GPHPD,1957,31206.600,237.49,-0.12,13.52,31.5887421,120.7794090,2.426,13633978.083,24927549.809,2.426,0.793,0.887,-0.602,0.559,0.977,0.598,0.000,19,19,4*4A
$GPGGA,083949.00,3135.3244494,N,12046.7643952,E,4,19,1.2,2.4279,M,8.323,M,01,0004*6D
$GPHPD,1957,31206.800,237.68,0.09,13.51,31.5887408,120.7794066,2.428,13633978.868,24927548.535,2.428,0.787,0.909,-0.609,0.559,0.977,0.598,0.000,19,19,4*66
$GPGGA,083949.20,3135.3243740,N,12046.7642513,E,4,19,1.2,2.4286,M,8.323,M,01,0004*6A
$GPHPD,1957,31207.000,237.61,-0.11,13.51,31.5887396,120.7794042,2.429,13633979.651,24927547.239,2.429,0.766,0.909,-0.607,0.568,0.993,0.640,0.000,19,19,4*4A
$GPGGA,083949.40,3135.3242967,N,12046.7641080,E,4,19,1.2,2.4242,M,8.323,M,01,0004*62
$GPHPD,1957,31207.200,237.44,-0.14,13.54,31.5887383,120.7794018,2.424,13633980.461,24927545.960,2.424,0.794,0.885,-0.605,0.559,0.977,0.598,0.000,19,19,4*42
$GPGGA,083949.60,3135.3242222,N,12046.7639665,E,4,19,1.2,2.4249,M,8.323,M,01,0004*63
$GPHPD,1957,31207.400,237.57,-0.04,13.56,31.5887370,120.7793994,2.425,13633981.235,24927544.687,2.425,0.790,0.898,-0.609,0.559,0.977,0.598,0.000,19,19,4*46
$GPGGA,083949.80,3135.3241468,N,12046.7638253,E,4,19,1.2,2.4258,M,8.323,M,00,0004*67
$GPHPD,1957,31207.600,237.57,0.37,13.58,31.5887358,120.7793971,2.426,13633982.022,24927543.423,2.426,0.787,0.873,-0.601,0.568,0.993,0.640,0.000,19,19,4*6F
