$GPGGA,082259.40,3135.2889717,N,12046.7275533,E,4,18,1.2,2.4261,M,8.321,M,01,0004*60
$GPHPD,1957,30197.200,57.87,-0.21,13.26,31.5881495,120.7787926,2.426,13634409.011,24927310.663,2.426,-0.220,-0.247,0.158,0.568,0.996,0.630,0.000,18,17,4*5C
$GPGGA,082259.60,3135.2889913,N,12046.7275944,E,4,18,1.2,2.4176,M,8.321,M,00,0004*60
$GPHPD,1957,30197.400,57.91,-0.46,13.27,31.5881499,120.7787932,2.418,13634408.815,24927311.045,2.418,-0.219,-0.234,0.180,0.560,0.988,0.596,0.000,18,17,4*59
$GPGGA,082259.80,3135.2890146,N,12046.7276356,E,4,18,1.2,2.4238,M,8.321,M,00,0004*6D
$GPHPD,1957,30197.600,57.86,-0.53,13.27,31.5881502,120.7787939,2.424,13634408.567,24927311.406,2.424,-0.218,-0.250,0.158,0.560,0.988,0.596,0.000,18,17,4*5C
$GPGGA,082300.00,3135.2890360,N,12046.7276785,E,4,18,1.2,2.4174,M,8.321,M,01,0004*6E
$GPHPD,1957,30197.800,57.79,-0.44,13.30,31.5881506,120.7787946,2.417,13634408.349,24927311.799,2.417,-0.230,-0.253,0.179,0.560,0.988,0.596,0.000,18,17,4*5B
$GPGGA,082300.20,3135.2890618,N,12046.7277236,E,4,18,1.2,2.4193,M,8.321,M,01,0004*63
$GPHPD,1957,30198.000,57.86,-0.29,13.32,31.5881510,120.7787954,2.419,13634408.073,24927312.193,2.419,-0.226,-0.284,0.176,0.568,0.996,0.630,0.000,18,17,4*5E
$GPGGA,082300.40,3135.2890847,N,12046.7277691,E,4,18,1.2,2.4174,M,8.321,M,01,0004*61
$GPHPD,1957,30198.200,57.90,-0.55,13.33,31.5881514,120.7787962,2.417,13634407.839,24927312.608,2.417,-0.245,-0.282,0.209,0.568,0.996,0.630,0.000,18,17,4*54
$GPGGA,082300.60,3135.2891104,N,12046.7278171,E,4,18,1.2,2.4189,M,8.321,M,00,0004*69
$GPHPD,1957,30198.400,57.95,-0.56,13.35,31.5881518,120.7787970,2.419,13634407.570,24927313.038,2.419,-0.254,-0.277,0.191,0.568,0.996,0.630,0.000,18,17,4*51
$GPGGA,082300.80,3135.2891359,N,12046.7278624,E,4,18,1.2,2.4231,M,8.321,M,00,0004*6A
$GPHPD,1957,30198.600,58.05,-0.47,13.35,31.5881523,120.7787977,2.423,13634407.299,24927313.436,2.423,-0.252,-0.303,0.186,0.568,0.996,0.630,0.000,18,17,4*52
$GPGGA,082301.00,3135.2891589,N,12046.7279059,E,4,18,1.2,2.4254,M,8.321,M,01,0004*67
$GPHPD,1957,30198.800,58.02,-0.20,13.34,31.5881526,120.7787984,2.425,13634407.060,24927313.826,2.425,-0.259,-0.275,0.205,0.560,0.988,0.596,0.000,18,17,4*50
$GPGGA,082301.20,3135.2891809,N,12046.7279501,E,4,18,1.2,2.4270,M,8.321,M,01,0004*6E
$GPHPD,1957,30199.000,58.01,-0.61,13.32,31.5881530,120.7787992,2.427,13634406.836,24927314.231,2.427,-0.245,-0.254,0.189,0.560,0.988,0.596,0.000,18,17,4*51
$GPGGA,082301.40,3135.2892015,N,12046.7279890,E,4,18,1.2,2.4244,M,8.321,M,01,0004*6C
$GPHPD,1957,30199.200,57.96,-0.41,13.30,31.5881534,120.7787998,2.424,13634406.622,24927314.581,2.424,-0.246,-0.270,0.177,0.560,0.988,0.596,0.000,18,17,4*5F
$GPGGA,082301.60,3135.2892211,N,12046.7280267,E,4,18,1.2,2.4199,M,8.321,M,00,0004*6E
$GPHPD,1957,30199.400,57.92,-0.30,13.27,31.5881537,120.7788004,2.420,13634406.419,24927314.921,2.420,-0.224,-0.245,0.169,0.560,0.988,0.596,0.000,18,17,4*5C
$GPGGA,082301.80,3135.2892408,N,12046.7280596,E,4,18,1.2,2.4202,M,8.321,M,00,0004*66
$GPHPD,1957,30199.600,57.87,-0.14,13.24,31.5881540,120.7788010,2.420,13634406.205,24927315.204,2.420,-0.206,-0.236,0.146,0.560,0.988,0.596,0.000,18,17,4*55
$GPGGA,082302.00,3135.2892582,N,12046.7280936,E,4,18,1.2,2.4161,M,8.321,M,01,0004*6F
$GPHPD,1957,30199.800,57.90,-0.33,13.21,31.5881543,120.7788016,2.416,13634406.026,24927315.512,2.416,-0.184,-0.207,0.145,0.560,0.988,0.596,0.000,18,17,4*53
$GPGGA,082302.20,3135.2892720,N,12046.7281206,E,4,18,1.2,2.4214,M,8.321,M,01,0004*6F
$GPHPD,1957,30200.000,57.86,-0.29,13.17,31.5881545,120.7788020,2.421,13634405.885,24927315.758,2.421,-0.172,-0.204,0.128,0.560,0.988,0.596,0.000,18,17,4*5D
$GPGGA,082302.40,3135.2892853,N,12046.7281451,E,4,18,1.2,2.4235,M,8.321,M,01,0004*65
$GPHPD,1957,30200.200,57.76,-0.30,13.14,31.5881548,120.7788024,2.424,13634405.745,24927315.976,2.424,-0.157,-0.170,0.119,0.560,0.988,0.596,0.000,18,17,4*56
$GPGGA,082302.60,3135.2892948,N,12046.7281619,E,4,18,1.2,2.4256,M,8.321,M,00,0004*66
$GPHPD,1957,30200.400,57.80,-0.44,13.12,31.5881549,120.7788027,2.426,13634405.644,24927316.123,2.426,-0.127,-0.141,0.103,0.560,0.988,0.596,0.000,18,17,4*5B
$GPGGA,082302.80,3135.2893045,N,12046.7281818,E,4,18,1.2,2.4153,M,8.321,M,00,0004*64
$GPHPD,1957,30200.600,57.87,-0.39,13.11,31.5881551,120.7788030,2.415,13634405.546,24927316.307,2.415,-0.106,-0.117,0.088,0.560,0.988,0.596,0.000,18,17,4*5F
$GPGGA,082303.00,3135.2893130,N,12046.7281969,E,4,18,1.2,2.4162,M,8.321,M,01,0004*6A
$GPHPD,1957,30200.800,57.79,-0.61,13.10,31.5881552,120.7788033,2.416,13634405.455,24927316.439,2.416,-0.087,-0.137,0.065,0.560,0.988,0.596,0.000,18,17,4*5C
$GPGGA,082303.20,3135.2893226,N,12046.7282147,E,4,18,1.2,2.4195,M,8.321,M,01,0004*63
$GPHPD,1957,30201.000,57.58,-0.29,13.13,31.5881554,120.7788036,2.420,13634405.355,24927316.598,2.420,-0.084,-0.093,0.069,0.560,0.988,0.596,0.000,18,17,4*57
$GPGGA,082303.40,3135.2893354,N,12046.7282387,E,4,18,1.2,2.4196,M,8.321,M,01,0004*6C
$GPHPD,1957,30201.200,57.82,-0.34,13.19,31.5881556,120.7788040,2.420,13634405.221,24927316.813,2.420,-0.082,-0.133,0.066,0.560,0.988,0.596,0.000,18,17,4*59
$GPGGA,082303.60,3135.2893480,N,12046.7282668,E,4,18,1.2,2.4256,M,8.321,M,00,0004*6A
$GPHPD,1957,30201.400,57.86,-0.22,13.26,31.5881558,120.7788044,2.426,13634405.099,24927317.079,2.426,-0.120,-0.139,0.093,0.560,0.988,0.596,0.000,18,17,4*57
$GPGGA,082303.80,3135.289378,N,12046.7282997,E,4,18,1.2,2.4279,M,8.321,M,00,0004*63
$GPHPD,1957,30201.600,57.90,-0.32,13.34,31.5881561,120.7788050,2.428,13634404.883,24927317.360,2.428,-0.167,-0.154,0.116,0.560,0.988,0.596,0.000,18,17,4*52
$GPGGA,082304.00,3135.2893909,N,12046.7283430,E,4,18,1.2,2.4247,M,8.321,M,01,0004*68
$GPHPD,1957,30201.800,57.83,-0.29,13.42,31.5881565,120.7788057,2.425,13634404.642,24927317.748,2.425,-0.196,-0.218,0.156,0.560,0.988,0.596,0.000,18,17,4*5A
$GPGGA,082304.20,3135.2894179,N,12046.7283938,E,4,18,1.2,2.4247,M,8.321,M,01,0004*67
$GPHPD,1957,30202.000,57.82,-0.65,13.51,31.5881570,120.7788066,2.425,13634404.361,24927318.204,2.425,-0.237,-0.264,0.180,0.560,0.988,0.596,0.000,18,17,4*52
$GPGGA,082304.40,3135.2894505,N,12046.7284555,E,4,18,1.2,2.4197,M,8.321,M,01,0004*60
$GPHPD,1957,30202.200,57.84,-0.21,13.60,31.5881575,120.7788076,2.420,13634404.022,24927318.758,2.420,-0.269,-0.313,0.215,0.560,0.988,0.596,0.000,18,17,4*5D
$GPGGA,082304.60,3135.2894872,N,12046.7285221,E,4,18,1.2,2.4214,M,8.321,M,00,0004*63
$GPHPD,1957,30202.400,57.82,0.00,13.69,31.5881581,120.7788087,2.421,13634403.634,24927319.348,2.421,-0.327,-0.382,0.247,0.560,0.988,0.596,0.000,18,17,4*79
$GPGGA,082304.80,3135.2895278,N,12046.7286001,E,4,18,1.2,2.4179,M,8.321,M,00,0004*67
$GPHPD,1957,30202.600,57.80,-0.26,13.77,31.5881588,120.7788100,2.418,13634403.214,24927320.052,2.418,-0.372,-0.440,0.276,0.560,0.988,0.596,0.000,18,17,4*57
$GPGGA,082305.00,3135.2895713,N,12046.7286861,E,4,18,1.2,2.4208,M,8.321,M,01,0004*6C
$GPHPD,1957,30202.800,57.65,-0.41,13.83,31.5881595,120.7788114,2.421,13634402.769,24927320.836,2.421,-0.413,-0.516,0.303,0.560,0.988,0.596,0.000,18,17,4*54
$GPGGA,082305.20,3135.2896201,N,12046.7287779,E,4,18,1.2,2.4156,M,8.321,M,01,0004*64
$GPHPD,1957,30203.000,57.52,-0.30,13.89,31.5881603,120.7788130,2.416,13634402.260,24927321.659,2.416,-0.457,-0.532,0.351,0.560,0.988,0.596,0.000,18,17,4*54
$GPGGA,082305.40,3135.2896728,N,12046.7288760,E,4,18,1.2,2.4200,M,8.321,M,01,0004*6B
$GPHPD,1957,30203.200,57.42,-0.01,13.97,31.5881612,120.7788146,2.420,13634401.708,24927322.536,2.420,-0.494,-0.596,0.370,0.560,0.988,0.596,0.000,18,17,4*58
$GPGGA,082305.60,3135.2897293,N,12046.7289818,E,4,18,1.2,2.4143,M,8.321,M,00,0004*69
$GPHPD,1957,30203.400,57.20,-0.38,14.05,31.5881622,120.7788164,2.414,13634401.118,24927323.483,2.414,-0.533,-0.604,0.422,0.560,0.988,0.596,0.000,18,17,4*52
$GPGGA,082305.80,3135.2897905,N,12046.7290929,E,4,18,1.2,2.4158,M,8.321,M,00,0004*62
$GPHPD,1957,30203.600,57.21,-0.09,14.09,31.5881632,120.7788182,2.416,13634400.472,24927324.467,2.416,-0.571,-0.673,0.447,0.560,0.988,0.596,0.000,18,17,4*56
$GPGGA,082306.00,3135.2898527,N,12046.7292041,E,4,18,1.2,2.4214,M,8.321,M,01,0004*65
$GPHPD,1957,30203.800,57.23,-0.05,14.10,31.5881642,120.7788201,2.421,13634399.812,24927325.446,2.421,-0.598,-0.686,0.471,0.560,0.988,0.596,0.000,18,17,4*56
$GPGGA,082306.20,3135.2899162,N,12046.7293219,E,4,18,1.2,2.4175,M,8.321,M,01,0004*69
$GPHPD,1957,30204.000,57.30,0.24,14.11,31.5881653,120.7788220,2.418,13634399.146,24927326.497,2.418,-0.613,-0.704,0.494,0.560,0.988,0.596,0.000,18,17,4*70
$GPGGA,082306.40,3135.2899835,N,12046.7294411,E,4,18,1.2,2.4190,M,8.321,M,01,0004*66
$GPHPD,1957,30204.200,57.27,-0.05,14.10,31.5881664,120.7788240,2.419,13634398.430,24927327.543,2.419,-0.633,-0.780,0.497,0.560,0.988,0.596,0.000,18,17,4*58
$GPGGA,082306.60,3135.2900482,N,12046.7295652,E,4,18,1.2,2.4228,M,8.321,M,00,0004*60
$GPHPD,1957,30204.400,57.34,0.24,14.07,31.5881675,120.7788261,2.423,13634397.760,24927328.664,2.423,-0.659,-0.743,0.541,0.560,0.988,0.596,0.000,18,17,4*7E
$GPGGA,082306.80,3135.2901172,N,12046.7296911,E,4,18,1.2,2.4164,M,8.321,M,00,0004*65
$GPHPD,1957,30204.600,57.27,0.03,14.05,31.5881686,120.7788282,2.416,13634397.032,24927329.781,2.416,-0.683,-0.770,0.540,0.560,0.988,0.596,0.000,18,17,4*75
$GPGGA,082307.00,3135.2901857,N,12046.7298163,E,4,18,1.2,2.4247,M,8.321,M,01,0004*62
$GPHPD,1957,30204.800,57.29,-0.18,14.00,31.5881698,120.7788303,2.425,13634396.311,24927330.892,2.425,-0.678,-0.809,0.533,0.560,0.988,0.596,0.000,18,17,4*57
$GPGGA,082307.20,3135.2902560,N,12046.7299476,E,4,18,1.2,2.4213,M,8.321,M,01,0004*6B
$GPHPD,1957,30205.000,57.15,-0.34,13.96,31.5881709,120.7788325,2.421,13634395.576,24927332.066,2.421,-0.697,-0.775,0.558,0.578,1.021,0.688,0.000,18,17,4*59
$GPGGA,082307.40,3135.2903266,N,12046.7300773,E,4,18,1.2,2.4212,M,8.321,M,01,0004*6B
$GPHPD,1957,30205.200,57.20,-0.72,13.92,31.5881721,120.7788346,2.421,13634394.834,24927333.220,2.421,-0.707,-0.817,0.549,0.566,0.996,0.627,0.000,18,17,4*52
$GPGGA,082307.60,3135.2903964,N,12046.7302095,E,4,18,1.2,2.4227,M,8.321,M,00,0004*6A
$GPHPD,1957,30205.400,57.34,-0.47,13.88,31.5881733,120.7788368,2.423,13634394.108,24927334.408,2.423,-0.697,-0.840,0.555,0.560,0.988,0.596,0.000,18,17,4*59
$GPGGA,082307.80,3135.2904671,N,12046.7303400,E,4,18,1.2,2.4233,M,8.321,M,00,0004*64
$GPHPD,1957,30205.600,57.21,-0.60,13.82,31.5881745,120.7788390,2.423,13634393.365,24927335.571,2.423,-0.712,-0.824,0.545,0.566,0.996,0.627,0.000,18,17,4*59
$GPGGA,082308.00,3135.2905380,N,12046.7304705,E,4,18,1.2,2.4233,M,8.321,M,01,0004*69
$GPHPD,1957,30205.800,57.05,-0.85,13.75,31.5881756,120.7788412,2.423,13634392.620,24927336.732,2.423,-0.699,-0.825,0.546,0.566,0.996,0.627,0.000,18,17,4*5E
$GPGGA,082308.20,3135.2906107,N,12046.7306014,E,4,18,1.2,2.4274,M,8.321,M,01,0004*63
$GPHPD,1957,30206.000,57.07,-0.65,13.72,31.5881768,120.7788434,2.427,13634391.850,24927337.888,2.427,-0.706,-0.825,0.554,0.566,0.996,0.627,0.000,18,17,4*56
$GPGGA,082308.40,3135.2906794,N,12046.7307319,E,4,18,1.2,2.4287,M,8.321,M,01,0004*6A
$GPHPD,1957,30206.200,57.18,-0.88,13.73,31.5881780,120.7788455,2.429,13634391.137,24927339.062,2.429,-0.710,-0.818,0.568,0.566,0.996,0.627,0.000,18,17,4*55
$GPGGA,082308.60,3135.2907513,N,12046.7308647,E,4,18,1.2,2.4220,M,8.321,M,00,0004*69
$GPHPD,1957,30206.400,57.48,-0.67,13.72,31.5881792,120.7788477,2.422,13634390.382,24927340.245,2.422,-0.723,-0.812,0.566,0.560,0.988,0.596,0.000,18,17,4*55
$GPGGA,082308.80,3135.2908241,N,12046.7309994,E,4,18,1.2,2.4254,M,8.321,M,00,0004*6B
$GPHPD,1957,30206.600,57.41,-0.35,13.71,31.5881804,120.7788500,2.425,13634389.618,24927341.446,2.425,-0.719,-0.870,0.547,0.567,1.006,0.637,0.000,18,17,4*5E
$GPGGA,082309.00,3135.2908968,N,12046.7311344,E,4,18,1.2,2.4212,M,8.321,M,01,0004*6F
$GPHPD,1957,30206.800,57.52,-0.66,13.72,31.5881816,120.7788522,2.421,13634388.857,24927342.651,2.421,-0.740,-0.813,0.594,0.566,0.996,0.627,0.000,18,17,4*51
$GPGGA,082309.20,3135.2909687,N,12046.7312721,E,4,18,1.2,2.4161,M,8.321,M,01,0004*61
$GPHPD,1957,30207.000,57.56,-0.60,13.72,31.5881828,120.7788545,2.416,13634388.112,24927343.893,2.416,-0.725,-0.878,0.562,0.560,0.988,0.596,0.000,18,17,4*58
$GPGGA,082309.40,3135.2910393,N,12046.7314069,E,4,18,1.2,2.4156,M,8.321,M,01,0004*66
$GPHPD,1957,30207.200,57.75,-0.73,13.73,31.5881840,120.7788568,2.416,13634387.380,24927345.108,2.416,-0.737,-0.869,0.556,0.560,0.988,0.596,0.000,18,17,4*56
$GPGGA,082309.60,3135.2911139,N,12046.7315476,E,4,18,1.2,2.4128,M,8.321,M,00,0004*64
$GPHPD,1957,30207.400,57.57,-0.56,13.72,31.5881852,120.7788591,2.413,13634386.603,24927346.371,2.413,-0.742,-0.861,0.556,0.560,0.988,0.596,0.000,18,17,4*59
$GPGGA,082309.80,3135.2911873,N,12046.7316833,E,4,18,1.2,2.4123,M,8.321,M,00,0004*68
$GPHPD,1957,30207.600,57.72,-0.36,13.71,31.5881865,120.7788614,2.412,13634385.833,24927347.581,2.412,-0.752,-0.886,0.547,0.560,0.988,0.596,0.000,18,17,4*5D
$GPGGA,082310.00,3135.2912618,N,12046.7318240,E,4,18,1.2,2.4079,M,8.321,M,01,0004*67
$GPHPD,1957,30207.800,57.86,-0.54,13.70,31.5881877,120.7788637,2.408,13634385.057,24927348.844,2.408,-0.755,-0.826,0.581,0.566,0.996,0.627,0.000,18,17,4*59
$GPGGA,082310.20,3135.2913345,N,12046.7319641,E,4,18,1.2,2.4090,M,8.321,M,01,0004*6A
$GPHPD,1957,30208.000,57.94,-0.62,13.69,31.5881889,120.7788661,2.409,13634384.306,24927350.111,2.409,-0.757,-0.899,0.585,0.566,0.996,0.627,0.000,18,17,4*56
$GPGGA,082310.40,3135.2914109,N,12046.7321038,E,4,18,1.2,2.4046,M,8.321,M,01,0004*69
$GPHPD,1957,30208.200,57.74,-0.24,13.68,31.5881902,120.7788684,2.405,13634383.501,24927351.351,2.405,-0.760,-0.888,0.573,0.566,0.996,0.627,0.000,18,17,4*5C
$GPGGA,082310.60,3135.2914854,N,12046.7322440,E,4,18,1.2,2.4090,M,8.321,M,00,0004*68
$GPHPD,1957,30208.400,57.64,-0.32,13.66,31.5881914,120.7788707,2.409,13634382.724,24927352.608,2.409,-0.764,-0.909,0.578,0.566,0.996,0.627,0.000,18,17,4*56
$GPGGA,082310.80,3135.2915597,N,12046.7323853,E,4,18,1.2,2.4078,M,8.321,M,00,0004*6C
$GPHPD,1957,30208.600,57.76,-0.53,13.67,31.5881927,120.7788731,2.408,13634381.953,24927353.880,2.408,-0.749,-0.886,0.598,0.560,0.988,0.596,0.000,18,16,4*50
$GPGGA,082311.00,3135.2916358,N,12046.7325269,E,4,18,1.2,2.4083,M,8.321,M,01,0004*63
$GPHPD,1957,30208.800,57.59,-0.77,13.64,31.5881939,120.7788754,2.408,13634381.156,24927355.145,2.408,-0.766,-0.911,0.581,0.560,0.988,0.596,0.000,18,16,4*5B
$GPGGA,082311.20,3135.2917105,N,12046.7326718,E,4,18,1.3,2.4044,M,8.321,M,01,0004*60
$GPHPD,1957,30209.000,57.74,-0.78,13.62,31.5881952,120.7788779,2.404,13634380.386,24927356.458,2.404,-0.787,-0.856,0.614,0.560,0.988,0.596,0.000,18,16,4*50
$GPGGA,082311.40,3135.2917869,N,12046.7328142,E,4,18,1.3,2.4053,M,8.321,M,01,0004*64
$GPHPD,1957,30209.200,57.54,-0.64,13.60,31.5881964,120.7788802,2.405,13634379.587,24927357.731,2.405,-0.792,-0.896,0.595,0.566,0.996,0.627,0.000,18,16,4*57
$GPGGA,082311.60,3135.2918624,N,12046.7329538,E,4,18,1.3,2.4143,M,8.321,M,00,0004*67
$GPHPD,1957,30209.400,57.71,-0.51,13.56,31.5881977,120.7788826,2.414,13634378.794,24927358.975,2.414,-0.782,-0.894,0.600,0.566,0.996,0.627,0.000,18,16,4*5D
$GPGGA,082311.80,3135.2919398,N,12046.7330953,E,4,18,1.3,2.4045,M,8.321,M,00,0004*64
$GPHPD,1957,30209.600,57.80,-0.50,13.53,31.5881990,120.7788849,2.405,13634377.979,24927360.231,2.405,-0.793,-0.850,0.606,0.566,0.996,0.627,0.000,18,16,4*59
$GPGGA,082312.00,3135.2920142,N,12046.7332374,E,4,18,1.3,2.3980,M,8.321,M,01,0004*6B
$GPHPD,1957,30209.800,57.76,0.12,13.51,31.5882002,120.7788873,2.398,13634377.208,24927361.512,2.398,-0.765,-0.909,0.591,0.578,1.021,0.688,0.000,18,16,4*72
$GPGGA,082312.20,3135.2920923,N,12046.7333813,E,4,18,1.3,2.3998,M,8.321,M,01,0004*64
$GPHPD,1957,30210.000,57.62,-0.20,13.49,31.5882015,120.7788897,2.400,13634376.387,24927362.793,2.400,-0.769,-0.892,0.594,0.578,1.021,0.688,0.000,18,16,4*5B
$GPGGA,082312.40,3135.2921669,N,12046.7335251,E,4,18,1.3,2.4017,M,8.321,M,01,0004*61
$GPHPD,1957,30210.200,57.75,0.13,13.49,31.5882028,120.7788921,2.402,13634375.616,24927364.093,2.402,-0.778,-0.900,0.606,0.578,1.021,0.688,0.000,18,16,4*7D
$GPGGA,082312.60,3135.2922424,N,12046.7336681,E,4,18,1.3,2.3985,M,8.321,M,00,0004*65
$GPHPD,1957,30210.400,57.80,0.02,13.48,31.5882040,120.7788945,2.399,13634374.831,24927365.379,2.399,-0.798,-0.882,0.612,0.578,1.021,0.688,0.000,18,16,4*70
$GPGGA,082312.80,3135.2923191,N,12046.7338118,E,4,18,1.3,2.4050,M,8.321,M,00,0004*6E
$GPHPD,1957,30210.600,57.90,0.71,13.48,31.5882053,120.7788969,2.405,13634374.030,24927366.666,2.405,-0.768,-0.894,0.580,0.578,1.021,0.688,0.000,18,16,4*7A
$GPGGA,082313.00,3135.292367,N,12046.7339552,E,4,18,1.3,2.4116,M,8.321,M,01,0004*6F
$GPHPD,1957,30210.800,57.89,0.50,13.47,31.5882066,120.7788993,2.412,13634373.216,24927367.944,2.412,-0.800,-0.878,0.615,0.578,1.021,0.688,0.000,18,16,4*70
$GPGGA,082313.20,3135.2924737,N,12046.7340978,E,4,18,1.3,2.4068,M,8.321,M,01,0004*63
$GPHPD,1957,30211.000,57.46,-0.99,13.46,31.5882079,120.7789016,2.407,13634372.408,24927369.215,2.407,-0.808,-0.859,0.636,0.578,1.021,0.688,0.000,18,16,4*5B
$GPGGA,082313.40,3135.2925508,N,12046.7342439,E,4,18,1.3,2.4073,M,8.321,M,01,0004*6A
$GPHPD,1957,30211.200,57.68,-0.28,13.42,31.5882092,120.7789041,2.407,13634371.607,24927370.529,2.407,-0.780,-0.898,0.607,0.578,1.021,0.688,0.000,18,16,4*52
$GPGGA,082313.60,3135.2926257,N,12046.7343872,E,4,18,1.3,2.4201,M,8.321,M,00,0004*62
$GPHPD,1957,30211.400,57.65,-0.42,13.41,31.5882104,120.7789065,2.420,13634370.830,24927371.821,2.420,-0.794,-0.898,0.609,0.578,1.021,0.688,0.000,18,15,4*59
$GPGGA,082313.80,3135.2927007,N,12046.7345343,E,4,18,1.3,2.4243,M,8.321,M,00,0004*63
$GPHPD,1957,30211.600,57.57,-0.64,13.41,31.5882117,120.7789089,2.424,13634370.061,24927373.159,2.424,-0.807,-0.879,0.626,0.578,1.021,0.688,0.000,18,15,4*51
$GPGGA,082314.00,3135.2927778,N,12046.7346749,E,4,18,1.3,2.4163,M,8.321,M,01,0004*6E
$GPHPD,1957,30211.800,57.60,-0.37,13.38,31.5882130,120.7789112,2.416,13634369.248,24927374.406,2.416,-0.812,-0.887,0.615,0.578,1.021,0.688,0.000,18,15,4*59
$GPGGA,082314.20,3135.2928545,N,12046.7348213,E,4,18,1.3,2.4161,M,8.321,M,01,0004*69
$GPHPD,1957,30212.000,57.53,-0.46,13.38,31.5882142,120.7789137,2.416,13634368.452,24927375.725,2.416,-0.777,-0.914,0.605,0.578,1.021,0.688,0.000,18,15,4*5F
$GPGGA,082314.40,3135.2929298,N,12046.7349665,E,4,18,1.3,2.4332,M,8.321,M,01,0004*69
$GPHPD,1957,30212.200,57.49,-0.29,13.38,31.5882155,120.7789161,2.433,13634367.674,24927377.038,2.433,-0.770,-0.954,0.586,0.691,1.128,0.690,0.000,18,15,4*54
$GPGGA,082314.60,3135.2930053,N,12046.7351083,E,4,18,1.3,2.4254,M,8.321,M,00,0004*61
$GPHPD,1957,30212.400,57.43,-0.60,13.39,31.5882168,120.7789185,2.425,13634366.887,24927378.309,2.425,-0.803,-0.889,0.604,0.578,1.021,0.688,0.000,18,16,4*58
$GPGGA,082314.80,3135.2930839,N,12046.7352519,E,4,18,1.3,2.4214,M,8.321,M,00,0004*6A
$GPHPD,1957,30212.600,57.35,-0.28,13.37,31.5882181,120.7789209,2.421,13634366.058,24927379.584,2.421,-0.771,-0.923,0.580,0.578,1.021,0.688,0.000,18,16,4*55
$GPGGA,082315.00,3135.2931570,N,12046.7353963,E,4,18,1.3,2.4391,M,8.321,M,01,0004*6F
$GPHPD,1957,30212.800,57.52,-0.16,13.34,31.5882193,120.7789233,2.439,13634365.310,24927380.900,2.439,-0.769,-0.929,0.581,0.578,1.021,0.688,0.000,18,16,4*56
$GPGGA,082315.20,3135.2932342,N,12046.7355404,E,4,18,1.3,2.4394,M,8.321,M,01,0004*66
$GPHPD,1957,30213.000,57.36,-0.11,13.33,31.5882206,120.7789257,2.439,13634364.503,24927382.188,2.439,-0.837,-0.818,0.626,0.691,1.128,0.690,0.000,18,16,4*53
$GPGGA,082315.40,3135.2933106,N,12046.7356816,E,4,18,1.3,2.4358,M,8.321,M,01,0004*6F
$GPHPD,1957,30213.200,57.39,-0.08,13.34,31.5882218,120.7789280,2.436,13634363.701,24927383.447,2.436,-0.789,-0.893,0.598,0.566,0.996,0.627,0.000,18,16,4*50
$GPGGA,082315.60,3135.2933876,N,12046.7358220,E,4,18,1.3,2.4369,M,8.321,M,00,0004*61
$GPHPD,1957,30213.400,57.39,-0.71,13.35,31.5882231,120.7789304,2.437,13634362.889,24927384.692,2.437,-0.770,-0.910,0.596,0.566,0.996,0.627,0.000,18,16,4*5E
$GPGGA,082315.80,3135.2934641,N,12046.7359623,E,4,18,1.3,2.4335,M,8.321,M,00,0004*6D
$GPHPD,1957,30213.600,57.56,0.13,13.35,31.5882244,120.7789327,2.434,13634362.084,24927385.939,2.434,-0.777,-0.871,0.605,0.566,0.996,0.627,0.000,18,16,4*7D
$GPGGA,082316.00,3135.2935410,N,12046.7361072,E,4,18,1.3,2.4293,M,8.321,M,01,0004*64
$GPHPD,1957,30213.800,57.41,-0.67,13.36,31.5882257,120.7789351,2.429,13634361.283,24927387.239,2.429,-0.768,-0.884,0.599,0.578,1.021,0.688,0.000,18,16,4*58
$GPGGA,082316.20,3135.2936200,N,12046.7362478,E,4,18,1.3,2.4341,M,8.321,M,01,0004*61
$GPHPD,1957,30214.000,57.25,-0.43,13.35,31.5882270,120.7789375,2.434,13634360.443,24927388.475,2.434,-0.778,-0.910,0.594,0.560,0.988,0.596,0.000,18,16,4*57
$GPGGA,082316.40,3135.2936959,N,12046.7363877,E,4,18,1.3,2.4335,M,8.321,M,01,0004*61
$GPHPD,1957,30214.200,57.69,-0.62,13.32,31.5882283,120.7789398,2.434,13634359.646,24927389.721,2.434,-0.780,-0.883,0.629,0.560,0.988,0.596,0.000,18,16,4*51
$GPGGA,082316.60,3135.2937720,N,12046.7365305,E,4,18,1.3,2.4308,M,8.321,M,00,0004*65
$GPHPD,1957,30214.400,57.87,-0.27,13.30,31.5882295,120.7789422,2.431,13634358.852,24927391.000,2.431,-0.769,-0.888,0.603,0.560,0.988,0.596,0.000,18,16,4*56
$GPGGA,082316.80,3135.2938451,N,12046.7366765,E,4,18,1.3,2.4280,M,8.321,M,00,0004*61
$GPHPD,1957,30214.600,58.03,-0.23,13.30,31.5882308,120.7789446,2.428,13634358.107,24927392.336,2.428,-0.774,-0.904,0.597,0.560,0.988,0.596,0.000,18,16,4*5F
$GPGGA,082317.00,3135.2939220,N,12046.7368172,E,4,18,1.3,2.4286,M,8.321,M,01,0004*60
$GPHPD,1957,30214.800,57.97,-0.20,13.31,31.5882320,120.7789470,2.429,13634357.297,24927393.585,2.429,-0.788,-0.885,0.583,0.560,0.988,0.596,0.000,18,16,4*5A
$GPGGA,082317.20,3135.2939940,N,12046.7369572,E,4,18,1.3,2.4274,M,8.321,M,01,0004*67
$GPHPD,1957,30215.000,58.12,-0.54,13.32,31.5882332,120.7789493,2.427,13634356.555,24927394.855,2.427,-0.778,-0.899,0.596,0.566,0.996,0.627,0.000,18,16,4*56
$GPGGA,082317.40,3135.2940671,N,12046.7371003,E,4,18,1.3,2.4276,M,8.321,M,01,0004*6A
$GPHPD,1957,30215.200,58.07,-0.68,13.34,31.5882345,120.7789517,2.428,13634355.804,24927396.155,2.428,-0.775,-0.887,0.576,0.566,0.996,0.627,0.000,18,16,4*59
$GPGGA,082317.60,3135.294109,N,12046.7372445,E,4,18,1.3,2.4286,M,8.321,M,00,0004*6F
$GPHPD,1957,30215.400,58.23,-0.36,13.35,31.5882357,120.7789541,2.429,13634355.046,24927397.465,2.429,-0.775,-0.906,0.559,0.566,0.996,0.628,0.000,18,16,4*50
$GPGGA,082317.80,3135.2942156,N,12046.7373873,E,4,18,1.3,2.4288,M,8.321,M,00,0004*6B
$GPHPD,1957,30215.600,58.16,-0.85,13.32,31.5882369,120.7789565,2.429,13634354.271,24927398.752,2.429,-0.797,-0.878,0.601,0.566,0.996,0.628,0.000,18,16,4*55
$GPGGA,082318.00,3135.2942857,N,12046.7375319,E,4,18,1.3,2.4437,M,8.321,M,01,0004*66
$GPHPD,1957,30215.800,58.39,-0.26,13.30,31.5882381,120.7789589,2.444,13634353.566,24927400.088,2.444,-0.787,-0.901,0.581,0.566,0.996,0.628,0.000,18,16,4*5C
$GPGGA,082318.20,3135.2943592,N,12046.7376759,E,4,18,1.3,2.4361,M,8.321,M,01,0004*66
$GPHPD,1957,30216.000,58.48,-0.58,13.31,31.5882393,120.7789613,2.436,13634352.811,24927401.397,2.436,-0.817,-0.854,0.587,0.566,0.996,0.628,0.000,18,16,4*5B
$GPGGA,082318.40,3135.2944346,N,12046.7378182,E,4,18,1.3,2.4395,M,8.321,M,01,0004*6D
$GPHPD,1957,30216.200,58.32,-0.40,13.31,31.5882406,120.7789636,2.440,13634352.026,24927402.675,2.440,-0.793,-0.898,0.570,0.566,0.996,0.628,0.000,18,16,4*5C
$GPGGA,082318.60,3135.2945088,N,12046.7379662,E,4,18,1.3,2.4376,M,8.321,M,00,0004*6B
$GPHPD,1957,30216.400,58.41,-0.15,13.30,31.5882418,120.7789661,2.438,13634351.269,24927404.028,2.438,-0.779,-0.905,0.585,0.566,0.996,0.628,0.000,18,16,4*5B
$GPGGA,082318.80,3135.2945843,N,12046.7381065,E,4,18,1.3,2.4434,M,8.321,M,00,0004*6D
$GPHPD,1957,30216.600,58.32,0.20,13.30,31.5882431,120.7789684,2.443,13634350.478,24927405.281,2.443,-0.798,-0.908,0.584,0.566,0.996,0.628,0.000,18,16,4*72
$GPGGA,082319.00,3135.2946567,N,12046.7382507,E,4,18,1.3,2.4401,M,8.321,M,01,0004*69
$GPHPD,1957,30216.800,58.59,0.45,13.29,31.5882443,120.7789708,2.440,13634349.740,24927406.599,2.440,-0.770,-0.919,0.571,0.566,0.996,0.628,0.000,18,16,4*7B
$GPGGA,082319.20,3135.2947299,N,12046.7383928,E,4,18,1.3,2.4463,M,8.321,M,01,0004*68
$GPHPD,1957,30217.000,58.42,1.18,13.30,31.5882455,120.7789732,2.446,13634348.985,24927407.886,2.446,-0.792,-0.899,0.566,0.566,0.996,0.628,0.000,18,16,4*70
$GPGGA,082319.40,3135.2948082,N,12046.7385351,E,4,18,1.3,2.4556,M,8.321,M,01,0004*6C
$GPHPD,1957,30217.200,58.10,0.07,13.28,31.5882468,120.7789756,2.456,13634348.159,24927409.147,2.456,-0.777,-0.887,0.574,0.566,0.996,0.628,0.000,18,16,4*7B
$GPGGA,082319.60,3135.2948798,N,12046.7386750,E,4,18,1.3,2.4568,M,8.321,M,00,0004*68
$GPHPD,1957,30217.400,58.17,-0.34,13.28,31.5882480,120.7789779,2.457,13634347.423,24927410.418,2.457,-0.785,-0.882,0.609,0.566,0.996,0.628,0.000,18,16,4*5D
$GPGGA,082319.80,3135.2949510,N,12046.7388175,E,4,18,1.3,2.4552,M,8.321,M,00,0004*63
$GPHPD,1957,30217.600,58.27,-0.17,13.30,31.5882492,120.7789803,2.455,13634346.697,24927411.722,2.455,-0.778,-0.879,0.588,0.560,0.988,0.596,0.000,18,16,4*51
$GPGGA,082320.00,3135.2950231,N,12046.7389583,E,4,18,1.3,2.4644,M,8.321,M,01,0004*64
$GPHPD,1957,30217.800,58.09,-0.61,13.33,31.5882504,120.7789826,2.464,13634345.956,24927413.000,2.464,-0.795,-0.877,0.556,0.560,0.988,0.596,0.000,18,16,4*52
$GPGGA,082320.20,3135.2951001,N,12046.7390978,E,4,18,1.3,2.4606,M,8.321,M,01,0004*60
$GPHPD,1957,30218.000,58.04,-1.06,13.34,31.5882517,120.7789850,2.461,13634345.142,24927414.235,2.461,-0.789,-0.860,0.581,0.560,0.988,0.596,0.000,18,16,4*53
$GPGGA,082320.40,3135.2951751,N,12046.7392404,E,4,18,1.3,2.4661,M,8.321,M,01,0004*61
$GPHPD,1957,30218.200,58.17,-1.40,13.38,31.5882529,120.7789873,2.466,13634344.363,24927415.518,2.466,-0.770,-0.873,0.588,0.566,0.996,0.628,0.000,18,16,4*5A
$GPGGA,082320.60,3135.2952502,N,12046.7393816,E,4,18,1.3,2.4570,M,8.321,M,00,0004*68
$GPHPD,1957,30218.400,58.30,-1.09,13.40,31.5882542,120.7789897,2.457,13634343.580,24927416.784,2.457,-0.790,-0.858,0.594,0.566,0.996,0.628,0.000,18,16,4*5E
$GPGGA,082320.80,3135.2953240,N,12046.7395232,E,4,18,1.3,2.4505,M,8.321,M,00,0004*6E
$GPHPD,1957,30218.600,58.39,-0.45,13.42,31.5882554,120.7789921,2.451,13634342.816,24927418.063,2.451,-0.764,-0.903,0.572,0.560,0.988,0.596,0.000,18,16,4*55
$GPGGA,082321.00,3135.2953975,N,12046.7396658,E,4,18,1.3,2.4518,M,8.321,M,01,0004*6C
$GPHPD,1957,30218.800,58.32,-0.66,13.43,31.5882566,120.7789944,2.452,13634342.059,24927419.355,2.452,-0.767,-0.906,0.556,0.560,0.988,0.596,0.000,18,16,4*56
$GPGGA,082321.20,3135.2954717,N,12046.7398070,E,4,18,1.3,2.4473,M,8.321,M,01,0004*6D
$GPHPD,1957,30219.000,58.20,-0.54,13.42,31.5882579,120.7789968,2.447,13634341.288,24927420.626,2.447,-0.787,-0.884,0.594,0.560,0.988,0.596,0.000,18,16,4*51
$GPGGA,082321.40,3135.2955449,N,12046.7399474,E,4,18,1.3,2.4474,M,8.321,M,01,0004*64
$GPHPD,1957,30219.200,58.15,-0.49,13.41,31.5882591,120.7789991,2.447,13634340.530,24927421.893,2.447,-0.774,-0.877,0.589,0.560,0.988,0.596,0.000,18,16,4*52
$GPGGA,082321.60,3135.2956182,N,12046.7400907,E,4,18,1.2,2.4453,M,8.321,M,00,0004*6C
$GPHPD,1957,30219.400,58.10,-0.50,13.44,31.5882603,120.7790015,2.445,13634339.777,24927423.195,2.445,-0.764,-0.874,0.583,0.560,0.988,0.596,0.000,18,16,4*53
$GPGGA,082321.80,3135.2956922,N,12046.7402323,E,4,18,1.2,2.4473,M,8.322,M,00,0004*6F
$GPHPD,1957,30219.600,58.10,-0.43,13.41,31.5882615,120.7790039,2.447,13634339.010,24927424.472,2.447,-0.788,-0.863,0.584,0.560,0.988,0.596,0.000,18,16,4*51
$GPGGA,082322.00,3135.2957652,N,12046.7403732,E,4,18,1.2,2.4435,M,8.322,M,01,0004*6B
$GPHPD,1957,30219.800,58.09,-1.00,13.43,31.5882628,120.7790062,2.444,13634338.256,24927425.747,2.444,-0.788,-0.884,0.590,0.560,0.988,0.596,0.000,18,16,4*5A
$GPGGA,082322.20,3135.2958426,N,12046.7405161,E,4,18,1.2,2.4471,M,8.322,M,01,0004*61
$GPHPD,1957,30220.000,57.88,-0.67,13.45,31.5882640,120.7790086,2.447,13634337.444,24927427.020,2.447,-0.766,-0.928,0.550,0.560,0.988,0.596,0.000,18,16,4*59
$GPGGA,082322.40,3135.2959166,N,12046.7406566,E,4,18,1.2,2.4526,M,8.322,M,01,0004*64
$GPHPD,1957,30220.200,58.05,-0.22,13.47,31.5882653,120.7790109,2.453,13634336.675,24927428.284,2.453,-0.772,-0.887,0.596,0.560,0.988,0.596,0.000,18,16,4*5F
$GPGGA,082322.60,3135.2959890,N,12046.7407972,E,4,18,1.2,2.4457,M,8.322,M,00,0004*68
$GPHPD,1957,30220.400,58.09,-0.36,13.47,31.5882665,120.7790133,2.446,13634335.929,24927429.558,2.446,-0.779,-0.868,0.603,0.560,0.988,0.596,0.000,18,16,4*5B
$GPGGA,082322.80,3135.2960624,N,12046.7409403,E,4,18,1.2,2.4476,M,8.322,M,00,0004*6B
$GPHPD,1957,30220.600,58.11,-0.40,13.45,31.5882677,120.7790157,2.448,13634335.173,24927430.857,2.448,-0.760,-0.915,0.574,0.560,0.988,0.596,0.000,18,16,4*5F
$GPGGA,082323.00,3135.2961397,N,12046.7410825,E,4,18,1.2,2.4502,M,8.322,M,01,0004*6D
$GPHPD,1957,30220.800,57.90,-0.28,13.45,31.5882690,120.7790180,2.450,13634334.361,24927432.122,2.450,-0.785,-0.885,0.583,0.560,0.988,0.596,0.000,18,16,4*58
$GPGGA,082323.20,3135.2962179,N,12046.7412219,E,4,18,1.2,2.4423,M,8.322,M,01,0004*6B
$GPHPD,1957,30221.000,58.15,0.80,13.46,31.5882703,120.7790204,2.442,13634333.530,24927433.348,2.442,-0.790,-0.880,0.603,0.560,0.988,0.596,0.000,18,16,4*7B
$GPGGA,082323.40,3135.2962898,N,12046.7413649,E,4,18,1.2,2.4485,M,8.322,M,01,0004*67
$GPHPD,1957,30221.200,58.21,0.37,13.45,31.5882715,120.7790227,2.449,13634332.796,24927434.654,2.449,-0.761,-0.887,0.594,0.560,0.988,0.596,0.000,18,16,4*73
$GPGGA,082323.60,3135.2963640,N,12046.7415087,E,4,18,1.2,2.4425,M,8.322,M,00,0004*66
$GPHPD,1957,30221.400,58.08,0.75,13.46,31.5882727,120.7790251,2.443,13634332.031,24927435.957,2.443,-0.785,-0.875,0.592,0.560,0.988,0.596,0.000,18,16,4*7D
$GPGGA,082323.80,3135.2964379,N,12046.7416499,E,4,18,1.2,2.4470,M,8.322,M,00,0004*68
$GPHPD,1957,30221.600,58.07,0.85,13.46,31.5882740,120.7790275,2.447,13634331.264,24927437.230,2.447,-0.783,-0.905,0.574,0.560,0.988,0.596,0.000,18,16,4*79
$GPGGA,082324.00,3135.2965131,N,12046.7417926,E,4,18,1.2,2.4543,M,8.322,M,01,0004*60
$GPHPD,1957,30221.800,57.90,0.26,13.48,31.5882752,120.7790299,2.454,13634330.483,24927438.513,2.454,-0.780,-0.860,0.593,0.560,0.988,0.596,0.000,18,16,4*7F
$GPGGA,082324.20,3135.2965887,N,12046.7419389,E,4,18,1.2,2.4676,M,8.322,M,01,0004*62
$GPHPD,1957,30222.000,57.63,-0.90,13.46,31.5882765,120.7790323,2.468,13634329.703,24927439.838,2.468,-0.801,-0.876,0.595,0.560,0.988,0.596,0.000,18,16,4*53
$GPGGA,082324.40,3135.2966633,N,12046.7420768,E,4,18,1.2,2.4621,M,8.322,M,01,0004*65
$GPHPD,1957,30222.200,57.60,-0.51,13.46,31.5882777,120.7790346,2.462,13634328.920,24927441.067,2.462,-0.810,-0.882,0.610,0.560,0.988,0.596,0.000,18,15,4*5A
$GPGGA,082324.60,3135.2967397,N,12046.7422185,E,4,18,1.2,2.4621,M,8.322,M,00,0004*6B
$GPHPD,1957,30222.400,57.74,-0.67,13.45,31.5882790,120.7790370,2.462,13634328.119,24927442.331,2.462,-0.777,-0.896,0.597,0.560,0.988,0.596,0.000,18,15,4*55
$GPGGA,082324.80,3135.2968146,N,12046.7423640,E,4,18,1.2,2.4521,M,8.322,M,00,0004*68
$GPHPD,1957,30222.600,57.88,-1.03,13.46,31.5882802,120.7790394,2.452,13634327.348,24927443.650,2.452,-0.784,-0.859,0.605,0.567,1.006,0.637,0.000,18,15,4*56
$GPGGA,082325.00,3135.2968925,N,12046.7425056,E,4,18,1.2,2.4657,M,8.322,M,01,0004*68
$GPHPD,1957,30222.800,57.69,-0.09,13.47,31.5882815,120.7790418,2.466,13634326.525,24927444.905,2.466,-0.788,-0.912,0.587,0.567,1.006,0.637,0.000,18,15,4*57
$GPGGA,082325.20,3135.2969652,N,12046.7426509,E,4,18,1.2,2.4707,M,8.322,M,01,0004*6C
$GPHPD,1957,30223.000,57.90,-0.18,13.46,31.5882828,120.7790442,2.471,13634325.785,24927446.234,2.471,-0.776,-0.889,0.606,0.566,0.997,0.628,0.000,18,15,4*5F
$GPGGA,082325.40,3135.2970564,N,12046.7427818,E,4,17,1.4,2.3913,M,8.322,M,01,0004*6D
$GPHPD,1957,30223.200,57.91,0.13,13.45,31.5882843,120.7790464,2.391,13634324.752,24927447.282,2.391,-0.777,-0.911,0.585,0.566,0.997,0.628,0.000,17,16,4*72
$GPGGA,082325.60,3135.2971305,N,12046.7429261,E,4,17,1.4,2.3896,M,8.322,M,00,0004*68
$GPHPD,1957,30223.400,58.00,0.15,13.44,31.5882855,120.7790488,2.390,13634323.989,24927448.591,2.390,-0.696,-0.987,0.563,0.672,1.092,0.597,0.000,17,15,4*72
$GPGGA,082325.80,3135.2972067,N,12046.7430669,E,4,17,1.4,2.3936,M,8.322,M,00,0004*6D
$GPHPD,1957,30223.600,57.86,0.04,13.43,31.5882868,120.7790511,2.394,13634323.189,24927449.846,2.394,-0.789,-0.906,0.584,0.672,1.092,0.597,0.000,17,15,4*78
$GPGGA,082326.00,3135.2972828,N,12046.7432094,E,4,17,1.4,2.3909,M,8.322,M,01,0004*6E
$GPHPD,1957,30223.800,57.87,0.06,13.45,31.5882880,120.7790535,2.391,13634322.394,24927451.122,2.391,-0.785,-0.873,0.600,0.672,1.092,0.597,0.000,17,15,4*7E
$GPGGA,082326.20,3135.2973591,N,12046.7433511,E,4,17,1.4,2.3920,M,8.322,M,01,0004*60
$GPHPD,1957,30224.000,57.88,0.09,13.47,31.5882893,120.7790559,2.392,13634321.595,24927452.387,2.392,-0.779,-0.888,0.603,0.672,1.092,0.597,0.000,17,15,4*75
$GPGGA,082326.40,3135.2974354,N,12046.7434943,E,4,18,1.4,2.3942,M,8.322,M,01,0004*69
$GPHPD,1957,30224.200,57.86,-0.07,13.46,31.5882906,120.7790582,2.394,13634320.799,24927453.670,2.394,-0.785,-0.887,0.602,0.672,1.092,0.597,0.000,18,15,4*51
$GPGGA,082326.60,3135.2975101,N,12046.7436385,E,4,18,1.4,2.3899,M,8.322,M,00,0004*6C
$GPHPD,1957,30224.400,57.81,0.17,13.45,31.5882918,120.7790606,2.390,13634320.027,24927454.974,2.390,-0.774,-0.909,0.608,0.560,0.988,0.596,0.000,18,16,4*73
$GPGGA,082326.80,3135.2975864,N,12046.7437824,E,4,18,1.4,2.3909,M,8.322,M,00,0004*61
$GPHPD,1957,30224.600,57.73,-0.13,13.44,31.5882931,120.7790630,2.391,13634319.233,24927456.266,2.391,-0.773,-0.931,0.595,0.560,0.988,0.596,0.000,18,16,4*56
$GPGGA,082327.00,3135.2976663,N,12046.7439275,E,4,18,1.4,2.3780,M,8.322,M,01,0004*6C
$GPHPD,1957,30224.800,57.86,-0.20,13.45,31.5882944,120.7790655,2.378,13634318.389,24927457.551,2.378,-0.784,-0.907,0.594,0.566,0.997,0.628,0.000,18,16,4*53
$GPGGA,082327.20,3135.2977425,N,12046.7440685,E,4,18,1.4,2.3856,M,8.322,M,01,0004*6E
$GPHPD,1957,30225.000,57.92,0.00,13.46,31.5882957,120.7790678,2.386,13634317.590,24927458.808,2.386,-0.771,-0.930,0.588,0.560,0.988,0.596,0.000,18,16,4*7C
$GPGGA,082327.40,3135.2978175,N,12046.7442118,E,4,18,1.4,2.3839,M,8.322,M,01,0004*6F
$GPHPD,1957,30225.200,57.98,-0.21,13.45,31.5882970,120.7790702,2.384,13634316.812,24927460.100,2.384,-0.770,-0.915,0.596,0.560,0.988,0.596,0.000,18,16,4*55
$GPGGA,082327.60,3135.2978934,N,12046.7443548,E,4,18,1.4,2.3837,M,8.322,M,00,0004*6F
$GPHPD,1957,30225.400,57.86,0.04,13.45,31.5882982,120.7790726,2.384,13634316.021,24927461.383,2.384,-0.777,-0.910,0.586,0.560,0.988,0.596,0.000,18,16,4*7E
$GPGGA,082327.80,3135.2979683,N,12046.7444982,E,4,18,1.4,2.3965,M,8.322,M,00,0004*68
$GPHPD,1957,30225.600,57.73,-0.35,13.46,31.5882995,120.7790750,2.397,13634315.245,24927462.676,2.397,-0.785,-0.888,0.602,0.560,0.988,0.596,0.000,18,15,4*53
$GPGGA,082328.00,3135.2980455,N,12046.7446391,E,4,18,1.2,2.3932,M,8.322,M,01,0004*6F
$GPHPD,1957,30225.800,57.75,-0.07,13.43,31.5883008,120.7790773,2.393,13634314.431,24927463.926,2.393,-0.824,-0.865,0.613,0.560,0.988,0.596,0.000,18,15,4*5A
$GPGGA,082328.20,3135.2981187,N,12046.7447839,E,4,18,1.2,2.4017,M,8.322,M,01,0004*67
$GPHPD,1957,30226.000,57.64,-0.03,13.43,31.5883020,120.7790797,2.402,13634313.682,24927465.247,2.402,-0.771,-0.884,0.607,0.560,0.988,0.596,0.000,18,15,4*57
$GPGGA,082328.40,3135.2981949,N,12046.7449254,E,4,18,1.2,2.3981,M,8.322,M,01,0004*65
$GPHPD,1957,30226.200,57.43,-0.74,13.43,31.5883032,120.7790821,2.398,13634312.884,24927466.510,2.398,-0.812,-0.875,0.605,0.560,0.988,0.596,0.000,18,15,4*58
$GPGGA,082328.60,3135.2982705,N,12046.7450668,E,4,18,1.2,2.4036,M,8.322,M,00,0004*62
$GPHPD,1957,30226.400,57.69,0.02,13.46,31.5883045,120.7790844,2.404,13634312.094,24927467.775,2.404,-0.780,-0.876,0.606,0.560,0.988,0.596,0.000,18,15,4*71
$GPGGA,082328.80,3135.2983465,N,12046.7452110,E,4,18,1.2,2.4035,M,8.322,M,00,0004*61
$GPHPD,1957,30226.600,57.85,0.15,13.47,31.5883058,120.7790869,2.404,13634311.304,24927469.072,2.404,-0.788,-0.874,0.609,0.560,0.988,0.596,0.000,18,15,4*77
$GPGGA,082329.00,3135.2984221,N,12046.7453531,E,4,18,1.2,2.4029,M,8.322,M,01,0004*63
$GPHPD,1957,30226.800,58.07,0.42,13.47,31.5883070,120.7790892,2.403,13634310.516,24927470.346,2.403,-0.788,-0.878,0.611,0.560,0.988,0.596,0.000,18,15,4*7D
$GPGGA,082329.20,3135.2984986,N,12046.7454954,E,4,18,1.2,2.4046,M,8.322,M,01,0004*66
$GPHPD,1957,30227.000,57.81,0.46,13.48,31.5883083,120.7790916,2.405,13634309.715,24927471.617,2.405,-0.791,-0.882,0.601,0.566,0.997,0.628,0.000,18,15,4*74
$GPGGA,082329.40,3135.2985751,N,12046.7456388,E,4,18,1.3,2.4138,M,8.322,M,01,0004*65
$GPHPD,1957,30227.200,58.19,0.72,13.48,31.5883096,120.7790940,2.414,13634308.916,24927472.901,2.414,-0.761,-0.893,0.584,0.566,0.997,0.628,0.000,18,15,4*7E
$GPGGA,082329.60,3135.2986463,N,12046.7457810,E,4,18,1.3,2.4159,M,8.322,M,00,0004*6B
$GPHPD,1957,30227.400,58.14,0.16,13.47,31.5883108,120.7790964,2.416,13634308.190,24927474.202,2.416,-0.791,-0.894,0.607,0.566,0.997,0.628,0.000,18,15,4*70
$GPGGA,082329.80,3135.2987243,N,12046.7459254,E,4,18,1.3,2.4175,M,8.322,M,00,0004*6A
$GPHPD,1957,30227.600,57.92,-0.22,13.47,31.5883121,120.7790988,2.418,13634307.372,24927475.490,2.418,-0.794,-0.888,0.588,0.566,0.997,0.628,0.000,18,15,4*51
$GPGGA,082330.00,3135.2987994,N,12046.7460707,E,4,18,1.3,2.4164,M,8.322,M,01,0004*63
$GPHPD,1957,30227.800,57.89,0.01,13.48,31.5883133,120.7791012,2.416,13634306.597,24927476.805,2.416,-0.790,-0.899,0.588,0.566,0.997,0.628,0.000,18,15,4*75
$GPGGA,082330.20,3135.2988746,N,12046.7462120,E,4,18,1.3,2.4177,M,8.322,M,01,0004*6C
$GPHPD,1957,30228.000,57.66,0.07,13.47,31.5883146,120.7791035,2.418,13634305.813,24927478.072,2.418,-0.786,-0.927,0.572,0.566,0.997,0.628,0.000,18,15,4*7F
$GPGGA,082330.40,3135.2989493,N,12046.7463578,E,4,18,1.3,2.4205,M,8.322,M,01,0004*6E
$GPHPD,1957,30228.200,57.56,-0.64,13.45,31.5883158,120.7791060,2.421,13634305.045,24927479.396,2.421,-0.789,-0.885,0.598,0.566,0.997,0.628,0.000,18,15,4*5A
$GPGGA,082330.60,3135.2990281,N,12046.7464990,E,4,18,1.3,2.4225,M,8.322,M,00,0004*6F
$GPHPD,1957,30228.400,57.48,-1.02,13.44,31.5883171,120.7791083,2.423,13634304.209,24927480.640,2.423,-0.805,-0.882,0.600,0.566,0.997,0.628,0.000,18,15,4*58
$GPGGA,082330.80,3135.2991045,N,12046.7466408,E,4,18,1.3,2.4182,M,8.322,M,00,0004*6A
$GPHPD,1957,30228.600,57.49,-0.83,13.43,31.5883184,120.7791107,2.418,13634303.408,24927481.906,2.418,-0.809,-0.848,0.639,0.566,0.997,0.628,0.000,18,15,4*5F
$GPGGA,082331.00,3135.2991804,N,12046.7467844,E,4,18,1.3,2.4138,M,8.322,M,01,0004*6B
$GPHPD,1957,30228.800,57.57,-0.55,13.43,31.5883197,120.7791131,2.414,13634302.619,24927483.196,2.414,-0.780,-0.865,0.604,0.566,0.997,0.628,0.000,18,15,4*5D
$GPGGA,082331.20,3135.2992571,N,12046.7469251,E,4,18,1.3,2.4209,M,8.322,M,01,0004*64
$GPHPD,1957,30229.000,57.49,-0.78,13.43,31.5883210,120.7791154,2.421,13634301.812,24927484.446,2.421,-0.773,-0.921,0.584,0.566,0.997,0.628,0.000,18,15,4*54
$GPGGA,082331.40,3135.2993347,N,12046.7470671,E,4,18,1.3,2.4099,M,8.322,M,01,0004*65
$GPHPD,1957,30229.200,57.62,-1.03,13.44,31.5883222,120.7791178,2.410,13634300.994,24927485.707,2.410,-0.784,-0.861,0.614,0.566,0.997,0.628,0.000,18,15,4*54
$GPGGA,082331.60,3135.2994101,N,12046.7472103,E,4,18,1.3,2.4111,M,8.322,M,00,0004*60
$GPHPD,1957,30229.400,57.76,-0.24,13.44,31.5883235,120.7791202,2.411,13634300.211,24927486.996,2.411,-0.771,-0.874,0.599,0.566,0.997,0.628,0.000,18,15,4*50
$GPGGA,082331.80,3135.2994853,N,12046.7473537,E,4,18,1.3,2.4097,M,8.322,M,00,0004*6D
$GPHPD,1957,30229.600,57.62,-0.12,13.45,31.5883248,120.7791226,2.410,13634299.431,24927488.288,2.410,-0.777,-0.911,0.586,0.566,0.997,0.628,0.000,18,15,4*5A
$GPGGA,082332.00,3135.2995626,N,12046.7474958,E,4,18,1.3,2.4150,M,8.322,M,01,0004*62
$GPHPD,1957,30229.800,57.71,-0.31,13.43,31.5883260,120.7791249,2.415,13634298.618,24927489.552,2.415,-0.793,-0.876,0.597,0.566,0.997,0.628,0.000,18,15,4*51
$GPGGA,082332.20,3135.2996404,N,12046.7476404,E,4,18,1.3,2.4002,M,8.322,M,01,0004*61
$GPHPD,1957,30230.000,57.84,-0.13,13.45,31.5883273,120.7791273,2.400,13634297.803,24927490.843,2.400,-0.792,-0.873,0.618,0.566,0.997,0.628,0.000,18,15,4*58
$GPGGA,082332.40,3135.2997130,N,12046.7477825,E,4,18,1.3,2.4053,M,8.322,M,01,0004*6E
$GPHPD,1957,30230.200,57.61,-0.22,13.46,31.5883286,120.7791297,2.405,13634297.057,24927492.134,2.405,-0.771,-0.929,0.585,0.566,0.997,0.628,0.000,18,15,4*56
$GPGGA,082332.60,3135.2997934,N,12046.7479271,E,4,18,1.3,2.4175,M,8.322,M,00,0004*61
$GPHPD,1957,30230.400,57.62,-0.59,13.47,31.5883299,120.7791321,2.418,13634296.206,24927493.410,2.418,-0.782,-0.887,0.590,0.566,0.997,0.628,0.000,18,15,4*54
$GPGGA,082332.80,3135.2998701,N,12046.7480692,E,4,18,1.3,2.4178,M,8.322,M,00,0004*6A
$GPHPD,1957,30230.600,57.61,-0.74,13.50,31.5883312,120.7791345,2.418,13634295.402,24927494.678,2.418,-0.785,-0.863,0.637,0.566,0.997,0.628,0.000,18,15,4*55
$GPGGA,082333.00,3135.2999453,N,12046.7482162,E,4,18,1.3,2.4083,M,8.322,M,01,0004*68
$GPHPD,1957,30230.800,57.85,-0.71,13.50,31.5883324,120.7791369,2.408,13634294.629,24927496.013,2.408,-0.786,-0.884,0.628,0.578,1.022,0.689,0.000,18,15,4*5A
$GPGGA,082333.20,3135.3000214,N,12046.7483587,E,4,18,1.3,2.4124,M,8.322,M,01,0004*65
$GPHPD,1957,30231.000,57.50,-0.34,13.48,31.5883337,120.7791393,2.412,13634293.834,24927497.289,2.412,-0.798,-0.894,0.596,0.578,1.022,0.689,0.000,18,15,4*59
$GPGGA,082333.40,3135.3001006,N,12046.7485027,E,4,18,1.3,2.4122,M,8.322,M,01,0004*6C
$GPHPD,1957,30231.200,57.58,-0.42,13.46,31.5883350,120.7791417,2.412,13634292.998,24927498.565,2.412,-0.774,-0.915,0.588,0.566,0.997,0.628,0.000,18,15,4*5D
$GPGGA,082333.60,3135.3001768,N,12046.7486466,E,4,18,1.3,2.4180,M,8.322,M,00,0004*6A
$GPHPD,1957,30231.400,57.46,-0.76,13.46,31.5883363,120.7791441,2.418,13634292.204,24927499.857,2.418,-0.782,-0.925,0.601,0.566,0.997,0.628,0.000,18,15,4*5B
$GPGGA,082333.80,3135.3002524,N,12046.7487884,E,4,18,1.3,2.4116,M,8.322,M,00,0004*63
$GPHPD,1957,30231.600,57.51,0.01,13.45,31.5883375,120.7791465,2.412,13634291.415,24927501.127,2.412,-0.794,-0.895,0.608,0.566,0.997,0.628,0.000,18,15,4*7F
$GPGGA,082334.00,3135.3003294,N,12046.7489333,E,4,18,1.3,2.4097,M,8.322,M,01,0004*61
$GPHPD,1957,30231.800,56.97,-1.81,13.43,31.5883388,120.7791489,2.410,13634290.612,24927502.426,2.410,-0.765,-0.946,0.582,0.566,0.997,0.628,0.000,18,15,4*5B
$GPGGA,082334.20,3135.3004057,N,12046.7490753,E,4,18,1.3,2.4172,M,8.322,M,01,0004*69
$GPHPD,1957,30232.000,56.98,-1.96,13.43,31.5883401,120.7791513,2.417,13634289.814,24927503.695,2.417,-0.779,-0.924,0.598,0.560,0.988,0.596,0.000,18,15,4*5A
$GPGGA,082334.40,3135.3004830,N,12046.7492220,E,4,18,1.3,2.4245,M,8.322,M,01,0004*62
$GPHPD,1957,30232.200,56.97,-2.55,13.42,31.5883414,120.7791537,2.425,13634289.010,24927505.014,2.425,-0.792,-0.870,0.625,0.560,0.988,0.596,0.000,18,15,4*5D
$GPGGA,082334.60,3135.3005619,N,12046.7493627,E,4,18,1.4,2.4128,M,8.322,M,00,0004*68
$GPHPD,1957,30232.400,56.88,-2.31,13.41,31.5883427,120.7791560,2.413,13634288.172,24927506.252,2.413,-0.818,-0.908,0.614,0.560,0.988,0.596,0.000,18,15,4*50
$GPGGA,082334.80,3135.3006385,N,12046.7495093,E,4,18,1.4,2.4179,M,8.322,M,00,0004*6E
$GPHPD,1957,30232.600,57.00,-2.20,13.39,31.5883440,120.7791585,2.418,13634287.378,24927507.575,2.418,-0.764,-0.934,0.603,0.672,1.092,0.597,0.000,18,15,4*5D
$GPGGA,082335.00,3135.3007166,N,12046.7496532,E,4,17,1.4,2.4111,M,8.322,M,01,0004*64
$GPHPD,1957,30232.800,57.36,-1.62,13.36,31.5883453,120.7791609,2.411,13634286.558,24927508.856,2.411,-0.798,-0.908,0.611,0.672,1.092,0.597,0.000,17,15,4*5F
$GPGGA,082335.20,3135.3007947,N,12046.7497986,E,4,17,1.4,2.4067,M,8.322,M,01,0004*6F
$GPHPD,1957,30233.000,57.67,-0.39,13.35,31.5883466,120.7791633,2.407,13634285.741,24927510.155,2.407,-0.788,-0.916,0.606,0.672,1.092,0.597,0.000,17,14,4*52
$GPGGA,082335.40,3135.3008721,N,12046.7499440,E,4,17,1.4,2.4162,M,8.322,M,01,0004*65
$GPHPD,1957,30233.200,57.67,-0.33,13.35,31.5883479,120.7791657,2.416,13634284.933,24927511.458,2.416,-0.781,-0.935,0.598,0.672,1.092,0.597,0.000,17,14,4*59
$GPGGA,082335.60,3135.3009520,N,12046.7500904,E,4,17,1.4,2.4170,M,8.322,M,00,0004*6B
$GPHPD,1957,30233.400,57.76,0.11,13.34,31.5883492,120.7791682,2.417,13634284.092,24927512.759,2.417,-0.805,-0.880,0.628,0.672,1.092,0.597,0.000,17,14,4*79
$GPGGA,082335.80,3135.3010279,N,12046.7502373,E,4,17,1.4,2.4168,M,8.322,M,00,0004*67
$GPHPD,1957,30233.600,57.91,0.07,13.33,31.5883505,120.7791706,2.417,13634283.309,24927514.089,2.417,-0.795,-0.907,0.626,0.672,1.092,0.597,0.000,17,14,4*7C
$GPGGA,082336.00,3135.3011035,N,12046.7503796,E,4,17,1.4,2.4118,M,8.322,M,01,0004*6F
$GPHPD,1957,30233.800,57.74,-0.52,13.32,31.5883517,120.7791730,2.412,13634282.521,24927515.365,2.412,-0.803,-0.915,0.616,0.672,1.092,0.597,0.000,17,14,4*5E
$GPGGA,082336.20,3135.3011795,N,12046.7505236,E,4,17,1.4,2.4120,M,8.322,M,01,0004*62
$GPHPD,1957,30234.000,57.69,-0.48,13.32,31.5883530,120.7791754,2.412,13634281.730,24927516.659,2.412,-0.778,-0.932,0.594,0.560,0.988,0.596,0.000,17,14,4*54
$GPGGA,082336.40,3135.3012569,N,12046.7506684,E,4,17,1.4,2.4153,M,8.322,M,01,0004*6C
$GPHPD,1957,30234.200,57.69,-0.59,13.31,31.5883543,120.7791778,2.415,13634280.922,24927517.955,2.415,-0.780,-0.918,0.598,0.560,0.988,0.596,0.000,17,14,4*52
$GPGGA,082336.60,3135.3013324,N,12046.7508111,E,4,17,1.4,2.4148,M,8.322,M,00,0004*6E
$GPHPD,1957,30234.400,57.55,-0.80,13.30,31.5883555,120.7791802,2.415,13634280.136,24927519.237,2.415,-0.797,-0.894,0.607,0.560,0.988,0.596,0.000,17,14,4*51
$GPGGA,082336.80,3135.3014091,N,12046.7509589,E,4,17,1.4,2.4084,M,8.322,M,00,0004*6F
$GPHPD,1957,30234.600,57.63,-0.44,13.30,31.5883568,120.7791826,2.408,13634279.343,24927520.573,2.408,-0.784,-0.900,0.592,0.560,0.988,0.596,0.000,17,14,4*5C
$GPGGA,082337.00,3135.3014853,N,12046.7511007,E,4,17,1.4,2.4089,M,8.322,M,01,0004*66
$GPHPD,1957,30234.800,57.27,-0.15,13.32,31.5883581,120.7791850,2.409,13634278.546,24927521.840,2.409,-0.775,-0.951,0.568,0.560,0.988,0.596,0.000,17,14,4*53
$GPGGA,082337.20,3135.3015647,N,12046.7512450,E,4,17,1.4,2.4095,M,8.322,M,01,0004*66
$GPHPD,1957,30235.000,57.44,-0.35,13.31,31.5883594,120.7791874,2.410,13634277.707,24927523.118,2.410,-0.782,-0.910,0.599,0.560,0.988,0.596,0.000,17,14,4*51
$GPGGA,082337.40,3135.3016421,N,12046.7513903,E,4,18,1.4,2.4139,M,8.322,M,01,0004*63
$GPHPD,1957,30235.200,57.49,-0.02,13.34,31.5883607,120.7791898,2.414,13634276.900,24927524.420,2.414,-0.785,-0.906,0.610,0.560,0.988,0.596,0.000,18,14,4*58
$GPGGA,082337.60,3135.3017206,N,12046.7515318,E,4,18,1.4,2.4092,M,8.322,M,00,0004*64
$GPHPD,1957,30235.400,57.29,-0.32,13.34,31.5883620,120.7791922,2.409,13634276.069,24927525.670,2.409,-0.787,-0.901,0.608,0.578,1.022,0.689,0.000,18,15,4*5F
$GPGGA,082337.80,3135.3017979,N,12046.7516780,E,4,18,1.4,2.4089,M,8.322,M,00,0004*65
$GPHPD,1957,30235.600,57.50,0.04,13.34,31.5883633,120.7791946,2.409,13634275.264,24927526.984,2.409,-0.772,-0.917,0.607,0.566,0.997,0.628,0.000,18,15,4*70
$GPGGA,082338.00,3135.3018726,N,12046.7518189,E,4,18,1.3,2.4138,M,8.322,M,01,0004*65
$GPHPD,1957,30235.800,57.44,0.16,13.33,31.5883645,120.7791970,2.414,13634274.486,24927528.248,2.414,-0.790,-0.893,0.613,0.566,0.997,0.628,0.000,18,15,4*71
$GPGGA,082338.20,3135.3019485,N,12046.7519602,E,4,18,1.3,2.4066,M,8.322,M,01,0004*63
$GPHPD,1957,30236.000,57.64,-0.28,13.34,31.5883658,120.7791993,2.407,13634273.692,24927529.511,2.407,-0.782,-0.891,0.605,0.566,0.997,0.628,0.000,18,15,4*52
$GPGGA,082338.40,3135.3020275,N,12046.7520998,E,4,18,1.3,2.4111,M,8.322,M,01,0004*61
$GPHPD,1957,30236.200,57.51,-0.22,13.34,31.5883671,120.7792017,2.411,13634272.850,24927530.735,2.411,-0.766,-0.908,0.586,0.566,0.997,0.628,0.000,18,15,4*5F
$GPGGA,082338.60,3135.3021055,N,12046.7522457,E,4,18,1.3,2.4069,M,8.322,M,00,0004*61
$GPHPD,1957,30236.400,57.62,-0.18,13.35,31.5883684,120.7792041,2.407,13634272.035,24927532.040,2.407,-0.764,-0.882,0.610,0.566,0.997,0.628,0.000,18,15,4*59
$GPGGA,082338.80,3135.3021825,N,12046.7523911,E,4,18,1.3,2.3939,M,8.322,M,00,0004*65
$GPHPD,1957,30236.600,57.45,-0.18,13.36,31.5883697,120.7792065,2.394,13634271.233,24927533.346,2.394,-0.765,-0.925,0.605,0.560,0.988,0.596,0.000,18,15,4*5D
$GPGGA,082339.00,3135.3022573,N,12046.7525327,E,4,18,1.3,2.4031,M,8.322,M,01,0004*6F
$GPHPD,1957,30236.800,57.25,0.00,13.38,31.5883710,120.7792089,2.403,13634270.455,24927534.618,2.403,-0.772,-0.933,0.589,0.566,0.997,0.628,0.000,18,15,4*75
$GPGGA,082339.20,3135.3023337,N,12046.7526741,E,4,18,1.3,2.4021,M,8.322,M,01,0004*6C
$GPHPD,1957,30237.000,57.40,-0.18,13.40,31.5883722,120.7792112,2.402,13634269.654,24927535.879,2.402,-0.765,-0.919,0.578,0.566,0.997,0.628,0.000,18,15,4*55
$GPGGA,082339.40,3135.3024104,N,12046.7528156,E,4,18,1.3,2.4059,M,8.322,M,01,0004*6E
$GPHPD,1957,30237.200,57.03,-0.31,13.40,31.5883735,120.7792136,2.406,13634268.848,24927537.139,2.406,-0.774,-0.888,0.587,0.566,0.997,0.628,0.000,18,15,4*5F
$GPGGA,082339.60,3135.3024867,N,12046.7529575,E,4,18,1.2,2.4079,M,8.322,M,00,0004*66
$GPHPD,1957,30237.400,57.20,-0.01,13.38,31.5883748,120.7792160,2.408,13634268.049,24927538.407,2.408,-0.783,-0.866,0.615,0.560,0.989,0.596,0.000,18,16,4*5F
$GPGGA,082339.80,3135.3025633,N,12046.7530988,E,4,18,1.2,2.4126,M,8.322,M,00,0004*6B
$GPHPD,1957,30237.600,57.44,0.86,13.39,31.5883761,120.7792183,2.413,13634267.245,24927539.665,2.413,-0.773,-0.890,0.602,0.560,0.989,0.596,0.000,18,16,4*7C
$GPGGA,082340.00,3135.3026398,N,12046.7532373,E,4,18,1.2,2.4164,M,8.322,M,01,0004*61
$GPHPD,1957,30237.800,57.31,-0.05,13.40,31.5883773,120.7792206,2.416,13634266.436,24927540.890,2.416,-0.768,-0.902,0.587,0.566,0.997,0.628,0.000,18,16,4*5D
$GPGGA,082340.20,3135.3027171,N,12046.7533815,E,4,18,1.2,2.4138,M,8.322,M,01,0004*64
$GPHPD,1957,30238.000,57.25,-0.29,13.41,31.5883786,120.7792230,2.414,13634265.628,24927542.180,2.414,-0.755,-0.895,0.601,0.560,0.989,0.596,0.000,18,16,4*58
$GPGGA,082340.40,3135.3027922,N,12046.7535213,E,4,18,1.2,2.4231,M,8.322,M,01,0004*6C
$GPHPD,1957,30238.200,57.00,-0.44,13.41,31.5883799,120.7792254,2.423,13634264.842,24927543.429,2.423,-0.779,-0.876,0.615,0.560,0.989,0.596,0.000,18,16,4*58
$GPGGA,082340.60,3135.3028690,N,12046.7536640,E,4,18,1.2,2.4144,M,8.322,M,00,0004*66
$GPHPD,1957,30238.400,57.11,-0.22,13.43,31.5883812,120.7792277,2.414,13634264.038,24927544.703,2.414,-0.771,-0.869,0.612,0.560,0.989,0.596,0.000,18,16,4*59
$GPGGA,082340.80,3135.3029465,N,12046.7537999,E,4,18,1.2,2.4192,M,8.322,M,00,0004*60
$GPHPD,1957,30238.600,57.02,-0.44,13.44,31.5883824,120.7792300,2.419,13634263.209,24927545.891,2.419,-0.770,-0.886,0.592,0.560,0.989,0.596,0.000,18,16,4*53
$GPGGA,082341.00,3135.3030209,N,12046.7539409,E,4,18,1.2,2.4168,M,8.322,M,01,0004*63
$GPHPD,1957,30238.800,57.13,-0.70,13.45,31.5883837,120.7792323,2.417,13634262.436,24927547.158,2.417,-0.752,-0.865,0.613,0.560,0.989,0.596,0.000,18,16,4*5A
$GPGGA,082341.20,3135.3030970,N,12046.7540804,E,4,18,1.2,2.4026,M,8.322,M,01,0004*60
$GPHPD,1957,30239.000,56.97,-0.13,13.45,31.5883850,120.7792347,2.403,13634261.635,24927548.398,2.403,-0.760,-0.902,0.583,0.560,0.989,0.596,0.000,18,16,4*50
$GPGGA,082341.40,3135.3031730,N,12046.7542186,E,4,18,1.2,2.4114,M,8.322,M,01,0004*6C
$GPHPD,1957,30239.200,57.01,-0.32,13.48,31.5883862,120.7792370,2.411,13634260.833,24927549.623,2.411,-0.746,-0.913,0.574,0.560,0.989,0.596,0.000,18,16,4*56
$GPGGA,082341.60,3135.3032478,N,12046.7543573,E,4,18,1.2,2.4161,M,8.322,M,00,0004*6E
$GPHPD,1957,30239.400,56.96,-0.49,13.50,31.5883875,120.7792393,2.416,13634260.049,24927550.860,2.416,-0.741,-0.892,0.596,0.560,0.989,0.596,0.000,18,16,4*56
$GPGGA,082341.80,3135.3033255,N,12046.7544977,E,4,18,1.2,2.4150,M,8.322,M,00,0004*65
$GPHPD,1957,30239.600,56.95,-0.15,13.49,31.5883888,120.7792416,2.415,13634259.227,24927552.101,2.415,-0.765,-0.854,0.598,0.560,0.989,0.596,0.000,18,16,4*50
$GPGGA,082342.00,3135.3034030,N,12046.7546370,E,4,18,1.2,2.4098,M,8.322,M,01,0004*63
$GPHPD,1957,30239.800,56.97,-0.26,13.51,31.5883901,120.7792440,2.410,13634258.406,24927553.330,2.410,-0.763,-0.885,0.605,0.560,0.989,0.596,0.000,18,16,4*5E
$GPGGA,082342.20,3135.3034802,N,12046.7547783,E,4,18,1.2,2.4133,M,8.322,M,01,0004*61
$GPHPD,1957,30240.000,56.69,-0.18,13.52,31.5883913,120.7792463,2.413,13634257.593,24927554.585,2.413,-0.750,-0.885,0.605,0.560,0.989,0.596,0.000,18,16,4*58
$GPGGA,082342.40,3135.3035567,N,12046.7549177,E,4,18,1.2,2.4083,M,8.322,M,01,0004*61
$GPHPD,1957,30240.200,56.76,-0.17,13.52,31.5883926,120.7792486,2.408,13634256.786,24927555.821,2.408,-0.750,-0.890,0.602,0.560,0.989,0.596,0.000,18,16,4*50
$GPGGA,082342.60,3135.3036317,N,12046.7550585,E,4,18,1.2,2.4165,M,8.322,M,00,0004*68
$GPHPD,1957,30240.400,56.87,0.06,13.53,31.5883939,120.7792510,2.417,13634256.004,24927557.083,2.417,-0.751,-0.899,0.592,0.560,0.989,0.596,0.000,18,16,4*79
$GPGGA,082342.80,3135.3037086,N,12046.7551962,E,4,18,1.2,2.4091,M,8.322,M,00,0004*62
$GPHPD,1957,30240.600,56.86,0.04,13.54,31.5883951,120.7792533,2.409,13634255.188,24927558.296,2.409,-0.770,-0.868,0.602,0.560,0.989,0.596,0.000,18,16,4*78
$GPGGA,082343.00,3135.3037844,N,12046.7553335,E,4,18,1.2,2.4104,M,8.322,M,01,0004*6B
$GPHPD,1957,30240.800,57.13,-0.01,13.55,31.5883964,120.7792556,2.410,13634254.387,24927559.511,2.410,-0.756,-0.872,0.602,0.560,0.989,0.596,0.000,18,16,4*5D
$GPGGA,082343.20,3135.3038604,N,12046.7554737,E,4,18,1.2,2.4200,M,8.322,M,01,0004*6A
$GPHPD,1957,30241.000,57.01,-0.41,13.53,31.5883977,120.7792579,2.420,13634253.589,24927560.760,2.420,-0.769,-0.851,0.602,0.560,0.989,0.596,0.000,18,16,4*56
$GPGGA,082343.40,3135.3039377,N,12046.7556122,E,4,18,1.2,2.4171,M,8.322,M,01,0004*69
$GPHPD,1957,30241.200,57.46,-0.33,13.52,31.5883990,120.7792602,2.417,13634252.769,24927561.980,2.417,-0.775,-0.860,0.605,0.560,0.989,0.596,0.000,18,16,4*51
$GPGGA,082343.60,3135.3040142,N,12046.7557533,E,4,18,1.2,2.4205,M,8.322,M,00,0004*65
$GPHPD,1957,30241.400,57.75,-0.45,13.54,31.5884002,120.7792626,2.421,13634251.965,24927563.237,2.421,-0.769,-0.863,0.607,0.560,0.989,0.596,0.000,18,16,4*5B
$GPGGA,082343.80,3135.3040851,N,12046.7558989,E,4,18,1.2,2.4177,M,8.322,M,00,0004*64
$GPHPD,1957,30241.600,57.77,-0.17,13.55,31.5884014,120.7792650,2.418,13634251.251,24927564.580,2.418,-0.779,-0.865,0.609,0.560,0.989,0.596,0.000,18,16,4*52
$GPGGA,082344.00,3135.3041606,N,12046.7560432,E,4,18,1.2,2.4180,M,8.322,M,01,0004*69
$GPHPD,1957,30241.800,57.67,-0.43,13.55,31.5884027,120.7792674,2.418,13634250.468,24927565.881,2.418,-0.802,-0.869,0.584,0.560,0.989,0.596,0.000,18,16,4*53
$GPGGA,082344.20,3135.3042374,N,12046.7561855,E,4,18,1.2,2.4121,M,8.322,M,01,0004*6F
$GPHPD,1957,30242.000,57.71,-0.10,13.55,31.5884040,120.7792698,2.412,13634249.663,24927567.150,2.412,-0.789,-0.899,0.594,0.560,0.989,0.596,0.000,18,16,4*5E
$GPGGA,082344.40,3135.3043147,N,12046.7563309,E,4,18,1.2,2.4058,M,8.322,M,01,0004*65
$GPHPD,1957,30242.200,58.09,-0.15,13.50,31.5884052,120.7792722,2.406,13634248.857,24927568.454,2.406,-0.781,-0.895,0.593,0.568,1.006,0.637,0.000,18,16,4*55
$GPGGA,082344.60,3135.3043918,N,12046.7564772,E,4,18,1.2,2.4081,M,8.322,M,00,0004*6F
$GPHPD,1957,30242.400,58.03,0.26,13.47,31.5884065,120.7792746,2.408,13634248.055,24927569.770,2.408,-0.773,-0.937,0.594,0.560,0.989,0.596,0.000,18,16,4*76
$GPGGA,082344.80,3135.3044680,N,12046.7566212,E,4,18,1.2,2.4136,M,8.322,M,00,0004*64
$GPHPD,1957,30242.600,57.78,0.32,13.42,31.5884078,120.7792770,2.414,13634247.262,24927571.063,2.414,-0.789,-0.964,0.590,0.560,0.989,0.596,0.000,18,16,4*7C
$GPGGA,082345.00,3135.3045457,N,12046.7567643,E,4,18,1.2,2.4143,M,8.322,M,01,0004*66
$GPHPD,1957,30242.800,57.90,0.44,13.38,31.5884091,120.7792794,2.414,13634246.446,24927572.337,2.414,-0.792,-0.894,0.613,0.560,0.989,0.596,0.000,18,16,4*79
$GPGGA,082345.20,3135.3046207,N,12046.7569103,E,4,18,1.2,2.4218,M,8.322,M,01,0004*64
$GPHPD,1957,30243.000,58.17,0.10,13.36,31.5884103,120.7792818,2.422,13634245.674,24927573.661,2.422,-0.792,-0.897,0.612,0.560,0.989,0.596,0.000,18,16,4*7B
$GPGGA,082345.40,3135.3046941,N,12046.7570535,E,4,18,1.2,2.4271,M,8.322,M,01,0004*6D
$GPHPD,1957,30243.200,58.10,0.04,13.40,31.5884116,120.7792842,2.427,13634244.919,24927574.961,2.427,-0.807,-0.912,0.598,0.560,0.989,0.596,0.000,18,16,4*72
$GPGGA,082345.60,3135.3047699,N,12046.7571969,E,4,18,1.2,2.4262,M,8.323,M,00,0004*62
$GPHPD,1957,30243.400,57.97,-0.67,13.39,31.5884128,120.7792866,2.426,13634244.130,24927576.250,2.426,-0.806,-0.862,0.602,0.566,0.997,0.628,0.000,18,16,4*59
$GPGGA,082345.80,3135.3048455,N,12046.7573425,E,4,18,1.2,2.4264,M,8.323,M,00,0004*60
$GPHPD,1957,30243.600,58.08,-0.43,13.35,31.5884141,120.7792890,2.426,13634243.348,24927577.566,2.426,-0.800,-0.876,0.622,0.560,0.989,0.596,0.000,18,16,4*59
$GPGGA,082346.00,3135.3049198,N,12046.7574865,E,4,18,1.2,2.4217,M,8.323,M,01,0004*64
$GPHPD,1957,30243.800,58.18,-0.63,13.38,31.5884153,120.7792914,2.422,13634242.582,24927578.870,2.422,-0.793,-0.933,0.580,0.560,0.989,0.596,0.000,18,16,4*5D
$GPGGA,082346.20,3135.3049968,N,12046.7576319,E,4,18,1.2,2.4290,M,8.323,M,01,0004*6C
$GPHPD,1957,30244.000,58.23,-0.42,13.41,31.5884166,120.7792939,2.429,13634241.780,24927580.176,2.429,-0.773,-0.918,0.579,0.560,0.989,0.596,0.000,18,16,4*54
$GPGGA,082346.40,3135.3050724,N,12046.7577738,E,4,18,1.2,2.4246,M,8.323,M,01,0004*69
$GPHPD,1957,30244.200,57.99,-0.85,13.40,31.5884179,120.7792962,2.425,13634240.991,24927581.447,2.425,-0.804,-0.887,0.611,0.560,0.989,0.596,0.000,18,16,4*5E
$GPGGA,082346.60,3135.3051479,N,12046.7579170,E,4,18,1.2,2.4184,M,8.323,M,00,0004*69
$GPHPD,1957,30244.400,58.22,-0.12,13.46,31.5884191,120.7792986,2.418,13634240.206,24927582.735,2.418,-0.761,-0.918,0.593,0.560,0.989,0.596,0.000,18,16,4*51
$GPGGA,082346.80,3135.3052234,N,12046.7580615,E,4,18,1.2,2.4233,M,8.323,M,00,0004*66
$GPHPD,1957,30244.600,58.08,-0.23,13.47,31.5884204,120.7793010,2.423,13634239.424,24927584.038,2.423,-0.792,-0.881,0.584,0.560,0.989,0.596,0.000,18,16,4*5F
$GPGGA,082347.00,3135.3052976,N,12046.7582054,E,4,18,1.2,2.4342,M,8.323,M,01,0004*65
$GPHPD,1957,30244.800,57.87,-0.53,13.47,31.5884216,120.7793034,2.434,13634238.659,24927585.342,2.434,-0.782,-0.886,0.600,0.560,0.989,0.596,0.000,18,16,4*54
$GPGGA,082347.20,3135.3053729,N,12046.7583521,E,4,18,1.2,2.4289,M,8.323,M,01,0004*62
$GPHPD,1957,30245.000,57.98,-0.76,13.47,31.5884229,120.7793059,2.429,13634237.884,24927586.673,2.429,-0.800,-0.874,0.606,0.566,0.997,0.628,0.000,18,16,4*57
$GPGGA,082347.40,3135.3054518,N,12046.7584978,E,4,18,1.2,2.4271,M,8.323,M,01,0004*63
$GPHPD,1957,30245.200,58.04,-0.82,13.45,31.5884242,120.7793083,2.427,13634237.056,24927587.971,2.427,-0.835,-0.856,0.599,0.560,0.989,0.596,0.000,18,16,4*5B
$GPGGA,082347.60,3135.3055258,N,12046.7586406,E,4,18,1.2,2.4211,M,8.323,M,00,0004*62
$GPHPD,1957,30245.400,58.18,-0.66,13.43,31.5884254,120.7793107,2.421,13634236.292,24927589.263,2.421,-0.797,-0.914,0.606,0.566,0.997,0.628,0.000,18,16,4*51
$GPGGA,082347.80,3135.3056006,N,12046.7587854,E,4,18,1.2,2.4272,M,8.323,M,00,0004*69
$GPHPD,1957,30245.600,58.22,-0.80,13.43,31.5884267,120.7793131,2.427,13634235.520,24927590.574,2.427,-0.778,-0.940,0.572,0.568,1.006,0.637,0.000,18,16,4*53
$GPGGA,082348.00,3135.3056774,N,12046.7589283,E,4,18,1.2,2.4254,M,8.323,M,01,0004*67
$GPHPD,1957,30245.800,58.24,-0.59,13.43,31.5884280,120.7793155,2.425,13634234.716,24927591.850,2.425,-0.805,-0.884,0.591,0.560,0.989,0.596,0.000,18,16,4*56
$GPGGA,082348.20,3135.3057530,N,12046.7590768,E,4,18,1.2,2.4126,M,8.323,M,01,0004*68
$GPHPD,1957,30246.000,58.20,-0.44,13.43,31.5884292,120.7793179,2.413,13634233.940,24927593.201,2.413,-0.784,-0.889,0.599,0.568,1.006,0.637,0.000,18,16,4*52
$GPGGA,082348.40,3135.3058266,N,12046.7592167,E,4,18,1.2,2.4253,M,8.323,M,01,0004*6F
$GPHPD,1957,30246.200,58.05,-0.25,13.43,31.5884304,120.7793203,2.425,13634233.176,24927594.460,2.425,-0.797,-0.925,0.579,0.560,0.989,0.596,0.000,18,16,4*5F
$GPGGA,082348.60,3135.3059034,N,12046.7593625,E,4,18,1.2,2.4221,M,8.323,M,00,0004*6D
$GPHPD,1957,30246.400,57.94,-0.44,13.43,31.5884317,120.7793227,2.422,13634232.377,24927595.772,2.422,-0.797,-0.846,0.613,0.560,0.989,0.596,0.000,18,16,4*55
