$GPGGA,082733.20,3135.3418606,N,12046.8142381,E,4,18,1.2,2.6615,M,8.326,M,01,0004*6E
$GPHPD,1957,30471.000,242.02,-0.17,13.54,31.5890310,120.7802373,2.662,13633831.722,24928048.340,2.662,0.338,0.397,-0.205,0.561,0.990,0.598,0.000,18,17,4*44
$GPGGA,082733.40,3135.3418337,N,12046.8141788,E,4,18,1.2,2.6698,M,8.326,M,01,0004*64
$GPHPD,1957,30471.200,241.85,-0.07,13.53,31.5890306,120.7802363,2.670,13633831.985,24928047.782,2.670,0.358,0.334,-0.239,0.623,1.011,0.601,0.000,18,17,4*4B
$GPGGA,082733.60,3135.3418054,N,12046.8141189,E,4,18,1.2,2.6666,M,8.326,M,00,0004*67
$GPHPD,1957,30471.400,241.79,-0.34,13.53,31.5890301,120.7802353,2.667,13633832.266,24928047.224,2.667,0.327,0.390,-0.202,0.561,0.990,0.598,0.000,18,17,4*4F
$GPGGA,082733.80,3135.3417796,N,12046.8140583,E,4,18,1.2,2.6651,M,8.326,M,00,0004*64
$GPHPD,1957,30471.600,241.79,-0.15,13.54,31.5890297,120.7802343,2.665,13633832.511,24928046.643,2.665,0.348,0.345,-0.232,0.561,0.990,0.598,0.000,18,17,4*47
$GPGGA,082734.00,3135.3417499,N,12046.8139971,E,4,18,1.2,2.6663,M,8.326,M,01,0004*68
$GPHPD,1957,30471.800,241.49,-0.48,13.53,31.5890292,120.7802333,2.666,13633832.810,24928046.078,2.666,0.342,0.380,-0.202,0.623,1.011,0.601,0.000,18,17,4*42
$GPGGA,082734.20,3135.3417234,N,12046.8139373,E,4,18,1.2,2.6660,M,8.326,M,01,0004*60
$GPHPD,1957,30472.000,241.66,-0.83,13.52,31.5890287,120.7802323,2.666,13633833.066,24928045.511,2.666,0.347,0.356,-0.233,0.623,1.011,0.601,0.000,18,17,4*4A
$GPGGA,082734.40,3135.3416951,N,12046.8138787,E,4,18,1.2,2.6710,M,8.326,M,01,0004*67
$GPHPD,1957,30472.200,241.59,-0.78,13.50,31.5890283,120.7802313,2.671,13633833.351,24928044.969,2.671,0.333,0.375,-0.205,0.561,0.990,0.598,0.000,18,17,4*40
$GPGGA,082734.60,3135.3416682,N,12046.8138200,E,4,18,1.2,2.6674,M,8.326,M,00,0004*6C
$GPHPD,1957,30472.400,241.65,-1.08,13.50,31.5890278,120.7802303,2.667,13633833.615,24928044.418,2.667,0.313,0.383,-0.212,0.561,0.990,0.598,0.000,18,17,4*49
$GPGGA,082734.80,3135.3416423,N,12046.8137638,E,4,18,1.2,2.6638,M,8.326,M,00,0004*63
$GPHPD,1957,30472.600,241.57,-1.07,13.49,31.5890274,120.7802294,2.664,13633833.870,24928043.891,2.664,0.333,0.337,-0.226,0.561,0.990,0.598,0.000,18,17,4*43
$GPGGA,082735.00,3135.3416160,N,12046.8137081,E,4,18,1.2,2.6744,M,8.326,M,01,0004*67
$GPHPD,1957,30472.800,241.47,-0.71,13.48,31.5890269,120.7802285,2.674,13633834.132,24928043.372,2.674,0.324,0.334,-0.218,0.623,1.011,0.601,0.000,18,17,4*40
$GPGGA,082735.20,3135.3415923,N,12046.8136542,E,4,18,1.2,2.6667,M,8.326,M,01,0004*62
$GPHPD,1957,30473.000,241.45,-0.54,13.48,31.5890265,120.7802276,2.667,13633834.360,24928042.860,2.667,0.309,0.342,-0.197,0.623,1.011,0.601,0.000,18,17,4*4A
$GPGGA,082735.40,3135.3415654,N,12046.8136021,E,4,18,1.2,2.6683,M,8.326,M,01,0004*61
$GPHPD,1957,30473.200,241.47,-0.65,13.47,31.5890261,120.7802267,2.668,13633834.638,24928042.388,2.668,0.321,0.301,-0.196,0.623,1.011,0.601,0.000,18,17,4*4A
$GPGGA,082735.60,3135.3415429,N,12046.8135532,E,4,18,1.2,2.6720,M,8.326,M,00,0004*66
$GPHPD,1957,30473.400,241.66,-0.74,13.47,31.5890257,120.7802259,2.672,13633834.859,24928041.929,2.672,0.289,0.318,-0.187,0.623,1.011,0.601,0.000,18,17,4*47
$GPGGA,082735.80,3135.3415204,N,12046.8135046,E,4,18,1.2,2.6584,M,8.326,M,00,0004*6B
$GPHPD,1957,30473.600,241.53,-0.82,13.47,31.5890253,120.7802251,2.658,13633835.081,24928041.474,2.658,0.283,0.298,-0.168,0.623,1.011,0.601,0.000,18,17,4*4D
$GPGGA,082736.00,3135.3414973,N,12046.8134531,E,4,18,1.2,2.6654,M,8.326,M,01,0004*61
$GPHPD,1957,30473.800,241.34,-0.34,13.47,31.5890250,120.7802242,2.665,13633835.306,24928040.987,2.665,0.299,0.264,-0.198,0.623,1.011,0.601,0.000,18,17,4*45
$GPGGA,082736.20,3135.3414751,N,12046.8134042,E,4,18,1.2,2.6781,M,8.326,M,01,0004*65
$GPHPD,1957,30474.000,241.36,-0.81,13.49,31.5890246,120.7802234,2.678,13633835.523,24928040.527,2.678,0.280,0.299,-0.180,0.623,1.011,0.601,0.000,18,17,4*4A
$GPGGA,082736.40,3135.3414503,N,12046.8133536,E,4,18,1.2,2.6644,M,8.326,M,01,0004*6F
$GPHPD,1957,30474.200,241.26,-1.05,13.51,31.5890242,120.7802226,2.664,13633835.773,24928040.061,2.664,0.272,0.313,-0.165,0.623,1.011,0.601,0.000,18,17,4*4F
$GPGGA,082736.60,3135.3414255,N,12046.8132994,E,4,18,1.2,2.6682,M,8.326,M,00,0004*67
$GPHPD,1957,30474.400,240.99,-0.73,13.54,31.5890238,120.7802217,2.668,13633836.017,24928039.551,2.668,0.296,0.287,-0.201,0.623,1.011,0.601,0.000,18,17,4*4F
$GPGGA,082736.80,3135.3413977,N,12046.8132453,E,4,18,1.2,2.6654,M,8.326,M,00,0004*68
$GPHPD,1957,30474.600,240.83,-0.66,13.58,31.5890233,120.7802208,2.665,13633836.303,24928039.061,2.665,0.300,0.330,-0.195,0.623,1.011,0.601,0.000,18,17,4*46
$GPGGA,082737.00,3135.3413689,N,12046.8131849,E,4,18,1.2,2.6771,M,8.326,M,01,0004*6C
$GPHPD,1957,30474.800,240.68,-0.53,13.64,31.5890228,120.7802197,2.677,13633836.591,24928038.500,2.677,0.308,0.326,-0.212,0.623,1.011,0.601,0.000,18,17,4*46
$GPGGA,082737.20,3135.3413394,N,12046.8131191,E,4,18,1.3,2.6615,M,8.326,M,01,0004*69
$GPHPD,1957,30475.000,240.63,-0.31,13.69,31.5890223,120.7802187,2.662,13633836.878,24928037.878,2.662,0.314,0.367,-0.210,0.623,1.011,0.601,0.000,18,17,4*4A
$GPGGA,082737.40,3135.3413072,N,12046.8130548,E,4,18,1.3,2.6616,M,8.326,M,01,0004*66
$GPHPD,1957,30475.200,240.34,0.27,13.73,31.5890218,120.7802176,2.662,13633837.206,24928037.290,2.662,0.385,0.352,-0.259,0.623,1.011,0.601,0.000,18,17,4*60
$GPGGA,082737.60,3135.3412735,N,12046.8129876,E,4,18,1.3,2.6640,M,8.326,M,00,0004*6B
$GPHPD,1957,30475.400,240.09,0.20,13.75,31.5890212,120.7802165,2.664,13633837.550,24928036.676,2.664,0.365,0.388,-0.255,0.623,1.011,0.601,0.000,18,17,4*6D
$GPGGA,082737.80,3135.3412410,N,12046.8129175,E,4,18,1.3,2.6672,M,8.326,M,00,0004*6A
$GPHPD,1957,30475.600,240.11,-0.21,13.76,31.5890207,120.7802153,2.667,13633837.871,24928036.019,2.667,0.368,0.419,-0.263,0.695,1.011,0.612,0.000,18,17,4*41
$GPGGA,082738.00,3135.3412067,N,12046.8128523,E,4,18,1.3,2.6688,M,8.326,M,01,0004*6B
$GPHPD,1957,30475.800,240.28,-0.56,13.73,31.5890201,120.7802142,2.669,13633838.227,24928035.433,2.669,0.391,0.431,-0.265,0.695,1.011,0.612,0.000,18,17,4*45
$GPGGA,082738.20,3135.3411765,N,12046.8127869,E,4,18,1.3,2.6673,M,8.326,M,01,0004*67
$GPHPD,1957,30476.000,240.28,-0.83,13.67,31.5890196,120.7802131,2.667,13633838.525,24928034.820,2.667,0.363,0.444,-0.250,0.623,1.011,0.601,0.000,18,17,4*46
$GPGGA,082738.40,3135.3411488,N,12046.8127262,E,4,18,1.3,2.6688,M,8.326,M,01,0004*64
$GPHPD,1957,30476.200,240.11,-0.79,13.60,31.5890191,120.7802121,2.669,13633838.796,24928034.249,2.669,0.353,0.419,-0.241,0.623,1.011,0.601,0.000,18,17,4*4E
$GPGGA,082738.60,3135.3411194,N,12046.8126708,E,4,18,1.3,2.6694,M,8.326,M,00,0004*6A
$GPHPD,1957,30476.400,239.83,-0.61,13.56,31.5890187,120.7802112,2.669,13633839.103,24928033.752,2.669,0.326,0.367,-0.216,0.623,1.011,0.601,0.000,18,17,4*4B
$GPGGA,082738.80,3135.3410925,N,12046.8126168,E,4,18,1.3,2.6640,M,8.326,M,00,0004*6E
$GPHPD,1957,30476.600,239.84,-0.68,13.56,31.5890182,120.7802103,2.664,13633839.376,24928033.257,2.664,0.301,0.348,-0.216,0.623,1.011,0.601,0.000,18,17,4*4A
$GPGGA,082739.00,3135.3410659,N,12046.8125598,E,4,18,1.3,2.6633,M,8.326,M,01,0004*6E
$GPHPD,1957,30476.800,239.80,-0.62,13.56,31.5890178,120.7802093,2.663,13633839.640,24928032.724,2.663,0.306,0.322,-0.220,0.623,1.011,0.601,0.000,18,17,4*49
$GPGGA,082739.20,3135.3410369,N,12046.8125033,E,4,18,1.3,2.6671,M,8.326,M,01,0004*68
$GPHPD,1957,30477.000,239.62,-0.07,13.57,31.5890173,120.7802084,2.667,13633839.938,24928032.212,2.667,0.299,0.360,-0.209,0.623,1.011,0.601,0.000,18,17,4*49
$GPGGA,082739.40,3135.3410104,N,12046.8124495,E,4,18,1.3,2.6658,M,8.326,M,01,0004*65
$GPHPD,1957,30477.200,239.74,-0.59,13.58,31.5890168,120.7802075,2.666,13633840.207,24928031.717,2.666,0.309,0.341,-0.221,0.623,1.011,0.601,0.000,18,17,4*47
$GPGGA,082739.60,3135.3409817,N,12046.8123916,E,4,18,1.3,2.6641,M,8.326,M,00,0004*6C
$GPHPD,1957,30477.400,239.65,-0.48,13.59,31.5890164,120.7802065,2.664,13633840.498,24928031.186,2.664,0.321,0.321,-0.209,0.623,1.011,0.601,0.000,18,17,4*45
$GPGGA,082739.80,3135.3409523,N,12046.8123347,E,4,18,1.3,2.6643,M,8.326,M,00,0004*64
$GPHPD,1957,30477.600,239.49,0.28,13.61,31.5890159,120.7802056,2.664,13633840.801,24928030.671,2.664,0.314,0.361,-0.220,0.623,1.011,0.601,0.000,18,17,4*6C
$GPGGA,082740.00,3135.3409206,N,12046.8122733,E,4,18,1.3,2.6594,M,8.326,M,01,0004*6C
$GPHPD,1957,30477.800,239.43,0.07,13.63,31.5890153,120.7802046,2.659,13633841.128,24928030.115,2.659,0.308,0.376,-0.229,0.623,1.011,0.601,0.000,18,17,4*68
$GPGGA,082740.20,3135.3408883,N,12046.8122120,E,4,18,1.3,2.6662,M,8.326,M,01,0004*66
$GPHPD,1957,30478.000,239.53,-0.25,13.64,31.5890148,120.7802035,2.666,13633841.464,24928029.563,2.666,0.343,0.370,-0.247,0.623,1.011,0.601,0.000,18,17,4*4B
$GPGGA,082740.40,3135.3408551,N,12046.8121450,E,4,18,1.3,2.6736,M,8.326,M,01,0004*63
$GPHPD,1957,30478.200,239.62,-0.38,13.64,31.5890143,120.7802024,2.674,13633841.801,24928028.948,2.674,0.334,0.392,-0.248,0.639,1.027,0.640,0.000,18,17,4*4F
$GPGGA,082740.60,3135.3408244,N,12046.8120812,E,4,18,1.3,2.6718,M,8.326,M,00,0004*64
$GPHPD,1957,30478.400,239.54,-0.06,13.62,31.5890137,120.7802014,2.672,13633842.109,24928028.358,2.672,0.335,0.392,-0.251,0.623,1.011,0.601,0.000,18,17,4*4C
$GPGGA,082740.80,3135.3407940,N,12046.8120210,E,4,18,1.3,2.6622,M,8.326,M,00,0004*6A
$GPHPD,1957,30478.600,239.16,0.17,13.60,31.5890132,120.7802004,2.662,13633842.420,24928027.809,2.662,0.370,0.382,-0.261,0.623,1.011,0.601,0.000,18,17,4*6E
$GPGGA,082741.00,3135.3407616,N,12046.8119624,E,4,18,1.3,2.6675,M,8.326,M,01,0004*65
$GPHPD,1957,30478.800,239.19,0.01,13.58,31.5890127,120.7801994,2.668,13633842.763,24928027.290,2.668,0.348,0.387,-0.252,0.623,1.011,0.601,0.000,18,17,4*64
$GPGGA,082741.20,3135.3407307,N,12046.8119001,E,4,18,1.3,2.6778,M,8.326,M,01,0004*6F
$GPHPD,1957,30479.000,239.26,0.33,13.55,31.5890122,120.7801983,2.678,13633843.076,24928026.719,2.678,0.317,0.387,-0.246,0.623,1.011,0.601,0.000,18,17,4*66
$GPGGA,082741.40,3135.3407014,N,12046.8118457,E,4,18,1.3,2.6799,M,8.326,M,01,0004*61
$GPHPD,1957,30479.200,239.29,-0.05,13.52,31.5890117,120.7801974,2.680,13633843.383,24928026.233,2.680,0.325,0.411,-0.223,0.623,1.011,0.601,0.000,18,17,4*44
$GPGGA,082741.60,3135.3406765,N,12046.8117906,E,4,18,1.3,2.6786,M,8.326,M,00,0004*6A
$GPHPD,1957,30479.400,239.35,-0.04,13.50,31.5890113,120.7801965,2.679,13633843.626,24928025.714,2.679,0.309,0.327,-0.232,0.623,1.011,0.601,0.000,18,17,4*4D
$GPGGA,082741.80,3135.3406466,N,12046.8117368,E,4,18,1.3,2.6725,M,8.326,M,00,0004*6F
$GPHPD,1957,30479.600,239.21,-0.34,13.50,31.5890108,120.7801956,2.673,13633843.943,24928025.239,2.673,0.315,0.302,-0.198,0.623,1.011,0.601,0.000,18,17,4*4C
$GPGGA,082742.00,3135.3406178,N,12046.8116784,E,4,18,1.3,2.6644,M,8.326,M,01,0004*6E
$GPHPD,1957,30479.800,239.32,-0.93,13.51,31.5890103,120.7801946,2.664,13633844.235,24928024.702,2.664,0.342,0.289,-0.254,0.623,1.011,0.601,0.000,18,17,4*44
$GPGGA,082742.20,3135.3405860,N,12046.8116206,E,4,18,1.3,2.6638,M,8.326,M,01,0004*6B
$GPHPD,1957,30480.000,239.05,-0.17,13.52,31.5890098,120.7801937,2.664,13633844.571,24928024.190,2.664,0.340,0.310,-0.245,0.623,1.011,0.601,0.000,18,17,4*4D
$GPGGA,082742.40,3135.3405561,N,12046.8115583,E,4,18,1.3,2.6716,M,8.326,M,01,0004*65
$GPHPD,1957,30480.200,239.09,-0.22,13.54,31.5890093,120.7801926,2.672,13633844.870,24928023.613,2.672,0.307,0.373,-0.239,0.623,1.011,0.601,0.000,18,17,4*42
$GPGGA,082742.60,3135.3405241,N,12046.8114914,E,4,18,1.3,2.6658,M,8.326,M,00,0004*6B
$GPHPD,1957,30480.400,238.93,-0.81,13.59,31.5890087,120.7801915,2.666,13633845.190,24928022.992,2.666,0.349,0.376,-0.252,0.623,1.011,0.601,0.000,18,17,4*44
$GPGGA,082742.80,3135.3404883,N,12046.8114242,E,4,18,1.3,2.6711,M,8.326,M,00,0004*64
$GPHPD,1957,30480.600,238.73,-0.56,13.65,31.5890081,120.7801904,2.671,13633845.564,24928022.390,2.671,0.369,0.388,-0.259,0.623,1.011,0.601,0.000,18,17,4*44
$GPGGA,082743.00,3135.3404513,N,12046.8113508,E,4,18,1.3,2.6724,M,8.326,M,01,0004*60
$GPHPD,1957,30480.800,238.62,-0.38,13.72,31.5890075,120.7801892,2.672,13633845.942,24928021.720,2.672,0.379,0.439,-0.278,0.623,1.011,0.601,0.000,18,17,4*4A
$GPGGA,082743.20,3135.3404085,N,12046.8112701,E,4,18,1.3,2.6837,M,8.326,M,01,0004*6F
$GPHPD,1957,30481.000,238.51,-0.51,13.79,31.5890068,120.7801878,2.684,13633846.388,24928020.996,2.684,0.395,0.465,-0.286,0.623,1.011,0.601,0.000,18,17,4*48
$GPGGA,082743.40,3135.3403648,N,12046.8111887,E,4,18,1.3,2.6806,M,8.326,M,01,0004*69
$GPHPD,1957,30481.200,238.62,-0.51,13.82,31.5890061,120.7801865,2.681,13633846.846,24928020.268,2.681,0.447,0.475,-0.315,0.623,1.011,0.601,0.000,18,17,4*4A
$GPGGA,082743.60,3135.3403208,N,12046.8111021,E,4,18,1.3,2.6702,M,8.326,M,00,0004*65
$GPHPD,1957,30481.400,238.57,-0.41,13.82,31.5890053,120.7801850,2.670,13633847.297,24928019.480,2.670,0.442,0.542,-0.329,0.623,1.011,0.601,0.000,18,17,4*4E
$GPGGA,082743.80,3135.3402755,N,12046.8110115,E,4,18,1.3,2.6718,M,8.326,M,00,0004*6B
$GPHPD,1957,30481.600,238.61,-0.87,13.79,31.5890046,120.7801835,2.672,13633847.758,24928018.651,2.672,0.490,0.514,-0.365,0.623,1.011,0.602,0.000,18,17,4*4E
$GPGGA,082744.00,3135.3402307,N,12046.8109281,E,4,18,1.3,2.6625,M,8.326,M,01,0004*6F
$GPHPD,1957,30481.800,238.47,-1.15,13.76,31.5890038,120.7801821,2.663,13633848.227,24928017.906,2.663,0.498,0.524,-0.356,0.623,1.011,0.602,0.000,18,17,4*46
$GPGGA,082744.20,3135.3401844,N,12046.8108426,E,4,18,1.3,2.6701,M,8.326,M,01,0004*6F
$GPHPD,1957,30482.000,238.33,-0.47,13.72,31.5890031,120.7801807,2.670,13633848.713,24928017.144,2.670,0.485,0.530,-0.378,0.623,1.011,0.602,0.000,18,17,4*48
$GPGGA,082744.40,3135.3401438,N,12046.8107637,E,4,18,1.3,2.6674,M,8.326,M,01,0004*60
$GPHPD,1957,30482.200,238.34,-0.48,13.66,31.5890024,120.7801794,2.667,13633849.131,24928016.429,2.667,0.440,0.573,-0.347,0.623,1.011,0.602,0.000,18,17,4*4C
$GPGGA,082744.60,3135.3401026,N,12046.8106861,E,4,18,1.3,2.6752,M,8.326,M,01,0004*60
$GPHPD,1957,30482.400,238.22,-0.34,13.61,31.5890017,120.7801781,2.675,13633849.561,24928015.733,2.675,0.452,0.495,-0.340,0.623,1.011,0.602,0.000,18,17,4*42
$GPGGA,082744.80,3135.3400617,N,12046.8106081,E,4,18,1.3,2.6734,M,8.326,M,01,0004*6D
$GPHPD,1957,30482.600,237.91,-0.65,13.57,31.5890010,120.7801768,2.673,13633849.985,24928015.030,2.673,0.388,0.533,-0.303,0.623,1.011,0.602,0.000,18,17,4*4E
$GPGGA,082745.00,3135.3400244,N,12046.8105357,E,4,18,1.3,2.6700,M,8.326,M,02,0004*69
$GPHPD,1957,30482.800,237.91,-0.80,13.53,31.5890004,120.7801756,2.670,13633850.370,24928014.374,2.670,0.414,0.460,-0.306,0.623,1.011,0.602,0.000,18,17,4*4D
$GPGGA,082745.20,3135.3399878,N,12046.8104636,E,4,18,1.3,2.6728,M,8.326,M,02,0004*60
$GPHPD,1957,30483.000,238.18,-0.96,13.49,31.5889998,120.7801744,2.673,13633850.745,24928013.717,2.673,0.410,0.432,-0.306,0.623,1.011,0.602,0.000,18,17,4*46
$GPGGA,082745.40,3135.3399493,N,12046.8103919,E,4,18,1.3,2.6686,M,8.326,M,02,0004*6F
$GPHPD,1957,30483.200,237.98,-1.05,13.47,31.5889992,120.7801732,2.669,13633851.148,24928013.077,2.669,0.398,0.451,-0.293,0.623,1.011,0.602,0.000,18,17,4*49
$GPGGA,082745.60,3135.3399115,N,12046.8103222,E,4,18,1.3,2.6722,M,8.326,M,02,0004*6A
$GPHPD,1957,30483.400,237.91,-1.40,13.46,31.5889985,120.7801720,2.672,13633851.545,24928012.456,2.672,0.362,0.454,-0.291,0.623,1.011,0.602,0.000,18,17,4*4E
$GPGGA,082745.80,3135.3398752,N,12046.8102536,E,4,18,1.3,2.6702,M,8.326,M,00,0004*63
$GPHPD,1957,30483.600,237.85,-0.68,13.44,31.5889979,120.7801709,2.670,13633851.923,24928011.840,2.670,0.366,0.453,-0.276,0.623,1.011,0.602,0.000,18,17,4*46
$GPGGA,082746.00,3135.3398384,N,12046.8101841,E,4,18,1.3,2.6660,M,8.326,M,01,0004*6D
$GPHPD,1957,30483.800,238.00,-0.84,13.44,31.5889973,120.7801697,2.666,13633852.306,24928011.216,2.666,0.402,0.377,-0.302,0.623,1.011,0.602,0.000,18,17,4*45
$GPGGA,082746.20,3135.3398010,N,12046.8101117,E,4,18,1.3,2.6587,M,8.326,M,01,0004*61
$GPHPD,1957,30484.000,237.75,-1.09,13.45,31.5889967,120.7801685,2.659,13633852.692,24928010.561,2.659,0.410,0.407,-0.308,0.623,1.011,0.602,0.000,18,17,4*43
$GPGGA,082746.40,3135.3397630,N,12046.8100370,E,4,18,1.3,2.6564,M,8.326,M,01,0004*63
$GPHPD,1957,30484.200,237.62,-1.08,13.47,31.5889961,120.7801673,2.656,13633853.082,24928009.881,2.656,0.437,0.426,-0.319,0.695,1.011,0.612,0.000,18,17,4*4C
$GPGGA,082746.60,3135.3397199,N,12046.8099602,E,4,18,1.3,2.6637,M,8.326,M,00,0004*60
$GPHPD,1957,30484.400,237.57,-1.40,13.50,31.5889953,120.7801660,2.664,13633853.540,24928009.205,2.664,0.411,0.442,-0.317,0.623,1.011,0.602,0.000,18,17,4*4C
$GPGGA,082746.80,3135.3396746,N,12046.8098786,E,4,18,1.3,2.6688,M,8.326,M,00,0004*63
$GPHPD,1957,30484.600,237.50,-1.33,13.53,31.5889946,120.7801646,2.669,13633854.019,24928008.485,2.669,0.390,0.546,-0.310,0.623,1.011,0.602,0.000,18,17,4*43
$GPGGA,082747.00,3135.3396245,N,12046.8097975,E,4,18,1.3,2.6769,M,8.326,M,01,0004*6E
$GPHPD,1957,30484.800,237.45,-1.43,13.56,31.5889937,120.7801633,2.677,13633854.568,24928007.798,2.677,0.414,0.550,-0.319,0.623,1.011,0.602,0.000,18,17,4*49
$GPGGA,082747.20,3135.3395817,N,12046.8097082,E,4,18,1.3,2.6685,M,8.326,M,01,0004*60
$GPHPD,1957,30485.000,237.91,-0.96,13.60,31.5889930,120.7801618,2.669,13633854.997,24928006.970,2.669,0.428,0.561,-0.356,0.623,1.011,0.602,0.000,18,17,4*48
$GPGGA,082747.40,3135.3395324,N,12046.8096169,E,4,18,1.3,2.6728,M,8.326,M,01,0004*6E
$GPHPD,1957,30485.200,237.66,-0.63,13.64,31.5889922,120.7801603,2.673,13633855.514,24928006.156,2.673,0.531,0.516,-0.387,0.623,1.011,0.602,0.000,18,17,4*4A
$GPGGA,082747.60,3135.3394840,N,12046.8095256,E,4,18,1.3,2.6633,M,8.326,M,00,0004*62
$GPHPD,1957,30485.400,237.79,0.24,13.66,31.5889914,120.7801588,2.663,13633856.018,24928005.337,2.663,0.496,0.567,-0.388,0.623,1.011,0.602,0.000,18,17,4*62
$GPGGA,082747.80,3135.3394353,N,12046.8094308,E,4,18,1.3,2.6647,M,8.326,M,00,0004*6D
$GPHPD,1957,30485.600,237.80,0.33,13.64,31.5889906,120.7801572,2.665,13633856.520,24928004.477,2.665,0.526,0.538,-0.398,0.623,1.011,0.602,0.000,18,17,4*69
$GPGGA,082748.00,3135.3393832,N,12046.8093395,E,4,18,1.3,2.6692,M,8.326,M,01,0004*6B
$GPHPD,1957,30485.800,237.61,0.07,13.63,31.5889897,120.7801557,2.669,13633857.076,24928003.679,2.669,0.543,0.591,-0.376,0.623,1.011,0.602,0.000,18,17,4*6A
$GPGGA,082748.20,3135.3393305,N,12046.8092423,E,4,18,1.3,2.6760,M,8.326,M,01,0004*61
$GPHPD,1957,30486.000,237.77,-0.05,13.65,31.5889888,120.7801540,2.676,13633857.630,24928002.813,2.676,0.508,0.566,-0.406,0.623,1.011,0.602,0.000,18,17,4*47
$GPGGA,082748.40,3135.3392771,N,12046.8091472,E,4,18,1.3,2.6734,M,8.326,M,01,0004*67
$GPHPD,1957,30486.200,237.97,0.28,13.67,31.5889880,120.7801525,2.673,13633858.197,24928001.977,2.673,0.495,0.627,-0.384,0.623,1.011,0.602,0.000,18,17,4*6B
$GPGGA,082748.60,3135.3392236,N,12046.8090451,E,4,18,1.3,2.6631,M,8.325,M,00,0004*65
$GPHPD,1957,30486.400,237.80,-0.90,13.65,31.5889871,120.7801508,2.663,13633858.752,24928001.057,2.663,0.556,0.550,-0.427,0.623,1.011,0.602,0.000,18,17,4*41
$GPGGA,082748.80,3135.3391727,N,12046.8089471,E,4,18,1.3,2.6651,M,8.325,M,00,0004*61
$GPHPD,1957,30486.600,237.78,-0.48,13.65,31.5889862,120.7801491,2.665,13633859.279,24928000.172,2.665,0.564,0.645,-0.454,0.623,1.011,0.602,0.000,18,17,4*4A
$GPGGA,082749.00,3135.3391164,N,12046.8088407,E,4,18,1.3,2.6678,M,8.325,M,01,0004*63
$GPHPD,1957,30486.800,237.61,-0.79,13.66,31.5889853,120.7801473,2.668,13633859.865,24927999.216,2.668,0.560,0.620,-0.423,0.623,1.011,0.602,0.000,18,17,4*44
$GPGGA,082749.20,3135.3390601,N,12046.8087310,E,4,18,1.3,2.6622,M,8.325,M,01,0004*65
$GPHPD,1957,30487.000,237.41,-0.97,13.68,31.5889843,120.7801455,2.662,13633860.444,24927998.221,2.662,0.571,0.616,-0.436,0.623,1.011,0.602,0.000,18,17,4*45
$GPGGA,082749.40,3135.3390038,N,12046.8086262,E,4,18,1.3,2.6725,M,8.325,M,01,0004*6C
$GPHPD,1957,30487.200,237.17,-0.94,13.72,31.5889834,120.7801438,2.673,13633861.033,24927997.284,2.673,0.586,0.682,-0.448,0.623,1.011,0.602,0.000,18,17,4*4E
$GPGGA,082749.60,3135.3389405,N,12046.8085148,E,4,18,1.3,2.6793,M,8.325,M,00,0004*68
$GPHPD,1957,30487.400,237.23,-1.52,13.75,31.5889823,120.7801419,2.679,13633861.709,24927996.309,2.679,0.555,0.767,-0.408,0.623,1.011,0.602,0.000,18,17,4*4D
$GPGGA,082749.80,3135.3388797,N,12046.8083990,E,4,18,1.3,2.6613,M,8.325,M,00,0004*6D
$GPHPD,1957,30487.600,237.63,-1.01,13.78,31.5889813,120.7801400,2.661,13633862.340,24927995.266,2.661,0.576,0.679,-0.486,0.623,1.011,0.602,0.000,18,17,4*43
$GPGGA,082750.00,3135.3388135,N,12046.8082813,E,4,18,1.3,2.6518,M,8.325,M,01,0004*61
$GPHPD,1957,30487.800,237.74,-0.21,13.80,31.5889802,120.7801380,2.652,13633863.044,24927994.232,2.652,0.645,0.715,-0.484,0.623,1.011,0.602,0.000,18,17,4*4C
$GPGGA,082750.20,3135.3387484,N,12046.8081613,E,4,18,1.3,2.6532,M,8.325,M,01,0004*66
$GPHPD,1957,30488.000,237.62,0.44,13.82,31.5889791,120.7801360,2.653,13633863.728,24927993.164,2.653,0.675,0.712,-0.557,0.623,1.011,0.602,0.000,18,17,4*6A
$GPGGA,082750.40,3135.3386788,N,12046.8080296,E,4,18,1.3,2.6635,M,8.325,M,01,0004*62
$GPHPD,1957,30488.200,237.78,0.96,13.83,31.5889780,120.7801338,2.664,13633864.452,24927991.980,2.664,0.630,0.779,-0.517,0.623,1.011,0.602,0.000,18,17,4*61
$GPGGA,082750.60,3135.3386042,N,12046.8079028,E,4,18,1.3,2.6506,M,8.325,M,00,0004*62
$GPHPD,1957,30488.400,237.71,-0.92,13.85,31.5889767,120.7801317,2.651,13633865.258,24927990.885,2.651,0.698,0.849,-0.558,0.623,1.011,0.602,0.000,18,17,4*48
$GPGGA,082750.80,3135.3385362,N,12046.8077747,E,4,18,1.3,2.6629,M,8.325,M,00,0004*60
$GPHPD,1957,30488.600,237.88,-0.49,13.83,31.5889756,120.7801296,2.663,13633865.966,24927989.736,2.663,0.715,0.765,-0.609,0.623,1.011,0.602,0.000,18,17,4*4D
$GPGGA,082751.00,3135.3384676,N,12046.8076426,E,4,18,1.3,2.6492,M,8.325,M,01,0004*6E
$GPHPD,1957,30488.800,237.65,-0.40,13.82,31.5889745,120.7801274,2.649,13633866.675,24927988.542,2.649,0.682,0.817,-0.524,0.623,1.011,0.602,0.000,18,17,4*41
$GPGGA,082751.20,3135.3383985,N,12046.8075097,E,4,18,1.3,2.6583,M,8.325,M,01,0004*64
$GPHPD,1957,30489.000,237.59,-1.37,13.83,31.5889733,120.7801252,2.658,13633867.390,24927987.342,2.658,0.732,0.796,-0.562,0.623,1.011,0.602,0.000,18,17,4*4A
$GPGGA,082751.40,3135.3383268,N,12046.8073735,E,4,18,1.3,2.6639,M,8.325,M,01,0004*61
$GPHPD,1957,30489.200,237.56,-0.74,13.82,31.5889721,120.7801229,2.664,13633868.135,24927986.116,2.664,0.688,0.888,-0.517,0.623,1.011,0.602,0.000,18,17,4*4D
$GPGGA,082751.60,3135.3382545,N,12046.8072412,E,4,18,1.3,2.6563,M,8.325,M,00,0004*60
$GPHPD,1957,30489.400,237.63,-1.81,13.80,31.5889709,120.7801207,2.656,13633868.897,24927984.941,2.656,0.739,0.883,-0.543,0.623,1.011,0.602,0.000,18,17,4*4A
$GPGGA,082751.80,3135.3381826,N,12046.8071113,E,4,18,1.3,2.6603,M,8.325,M,00,0004*67
$GPHPD,1957,30489.600,237.51,-1.43,13.77,31.5889697,120.7801185,2.660,13633869.657,24927983.793,2.660,0.742,0.829,-0.577,0.623,1.011,0.602,0.000,18,17,4*4E
$GPGGA,082752.00,3135.3381100,N,12046.8069769,E,4,18,1.3,2.6507,M,8.325,M,01,0004*65
$GPHPD,1957,30489.800,237.65,-0.62,13.74,31.5889685,120.7801163,2.651,13633870.419,24927982.595,2.651,0.710,0.863,-0.548,0.623,1.011,0.602,0.000,18,17,4*4D
$GPGGA,082752.20,3135.3380388,N,12046.8068516,E,4,18,1.3,2.6705,M,8.325,M,01,0004*6F
$GPHPD,1957,30490.000,237.33,-0.13,13.72,31.5889673,120.7801142,2.671,13633871.178,24927981.498,2.671,0.776,0.801,-0.601,0.623,1.011,0.602,0.000,18,17,4*42
$GPGGA,082752.40,3135.3379719,N,12046.8067176,E,4,18,1.3,2.6713,M,8.325,M,01,0004*69
$GPHPD,1957,30490.200,237.67,-0.91,13.69,31.5889662,120.7801120,2.671,13633871.860,24927980.271,2.671,0.676,0.848,-0.545,0.623,1.011,0.602,0.000,18,17,4*4A
$GPGGA,082752.60,3135.3379018,N,12046.8065881,E,4,18,1.3,2.6564,M,8.325,M,00,0004*6D
$GPHPD,1957,30490.400,237.61,-0.03,13.67,31.5889650,120.7801098,2.656,13633872.595,24927979.117,2.656,0.718,0.807,-0.523,0.623,1.011,0.602,0.000,18,17,4*4F
$GPGGA,082752.80,3135.3378276,N,12046.8064507,E,4,18,1.3,2.6719,M,8.325,M,00,0004*62
$GPHPD,1957,30490.600,237.56,-0.17,13.67,31.5889638,120.7801075,2.672,13633873.374,24927977.892,2.672,0.748,0.783,-0.579,0.623,1.011,0.602,0.000,18,17,4*4A
$GPGGA,082753.00,3135.3377591,N,12046.8063215,E,4,18,1.3,2.6840,M,8.325,M,01,0004*6B
$GPHPD,1957,30490.800,237.51,-0.24,13.66,31.5889627,120.7801054,2.684,13633874.087,24927976.732,2.684,0.735,0.892,-0.535,0.623,1.011,0.602,0.000,18,17,4*4E
$GPGGA,082753.20,3135.3376875,N,12046.8061895,E,4,18,1.3,2.6634,M,8.325,M,01,0004*62
$GPHPD,1957,30491.000,237.75,-0.65,13.67,31.5889615,120.7801032,2.663,13633874.839,24927975.557,2.663,0.727,0.873,-0.541,0.623,1.011,0.602,0.000,18,17,4*44
$GPGGA,082753.40,3135.3376152,N,12046.8060517,E,4,18,1.3,2.6859,M,8.325,M,01,0004*6B
$GPHPD,1957,30491.200,237.64,-0.35,13.65,31.5889603,120.7801009,2.686,13633875.590,24927974.316,2.686,0.754,0.835,-0.585,0.623,1.011,0.602,0.000,18,17,4*4D
$GPGGA,082753.60,3135.3375427,N,12046.8059161,E,4,18,1.3,2.6646,M,8.325,M,00,0004*63
$GPHPD,1957,30491.400,237.75,-0.37,13.65,31.5889590,120.7800986,2.665,13633876.347,24927973.103,2.665,0.707,0.858,-0.514,0.623,1.011,0.602,0.000,18,17,4*44
$GPGGA,082753.80,3135.3374703,N,12046.8057803,E,4,18,1.3,2.6750,M,8.325,M,00,0004*6C
$GPHPD,1957,30491.600,237.62,-0.54,13.64,31.5889578,120.7800963,2.675,13633877.103,24927971.886,2.675,0.778,0.837,-0.605,0.623,1.011,0.602,0.000,18,17,4*4E
$GPGGA,082754.00,3135.3373951,N,12046.8056449,E,4,18,1.3,2.6778,M,8.325,M,01,0004*65
$GPHPD,1957,30491.800,237.73,-0.21,13.63,31.5889566,120.7800941,2.678,13633877.899,24927970.691,2.678,0.645,0.952,-0.522,0.623,1.011,0.602,0.000,18,17,4*42
$GPGGA,082754.20,3135.3373247,N,12046.8055051,E,4,18,1.3,2.6636,M,8.325,M,01,0004*6E
$GPHPD,1957,30492.000,237.85,0.18,13.62,31.5889554,120.7800918,2.664,13633878.619,24927969.414,2.664,0.706,0.893,-0.544,0.623,1.011,0.602,0.000,18,17,4*6F
$GPGGA,082754.40,3135.3372491,N,12046.8053674,E,4,18,1.3,2.6679,M,8.325,M,01,0004*68
$GPHPD,1957,30492.200,237.43,0.34,13.63,31.5889542,120.7800895,2.668,13633879.416,24927968.194,2.668,0.830,0.771,-0.604,0.623,1.011,0.602,0.000,18,17,4*65
$GPGGA,082754.60,3135.3371756,N,12046.8052272,E,4,18,1.3,2.6656,M,8.325,M,01,0004*6F
$GPHPD,1957,30492.400,237.77,0.07,13.62,31.5889529,120.7800871,2.666,13633880.179,24927966.931,2.666,0.745,0.849,-0.594,0.623,1.011,0.602,0.000,18,17,4*62
$GPGGA,082754.80,3135.3370977,N,12046.8050873,E,4,18,1.3,2.6591,M,8.325,M,01,0004*6C
$GPHPD,1957,30492.600,237.70,-0.38,13.62,31.5889516,120.7800848,2.659,13633881.004,24927965.697,2.659,0.762,0.910,-0.567,0.623,1.011,0.602,0.000,18,17,4*4E
$GPGGA,082755.00,3135.3370220,N,12046.8049417,E,4,18,1.3,2.6725,M,8.325,M,02,0004*64
$GPHPD,1957,30492.800,237.90,-0.15,13.60,31.5889504,120.7800824,2.673,13633881.787,24927964.381,2.673,0.778,0.874,-0.630,0.623,1.011,0.602,0.000,18,17,4*4C
$GPGGA,082755.20,3135.3369484,N,12046.8048024,E,4,18,1.3,2.6819,M,8.325,M,02,0004*63
$GPHPD,1957,30493.000,238.51,-2.07,13.60,31.5889491,120.7800800,2.682,13633882.553,24927963.129,2.682,0.770,0.905,-0.594,0.623,1.011,0.602,0.000,18,17,4*40
$GPGGA,082755.40,3135.3368699,N,12046.8046584,E,4,17,1.3,2.6789,M,8.325,M,02,0004*62
$GPHPD,1957,30493.200,238.51,-2.70,13.58,31.5889478,120.7800776,2.679,13633883.379,24927961.850,2.679,0.788,0.890,-0.585,0.623,1.011,0.602,0.000,17,17,4*4F
$GPGGA,082755.60,3135.3367984,N,12046.8045162,E,4,17,1.3,2.6746,M,8.325,M,02,0004*60
$GPHPD,1957,30493.400,238.54,-1.14,13.57,31.5889466,120.7800753,2.675,13633884.109,24927960.551,2.675,0.774,0.951,-0.585,0.695,1.011,0.612,0.000,17,16,4*47
$GPGGA,082755.80,3135.3367236,N,12046.8043727,E,4,17,1.3,2.6762,M,8.325,M,00,0004*69
$GPHPD,1957,30493.600,238.39,-1.23,13.55,31.5889454,120.7800729,2.676,13633884.884,24927959.255,2.676,0.751,0.937,-0.565,0.695,1.011,0.612,0.000,17,15,4*4B
$GPGGA,082756.00,3135.3366479,N,12046.8042335,E,4,17,1.3,2.6905,M,8.325,M,01,0004*66
$GPHPD,1957,30493.800,238.40,-2.01,13.54,31.5889441,120.7800706,2.691,13633885.679,24927958.017,2.691,0.791,0.899,-0.582,0.695,1.011,0.612,0.000,17,15,4*48
$GPGGA,082756.20,3135.3365751,N,12046.8040924,E,4,17,1.3,2.6728,M,8.325,M,01,0004*67
$GPHPD,1957,30494.000,238.42,-2.40,13.52,31.5889429,120.7800682,2.673,13633886.430,24927956.739,2.673,0.748,0.961,-0.547,0.695,1.011,0.612,0.000,17,14,4*46
$GPGGA,082756.40,3135.3365018,N,12046.8039479,E,4,18,1.3,2.6664,M,8.325,M,01,0004*66
$GPHPD,1957,30494.200,238.35,-1.20,13.50,31.5889417,120.7800658,2.666,13633887.181,24927955.423,2.666,0.748,0.876,-0.596,0.695,1.011,0.612,0.000,18,14,4*48
$GPGGA,082756.60,3135.3364260,N,12046.8038038,E,4,18,1.3,2.6628,M,8.325,M,00,0004*61
$GPHPD,1957,30494.400,238.52,-1.23,13.46,31.5889404,120.7800634,2.663,13633887.969,24927954.126,2.663,0.842,0.857,-0.625,0.623,1.011,0.602,0.000,18,15,4*4C
$GPGGA,082756.80,3135.3363523,N,12046.8036615,E,4,18,1.3,2.6838,M,8.325,M,00,0004*60
$GPHPD,1957,30494.600,238.65,-0.10,13.45,31.5889392,120.7800610,2.684,13633888.730,24927952.839,2.684,0.777,0.933,-0.601,0.623,1.011,0.602,0.000,18,16,4*45
$GPGGA,082757.00,3135.3362756,N,12046.8035179,E,4,18,1.3,2.6848,M,8.325,M,01,0004*60
$GPHPD,1957,30494.800,238.24,-0.06,13.44,31.5889379,120.7800586,2.685,13633889.531,24927951.553,2.685,0.756,0.947,-0.563,0.623,1.011,0.602,0.000,18,16,4*46
$GPGGA,082757.20,3135.3361991,N,12046.8033759,E,4,18,1.3,2.6816,M,8.325,M,01,0004*6D
$GPHPD,1957,30495.000,238.80,-0.22,13.43,31.5889367,120.7800563,2.682,13633890.333,24927950.286,2.682,0.757,0.901,-0.571,0.623,1.011,0.602,0.000,18,16,4*46
$GPGGA,082757.40,3135.3361270,N,12046.8032287,E,4,18,1.3,2.6816,M,8.325,M,01,0004*68
$GPHPD,1957,30495.200,238.69,0.03,13.43,31.5889355,120.7800538,2.682,13633891.061,24927948.930,2.682,0.757,0.930,-0.598,0.623,1.011,0.602,0.000,18,16,4*6D
$GPGGA,082757.60,3135.3360529,N,12046.8030843,E,4,18,1.3,2.6630,M,8.325,M,00,0004*6B
$GPHPD,1957,30495.400,238.25,0.60,13.43,31.5889342,120.7800514,2.663,13633891.824,24927947.620,2.663,0.815,0.886,-0.586,0.623,1.011,0.602,0.000,18,16,4*6C
$GPGGA,082757.80,3135.3359777,N,12046.8029369,E,4,18,1.3,2.6693,M,8.325,M,00,0004*64
$GPHPD,1957,30495.600,237.85,0.32,13.42,31.5889330,120.7800489,2.669,13633892.596,24927946.280,2.669,0.837,0.839,-0.593,0.623,1.011,0.602,0.000,18,16,4*65
$GPGGA,082758.00,3135.3358981,N,12046.8027952,E,4,18,1.3,2.6736,M,8.325,M,01,0004*66
$GPHPD,1957,30495.800,237.64,-0.20,13.42,31.5889316,120.7800466,2.674,13633893.442,24927945.034,2.674,0.789,0.933,-0.573,0.623,1.011,0.602,0.000,18,16,4*47
$GPGGA,082758.20,3135.3358233,N,12046.8026521,E,4,18,1.3,2.6450,M,8.325,M,01,0004*6C
$GPHPD,1957,30496.000,238.18,-0.94,13.42,31.5889304,120.7800442,2.645,13633894.217,24927943.744,2.645,0.793,0.890,-0.604,0.623,1.011,0.602,0.000,18,16,4*45
$GPGGA,082758.40,3135.3357465,N,12046.8025075,E,4,18,1.3,2.6312,M,8.325,M,01,0004*66
$GPHPD,1957,30496.200,238.07,-0.40,13.43,31.5889291,120.7800418,2.631,13633895.018,24927942.447,2.631,0.807,0.813,-0.641,0.695,1.011,0.612,0.000,18,16,4*4A
$GPGGA,082758.60,3135.3356676,N,12046.8023620,E,4,18,1.3,2.6403,M,8.325,M,00,0004*63
$GPHPD,1957,30496.400,238.09,-0.18,13.42,31.5889278,120.7800394,2.640,13633895.847,24927941.151,2.640,0.763,0.905,-0.635,0.623,1.011,0.602,0.000,18,16,4*4D
$GPGGA,082758.80,3135.3355880,N,12046.8022177,E,4,18,1.3,2.6587,M,8.325,M,00,0004*60
$GPHPD,1957,30496.600,238.29,-1.19,13.41,31.5889265,120.7800370,2.659,13633896.688,24927939.874,2.659,0.796,0.902,-0.618,0.623,1.011,0.602,0.000,18,16,4*45
$GPGGA,082759.00,3135.3355133,N,12046.8020704,E,4,18,1.3,2.6534,M,8.325,M,01,0004*61
$GPHPD,1957,30496.800,238.64,-1.48,13.41,31.5889252,120.7800345,2.653,13633897.453,24927938.532,2.653,0.742,0.984,-0.595,0.623,1.011,0.602,0.000,18,16,4*4E
$GPGGA,082759.20,3135.3354417,N,12046.8019281,E,4,18,1.3,2.6557,M,8.325,M,01,0004*66
$GPHPD,1957,30497.000,238.50,-1.11,13.41,31.5889240,120.7800321,2.656,13633898.184,24927937.233,2.656,0.799,0.901,-0.605,0.623,1.011,0.602,0.000,18,16,4*45
$GPGGA,082759.40,3135.3353639,N,12046.8017837,E,4,18,1.3,2.6649,M,8.325,M,01,0004*6C
$GPHPD,1957,30497.200,238.33,-0.52,13.40,31.5889227,120.7800297,2.665,13633899.000,24927935.944,2.665,0.850,0.834,-0.594,0.623,1.011,0.602,0.000,18,16,4*4B
$GPGGA,082759.60,3135.3352905,N,12046.8016422,E,4,17,1.3,2.6636,M,8.325,M,00,0004*60
$GPHPD,1957,30497.400,238.18,-0.94,13.38,31.5889215,120.7800274,2.664,13633899.758,24927934.665,2.664,0.741,0.991,-0.577,0.623,1.011,0.602,0.000,17,16,4*49
$GPGGA,082759.80,3135.3352177,N,12046.8014999,E,4,18,1.3,2.6744,M,8.325,M,00,0004*67
$GPHPD,1957,30497.600,238.03,-1.43,13.36,31.5889203,120.7800250,2.674,13633900.506,24927933.372,2.674,0.761,0.923,-0.594,0.623,1.011,0.602,0.000,18,16,4*40
$GPGGA,082800.00,3135.3351408,N,12046.8013541,E,4,18,1.3,2.6634,M,8.325,M,01,0004*6B
$GPHPD,1957,30497.800,237.82,-0.94,13.37,31.5889190,120.7800226,2.663,13633901.306,24927932.061,2.663,0.786,0.866,-0.575,0.623,1.011,0.602,0.000,18,16,4*4B
$GPGGA,082800.20,3135.3350678,N,12046.8012107,E,4,18,1.3,2.6609,M,8.325,M,01,0004*64
$GPHPD,1957,30498.000,237.98,-1.31,13.36,31.5889178,120.7800202,2.661,13633902.055,24927930.756,2.661,0.839,0.815,-0.622,0.623,1.011,0.602,0.000,18,16,4*41
$GPGGA,082800.40,3135.3349884,N,12046.8010649,E,4,17,1.3,2.6691,M,8.325,M,01,0004*66
$GPHPD,1957,30498.200,237.84,-0.59,13.34,31.5889165,120.7800177,2.669,13633902.890,24927929.460,2.669,0.826,0.868,-0.591,0.623,1.011,0.602,0.000,17,16,4*41
$GPGGA,082800.60,3135.3349094,N,12046.8009240,E,4,17,1.3,2.6537,M,8.325,M,00,0004*66
$GPHPD,1957,30498.400,237.91,-0.44,13.35,31.5889152,120.7800154,2.654,13633903.730,24927928.221,2.654,0.792,0.901,-0.601,0.623,1.011,0.602,0.000,17,15,4*4A
$GPGGA,082800.80,3135.3348330,N,12046.8007787,E,4,17,1.3,2.6809,M,8.325,M,00,0004*64
$GPHPD,1957,30498.600,238.30,-0.34,13.35,31.5889139,120.7800130,2.681,13633904.523,24927926.913,2.681,0.809,0.872,-0.659,0.623,1.011,0.602,0.000,17,15,4*42
$GPGGA,082801.00,3135.3347579,N,12046.8006363,E,4,17,1.3,2.6722,M,8.325,M,01,0004*61
$GPHPD,1957,30498.800,238.32,0.44,13.35,31.5889126,120.7800106,2.672,13633905.304,24927925.632,2.672,0.780,0.948,-0.586,0.623,1.011,0.602,0.000,17,15,4*65
$GPGGA,082801.20,3135.3346846,N,12046.8004899,E,4,17,1.3,2.6659,M,8.325,M,01,0004*62
$GPHPD,1957,30499.000,237.97,1.05,13.35,31.5889114,120.7800082,2.666,13633906.051,24927924.293,2.666,0.830,0.833,-0.627,0.623,1.011,0.602,0.000,17,15,4*6B
$GPGGA,082801.40,3135.3346053,N,12046.8003477,E,4,18,1.3,2.6630,M,8.325,M,01,0004*63
$GPHPD,1957,30499.200,237.83,0.43,13.36,31.5889101,120.7800058,2.663,13633906.892,24927923.040,2.663,0.857,0.825,-0.600,0.623,1.011,0.602,0.000,18,15,4*6F
$GPGGA,082801.60,3135.3345251,N,12046.8002028,E,4,18,1.3,2.6678,M,8.325,M,00,0004*60
$GPHPD,1957,30499.400,237.95,0.19,13.35,31.5889088,120.7800034,2.668,13633907.740,24927921.759,2.668,0.783,0.896,-0.621,0.623,1.011,0.602,0.000,18,17,4*6B
$GPGGA,082801.80,3135.3344549,N,12046.8000547,E,4,18,1.3,2.6549,M,8.325,M,00,0004*6E
$GPHPD,1957,30499.600,238.09,-0.92,13.35,31.5889076,120.7800009,2.655,13633908.440,24927920.382,2.655,0.773,0.908,-0.610,0.623,1.011,0.602,0.000,18,17,4*46
$GPGGA,082802.00,3135.3343778,N,12046.7999120,E,4,18,1.3,2.6607,M,8.325,M,01,0004*69
$GPHPD,1957,30499.800,237.61,0.08,13.35,31.5889063,120.7799985,2.661,13633909.249,24927919.109,2.661,0.791,0.898,-0.578,0.623,1.011,0.602,0.000,18,17,4*6D
$GPGGA,082802.20,3135.3343023,N,12046.7997678,E,4,18,1.3,2.6497,M,8.325,M,01,0004*6D
$GPHPD,1957,30500.000,238.23,-2.62,13.35,31.5889050,120.7799961,2.650,13633910.032,24927917.809,2.650,0.782,0.904,-0.584,0.695,1.011,0.612,0.000,18,17,4*4C
$GPGGA,082802.40,3135.3342218,N,12046.7996253,E,4,18,1.3,2.6580,M,8.325,M,01,0004*6B
$GPHPD,1957,30500.200,238.42,-2.75,13.35,31.5889037,120.7799938,2.658,13633910.889,24927916.559,2.658,0.787,0.875,-0.619,0.623,1.011,0.602,0.000,18,17,4*4A
$GPGGA,082802.60,3135.3341470,N,12046.7994810,E,4,17,1.3,2.6505,M,8.325,M,01,0004*6F
$GPHPD,1957,30500.400,238.47,-2.65,13.34,31.5889025,120.7799914,2.651,13633911.662,24927915.254,2.651,0.769,0.916,-0.633,0.623,1.011,0.602,0.000,17,17,4*44
$GPGGA,082802.80,3135.3340708,N,12046.7993401,E,4,17,1.3,2.6632,M,8.325,M,01,0004*60
$GPHPD,1957,30500.600,238.15,-0.67,13.36,31.5889012,120.7799890,2.663,13633912.461,24927913.998,2.663,0.786,0.886,-0.599,0.695,1.011,0.612,0.000,17,16,4*42
$GPGGA,082803.00,3135.3339957,N,12046.7991921,E,4,17,1.3,2.6471,M,8.325,M,02,0004*68
$GPHPD,1957,30500.800,238.35,-0.41,13.37,31.5888999,120.7799865,2.647,13633913.231,24927912.651,2.647,0.748,0.905,-0.587,0.695,1.011,0.612,0.000,17,16,4*44
$GPGGA,082803.20,3135.3339205,N,12046.7990520,E,4,17,1.3,2.6654,M,8.325,M,02,0004*6F
$GPHPD,1957,30501.000,238.30,-0.80,13.38,31.5888987,120.7799842,2.665,13633914.018,24927911.399,2.665,0.806,0.875,-0.607,0.695,1.011,0.612,0.000,17,16,4*44
$GPGGA,082803.40,3135.3338476,N,12046.7989094,E,4,17,1.3,2.6621,M,8.325,M,02,0004*6A
$GPHPD,1957,30501.200,238.33,0.32,13.37,31.5888975,120.7799818,2.662,13633914.767,24927910.103,2.662,0.755,0.933,-0.561,0.695,1.011,0.612,0.000,17,16,4*6A
$GPGGA,082803.60,3135.3337739,N,12046.7987688,E,4,17,1.3,2.6718,M,8.325,M,02,0004*61
$GPHPD,1957,30501.400,238.19,-0.12,13.38,31.5888962,120.7799795,2.672,13633915.532,24927908.836,2.672,0.821,0.869,-0.598,0.695,1.011,0.612,0.000,17,16,4*49
$GPGGA,082803.80,3135.3337013,N,12046.7986278,E,4,18,1.3,2.6639,M,8.325,M,00,0004*65
$GPHPD,1957,30501.600,237.98,-0.06,13.39,31.5888950,120.7799771,2.664,13633916.280,24927907.558,2.664,0.752,0.937,-0.549,0.623,1.011,0.602,0.000,18,16,4*4B
$GPGGA,082804.00,3135.3336255,N,12046.7984809,E,4,18,1.3,2.6601,M,8.325,M,01,0004*6F
$GPHPD,1957,30501.800,237.45,-0.31,13.41,31.5888938,120.7799747,2.660,13633917.062,24927906.228,2.660,0.766,0.905,-0.571,0.623,1.011,0.602,0.000,18,17,4*47
$GPGGA,082804.20,3135.3335514,N,12046.7983410,E,4,18,1.3,2.6674,M,8.325,M,01,0004*6D
$GPHPD,1957,30502.000,237.90,-1.68,13.42,31.5888925,120.7799724,2.667,13633917.833,24927904.972,2.667,0.813,0.891,-0.598,0.623,1.011,0.602,0.000,18,17,4*4F
$GPGGA,082804.40,3135.3334778,N,12046.7982006,E,4,18,1.3,2.6670,M,8.325,M,01,0004*64
$GPHPD,1957,30502.200,237.88,-0.56,13.45,31.5888913,120.7799700,2.667,13633918.597,24927903.707,2.667,0.784,0.906,-0.579,0.623,1.011,0.602,0.000,18,17,4*4A
$GPGGA,082804.60,3135.3334021,N,12046.7980594,E,4,18,1.3,2.6669,M,8.325,M,00,0004*68
$GPHPD,1957,30502.400,237.93,0.39,13.45,31.5888900,120.7799677,2.667,13633919.389,24927902.444,2.667,0.774,0.916,-0.573,0.623,1.011,0.602,0.000,18,17,4*68
$GPGGA,082804.80,3135.3333273,N,12046.7979186,E,4,18,1.3,2.6787,M,8.325,M,00,0004*64
$GPHPD,1957,30502.600,237.99,-0.37,13.46,31.5888888,120.7799653,2.679,13633920.169,24927901.181,2.679,0.747,0.904,-0.561,0.623,1.011,0.602,0.000,18,17,4*4E
$GPGGA,082805.00,3135.3332528,N,12046.7977762,E,4,18,1.3,2.6752,M,8.325,M,01,0004*6E
$GPHPD,1957,30502.800,238.29,-0.44,13.45,31.5888875,120.7799629,2.675,13633920.941,24927899.898,2.675,0.750,0.910,-0.572,0.623,1.011,0.602,0.000,18,17,4*4E
$GPGGA,082805.20,3135.3331777,N,12046.7976317,E,4,18,1.3,2.6646,M,8.325,M,01,0004*64
$GPHPD,1957,30503.000,238.52,1.03,13.46,31.5888863,120.7799605,2.665,13633921.718,24927898.592,2.665,0.747,0.929,-0.563,0.623,1.011,0.602,0.000,18,17,4*67
$GPGGA,082805.40,3135.3331039,N,12046.7974896,E,4,18,1.3,2.6629,M,8.325,M,01,0004*66
$GPHPD,1957,30503.200,238.24,1.36,13.45,31.5888851,120.7799582,2.663,13633922.480,24927897.308,2.663,0.785,0.920,-0.592,0.623,1.011,0.602,0.000,18,17,4*6E
$GPGGA,082805.60,3135.3330288,N,12046.7973446,E,4,18,1.3,2.6681,M,8.325,M,00,0004*68
$GPHPD,1957,30503.400,238.29,-1.18,13.45,31.5888838,120.7799557,2.668,13633923.256,24927895.996,2.668,0.765,0.878,-0.580,0.717,1.029,0.656,0.000,18,17,4*4D
$GPGGA,082805.80,3135.3329573,N,12046.7972054,E,4,18,1.3,2.6700,M,8.325,M,00,0004*63
$GPHPD,1957,30503.600,238.01,-0.31,13.45,31.5888826,120.7799534,2.670,13633923.992,24927894.733,2.670,0.798,0.884,-0.576,0.623,1.011,0.602,0.000,18,17,4*42
$GPGGA,082806.00,3135.3328815,N,12046.7970621,E,4,18,1.3,2.6622,M,8.325,M,01,0004*62
$GPHPD,1957,30503.800,237.67,-0.38,13.46,31.5888814,120.7799510,2.662,13633924.781,24927893.446,2.662,0.760,0.900,-0.573,0.623,1.011,0.602,0.000,18,17,4*4C
$GPGGA,082806.20,3135.3328077,N,12046.7969202,E,4,18,1.3,2.6743,M,8.325,M,01,0004*67
$GPHPD,1957,30504.000,237.85,-0.32,13.45,31.5888801,120.7799487,2.674,13633925.545,24927892.164,2.674,0.802,0.897,-0.596,0.623,1.011,0.602,0.000,18,17,4*4D
$GPGGA,082806.40,3135.3327351,N,12046.7967811,E,4,18,1.3,2.6712,M,8.325,M,01,0004*6B
$GPHPD,1957,30504.200,237.61,-0.58,13.46,31.5888789,120.7799464,2.671,13633926.297,24927890.909,2.671,0.734,0.938,-0.552,0.623,1.011,0.602,0.000,18,17,4*44
$GPGGA,082806.60,3135.3326598,N,12046.7966443,E,4,18,1.3,2.6867,M,8.325,M,00,0004*6D
$GPHPD,1957,30504.400,237.78,-0.74,13.46,31.5888777,120.7799441,2.687,13633927.092,24927889.697,2.687,0.787,0.840,-0.574,0.623,1.011,0.602,0.000,18,17,4*46
$GPGGA,082806.80,3135.3325809,N,12046.7964957,E,4,17,1.3,2.6503,M,8.325,M,00,0004*6F
$GPHPD,1957,30504.600,238.12,-0.87,13.47,31.5888763,120.7799416,2.650,13633927.914,24927888.364,2.650,0.710,0.915,-0.532,0.695,1.011,0.612,0.000,17,17,4*4C
$GPGGA,082807.00,3135.3325017,N,12046.7963551,E,4,17,1.3,2.6543,M,8.325,M,01,0004*69
$GPHPD,1957,30504.800,237.69,-0.52,13.48,31.5888750,120.7799393,2.654,13633928.757,24927887.130,2.654,0.771,0.853,-0.626,0.695,1.011,0.612,0.000,17,16,4*45
$GPGGA,082807.20,3135.3324270,N,12046.7962136,E,4,17,1.3,2.6524,M,8.325,M,01,0004*6C
$GPHPD,1957,30505.000,238.07,-1.12,13.50,31.5888738,120.7799369,2.652,13633929.534,24927885.858,2.652,0.767,0.896,-0.615,0.695,1.011,0.612,0.000,17,16,4*41
$GPGGA,082807.40,3135.3323521,N,12046.7960704,E,4,17,1.3,2.6465,M,8.325,M,01,0004*6F
$GPHPD,1957,30505.200,238.48,-0.16,13.51,31.5888725,120.7799345,2.647,13633930.310,24927884.567,2.647,0.773,0.909,-0.589,0.695,1.011,0.612,0.000,17,16,4*42
$GPGGA,082807.60,3135.3322771,N,12046.7959265,E,4,16,1.3,2.6635,M,8.325,M,00,0004*64
$GPHPD,1957,30505.400,238.54,0.16,13.53,31.5888713,120.7799321,2.664,13633931.087,24927883.268,2.664,0.773,0.896,-0.587,0.695,1.011,0.612,0.000,16,16,4*6A
$GPGGA,082807.80,3135.3322076,N,12046.7957834,E,4,16,1.3,2.6623,M,8.325,M,00,0004*6D
$GPHPD,1957,30505.600,238.58,-0.55,13.54,31.5888701,120.7799297,2.662,13633931.786,24927881.946,2.662,0.783,0.879,-0.593,0.695,1.011,0.612,0.000,16,15,4*4D
$GPGGA,082808.00,3135.3321305,N,12046.7956427,E,4,17,1.3,2.6736,M,8.325,M,01,0004*64
$GPHPD,1957,30505.800,238.08,0.16,13.55,31.5888688,120.7799274,2.674,13633932.599,24927880.698,2.674,0.782,0.925,-0.525,0.623,1.011,0.602,0.000,17,15,4*6B
$GPGGA,082808.20,3135.3320538,N,12046.7955053,E,4,17,1.3,2.6906,M,8.325,M,01,0004*66
$GPHPD,1957,30506.000,238.24,0.64,13.54,31.5888676,120.7799251,2.691,13633933.413,24927879.487,2.691,0.739,0.946,-0.563,0.623,1.011,0.602,0.000,17,16,4*60
$GPGGA,082808.40,3135.3319806,N,12046.7953541,E,4,17,1.3,2.6781,M,8.325,M,01,0004*6B
$GPHPD,1957,30506.200,238.70,1.88,13.54,31.5888663,120.7799226,2.678,13633934.149,24927878.090,2.678,0.743,0.934,-0.552,0.623,1.011,0.602,0.000,17,16,4*60
$GPGGA,082808.60,3135.3319035,N,12046.7952087,E,4,18,1.3,2.6639,M,8.325,M,00,0004*63
$GPHPD,1957,30506.400,237.92,0.60,13.53,31.5888651,120.7799201,2.664,13633934.952,24927876.785,2.664,0.796,0.932,-0.580,0.623,1.011,0.602,0.000,18,16,4*60
$GPGGA,082808.80,3135.3318276,N,12046.7950690,E,4,17,1.3,2.6520,M,8.325,M,00,0004*6F
$GPHPD,1957,30506.600,237.98,0.04,13.51,31.5888638,120.7799178,2.652,13633935.750,24927875.542,2.652,0.821,0.829,-0.620,0.623,1.011,0.602,0.000,17,17,4*62
$GPGGA,082809.00,3135.3317496,N,12046.7949204,E,4,17,1.3,2.6523,M,8.325,M,01,0004*62
$GPHPD,1957,30506.800,238.00,0.31,13.49,31.5888625,120.7799153,2.652,13633936.559,24927874.203,2.652,0.772,0.884,-0.611,0.623,1.011,0.602,0.000,17,16,4*6E
$GPGGA,082809.20,3135.3316757,N,12046.7947770,E,4,17,1.3,2.6468,M,8.325,M,01,0004*69
$GPHPD,1957,30507.000,238.15,-0.25,13.49,31.5888613,120.7799130,2.647,13633937.321,24927872.904,2.647,0.738,0.941,-0.580,0.623,1.011,0.602,0.000,17,16,4*44
$GPGGA,082809.40,3135.3316002,N,12046.7946301,E,4,17,1.3,2.6584,M,8.325,M,01,0004*68
$GPHPD,1957,30507.200,238.00,0.57,13.46,31.5888600,120.7799105,2.658,13633938.099,24927871.572,2.658,0.805,0.854,-0.617,0.623,1.011,0.602,0.000,17,16,4*69
$GPGGA,082809.60,3135.3315232,N,12046.7944872,E,4,17,1.3,2.6875,M,8.325,M,00,0004*67
$GPHPD,1957,30507.400,237.84,-0.49,13.46,31.5888587,120.7799081,2.688,13633938.906,24927870.296,2.688,0.814,0.903,-0.613,0.623,1.011,0.602,0.000,17,16,4*4B
$GPGGA,082809.80,3135.3314448,N,12046.7943431,E,4,18,1.3,2.6595,M,8.325,M,00,0004*63
$GPHPD,1957,30507.600,238.41,-1.06,13.45,31.5888574,120.7799057,2.660,13633939.730,24927869.015,2.660,0.742,0.993,-0.579,0.623,1.011,0.602,0.000,18,16,4*4F
$GPGGA,082810.00,3135.3313706,N,12046.7941991,E,4,18,1.3,2.6469,M,8.325,M,01,0004*6B
$GPHPD,1957,30507.800,238.21,-0.84,13.43,31.5888562,120.7799033,2.647,13633940.495,24927867.710,2.647,0.831,0.838,-0.671,0.623,1.011,0.602,0.000,18,17,4*40
$GPGGA,082810.20,3135.3312959,N,12046.7940576,E,4,18,1.3,2.6620,M,8.325,M,01,0004*67
$GPHPD,1957,30508.000,238.37,-0.41,13.44,31.5888549,120.7799010,2.662,13633941.272,24927866.438,2.662,0.855,0.813,-0.628,0.623,1.011,0.602,0.000,18,17,4*47
$GPGGA,082810.40,3135.3312188,N,12046.7939130,E,4,18,1.3,2.6608,M,8.325,M,01,0004*67
$GPHPD,1957,30508.200,238.00,-0.26,13.44,31.5888536,120.7798986,2.661,13633942.077,24927865.143,2.661,0.766,0.899,-0.566,0.623,1.011,0.602,0.000,18,17,4*45
$GPGGA,082810.60,3135.3311415,N,12046.7937687,E,4,17,1.3,2.6594,M,8.325,M,00,0004*6A
$GPHPD,1957,30508.400,238.41,-1.30,13.46,31.5888524,120.7798961,2.659,13633942.885,24927863.852,2.659,0.815,0.873,-0.602,0.623,1.011,0.602,0.000,17,16,4*42
$GPGGA,082810.80,3135.3310695,N,12046.7936249,E,4,17,1.3,2.6715,M,8.325,M,00,0004*63
$GPHPD,1957,30508.600,238.15,-0.97,13.48,31.5888512,120.7798937,2.672,13633943.619,24927862.537,2.672,0.806,0.876,-0.617,0.623,1.011,0.602,0.000,17,15,4*40
$GPGGA,082811.00,3135.3309952,N,12046.7934820,E,4,17,1.3,2.6604,M,8.325,M,01,0004*61
$GPHPD,1957,30508.800,237.95,-1.33,13.46,31.5888499,120.7798914,2.660,13633944.387,24927861.246,2.660,0.767,0.973,-0.560,0.623,1.011,0.602,0.000,17,15,4*43
$GPGGA,082811.20,3135.3309201,N,12046.7933345,E,4,17,1.3,2.6663,M,8.325,M,01,0004*60
$GPHPD,1957,30509.000,237.94,-0.92,13.46,31.5888487,120.7798889,2.666,13633945.158,24927859.904,2.666,0.790,0.848,-0.604,0.623,1.011,0.602,0.000,17,15,4*4C
$GPGGA,082811.40,3135.3308401,N,12046.7931920,E,4,17,1.3,2.6800,M,8.325,M,01,0004*61
$GPHPD,1957,30509.200,237.90,-0.85,13.45,31.5888473,120.7798865,2.680,13633946.008,24927858.651,2.680,0.830,0.868,-0.600,0.623,1.011,0.602,0.000,17,15,4*4C
$GPGGA,082811.60,3135.3307650,N,12046.7930484,E,4,18,1.3,2.6667,M,8.325,M,00,0004*69
$GPHPD,1957,30509.400,237.88,0.11,13.46,31.5888461,120.7798841,2.667,13633946.787,24927857.356,2.667,0.774,0.945,-0.609,0.623,1.011,0.602,0.000,18,15,4*6F
$GPGGA,082811.80,3135.3306848,N,12046.7929015,E,4,18,1.3,2.6864,M,8.325,M,00,0004*68
$GPHPD,1957,30509.600,237.61,0.22,13.45,31.5888447,120.7798817,2.686,13633947.631,24927856.051,2.686,0.775,0.897,-0.640,0.623,1.011,0.602,0.000,18,16,4*67
$GPGGA,082812.00,3135.3306073,N,12046.7927573,E,4,18,1.3,2.6646,M,8.325,M,01,0004*67
$GPHPD,1957,30509.800,238.09,-0.63,13.44,31.5888435,120.7798793,2.665,13633948.442,24927854.763,2.665,0.778,0.994,-0.608,0.623,1.011,0.602,0.000,18,16,4*49
$GPGGA,082812.20,3135.3305347,N,12046.7926116,E,4,18,1.3,2.6680,M,8.325,M,01,0004*6E
$GPHPD,1957,30510.000,237.90,1.04,13.45,31.5888422,120.7798769,2.668,13633949.181,24927853.429,2.668,0.819,0.834,-0.622,0.623,1.011,0.602,0.000,18,16,4*63
$GPGGA,082812.40,3135.3304564,N,12046.7924682,E,4,18,1.3,2.6569,M,8.325,M,01,0004*62
$GPHPD,1957,30510.200,237.41,0.81,13.43,31.5888409,120.7798745,2.657,13633950.005,24927852.155,2.657,0.817,0.907,-0.602,0.623,1.011,0.602,0.000,18,16,4*67
$GPGGA,082812.60,3135.3303735,N,12046.7923256,E,4,18,1.3,2.6802,M,8.325,M,00,0004*6A
$GPHPD,1957,30510.400,237.46,0.71,13.40,31.5888396,120.7798721,2.680,13633950.897,24927850.917,2.680,0.799,0.871,-0.631,0.623,1.011,0.602,0.000,18,16,4*6F
$GPGGA,082812.80,3135.3302993,N,12046.7921788,E,4,18,1.3,2.6857,M,8.325,M,00,0004*63
$GPHPD,1957,30510.600,237.76,-0.26,13.38,31.5888383,120.7798696,2.686,13633951.656,24927849.579,2.686,0.698,0.984,-0.604,0.623,1.011,0.602,0.000,18,16,4*44
$GPGGA,082813.00,3135.3302246,N,12046.7920376,E,4,18,1.3,2.6648,M,8.324,M,01,0004*6D
$GPHPD,1957,30510.800,237.78,-0.82,13.37,31.5888371,120.7798673,2.665,13633952.434,24927848.310,2.665,0.751,0.991,-0.558,0.623,1.011,0.602,0.000,18,16,4*44
$GPGGA,082813.20,3135.3301432,N,12046.7918916,E,4,18,1.3,2.6660,M,8.324,M,01,0004*64
$GPHPD,1957,30511.000,237.70,-0.07,13.36,31.5888357,120.7798649,2.666,13633953.297,24927847.023,2.666,0.807,0.861,-0.627,0.623,1.011,0.602,0.000,18,16,4*4F
$GPGGA,082813.40,3135.3300646,N,12046.7917515,E,4,18,1.3,2.6629,M,8.324,M,01,0004*6F
$GPHPD,1957,30511.200,237.83,-0.76,13.35,31.5888344,120.7798625,2.663,13633954.132,24927845.791,2.663,0.794,0.858,-0.632,0.623,1.011,0.602,0.000,18,16,4*40
$GPGGA,082813.60,3135.3299835,N,12046.7916062,E,4,18,1.3,2.6900,M,8.324,M,00,0004*67
$GPHPD,1957,30511.400,238.32,-1.04,13.36,31.5888331,120.7798601,2.690,13633954.992,24927844.511,2.690,0.800,0.855,-0.654,0.623,1.011,0.602,0.000,18,17,4*47
$GPGGA,082813.80,3135.3299041,N,12046.7914634,E,4,18,1.3,2.6798,M,8.324,M,00,0004*6A
$GPHPD,1957,30511.600,238.24,-2.32,13.37,31.5888317,120.7798577,2.680,13633955.833,24927843.251,2.680,0.708,0.984,-0.602,0.623,1.011,0.602,0.000,18,17,4*45
$GPGGA,082814.00,3135.3298324,N,12046.7913169,E,4,18,1.3,2.6789,M,8.324,M,01,0004*6D
$GPHPD,1957,30511.800,238.30,-1.83,13.37,31.5888305,120.7798553,2.679,13633956.558,24927841.901,2.679,0.751,0.939,-0.611,0.623,1.011,0.602,0.000,18,16,4*44
$GPGGA,082814.20,3135.3297570,N,12046.7911674,E,4,18,1.3,2.6770,M,8.324,M,01,0004*68
$GPHPD,1957,30512.000,237.87,-1.60,13.36,31.5888293,120.7798528,2.677,13633957.329,24927840.537,2.677,0.745,0.966,-0.552,0.623,1.011,0.602,0.000,18,16,4*40
$GPGGA,082814.40,3135.3296783,N,12046.7910282,E,4,18,1.3,2.6922,M,8.324,M,01,0004*64
$GPHPD,1957,30512.200,237.44,-2.31,13.37,31.5888280,120.7798505,2.692,13633958.167,24927839.316,2.692,0.809,0.926,-0.586,0.623,1.011,0.602,0.000,18,17,4*41
$GPGGA,082814.60,3135.3296049,N,12046.7908872,E,4,18,1.3,2.6891,M,8.324,M,00,0004*63
$GPHPD,1957,30512.400,237.62,-3.08,13.37,31.5888267,120.7798481,2.689,13633958.927,24927838.043,2.689,0.799,0.876,-0.596,0.623,1.011,0.602,0.000,18,17,4*41
$GPGGA,082814.80,3135.3295268,N,12046.7907435,E,4,18,1.3,2.6756,M,8.324,M,00,0004*6B
$GPHPD,1957,30512.600,237.68,-2.12,13.36,31.5888254,120.7798457,2.676,13633959.747,24927836.764,2.676,0.790,0.877,-0.603,0.623,1.011,0.602,0.000,18,16,4*4A
$GPGGA,082815.00,3135.3294499,N,12046.7905942,E,4,18,1.3,2.6685,M,8.324,M,01,0004*6A
$GPHPD,1957,30512.800,237.65,-0.92,13.35,31.5888242,120.7798432,2.669,13633960.540,24927835.411,2.669,0.805,0.838,-0.629,0.623,1.011,0.602,0.000,18,16,4*49
$GPGGA,082815.20,3135.3293714,N,12046.7904563,E,4,18,1.3,2.6776,M,8.324,M,01,0004*6A
$GPHPD,1957,30513.000,237.68,-0.17,13.35,31.5888229,120.7798409,2.678,13633961.378,24927834.205,2.678,0.791,0.854,-0.585,0.623,1.011,0.602,0.000,18,16,4*46
$GPGGA,082815.40,3135.3292933,N,12046.7903123,E,4,18,1.3,2.6855,M,8.324,M,01,0004*6F
$GPHPD,1957,30513.200,238.17,0.17,13.33,31.5888216,120.7798385,2.686,13633962.199,24927832.922,2.686,0.742,0.924,-0.595,0.623,1.011,0.602,0.000,18,16,4*68
$GPGGA,082815.60,3135.3292169,N,12046.7901671,E,4,18,1.3,2.6960,M,8.324,M,00,0004*6E
$GPHPD,1957,30513.400,238.12,1.17,13.31,31.5888203,120.7798361,2.696,13633962.992,24927831.616,2.696,0.742,0.963,-0.608,0.623,1.011,0.602,0.000,18,16,4*6A
$GPGGA,082815.80,3135.3291397,N,12046.7900261,E,4,18,1.3,2.6800,M,8.324,M,00,0004*63
$GPHPD,1957,30513.600,238.05,1.35,13.30,31.5888190,120.7798338,2.680,13633963.806,24927830.365,2.680,0.755,0.951,-0.588,0.623,1.011,0.602,0.000,18,16,4*6B
$GPGGA,082816.00,3135.3290638,N,12046.7898838,E,4,18,1.3,2.6785,M,8.324,M,01,0004*6C
$GPHPD,1957,30513.800,238.13,1.02,13.32,31.5888177,120.7798314,2.679,13633964.598,24927829.090,2.679,0.776,0.902,-0.611,0.623,1.011,0.602,0.000,18,16,4*6B
$GPGGA,082816.20,3135.3289916,N,12046.7897367,E,4,18,1.3,2.6773,M,8.324,M,01,0004*62
$GPHPD,1957,30514.000,238.42,-0.66,13.31,31.5888165,120.7798289,2.677,13633965.328,24927827.736,2.677,0.754,0.890,-0.608,0.623,1.011,0.602,0.000,18,16,4*40
$GPGGA,082816.40,3135.3289144,N,12046.7895946,E,4,18,1.3,2.6780,M,8.324,M,01,0004*6C
$GPHPD,1957,30514.200,237.55,-0.82,13.31,31.5888152,120.7798266,2.678,13633966.140,24927826.472,2.678,0.776,0.906,-0.562,0.623,1.011,0.602,0.000,18,16,4*48
$GPGGA,082816.60,3135.3288363,N,12046.7894533,E,4,18,1.3,2.6733,M,8.324,M,00,0004*6E
$GPHPD,1957,30514.400,237.60,-0.43,13.32,31.5888139,120.7798242,2.673,13633966.965,24927825.222,2.673,0.761,0.933,-0.591,0.623,1.011,0.602,0.000,18,16,4*4E
$GPGGA,082816.80,3135.3287607,N,12046.7893066,E,4,18,1.3,2.6800,M,8.324,M,00,0004*65
$GPHPD,1957,30514.600,237.72,-1.31,13.33,31.5888127,120.7798218,2.680,13633967.745,24927823.893,2.680,0.792,0.874,-0.605,0.623,1.011,0.602,0.000,18,16,4*41
$GPGGA,082817.00,3135.3286861,N,12046.7891666,E,4,17,1.3,2.6806,M,8.324,M,01,0004*6F
$GPHPD,1957,30514.800,237.88,-1.56,13.34,31.5888114,120.7798194,2.681,13633968.523,24927822.638,2.681,0.804,0.910,-0.593,0.695,1.011,0.612,0.000,17,16,4*44
$GPGGA,082817.20,3135.3286087,N,12046.7890221,E,4,17,1.3,2.6644,M,8.324,M,01,0004*63
$GPHPD,1957,30515.000,237.46,-0.47,13.35,31.5888101,120.7798170,2.664,13633969.333,24927821.346,2.664,0.747,0.901,-0.564,0.695,1.011,0.612,0.000,17,15,4*4B
$GPGGA,082817.40,3135.3285284,N,12046.7888796,E,4,17,1.3,2.6559,M,8.324,M,01,0004*68
$GPHPD,1957,30515.200,237.61,-0.96,13.38,31.5888088,120.7798147,2.656,13633970.187,24927820.095,2.656,0.792,0.878,-0.621,0.695,1.011,0.612,0.000,17,15,4*45
$GPGGA,082817.60,3135.3284510,N,12046.7887369,E,4,17,1.3,2.6562,M,8.324,M,00,0004*63
$GPHPD,1957,30515.400,237.65,-0.89,13.41,31.5888075,120.7798123,2.656,13633971.000,24927818.824,2.656,0.781,0.935,-0.651,0.695,1.011,0.612,0.000,17,15,4*4C
$GPGGA,082817.80,3135.3283748,N,12046.7885975,E,4,17,1.3,2.6628,M,8.324,M,00,0004*6D
$GPHPD,1957,30515.600,237.46,-0.65,13.42,31.5888062,120.7798100,2.663,13633971.803,24927817.586,2.663,0.742,0.951,-0.589,0.695,1.011,0.612,0.000,17,15,4*43
$GPGGA,082818.00,3135.3282981,N,12046.7884557,E,4,18,1.3,2.6687,M,8.324,M,01,0004*66
$GPHPD,1957,30515.800,237.90,-1.22,13.41,31.5888050,120.7798076,2.669,13633972.607,24927816.323,2.669,0.756,0.928,-0.582,0.695,1.011,0.612,0.000,18,15,4*48
$GPGGA,082818.20,3135.3282245,N,12046.7883125,E,4,18,1.3,2.6735,M,8.324,M,01,0004*69
$GPHPD,1957,30516.000,237.99,-0.27,13.43,31.5888037,120.7798052,2.674,13633973.365,24927815.024,2.674,0.752,0.871,-0.601,0.623,1.011,0.602,0.000,18,16,4*42
$GPGGA,082818.40,3135.3281476,N,12046.7881704,E,4,18,1.3,2.6773,M,8.324,M,01,0004*6F
$GPHPD,1957,30516.200,238.26,-0.88,13.44,31.5888025,120.7798028,2.677,13633974.172,24927813.758,2.677,0.806,0.843,-0.590,0.623,1.011,0.602,0.000,18,16,4*4A
$GPGGA,082818.60,3135.3280728,N,12046.7880334,E,4,18,1.3,2.6854,M,8.324,M,00,0004*69
$GPHPD,1957,30516.400,237.88,0.05,13.43,31.5888012,120.7798006,2.685,13633974.960,24927812.541,2.685,0.761,0.906,-0.590,0.623,1.011,0.602,0.000,18,16,4*6E
$GPGGA,082818.80,3135.3279956,N,12046.7878894,E,4,18,1.3,2.6930,M,8.324,M,00,0004*63
$GPHPD,1957,30516.600,237.82,0.25,13.43,31.5887999,120.7797982,2.693,13633975.767,24927811.253,2.693,0.737,0.874,-0.603,0.623,1.011,0.602,0.000,18,16,4*6A
$GPGGA,082819.00,3135.3279231,N,12046.7877477,E,4,18,1.3,2.6786,M,8.324,M,01,0004*6C
$GPHPD,1957,30516.800,237.96,-0.59,13.45,31.5887987,120.7797958,2.679,13633976.513,24927809.966,2.679,0.793,0.868,-0.594,0.623,1.011,0.602,0.000,18,16,4*41
$GPGGA,082819.20,3135.3278464,N,12046.7875997,E,4,18,1.3,2.6928,M,8.324,M,01,0004*62
$GPHPD,1957,30517.000,237.88,0.02,13.44,31.5887974,120.7797933,2.693,13633977.305,24927808.628,2.693,0.775,0.926,-0.573,0.623,1.011,0.602,0.000,18,16,4*6A
$GPGGA,082819.40,3135.3277736,N,12046.7874543,E,4,18,1.3,2.6493,M,8.324,M,01,0004*66
$GPHPD,1957,30517.200,237.42,-0.57,13.44,31.5887962,120.7797909,2.649,13633978.047,24927807.298,2.649,0.766,0.867,-0.572,0.623,1.011,0.602,0.000,18,16,4*40
$GPGGA,082819.60,3135.3276934,N,12046.7873162,E,4,18,1.3,2.6594,M,8.324,M,00,0004*6E
$GPHPD,1957,30517.400,237.10,0.23,13.40,31.5887949,120.7797886,2.659,13633978.909,24927806.099,2.659,0.834,0.876,-0.630,0.623,1.011,0.602,0.000,18,17,4*69
$GPGGA,082819.80,3135.3276156,N,12046.7871718,E,4,18,1.3,2.6720,M,8.324,M,00,0004*68
$GPHPD,1957,30517.600,237.63,0.19,13.40,31.5887936,120.7797862,2.672,13633979.724,24927804.810,2.672,0.757,0.940,-0.601,0.623,1.011,0.602,0.000,18,17,4*63
$GPGGA,082820.00,3135.3275389,N,12046.7870324,E,4,18,1.3,2.6761,M,8.324,M,01,0004*67
$GPHPD,1957,30517.800,237.78,0.09,13.37,31.5887923,120.7797839,2.676,13633980.534,24927803.575,2.676,0.771,0.911,-0.619,0.623,1.011,0.602,0.000,18,17,4*69
$GPGGA,082820.20,3135.3274638,N,12046.7868865,E,4,18,1.3,2.6736,M,8.324,M,01,0004*6E
$GPHPD,1957,30518.000,238.07,-0.12,13.36,31.5887911,120.7797814,2.674,13633981.308,24927802.253,2.674,0.774,0.881,-0.593,0.623,1.011,0.602,0.000,18,17,4*47
$GPGGA,082820.40,3135.3273818,N,12046.7867390,E,4,18,1.3,2.6682,M,8.324,M,01,0004*63
$GPHPD,1957,30518.200,237.92,-0.22,13.34,31.5887897,120.7797790,2.668,13633982.176,24927800.951,2.668,0.749,0.941,-0.563,0.623,1.011,0.602,0.000,18,17,4*44
$GPGGA,082820.60,3135.3273073,N,12046.7865934,E,4,18,1.3,2.6709,M,8.324,M,00,0004*61
$GPHPD,1957,30518.400,238.29,-0.74,13.32,31.5887885,120.7797766,2.671,13633982.942,24927799.628,2.671,0.773,0.970,-0.641,0.623,1.011,0.602,0.000,18,17,4*4B
$GPGGA,082820.80,3135.3272294,N,12046.7864485,E,4,18,1.3,2.6850,M,8.324,M,00,0004*60
$GPHPD,1957,30518.600,238.10,0.20,13.32,31.5887872,120.7797741,2.685,13633983.758,24927798.334,2.685,0.802,0.909,-0.590,0.623,1.011,0.602,0.000,18,17,4*67
$GPGGA,082821.00,3135.3271540,N,12046.7863061,E,4,18,1.3,2.6845,M,8.324,M,01,0004*68
$GPHPD,1957,30518.800,238.31,-0.65,13.30,31.5887859,120.7797718,2.685,13633984.543,24927797.056,2.685,0.786,0.963,-0.589,0.623,1.011,0.602,0.000,18,17,4*41
$GPGGA,082821.20,3135.3270810,N,12046.7861635,E,4,18,1.3,2.6905,M,8.324,M,01,0004*63
$GPHPD,1957,30519.000,238.15,-0.69,13.27,31.5887847,120.7797694,2.691,13633985.294,24927795.761,2.691,0.803,0.904,-0.613,0.623,1.011,0.602,0.000,18,17,4*40
$GPGGA,082821.40,3135.3270046,N,12046.7860180,E,4,18,1.3,2.6904,M,8.324,M,01,0004*67
$GPHPD,1957,30519.200,238.13,-0.80,13.27,31.5887834,120.7797670,2.690,13633986.087,24927794.450,2.690,0.783,0.894,-0.581,0.623,1.011,0.602,0.000,18,17,4*49
$GPGGA,082821.60,3135.3269296,N,12046.7858737,E,4,18,1.3,2.6882,M,8.324,M,00,0004*6D
$GPHPD,1957,30519.400,238.19,-0.75,13.28,31.5887822,120.7797646,2.688,13633986.862,24927793.147,2.688,0.805,0.876,-0.610,0.623,1.011,0.602,0.000,18,17,4*43
$GPGGA,082821.80,3135.3268497,N,12046.7857281,E,4,17,1.3,2.6848,M,8.324,M,00,0004*6B
$GPHPD,1957,30519.600,238.24,-1.73,13.27,31.5887808,120.7797621,2.685,13633987.705,24927791.856,2.685,0.838,0.875,-0.611,0.623,1.011,0.602,0.000,17,17,4*49
$GPGGA,082822.00,3135.3267763,N,12046.7855863,E,4,17,1.3,2.6850,M,8.324,M,01,0004*6B
$GPHPD,1957,30519.800,238.03,-0.32,13.27,31.5887796,120.7797598,2.685,13633988.463,24927790.573,2.685,0.809,0.912,-0.621,0.695,1.011,0.612,0.000,17,16,4*44
$GPGGA,082822.20,3135.3266992,N,12046.7854411,E,4,17,1.3,2.6869,M,8.324,M,01,0004*6A
$GPHPD,1957,30520.000,237.98,-0.90,13.27,31.5887783,120.7797574,2.687,13633989.267,24927789.270,2.687,0.770,0.932,-0.568,0.695,1.011,0.612,0.000,17,16,4*47
$GPGGA,082822.40,3135.3266221,N,12046.7852942,E,4,17,1.3,2.6771,M,8.324,M,01,0004*64
$GPHPD,1957,30520.200,237.93,-0.68,13.26,31.5887770,120.7797549,2.677,13633990.067,24927787.947,2.677,0.808,0.865,-0.617,0.695,1.011,0.612,0.000,17,16,4*49
