91600.40,3135.6011387,N,12046.6244559,E,4,17,1.5,2.7587,M,8.311,M,01,0004*62
$GPHPD,1957,33378.200,323.35,-0.64,15.14,31.5933523,120.7770743,2.759,13629764.257,24924250.251,2.759,0.702,-0.087,0.647,0.682,1.264,0.746,0.000,17,16,4*44
$GPGGA,091600.60,3135.6012296,N,12046.6243794,E,4,17,1.5,2.7533,M,8.311,M,00,0004*68
$GPHPD,1957,33378.400,323.35,-0.77,15.12,31.5933538,120.7770730,2.753,13629762.811,24924248.799,2.753,0.710,-0.079,0.669,0.682,1.264,0.746,0.000,17,16,4*40
$GPGGA,091600.80,3135.6013217,N,12046.6242953,E,4,17,1.5,2.7650,M,8.311,M,00,0004*6C
$GPHPD,1957,33378.600,323.35,-0.76,15.10,31.5933554,120.7770716,2.765,13629761.333,24924247.249,2.765,0.757,-0.131,0.695,0.682,1.264,0.746,0.000,17,16,4*4D
$GPGGA,091601.00,3135.6014205,N,12046.6242122,E,4,17,1.5,2.7673,M,8.311,M,01,0004*6F
$GPHPD,1957,33378.800,323.50,-0.65,15.07,31.5933570,120.7770702,2.767,13629759.761,24924245.672,2.767,0.789,-0.040,0.736,0.682,1.264,0.746,0.000,17,16,4*4D
$GPGGA,091601.20,3135.6015218,N,12046.6241256,E,4,17,1.5,2.7502,M,8.311,M,01,0004*66
$GPHPD,1957,33379.000,323.49,-0.65,15.03,31.5933587,120.7770688,2.750,13629758.147,24924244.038,2.750,0.807,-0.017,0.784,0.682,1.264,0.746,0.000,17,16,4*4B
$GPGGA,091601.40,3135.6016238,N,12046.6240352,E,4,17,1.5,2.7617,M,8.311,M,01,0004*62
$GPHPD,1957,33379.200,323.21,0.07,14.99,31.5933604,120.7770673,2.762,13629756.516,24924242.354,2.762,0.884,-0.115,0.768,0.682,1.264,0.746,0.000,17,15,4*68
$GPGGA,091601.60,3135.6017286,N,12046.6239475,E,4,17,1.5,2.7483,M,8.311,M,00,0004*66
$GPHPD,1957,33379.400,323.27,-0.21,14.96,31.5933621,120.7770658,2.748,13629754.850,24924240.686,2.748,0.850,-0.046,0.812,0.682,1.264,0.746,0.000,17,16,4*4A
$GPGGA,091601.80,3135.6018317,N,12046.6238578,E,4,17,1.5,2.7507,M,8.311,M,00,0004*6E
$GPHPD,1957,33379.600,323.18,-0.30,14.92,31.5933639,120.7770643,2.751,13629753.204,24924239.004,2.751,0.890,-0.125,0.786,0.682,1.264,0.746,0.000,17,15,4*44
$GPGGA,091602.00,3135.6019385,N,12046.6237658,E,4,17,1.5,2.7497,M,8.311,M,01,0004*68
$GPHPD,1957,33379.800,323.24,-0.53,14.86,31.5933656,120.7770628,2.750,13629751.501,24924237.273,2.750,0.869,-0.061,0.820,0.682,1.264,0.746,0.000,17,15,4*49
$GPGGA,091602.20,3135.6020435,N,12046.6236744,E,4,17,1.5,2.7500,M,8.311,M,01,0004*6E
$GPHPD,1957,33380.000,322.84,-0.02,14.80,31.5933674,120.7770612,2.750,13629749.825,24924235.559,2.750,0.875,-0.074,0.831,0.682,1.264,0.746,0.000,17,15,4*41
$GPGGA,091602.40,3135.6021496,N,12046.6235802,E,4,17,1.5,2.7605,M,8.311,M,01,0004*68
$GPHPD,1957,33380.200,322.73,-0.43,14.74,31.5933692,120.7770597,2.761,13629748.127,24924233.806,2.761,0.883,-0.088,0.828,0.682,1.264,0.746,0.000,17,15,4*4A
$GPGGA,091602.60,3135.6022573,N,12046.6234868,E,4,17,1.5,2.7430,M,8.311,M,00,0004*6B
$GPHPD,1957,33380.400,322.71,-0.88,14.69,31.5933710,120.7770581,2.743,13629746.409,24924232.052,2.743,0.874,-0.016,0.866,0.682,1.264,0.746,0.000,17,15,4*43
$GPGGA,091602.80,3135.6023634,N,12046.6233924,E,4,17,1.5,2.7572,M,8.311,M,00,0004*6D
$GPHPD,1957,33380.600,322.55,-0.51,14.64,31.5933727,120.7770565,2.757,13629744.711,24924230.296,2.757,0.921,-0.096,0.812,0.687,1.273,0.793,0.000,17,15,4*41
$GPGGA,091603.00,3135.6024737,N,12046.6232997,E,4,17,1.5,2.7471,M,8.311,M,01,0004*6B
$GPHPD,1957,33380.800,322.35,-0.80,14.59,31.5933746,120.7770550,2.747,13629742.957,24924228.536,2.747,0.869,0.005,0.866,0.687,1.273,0.793,0.000,17,15,4*6D
$GPGGA,091603.20,3135.6025777,N,12046.6232020,E,4,17,1.5,2.7531,M,8.311,M,01,0004*6C
$GPHPD,1957,33381.000,322.19,-0.68,14.55,31.5933763,120.7770534,2.753,13629741.282,24924226.753,2.753,0.916,-0.094,0.845,0.687,1.273,0.793,0.000,17,15,4*47
$GPGGA,091603.40,3135.6026883,N,12046.6231047,E,4,17,1.5,2.7413,M,8.311,M,01,0004*6E
$GPHPD,1957,33381.200,322.25,-0.81,14.53,31.5933781,120.7770517,2.741,13629739.514,24924224.935,2.741,0.914,-0.037,0.842,0.682,1.264,0.746,0.000,17,15,4*4A
$GPGGA,091603.60,3135.6027970,N,12046.6230055,E,4,17,1.5,2.7442,M,8.311,M,00,0004*67
$GPHPD,1957,33381.400,322.21,-0.53,14.51,31.5933800,120.7770501,2.744,13629737.770,24924223.106,2.744,0.971,-0.130,0.823,0.682,1.264,0.746,0.000,17,16,4*44
$GPGGA,091603.80,3135.6029061,N,12046.6229079,E,4,17,1.5,2.7551,M,8.311,M,00,0004*6B
$GPHPD,1957,33381.600,322.23,-0.06,14.48,31.5933818,120.7770485,2.755,13629736.023,24924221.294,2.755,0.961,-0.078,0.846,0.682,1.264,0.746,0.000,17,16,4*4D
$GPGGA,091604.00,3135.6030153,N,12046.6228107,E,4,17,1.5,2.7419,M,8.311,M,01,0004*69
$GPHPD,1957,33381.800,322.09,-0.19,14.44,31.5933836,120.7770468,2.742,13629734.275,24924219.486,2.742,0.929,-0.034,0.874,0.682,1.264,0.746,0.000,17,16,4*4E
$GPGGA,091604.20,3135.6031234,N,12046.6227092,E,4,17,1.5,2.7523,M,8.311,M,01,0004*62
$GPHPD,1957,33382.000,321.80,-0.34,14.43,31.5933854,120.7770452,2.752,13629732.535,24924217.633,2.752,0.953,-0.072,0.848,0.682,1.264,0.746,0.000,17,16,4*45
$GPGGA,091604.40,3135.6032357,N,12046.6226101,E,4,17,1.5,2.7430,M,8.311,M,01,0004*6A
$GPHPD,1957,33382.200,321.82,-0.31,14.38,31.5933873,120.7770435,2.743,13629730.739,24924215.784,2.743,0.940,-0.029,0.860,0.682,1.264,0.746,0.000,17,16,4*4D
$GPGGA,091604.60,3135.6033423,N,12046.6225164,E,4,17,1.5,2.7440,M,8.311,M,00,0004*6B
$GPHPD,1957,33382.400,321.88,-0.24,14.30,31.5933890,120.7770419,2.744,13629729.035,24924214.034,2.744,0.956,-0.055,0.859,0.682,1.264,0.746,0.000,17,16,4*46
$GPGGA,091604.80,3135.6034437,N,12046.6224241,E,4,17,1.5,2.7492,M,8.311,M,00,0004*6D
$GPHPD,1957,33382.600,321.72,-0.12,14.22,31.5933907,120.7770404,2.749,13629727.409,24924212.330,2.749,0.907,-0.060,0.840,0.682,1.264,0.746,0.000,17,16,4*4A
$GPGGA,091605.00,3135.6035388,N,12046.6223376,E,4,17,1.5,2.7433,M,8.311,M,01,0004*6E
$GPHPD,1957,33382.800,321.80,-0.80,14.12,31.5933923,120.7770390,2.743,13629725.883,24924210.733,2.743,0.861,-0.021,0.814,0.682,1.264,0.746,0.000,17,16,4*41
$GPGGA,091605.20,3135.6036333,N,12046.6222532,E,4,17,1.5,2.7359,M,8.311,M,01,0004*63
$GPHPD,1957,33383.000,321.74,-0.56,14.03,31.5933939,120.7770376,2.736,13629724.370,24924209.166,2.736,0.844,-0.060,0.758,0.682,1.264,0.746,0.000,17,16,4*46
$GPGGA,091605.40,3135.6037234,N,12046.6221694,E,4,17,1.5,2.7366,M,8.311,M,01,0004*62
$GPHPD,1957,33383.200,321.68,-0.09,13.98,31.5933954,120.7770362,2.737,13629722.921,24924207.630,2.737,0.819,-0.086,0.703,0.682,1.264,0.746,0.000,17,16,4*44
$GPGGA,091605.60,3135.6038118,N,12046.6220880,E,4,17,1.5,2.7356,M,8.311,M,00,0004*6A
$GPHPD,1957,33383.400,321.85,-0.26,13.93,31.5933969,120.7770348,2.736,13629721.501,24924206.134,2.736,0.797,-0.055,0.717,0.736,1.310,0.802,0.000,17,16,4*4F
$GPGGA,091605.80,3135.6038979,N,12046.6220113,E,4,17,1.5,2.7385,M,8.311,M,00,0004*66
$GPHPD,1957,33383.600,321.98,-0.51,13.90,31.5933983,120.7770335,2.739,13629720.123,24924204.708,2.739,0.784,-0.053,0.698,0.736,1.310,0.802,0.000,17,16,4*40
$GPGGA,091606.00,3135.6039846,N,12046.6219338,E,4,17,1.5,2.7402,M,8.311,M,01,0004*69
$GPHPD,1957,33383.800,321.89,-0.05,13.85,31.5933997,120.7770322,2.740,13629718.734,24924203.269,2.740,0.728,-0.029,0.697,0.682,1.264,0.746,0.000,17,16,4*41
$GPGGA,091606.20,3135.6040726,N,12046.6218561,E,4,17,1.5,2.7284,M,8.311,M,01,0004*6F
$GPHPD,1957,33384.000,321.64,-0.10,13.81,31.5934012,120.7770309,2.728,13629717.327,24924201.819,2.728,0.731,-0.035,0.677,0.682,1.264,0.746,0.000,17,16,4*4A
$GPGGA,091606.40,3135.604147,N,12046.6217809,E,4,17,1.5,2.7397,M,8.311,M,01,0004*62
$GPHPD,1957,33384.200,321.64,-0.06,13.79,31.5934026,120.7770297,2.740,13629716.009,24924200.435,2.740,0.785,-0.117,0.639,0.682,1.264,0.746,0.000,17,16,4*40
$GPGGA,091606.60,3135.6042370,N,12046.6217047,E,4,17,1.5,2.7358,M,8.311,M,00,0004*61
$GPHPD,1957,33384.400,321.74,-0.47,13.75,31.5934040,120.7770284,2.736,13629714.686,24924199.037,2.736,0.697,0.009,0.684,0.682,1.264,0.746,0.000,17,16,4*6D
$GPGGA,091606.80,3135.6043183,N,12046.6216304,E,4,17,1.5,2.7511,M,8.311,M,00,0004*6E
$GPHPD,1957,33384.600,321.62,-0.85,13.72,31.5934053,120.7770272,2.751,13629713.381,24924197.667,2.751,0.710,-0.028,0.655,0.682,1.264,0.746,0.000,17,16,4*4E
$GPGGA,091607.00,3135.6044003,N,12046.6215555,E,4,17,1.5,2.7460,M,8.311,M,01,0004*6E
$GPHPD,1957,33384.800,321.49,-0.70,13.71,31.5934067,120.7770259,2.746,13629712.065,24924196.287,2.746,0.683,0.003,0.670,0.736,1.310,0.803,0.000,17,16,4*67
$GPGGA,091607.20,3135.6044850,N,12046.6214803,E,4,17,1.5,2.7394,M,8.311,M,01,0004*61
$GPHPD,1957,33385.000,321.47,-0.54,13.71,31.5934081,120.7770247,2.739,13629710.710,24924194.887,2.739,0.708,-0.021,0.636,0.682,1.264,0.746,0.000,17,16,4*41
$GPGGA,091607.40,3135.6045651,N,12046.6214040,E,4,17,1.5,2.7464,M,8.311,M,01,0004*6E
$GPHPD,1957,33385.200,321.36,-0.88,13.70,31.5934094,120.7770234,2.746,13629709.418,24924193.500,2.746,0.725,-0.063,0.635,0.682,1.264,0.746,0.000,17,16,4*49
$GPGGA,091607.60,3135.6046443,N,12046.6213279,E,4,17,1.5,2.7505,M,8.311,M,00,0004*66
$GPHPD,1957,33385.400,321.47,-0.66,13.69,31.5934107,120.7770221,2.751,13629708.139,24924192.122,2.751,0.716,-0.023,0.654,0.682,1.263,0.746,0.000,17,16,4*48
$GPGGA,091607.80,3135.6047304,N,12046.6212526,E,4,17,1.5,2.7393,M,8.311,M,00,0004*68
$GPHPD,1957,33385.600,321.51,-0.73,13.71,31.5934122,120.7770209,2.739,13629706.764,24924190.712,2.739,0.715,-0.027,0.656,0.682,1.263,0.746,0.000,17,16,4*4F
$GPGGA,091608.00,3135.6048148,N,12046.6211760,E,4,17,1.5,2.7285,M,8.311,M,01,0004*6E
$GPHPD,1957,33385.800,321.48,-0.14,13.72,31.5934136,120.7770196,2.729,13629705.410,24924189.297,2.729,0.739,-0.065,0.647,0.682,1.263,0.746,0.000,17,16,4*40
$GPGGA,091608.20,3135.6048988,N,12046.6210937,E,4,17,1.5,2.7288,M,8.311,M,01,0004*68
$GPHPD,1957,33386.000,321.27,-0.30,13.74,31.5934150,120.7770182,2.729,13629704.051,24924187.816,2.729,0.775,-0.100,0.645,0.682,1.263,0.746,0.000,17,16,4*42
$GPGGA,091608.40,3135.6049874,N,12046.6210129,E,4,17,1.5,2.7266,M,8.311,M,01,0004*6A
$GPHPD,1957,33386.200,321.42,-0.18,13.75,31.5934165,120.7770169,2.727,13629702.629,24924186.325,2.727,0.768,-0.034,0.668,0.682,1.263,0.746,0.000,17,16,4*4B
$GPGGA,091608.60,3135.6050761,N,12046.6209305,E,4,17,1.5,2.7282,M,8.311,M,00,0004*64
$GPHPD,1957,33386.400,321.23,-0.53,13.75,31.5934179,120.7770155,2.728,13629701.203,24924184.815,2.728,0.776,-0.047,0.687,0.682,1.263,0.746,0.000,17,16,4*48
$GPGGA,091608.80,3135.6051665,N,12046.6208470,E,4,17,1.5,2.7310,M,8.311,M,00,0004*60
$GPHPD,1957,33386.600,321.31,-0.22,13.75,31.5934194,120.7770141,2.731,13629699.750,24924183.282,2.731,0.796,-0.068,0.696,0.682,1.263,0.746,0.000,17,16,4*4A
$GPGGA,091609.00,3135.6052556,N,12046.6207629,E,4,17,1.5,2.7284,M,8.311,M,01,0004*65
$GPHPD,1957,33386.800,321.22,-0.06,13.74,31.5934209,120.7770127,2.728,13629698.314,24924181.749,2.728,0.765,0.007,0.742,0.682,1.263,0.746,0.000,17,16,4*63
$GPGGA,091609.20,3135.6053449,N,12046.6206799,E,4,17,1.5,2.7308,M,8.311,M,01,0004*67
$GPHPD,1957,33387.000,321.30,-0.78,13.72,31.5934224,120.7770113,2.731,13629696.878,24924180.229,2.731,0.803,-0.045,0.687,0.682,1.263,0.746,0.000,17,16,4*4F
$GPGGA,091609.40,3135.6054321,N,12046.6205987,E,4,17,1.5,2.7307,M,8.311,M,01,0004*62
$GPHPD,1957,33387.200,321.25,-0.48,13.68,31.5934239,120.7770100,2.731,13629695.475,24924178.742,2.731,0.781,-0.039,0.682,0.737,1.310,0.803,0.000,17,16,4*4D
$GPGGA,091609.60,3135.6055216,N,12046.6205201,E,4,17,1.5,2.7283,M,8.311,M,00,0004*6D
$GPHPD,1957,33387.400,321.18,-0.51,13.64,31.5934254,120.7770087,2.728,13629694.045,24924177.273,2.728,0.765,-0.027,0.695,0.737,1.310,0.803,0.000,17,16,4*49
$GPGGA,091609.80,3135.6056072,N,12046.6204404,E,4,17,1.5,2.7352,M,8.311,M,00,0004*6F
$GPHPD,1957,33387.600,321.41,-0.25,13.61,31.5934268,120.7770073,2.735,13629692.668,24924175.813,2.735,0.761,-0.050,0.714,0.682,1.263,0.746,0.000,17,16,4*4C
$GPGGA,091610.00,3135.6056953,N,12046.6203596,E,4,17,1.5,2.7225,M,8.311,M,01,0004*68
$GPHPD,1957,33387.800,321.28,-0.39,13.58,31.5934283,120.7770060,2.723,13629691.253,24924174.326,2.723,0.747,-0.034,0.678,0.682,1.263,0.746,0.000,17,16,4*43
$GPGGA,091610.20,3135.6057796,N,12046.6202799,E,4,17,1.5,2.7336,M,8.311,M,01,0004*63
$GPHPD,1957,33388.000,321.42,-0.11,13.55,31.5934297,120.7770047,2.734,13629689.895,24924172.874,2.734,0.808,-0.100,0.651,0.682,1.263,0.746,0.000,17,16,4*45
$GPGGA,091610.40,3135.6058671,N,12046.6201990,E,4,17,1.5,2.7257,M,8.311,M,01,0004*60
$GPHPD,1957,33388.200,321.28,-0.60,13.54,31.5934311,120.7770033,2.726,13629688.489,24924171.389,2.726,0.743,-0.012,0.684,0.682,1.263,0.746,0.000,17,16,4*40
$GPGGA,091610.60,3135.6059556,N,12046.6201204,E,4,17,1.5,2.7205,M,8.311,M,00,0004*65
$GPHPD,1957,33388.400,321.31,-0.30,13.50,31.5934326,120.7770020,2.721,13629687.073,24924169.926,2.721,0.785,-0.055,0.664,0.682,1.263,0.746,0.000,17,16,4*46
$GPGGA,091610.80,3135.6060413,N,12046.6200401,E,4,17,1.5,2.7351,M,8.311,M,00,0004*63
$GPHPD,1957,33388.600,321.23,-0.17,13.49,31.5934340,120.7770007,2.735,13629685.693,24924168.459,2.735,0.788,-0.070,0.693,0.737,1.310,0.803,0.000,17,16,4*47
$GPGGA,091611.00,3135.6061313,N,12046.6199591,E,4,17,1.5,2.7315,M,8.311,M,01,0004*66
$GPHPD,1957,33388.800,321.18,-0.49,13.52,31.5934355,120.7769993,2.732,13629684.251,24924166.958,2.732,0.727,0.020,0.713,0.682,1.263,0.746,0.000,17,16,4*61
$GPGGA,091611.20,3135.6062188,N,12046.6198777,E,4,17,1.5,2.7316,M,8.311,M,01,0004*6F
$GPHPD,1957,33389.000,321.17,-0.84,13.52,31.5934370,120.7769980,2.732,13629682.844,24924165.467,2.732,0.768,-0.034,0.700,0.682,1.263,0.746,0.000,17,16,4*48
$GPGGA,091611.40,3135.6063116,N,12046.6197908,E,4,17,1.5,2.7335,M,8.311,M,01,0004*67
$GPHPD,1957,33389.200,321.08,-0.67,13.51,31.5934385,120.7769965,2.734,13629681.350,24924163.879,2.734,0.757,-0.018,0.716,0.682,1.263,0.746,0.000,17,16,4*46
$GPGGA,091611.60,3135.6064050,N,12046.6197060,E,4,17,1.5,2.7365,M,8.311,M,00,0004*62
$GPHPD,1957,33389.400,321.20,-0.94,13.52,31.5934401,120.7769951,2.737,13629679.852,24924162.313,2.737,0.810,-0.044,0.727,0.682,1.263,0.746,0.000,17,16,4*46
$GPGGA,091611.80,3135.6064989,N,12046.6196169,E,4,17,1.5,2.7400,M,8.311,M,00,0004*6C
$GPHPD,1957,33389.600,321.07,-1.18,13.53,31.5934416,120.7769936,2.740,13629678.338,24924160.692,2.740,0.793,-0.010,0.745,0.682,1.263,0.746,0.000,17,16,4*4B
$GPGGA,091612.00,3135.6065965,N,12046.6195314,E,4,17,1.5,2.7312,M,8.311,M,01,0004*6A
$GPHPD,1957,33389.800,321.35,-1.16,13.54,31.5934433,120.7769922,2.731,13629676.779,24924159.092,2.731,0.801,0.021,0.758,0.737,1.310,0.803,0.000,17,16,4*6F
$GPGGA,091612.20,3135.6066962,N,12046.6194391,E,4,17,1.5,2.7287,M,8.311,M,01,0004*6D
$GPHPD,1957,33390.000,321.14,-1.07,13.55,31.5934449,120.7769907,2.729,13629675.176,24924157.399,2.729,0.846,-0.064,0.747,0.737,1.310,0.803,0.000,17,16,4*4A
$GPGGA,091612.40,3135.6067970,N,12046.6193463,E,4,17,1.5,2.7228,M,8.311,M,01,0004*61
$GPHPD,1957,33390.200,321.39,-1.21,13.55,31.5934466,120.7769891,2.723,13629673.557,24924155.693,2.723,0.892,-0.055,0.768,0.682,1.263,0.747,0.000,17,16,4*4F
$GPGGA,091612.60,3135.6069008,N,12046.6192501,E,4,17,1.5,2.7189,M,8.311,M,00,0004*66
$GPHPD,1957,33390.400,321.46,-0.74,13.54,31.5934483,120.7769875,2.719,13629671.888,24924153.928,2.719,0.909,-0.071,0.773,0.682,1.263,0.747,0.000,17,16,4*4B
$GPGGA,091612.80,3135.6070047,N,12046.6191545,E,4,17,1.5,2.7270,M,8.311,M,00,0004*6D
$GPHPD,1957,33390.600,321.66,-0.68,13.54,31.5934501,120.7769859,2.727,13629670.219,24924152.171,2.727,0.908,-0.059,0.805,0.759,1.341,0.893,0.000,17,16,4*40
$GPGGA,091613.00,3135.6071118,N,12046.6190564,E,4,17,1.5,2.7081,M,8.311,M,01,0004*61
$GPHPD,1957,33390.800,321.43,-0.99,13.54,31.5934519,120.7769843,2.708,13629668.499,24924150.364,2.708,0.909,-0.041,0.821,0.682,1.263,0.747,0.000,17,16,4*48
$GPGGA,091613.20,3135.6072185,N,12046.6189577,E,4,17,1.5,2.7119,M,8.311,M,01,0004*6E
$GPHPD,1957,33391.000,321.72,-0.37,13.53,31.5934536,120.7769826,2.712,13629666.784,24924148.553,2.712,0.937,-0.070,0.827,0.597,1.214,0.744,0.000,17,16,4*49
$GPGGA,091613.40,3135.6073292,N,12046.6188580,E,4,17,1.5,2.7080,M,8.311,M,01,0004*64
$GPHPD,1957,33391.200,321.85,-0.90,13.53,31.5934555,120.7769810,2.708,13629665.010,24924146.706,2.708,0.942,-0.054,0.839,0.597,1.214,0.744,0.000,17,16,4*40
$GPGGA,091613.60,3135.6074403,N,12046.6187600,E,4,17,1.5,2.7118,M,8.311,M,00,0004*6A
$GPHPD,1957,33391.400,321.77,-0.60,13.53,31.5934573,120.7769793,2.712,13629663.234,24924144.878,2.712,0.954,-0.051,0.869,0.597,1.214,0.744,0.000,17,16,4*45
$GPGGA,091613.80,3135.6075535,N,12046.6186569,E,4,17,1.5,2.7103,M,8.311,M,00,0004*66
$GPHPD,1957,33391.600,321.70,-0.71,13.53,31.5934592,120.7769776,2.710,13629661.418,24924142.975,2.710,0.942,-0.046,0.878,0.597,1.214,0.744,0.000,17,16,4*45
$GPGGA,091614.00,3135.6076650,N,12046.6185525,E,4,17,1.5,2.7067,M,8.311,M,01,0004*63
$GPHPD,1957,33391.800,321.70,-0.83,13.52,31.5934611,120.7769759,2.707,13629659.623,24924141.067,2.707,0.956,-0.056,0.885,0.597,1.214,0.744,0.000,17,16,4*4C
$GPGGA,091614.20,3135.6077808,N,12046.6184516,E,4,17,1.5,2.7024,M,8.311,M,01,0004*65
$GPHPD,1957,33392.000,321.50,-1.23,13.50,31.5934630,120.7769742,2.702,13629657.774,24924139.176,2.702,0.975,-0.030,0.899,0.620,1.235,0.790,0.000,17,16,4*4F
$GPGGA,091614.40,3135.6078976,N,12046.6183478,E,4,17,1.5,2.6920,M,8.311,M,01,0004*66
$GPHPD,1957,33392.200,321.35,-0.51,13.50,31.5934650,120.7769725,2.692,13629655.905,24924137.244,2.692,0.962,-0.052,0.915,0.682,1.263,0.747,0.000,17,16,4*4D
$GPGGA,091614.60,3135.6080126,N,12046.6182393,E,4,17,1.5,2.6911,M,8.311,M,00,0004*6E
$GPHPD,1957,33392.400,321.42,-0.41,13.50,31.5934669,120.7769707,2.691,13629654.052,24924135.267,2.691,0.975,-0.063,0.907,0.682,1.263,0.747,0.000,17,16,4*4E
$GPGGA,091614.80,3135.6081291,N,12046.6181342,E,4,17,1.5,2.6925,M,8.311,M,00,0004*66
$GPHPD,1957,33392.600,321.45,-0.52,13.48,31.5934688,120.7769689,2.693,13629652.185,24924133.321,2.693,1.012,-0.054,0.904,0.682,1.263,0.747,0.000,17,16,4*4E
$GPGGA,091615.00,3135.6082436,N,12046.6180257,E,4,17,1.5,2.6921,M,8.311,M,01,0004*66
$GPHPD,1957,33392.800,321.50,-0.36,13.47,31.5934707,120.7769671,2.692,13629650.340,24924131.346,2.692,1.018,-0.030,0.926,0.689,1.272,0.751,0.000,17,16,4*46
$GPGGA,091615.20,3135.6083605,N,12046.6179173,E,4,17,1.5,2.6906,M,8.311,M,01,0004*61
$GPHPD,1957,33393.000,321.61,-0.42,13.45,31.5934727,120.7769653,2.691,13629648.460,24924129.358,2.691,1.043,-0.067,0.883,0.689,1.272,0.751,0.000,17,16,4*46
$GPGGA,091615.40,3135.6084799,N,12046.6178119,E,4,17,1.5,2.6831,M,8.311,M,01,0004*6C
$GPHPD,1957,33393.200,321.92,-0.67,13.45,31.5934747,120.7769635,2.683,13629646.551,24924127.392,2.683,1.006,-0.038,0.936,0.689,1.272,0.751,0.000,17,16,4*48
$GPGGA,091615.60,3135.6085993,N,12046.6177065,E,4,17,1.5,2.6820,M,8.311,M,00,0004*6F
$GPHPD,1957,33393.400,321.84,-0.44,13.42,31.5934767,120.7769618,2.682,13629644.642,24924125.426,2.682,1.016,-0.090,0.940,0.689,1.272,0.751,0.000,17,16,4*49
$GPGGA,091615.80,3135.6087201,N,12046.6175963,E,4,17,1.5,2.6722,M,8.311,M,00,0004*63
$GPHPD,1957,33393.600,321.80,-0.67,13.39,31.5934787,120.7769599,2.672,13629642.703,24924123.394,2.672,1.024,-0.099,0.943,0.689,1.272,0.751,0.000,17,16,4*47
$GPGGA,091616.00,3135.6088389,N,12046.6174880,E,4,17,1.5,2.6739,M,8.311,M,01,0004*60
$GPHPD,1957,33393.800,321.98,-0.49,13.38,31.5934806,120.7769581,2.674,13629640.797,24924121.396,2.674,1.056,-0.097,0.928,0.689,1.272,0.751,0.000,17,16,4*4B
$GPGGA,091616.20,3135.6089601,N,12046.6173795,E,4,17,1.5,2.6726,M,8.311,M,01,0004*64
$GPHPD,1957,33394.000,321.82,-1.04,13.36,31.5934827,120.7769563,2.673,13629638.856,24924119.382,2.673,1.063,-0.091,0.913,0.689,1.272,0.751,0.000,17,16,4*4D
$GPGGA,091616.40,3135.6090821,N,12046.6172713,E,4,17,1.5,2.6688,M,8.311,M,01,0004*6C
$GPHPD,1957,33394.200,321.89,-1.21,13.34,31.5934847,120.7769545,2.669,13629636.904,24924117.367,2.669,1.055,-0.104,0.935,0.689,1.272,0.751,0.000,17,16,4*42
$GPGGA,091616.60,3135.6092019,N,12046.6171629,E,4,17,1.5,2.6792,M,8.311,M,00,0004*6F
$GPHPD,1957,33394.400,321.85,-0.82,13.33,31.5934867,120.7769527,2.679,13629634.984,24924115.362,2.679,1.040,-0.088,0.956,0.689,1.272,0.751,0.000,17,16,4*48
$GPGGA,091616.80,3135.6093227,N,12046.6170559,E,4,17,1.5,2.6767,M,8.311,M,00,0004*60
$GPHPD,1957,33394.600,321.88,-1.34,13.32,31.5934887,120.7769509,2.677,13629633.051,24924113.369,2.677,1.046,-0.054,0.969,0.598,1.234,0.750,0.000,17,16,4*48
$GPGGA,091617.00,3135.6094433,N,12046.6169465,E,4,17,1.5,2.6694,M,8.311,M,01,0004*67
$GPHPD,1957,33394.800,321.73,-0.96,13.30,31.5934907,120.7769491,2.669,13629631.117,24924111.347,2.669,1.039,-0.081,0.951,0.689,1.272,0.751,0.000,17,16,4*44
$GPGGA,091617.20,3135.6095639,N,12046.6168363,E,4,17,1.5,2.6684,M,8.311,M,01,0004*6D
$GPHPD,1957,33395.000,321.73,-0.53,13.27,31.5934927,120.7769473,2.668,13629629.182,24924109.316,2.668,1.052,-0.107,0.926,0.689,1.272,0.751,0.000,17,16,4*46
$GPGGA,091617.40,3135.6096859,N,12046.6167303,E,4,17,1.5,2.6638,M,8.311,M,01,0004*6E
$GPHPD,1957,33395.200,321.83,-0.19,13.26,31.5934948,120.7769455,2.664,13629627.234,24924107.328,2.664,1.044,-0.049,0.943,0.689,1.272,0.751,0.000,17,16,4*45
$GPGGA,091617.60,3135.6098066,N,12046.6166196,E,4,17,1.5,2.6571,M,8.311,M,00,0004*66
$GPHPD,1957,33395.400,321.74,-0.37,13.26,31.5934968,120.7769437,2.657,13629625.296,24924105.290,2.657,1.019,-0.052,0.948,0.689,1.272,0.751,0.000,17,16,4*42
$GPGGA,091617.80,3135.6099263,N,12046.6165110,E,4,17,1.5,2.6615,M,8.311,M,00,0004*62
$GPHPD,1957,33395.600,321.57,0.36,13.26,31.5934988,120.7769419,2.662,13629623.376,24924103.284,2.662,1.072,-0.083,0.917,0.689,1.272,0.751,0.000,17,16,4*6E
$GPGGA,091618.00,3135.6100464,N,12046.6163999,E,4,17,1.5,2.6662,M,8.311,M,01,0004*6B
$GPHPD,1957,33395.800,321.70,0.12,13.26,31.5935008,120.7769400,2.666,13629621.446,24924101.245,2.666,1.032,-0.031,0.953,0.689,1.272,0.751,0.000,17,16,4*6F
$GPGGA,091618.20,3135.6101692,N,12046.6162906,E,4,17,1.5,2.6592,M,8.311,M,01,0004*68
$GPHPD,1957,33396.000,321.73,0.29,13.26,31.5935028,120.7769382,2.659,13629619.481,24924099.212,2.659,1.030,-0.026,0.969,0.689,1.272,0.751,0.000,17,16,4*6F
$GPGGA,091618.40,3135.6102920,N,12046.6161834,E,4,17,1.5,2.6596,M,8.311,M,01,0004*6C
$GPHPD,1957,33396.200,321.97,-0.52,13.26,31.5935049,120.7769364,2.660,13629617.520,24924097.204,2.660,1.046,-0.056,0.946,0.689,1.272,0.751,0.000,17,16,4*4F
$GPGGA,091618.60,3135.6104124,N,12046.6160736,E,4,17,1.5,2.6587,M,8.311,M,00,0004*69
$GPHPD,1957,33396.400,321.91,-0.93,13.24,31.5935069,120.7769346,2.659,13629615.588,24924095.179,2.659,1.058,-0.104,0.949,0.689,1.272,0.751,0.000,17,16,4*4F
$GPGGA,091618.80,3135.6105319,N,12046.6159627,E,4,17,1.5,2.6560,M,8.311,M,00,0004*68
$GPHPD,1957,33396.600,321.85,-1.07,13.24,31.5935089,120.7769327,2.656,13629613.666,24924093.146,2.656,1.037,-0.066,0.950,0.689,1.272,0.751,0.000,17,16,4*46
$GPGGA,091619.00,3135.6106534,N,12046.6158552,E,4,17,1.5,2.6551,M,8.311,M,01,0004*68
$GPHPD,1957,33396.800,322.21,-1.25,13.24,31.5935109,120.7769309,2.655,13629611.723,24924091.143,2.655,1.049,-0.064,0.935,0.689,1.272,0.751,0.000,17,16,4*4D
$GPGGA,091619.20,3135.6107735,N,12046.6157449,E,4,17,1.5,2.6479,M,8.311,M,01,0004*67
$GPHPD,1957,33397.000,322.30,-1.36,13.22,31.5935129,120.7769291,2.648,13629609.794,24924089.113,2.648,1.046,-0.085,0.940,0.689,1.272,0.751,0.000,17,16,4*49
$GPGGA,091619.40,3135.6108950,N,12046.6156378,E,4,17,1.5,2.6579,M,8.311,M,01,0004*66
$GPHPD,1957,33397.200,322.42,-1.90,13.22,31.5935149,120.7769273,2.658,13629607.852,24924087.114,2.658,1.053,-0.073,0.938,0.689,1.272,0.751,0.000,17,16,4*48
$GPGGA,091619.60,3135.6110163,N,12046.6155302,E,4,17,1.5,2.6596,M,8.311,M,00,0004*6B
$GPHPD,1957,33397.400,322.32,-1.99,13.23,31.5935169,120.7769255,2.660,13629605.911,24924085.111,2.660,1.012,-0.048,0.973,0.689,1.272,0.751,0.000,17,16,4*46
$GPGGA,091619.80,3135.6111379,N,12046.6154152,E,4,17,1.5,2.6474,M,8.311,M,00,0004*66
$GPHPD,1957,33397.600,322.26,-1.38,13.23,31.5935190,120.7769236,2.647,13629603.952,24924083.016,2.647,1.043,-0.068,0.939,0.755,1.312,0.804,0.000,17,16,4*48
$GPGGA,091620.00,3135.6112585,N,12046.6153097,E,4,17,1.5,2.6503,M,8.311,M,01,0004*6D
$GPHPD,1957,33397.800,322.21,-1.34,13.22,31.5935210,120.7769218,2.650,13629602.025,24924081.042,2.650,1.068,-0.093,0.960,0.755,1.312,0.804,0.000,17,16,4*41
$GPGGA,091620.20,3135.6113802,N,12046.6152017,E,4,17,1.5,2.6333,M,8.311,M,01,0004*60
$GPHPD,1957,33398.000,322.14,-1.15,13.22,31.5935230,120.7769200,2.633,13629600.078,24924079.031,2.633,1.043,-0.078,0.943,0.689,1.272,0.751,0.000,17,16,4*44
$GPGGA,091620.40,3135.6115037,N,12046.6150982,E,4,17,1.5,2.6272,M,8.311,M,01,0004*6D
$GPHPD,1957,33398.200,321.86,-1.42,13.24,31.5935251,120.7769183,2.627,13629598.115,24924077.064,2.627,1.054,-0.125,0.920,0.689,1.272,0.751,0.000,17,16,4*49
$GPGGA,091620.60,3135.6116231,N,12046.6149817,E,4,17,1.5,2.6339,M,8.311,M,00,0004*62
$GPHPD,1957,33398.400,321.53,-1.41,13.24,31.5935271,120.7769164,2.634,13629596.183,24924074.964,2.634,1.043,-0.125,0.938,0.689,1.272,0.751,0.000,17,16,4*4B
$GPGGA,091620.80,3135.6117411,N,12046.6148793,E,4,17,1.5,2.6333,M,8.311,M,00,0004*61
$GPHPD,1957,33398.600,322.02,-1.48,13.24,31.5935290,120.7769147,2.633,13629594.300,24924073.042,2.633,1.068,-0.053,0.953,0.689,1.272,0.751,0.000,17,16,4*4C
$GPGGA,091621.00,3135.6118632,N,12046.6147671,E,4,17,1.5,2.6222,M,8.311,M,01,0004*66
$GPHPD,1957,33398.800,322.06,-1.57,13.26,31.5935311,120.7769128,2.622,13629592.339,24924070.978,2.622,1.015,-0.067,0.939,0.689,1.272,0.751,0.000,17,16,4*45
$GPGGA,091621.20,3135.6119810,N,12046.6146574,E,4,17,1.5,2.6133,M,8.311,M,01,0004*6F
$GPHPD,1957,33399.000,322.16,-1.60,13.28,31.5935330,120.7769110,2.613,13629590.444,24924068.969,2.613,1.065,-0.093,0.927,0.689,1.272,0.751,0.000,17,16,4*4A
$GPGGA,091621.40,3135.6121027,N,12046.6145503,E,4,17,1.5,2.6207,M,8.311,M,01,0004*69
$GPHPD,1957,33399.200,322.40,-1.24,13.27,31.5935350,120.7769092,2.621,13629588.499,24924066.969,2.621,1.056,-0.073,0.922,0.689,1.272,0.751,0.000,17,16,4*45
$GPGGA,091621.60,3135.6122209,N,12046.6144454,E,4,17,1.5,2.6213,M,8.311,M,00,0004*60
$GPHPD,1957,33399.400,322.24,-1.33,13.27,31.5935370,120.7769074,2.621,13629586.608,24924065.016,2.621,1.020,-0.069,0.965,0.689,1.272,0.751,0.000,17,16,4*42
$GPGGA,091621.80,3135.6123381,N,12046.6143370,E,4,17,1.5,2.6265,M,8.311,M,00,0004*69
$GPHPD,1957,33399.600,322.27,-1.01,13.29,31.5935390,120.7769056,2.627,13629584.724,24924063.027,2.627,1.007,-0.058,0.922,0.689,1.272,0.751,0.000,17,16,4*4F
$GPGGA,091622.00,3135.6124592,N,12046.6142334,E,4,17,1.5,2.6244,M,8.311,M,01,0004*62
$GPHPD,1957,33399.800,322.18,-1.08,13.30,31.5935410,120.7769039,2.624,13629582.795,24924061.072,2.624,1.000,-0.032,0.949,0.689,1.272,0.751,0.000,17,16,4*42
$GPGGA,091622.20,3135.6125761,N,12046.6141277,E,4,17,1.5,2.6204,M,8.311,M,01,0004*6E
$GPHPD,1957,33400.000,322.08,-0.75,13.29,31.5935429,120.7769021,2.620,13629580.921,24924059.117,2.620,1.039,-0.083,0.919,0.689,1.272,0.751,0.000,17,16,4*43
$GPGGA,091622.40,3135.6126968,N,12046.6140213,E,4,17,1.5,2.6206,M,8.311,M,01,0004*6D
$GPHPD,1957,33400.200,322.35,-0.96,13.28,31.5935449,120.7769004,2.621,13629578.991,24924057.131,2.621,1.020,-0.082,0.918,0.689,1.272,0.751,0.000,17,16,4*4C
$GPGGA,091622.60,3135.6128139,N,12046.6139151,E,4,17,1.5,2.6286,M,8.311,M,00,0004*6F
$GPHPD,1957,33400.400,322.16,-0.58,13.29,31.5935469,120.7768986,2.629,13629577.113,24924055.169,2.629,0.992,-0.052,0.946,0.696,1.279,0.795,0.000,17,16,4*40
$GPGGA,091622.80,3135.6129319,N,12046.6138119,E,4,17,1.5,2.6214,M,8.311,M,00,0004*66
$GPHPD,1957,33400.600,322.22,-0.98,13.29,31.5935489,120.7768969,2.621,13629575.228,24924053.237,2.621,1.013,-0.008,0.917,0.682,1.263,0.747,0.000,17,16,4*4A
$GPGGA,091623.00,3135.6130480,N,12046.6137095,E,4,17,1.5,2.6194,M,8.311,M,01,0004*60
$GPHPD,1957,33400.800,322.24,-1.01,13.27,31.5935508,120.7768952,2.619,13629573.372,24924051.327,2.619,1.014,-0.069,0.911,0.682,1.263,0.747,0.000,17,16,4*41
$GPGGA,091623.20,3135.6131643,N,12046.6136085,E,4,17,1.5,2.6118,M,8.311,M,01,0004*6A
$GPHPD,1957,33401.000,322.43,-1.61,13.28,31.5935527,120.7768935,2.612,13629571.516,24924049.432,2.612,0.978,-0.051,0.936,0.737,1.310,0.804,0.000,17,16,4*4E
$GPGGA,091623.40,3135.6132809,N,12046.6135024,E,4,17,1.5,2.6090,M,8.311,M,01,0004*66
$GPHPD,1957,33401.200,322.39,-1.60,13.30,31.5935547,120.7768917,2.609,13629569.646,24924047.473,2.609,1.005,-0.088,0.899,0.737,1.310,0.804,0.000,17,15,4*4A
$GPGGA,091623.60,3135.6133964,N,12046.6133960,E,4,17,1.5,2.6055,M,8.311,M,00,0004*68
$GPHPD,1957,33401.400,322.52,-1.54,13.27,31.5935566,120.7768899,2.606,13629567.790,24924045.518,2.606,0.983,-0.095,0.908,0.737,1.310,0.804,0.000,17,15,4*4D
$GPGGA,091623.80,3135.6135112,N,12046.6132970,E,4,17,1.5,2.6100,M,8.311,M,00,0004*68
$GPHPD,1957,33401.600,322.57,-1.34,13.27,31.5935585,120.7768883,2.610,13629565.959,24924043.656,2.610,1.028,-0.091,0.903,0.682,1.263,0.747,0.000,17,15,4*48
$GPGGA,091624.00,3135.6136267,N,12046.6131942,E,4,17,1.5,2.6032,M,8.311,M,01,0004*66
$GPHPD,1957,33401.800,322.51,-1.27,13.26,31.5935604,120.7768866,2.603,13629564.111,24924041.744,2.603,0.966,-0.045,0.895,0.682,1.263,0.747,0.000,17,15,4*42
$GPGGA,091624.20,3135.6137401,N,12046.6130900,E,4,17,1.5,2.6052,M,8.311,M,01,0004*62
$GPHPD,1957,33402.000,322.42,-1.60,13.27,31.5935623,120.7768848,2.605,13629562.289,24924039.827,2.605,0.984,-0.084,0.909,0.682,1.263,0.747,0.000,17,15,4*44
$GPGGA,091624.40,3135.6138520,N,12046.6129887,E,4,17,1.5,2.6120,M,8.311,M,01,0004*6B
$GPHPD,1957,33402.200,322.38,-1.08,13.27,31.5935642,120.7768831,2.612,13629560.495,24924037.954,2.612,0.990,-0.084,0.901,0.682,1.263,0.747,0.000,17,15,4*43
$GPGGA,091624.60,3135.6139669,N,12046.6128876,E,4,17,1.5,2.6005,M,8.311,M,00,0004*6E
$GPHPD,1957,33402.400,322.29,-1.32,13.25,31.5935661,120.7768815,2.601,13629558.659,24924036.066,2.601,0.956,-0.053,0.896,0.682,1.263,0.747,0.000,17,15,4*46
$GPGGA,091624.80,3135.6140783,N,12046.6127873,E,4,17,1.5,2.6007,M,8.311,M,00,0004*63
$GPHPD,1957,33402.600,322.26,-1.20,13.26,31.5935680,120.7768798,2.601,13629556.874,24924034.208,2.601,0.994,-0.083,0.862,0.682,1.263,0.747,0.000,17,15,4*41
$GPGGA,091625.00,3135.6141929,N,12046.6126872,E,4,17,1.5,2.6037,M,8.311,M,01,0004*67
$GPHPD,1957,33402.800,322.16,-1.05,13.27,31.5935699,120.7768781,2.604,13629555.044,24924032.333,2.604,0.970,-0.096,0.880,0.682,1.263,0.747,0.000,17,15,4*4F
$GPGGA,091625.20,3135.6143053,N,12046.6125865,E,4,17,1.5,2.5936,M,8.311,M,01,0004*6D
$GPHPD,1957,33403.000,322.10,-0.97,13.25,31.5935718,120.7768764,2.594,13629553.243,24924030.465,2.594,0.951,-0.086,0.901,0.682,1.263,0.747,0.000,17,15,4*44
$GPGGA,091625.40,3135.6144180,N,12046.6124890,E,4,17,1.5,2.6123,M,8.311,M,01,0004*67
$GPHPD,1957,33403.200,322.20,-0.47,13.25,31.5935736,120.7768748,2.612,13629551.446,24924028.633,2.612,0.960,-0.071,0.885,0.682,1.263,0.747,0.000,17,15,4*44
$GPGGA,091625.60,3135.6145287,N,12046.6123863,E,4,17,1.5,2.6011,M,8.311,M,00,0004*6A
$GPHPD,1957,33403.400,322.20,-1.09,13.25,31.5935755,120.7768731,2.601,13629549.666,24924026.750,2.601,0.899,0.002,0.930,0.682,1.263,0.747,0.000,17,15,4*60
$GPGGA,091625.80,3135.6146403,N,12046.6122879,E,4,17,1.5,2.5968,M,8.311,M,00,0004*63
$GPHPD,1957,33403.600,321.99,-0.44,13.28,31.5935773,120.7768715,2.597,13629547.881,24924024.914,2.597,1.005,-0.049,0.859,0.682,1.263,0.747,0.000,17,15,4*41
$GPGGA,091626.00,3135.6147517,N,12046.6121848,E,4,17,1.5,2.5965,M,8.311,M,01,0004*60
$GPHPD,1957,33403.800,321.99,-0.49,13.26,31.5935792,120.7768697,2.597,13629546.091,24924023.022,2.597,0.959,-0.079,0.873,0.682,1.263,0.747,0.000,17,15,4*41
$GPGGA,091626.20,3135.6148604,N,12046.6120805,E,4,17,1.5,2.5951,M,8.311,M,01,0004*63
$GPHPD,1957,33404.000,322.11,-0.21,13.26,31.5935810,120.7768680,2.595,13629544.336,24924021.131,2.595,0.984,-0.041,0.876,0.682,1.263,0.747,0.000,17,15,4*43
$GPGGA,091626.40,3135.6149704,N,12046.6119802,E,4,17,1.5,2.5886,M,8.311,M,01,0004*63
$GPHPD,1957,33404.200,322.15,-0.22,13.28,31.5935828,120.7768663,2.589,13629542.571,24924019.281,2.589,0.995,-0.074,0.845,0.689,1.272,0.751,0.000,17,15,4*44
$GPGGA,091626.60,3135.6150807,N,12046.6118780,E,4,17,1.5,2.5881,M,8.311,M,00,0004*67
$GPHPD,1957,33404.400,322.07,-0.27,13.29,31.5935847,120.7768646,2.588,13629540.798,24924017.407,2.588,0.974,-0.093,0.833,0.682,1.263,0.747,0.000,17,15,4*41
$GPGGA,091626.80,3135.6151882,N,12046.6117768,E,4,17,1.5,2.6026,M,8.311,M,00,0004*6A
$GPHPD,1957,33404.600,322.07,-0.09,13.29,31.5935865,120.7768629,2.603,13629539.066,24924015.561,2.603,0.997,-0.088,0.826,0.682,1.263,0.747,0.000,17,15,4*4E
$GPGGA,091627.00,3135.6153025,N,12046.6116751,E,4,17,1.5,2.5919,M,8.311,M,01,0004*68
$GPHPD,1957,33404.800,322.13,-0.41,13.30,31.5935884,120.7768613,2.592,13629537.237,24924013.669,2.592,0.929,0.007,0.879,0.682,1.263,0.747,0.000,17,15,4*67
$GPGGA,091627.20,3135.6154135,N,12046.6115755,E,4,17,1.5,2.5892,M,8.311,M,01,0004*68
$GPHPD,1957,33405.000,322.10,-0.10,13.30,31.5935902,120.7768596,2.589,13629535.459,24924011.821,2.589,0.967,-0.052,0.885,0.682,1.263,0.747,0.000,17,15,4*40
$GPGGA,091627.40,3135.6155262,N,12046.6114748,E,4,17,1.5,2.5883,M,8.311,M,01,0004*63
$GPHPD,1957,33405.200,322.10,-0.94,13.28,31.5935921,120.7768579,2.588,13629533.655,24924009.951,2.588,0.974,-0.044,0.869,0.737,1.310,0.805,0.000,17,15,4*44
$GPGGA,091627.60,3135.6156393,N,12046.6113741,E,4,17,1.5,2.5941,M,8.311,M,00,0004*6D
$GPHPD,1957,33405.400,321.96,-0.59,13.26,31.5935940,120.7768562,2.594,13629531.845,24924008.078,2.594,0.957,-0.082,0.896,0.737,1.310,0.805,0.000,17,16,4*4B
$GPGGA,091627.80,3135.6157514,N,12046.6112777,E,4,17,1.5,2.5949,M,8.311,M,00,0004*67
$GPHPD,1957,33405.600,322.06,-0.83,13.28,31.5935959,120.7768546,2.595,13629530.057,24924006.263,2.595,0.958,-0.059,0.904,0.682,1.263,0.748,0.000,17,16,4*47
$GPGGA,091628.00,3135.6158641,N,12046.6111756,E,4,17,1.5,2.5956,M,8.311,M,01,0004*63
$GPHPD,1957,33405.800,321.96,-0.86,13.30,31.5935977,120.7768529,2.596,13629528.250,24924004.376,2.596,0.937,-0.061,0.896,0.682,1.263,0.748,0.000,17,16,4*49
$GPGGA,091628.20,3135.6159761,N,12046.6110728,E,4,17,1.5,2.5975,M,8.311,M,01,0004*6A
$GPHPD,1957,33406.000,321.76,-0.83,13.31,31.5935996,120.7768512,2.598,13629526.452,24924002.484,2.598,0.942,-0.039,0.906,0.682,1.263,0.748,0.000,17,16,4*4E
$GPGGA,091628.40,3135.6160908,N,12046.6109721,E,4,17,1.5,2.5813,M,8.311,M,01,0004*67
$GPHPD,1957,33406.200,321.97,-1.04,13.30,31.5936015,120.7768495,2.581,13629524.619,24924000.602,2.581,0.954,-0.041,0.899,0.682,1.263,0.748,0.000,17,16,4*4D
$GPGGA,091628.60,3135.6162046,N,12046.6108684,E,4,17,1.5,2.5885,M,8.311,M,00,0004*65
$GPHPD,1957,33406.400,321.92,-0.21,13.32,31.5936034,120.7768478,2.589,13629522.793,24923998.689,2.589,0.983,-0.117,0.869,0.682,1.263,0.748,0.000,17,16,4*44
$GPGGA,091628.80,3135.6163109,N,12046.6107571,E,4,17,1.5,2.5931,M,8.310,M,00,0004*69
$GPHPD,1957,33406.600,322.26,-0.81,13.35,31.5936052,120.7768460,2.593,13629521.058,24923996.728,2.593,0.975,-0.050,0.903,0.682,1.263,0.748,0.000,17,16,4*4F
$GPGGA,091629.00,3135.6164224,N,12046.6106557,E,4,17,1.5,2.5945,M,8.310,M,01,0004*6C
$GPHPD,1957,33406.800,322.16,-0.25,13.36,31.5936070,120.7768443,2.595,13629519.269,24923994.856,2.595,1.107,0.049,0.849,0.682,1.263,0.748,0.000,17,16,4*67
$GPGGA,091629.20,3135.6165389,N,12046.6105535,E,4,17,1.5,2.5891,M,8.310,M,01,0004*66
$GPHPD,1957,33407.000,322.00,-0.31,13.37,31.5936090,120.7768426,2.589,13629517.408,24923992.945,2.589,0.978,-0.035,0.881,0.687,1.272,0.794,0.000,17,15,4*4E
$GPGGA,091629.40,3135.6166549,N,12046.6104548,E,4,17,1.5,2.5851,M,8.310,M,01,0004*6E
$GPHPD,1957,33407.200,322.14,-0.11,13.39,31.5936109,120.7768409,2.585,13629515.561,24923991.080,2.585,0.965,-0.058,0.920,0.687,1.272,0.794,0.000,17,15,4*4B
$GPGGA,091629.60,3135.6167683,N,12046.6103549,E,4,17,1.5,2.5826,M,8.310,M,00,0004*6F
$GPHPD,1957,33407.400,322.18,-0.39,13.43,31.5936128,120.7768392,2.583,13629513.748,24923989.215,2.583,0.973,-0.072,0.908,0.687,1.272,0.794,0.000,17,15,4*4D
$GPGGA,091629.80,3135.6168825,N,12046.6102545,E,4,17,1.5,2.5828,M,8.310,M,00,0004*6F
$GPHPD,1957,33407.600,322.06,-0.35,13.44,31.5936147,120.7768376,2.583,13629511.923,24923987.339,2.583,0.962,-0.081,0.892,0.682,1.263,0.748,0.000,17,15,4*42
$GPGGA,091630.00,3135.6169977,N,12046.6101550,E,4,17,1.5,2.5799,M,8.310,M,01,0004*6B
$GPHPD,1957,33407.800,322.35,-0.01,13.45,31.5936166,120.7768359,2.580,13629510.086,24923985.469,2.580,0.972,-0.094,0.882,0.682,1.263,0.748,0.000,17,14,4*46
$GPGGA,091630.20,3135.6171140,N,12046.6100497,E,4,17,1.5,2.5785,M,8.310,M,01,0004*6A
$GPHPD,1957,33408.000,322.21,-0.54,13.45,31.5936186,120.7768342,2.579,13629508.221,24923983.522,2.579,0.974,-0.087,0.882,0.682,1.263,0.748,0.000,17,15,4*4B
$GPGGA,091630.40,3135.6172266,N,12046.6099469,E,4,17,1.5,2.5749,M,8.310,M,01,0004*68
$GPHPD,1957,33408.200,322.60,0.11,13.45,31.5936204,120.7768324,2.575,13629506.414,24923981.627,2.575,0.904,-0.158,0.937,0.682,1.262,0.748,0.000,17,14,4*68
$GPGGA,091630.60,3135.6173431,N,12046.6098426,E,4,17,1.5,2.5669,M,8.310,M,00,0004*67
$GPHPD,1957,33408.400,322.36,-0.49,13.44,31.5936224,120.7768307,2.567,13629504.548,24923979.691,2.567,1.039,-0.070,0.871,0.682,1.262,0.748,0.000,17,14,4*41
$GPGGA,091630.80,3135.6174569,N,12046.6097381,E,4,17,1.5,2.5759,M,8.310,M,00,0004*65
$GPHPD,1957,33408.600,322.34,0.01,13.41,31.5936243,120.7768290,2.576,13629502.720,24923977.768,2.576,1.047,-0.089,0.888,0.682,1.262,0.748,0.000,17,14,4*61
$GPGGA,091631.00,3135.6175728,N,12046.6096376,E,4,17,1.5,2.5773,M,8.310,M,01,0004*6A
$GPHPD,1957,33408.800,322.27,-0.22,13.41,31.5936262,120.7768273,2.577,13629500.871,24923975.881,2.577,0.999,-0.047,0.900,0.682,1.262,0.748,0.000,17,14,4*44
$GPGGA,091631.20,3135.6176853,N,12046.6095322,E,4,17,1.6,2.5723,M,8.310,M,01,0004*6C
$GPHPD,1957,33409.000,322.56,-0.22,13.43,31.5936281,120.7768255,2.572,13629499.060,24923973.955,2.572,1.007,-0.104,0.897,0.682,1.262,0.748,0.000,17,14,4*41
$GPGGA,091631.40,3135.6178009,N,12046.6094326,E,4,17,1.5,2.5708,M,8.310,M,01,0004*6C
$GPHPD,1957,33409.200,322.68,-0.05,13.44,31.5936300,120.7768239,2.571,13629497.217,24923972.081,2.571,1.059,-0.133,0.849,0.737,1.310,0.805,0.000,17,15,4*43
$GPGGA,091631.60,3135.6179146,N,12046.6093323,E,4,17,1.5,2.5765,M,8.310,M,00,0004*6D
$GPHPD,1957,33409.400,322.10,-0.30,13.47,31.5936319,120.7768222,2.577,13629495.399,24923970.210,2.577,1.007,-0.122,0.902,0.682,1.262,0.748,0.000,17,15,4*48
$GPGGA,091631.80,3135.6180302,N,12046.6092321,E,4,17,1.5,2.5754,M,8.310,M,00,0004*66
$GPHPD,1957,33409.600,322.25,-0.20,13.48,31.5936338,120.7768205,2.575,13629493.554,24923968.329,2.575,0.953,-0.057,0.904,0.682,1.262,0.748,0.000,17,15,4*4B
$GPGGA,091632.00,3135.6181441,N,12046.6091335,E,4,17,1.5,2.5738,M,8.310,M,01,0004*61
$GPHPD,1957,33409.800,322.20,-0.68,13.49,31.5936357,120.7768189,2.574,13629491.737,24923966.476,2.574,0.956,-0.101,0.904,0.737,1.310,0.805,0.000,17,15,4*4F
$GPGGA,091632.20,3135.6182574,N,12046.6090330,E,4,17,1.5,2.5703,M,8.310,M,01,0004*6B
$GPHPD,1957,33410.000,322.59,0.02,13.51,31.5936376,120.7768172,2.570,13629489.925,24923964.605,2.570,0.952,-0.078,0.901,0.682,1.262,0.748,0.000,17,15,4*6D
$GPGGA,091632.40,3135.6183726,N,12046.6089336,E,4,17,1.6,2.5658,M,8.310,M,01,0004*6B
$GPHPD,1957,33410.200,322.07,-0.50,13.54,31.5936395,120.7768156,2.566,13629488.087,24923962.736,2.566,0.969,-0.103,0.878,0.682,1.262,0.748,0.000,17,15,4*4D
$GPGGA,091632.60,3135.6184935,N,12046.6088518,E,4,17,1.6,2.5759,M,8.310,M,00,0004*68
$GPHPD,1957,33410.400,322.38,-0.59,13.55,31.5936416,120.7768142,2.576,13629486.204,24923961.045,2.576,0.979,-0.136,0.868,0.737,1.310,0.805,0.000,17,15,4*4A
$GPGGA,091632.80,3135.6186050,N,12046.6087482,E,4,17,1.5,2.5595,M,8.310,M,00,0004*62
$GPHPD,1957,33410.600,322.21,-0.39,13.53,31.5936434,120.7768125,2.560,13629484.411,24923959.147,2.560,0.636,-0.173,1.032,0.737,1.310,0.805,0.000,17,15,4*4A
$GPGGA,091633.00,3135.6187152,N,12046.6086495,E,4,17,1.5,2.5537,M,8.310,M,01,0004*67
$GPHPD,1957,33410.800,322.12,-0.16,13.48,31.5936453,120.7768108,2.554,13629482.647,24923957.315,2.554,0.963,-0.135,0.865,0.682,1.262,0.748,0.000,17,15,4*4A
$GPGGA,091633.20,3135.6188195,N,12046.6085570,E,4,17,1.5,2.5592,M,8.310,M,01,0004*67
$GPHPD,1957,33411.000,322.32,-0.34,13.42,31.5936470,120.7768093,2.559,13629480.978,24923955.592,2.559,0.952,-0.104,0.839,0.682,1.262,0.748,0.000,17,14,4*4B
$GPGGA,091633.40,3135.6189202,N,12046.6084630,E,4,17,1.5,2.5587,M,8.310,M,01,0004*6F
$GPHPD,1957,33411.200,322.03,-0.10,13.32,31.5936487,120.7768077,2.559,13629479.358,24923953.873,2.559,0.898,-0.080,0.819,0.682,1.262,0.748,0.000,17,14,4*4A
$GPGGA,091633.60,3135.6190194,N,12046.6083821,E,4,16,1.5,2.5630,M,8.310,M,00,0004*6F
$GPHPD,1957,33411.400,322.30,-0.06,13.24,31.5936503,120.7768064,2.563,13629477.785,24923952.319,2.563,0.889,-0.053,0.796,0.687,1.272,0.795,0.000,16,15,4*4D
$GPGGA,091633.80,3135.6191091,N,12046.6082975,E,4,16,1.5,2.5802,M,8.310,M,00,0004*6A
$GPHPD,1957,33411.600,322.28,-0.65,13.12,31.5936518,120.7768050,2.580,13629476.340,24923950.777,2.580,0.815,-0.038,0.807,0.689,1.271,0.752,0.000,16,15,4*40
$GPGGA,091634.00,3135.6191944,N,12046.6082176,E,4,16,1.5,2.5672,M,8.310,M,01,0004*67
$GPHPD,1957,33411.800,322.25,-0.52,13.00,31.5936532,120.7768036,2.567,13629474.967,24923949.317,2.567,0.746,0.063,0.767,0.689,1.271,0.752,0.000,16,15,4*68
$GPGGA,091634.20,3135.6192775,N,12046.6081490,E,4,16,1.5,2.5668,M,8.310,M,01,0004*6F
$GPHPD,1957,33412.000,322.21,-0.45,12.91,31.5936546,120.7768025,2.567,13629473.648,24923948.006,2.567,0.778,-0.073,0.652,0.689,1.271,0.752,0.000,16,15,4*48
$GPGGA,091634.40,3135.6193511,N,12046.6080804,E,4,16,1.5,2.5779,M,8.310,M,01,0004*69
$GPHPD,1957,33412.200,322.27,-0.32,12.82,31.5936559,120.7768013,2.578,13629472.464,24923946.750,2.578,0.687,-0.071,0.642,0.689,1.271,0.752,0.000,16,16,4*43
$GPGGA,091634.60,3135.6194201,N,12046.6080184,E,4,16,1.5,2.5725,M,8.310,M,00,0004*63
$GPHPD,1957,33412.400,321.98,-0.94,12.69,31.5936570,120.7768003,2.573,13629471.358,24923945.601,2.573,0.621,0.000,0.617,0.689,1.271,0.752,0.000,16,16,4*6B
$GPGGA,091634.80,3135.6194804,N,12046.6079623,E,4,16,1.5,2.5676,M,8.310,M,00,0004*69
$GPHPD,1957,33412.600,321.92,-0.74,12.54,31.5936580,120.7767994,2.568,13629470.389,24923944.573,2.568,0.597,-0.040,0.543,0.689,1.271,0.752,0.000,16,16,4*4B
$GPGGA,091635.00,3135.6195341,N,12046.6079140,E,4,16,1.5,2.5661,M,8.310,M,01,0004*6E
$GPHPD,1957,33412.800,321.61,-0.99,12.41,31.5936589,120.7767986,2.566,13629469.528,24923943.678,2.566,0.557,-0.030,0.456,0.756,1.312,0.806,0.000,16,16,4*49
$GPGGA,091635.20,3135.6195817,N,12046.6078750,E,4,16,1.5,2.5615,M,8.310,M,01,0004*61
$GPHPD,1957,33413.000,321.48,-1.37,12.29,31.5936597,120.7767979,2.562,13629468.773,24923942.931,2.562,0.460,-0.043,0.417,0.756,1.312,0.806,0.000,16,16,4*45
$GPGGA,091635.40,3135.6196207,N,12046.6078390,E,4,16,1.5,2.5647,M,8.310,M,01,0004*60
$GPHPD,1957,33413.200,321.39,-1.45,12.18,31.5936603,120.7767973,2.565,13629468.146,24923942.270,2.565,0.382,-0.043,0.366,0.598,1.233,0.751,0.000,16,16,4*49
$GPGGA,091635.60,3135.6196520,N,12046.6078120,E,4,16,1.5,2.5630,M,8.310,M,00,0004*68
$GPHPD,1957,33413.400,321.27,-1.61,12.08,31.5936609,120.7767969,2.563,13629467.647,24923941.762,2.563,0.346,-0.018,0.308,0.598,1.233,0.751,0.000,16,16,4*44
$GPGGA,091635.80,3135.6196723,N,12046.6077944,E,4,16,1.5,2.5608,M,8.310,M,00,0004*69
$GPHPD,1957,33413.600,321.27,-0.88,11.99,31.5936612,120.7767966,2.561,13629467.323,24923941.431,2.561,0.258,-0.025,0.252,0.598,1.233,0.751,0.000,16,16,4*42
$GPGGA,091636.00,3135.6196857,N,12046.6077864,E,4,16,1.5,2.5652,M,8.310,M,01,0004*63
$GPHPD,1957,33413.800,321.26,-0.95,11.92,31.5936614,120.7767964,2.565,13629467.117,24923941.257,2.565,0.183,-0.019,0.155,0.623,1.249,0.794,0.000,16,16,4*44
$GPGGA,091638.20,3135.6196859,N,12046.6077830,E,4,16,1.5,2.5688,M,8.310,M,01,0004*67
$GPHPD,1957,33416.000,321.57,-0.91,12.16,31.5936614,120.7767964,2.569,13629467.107,24923941.215,2.569,-0.001,0.017,0.009,0.623,1.249,0.794,0.000,16,16,4*4E
$GPGGA,091638.40,3135.6196874,N,12046.6077836,E,4,16,1.5,2.5628,M,8.310,M,01,0004*62
$GPHPD,1957,33416.200,321.52,-0.49,12.18,31.5936615,120.7767964,2.563,13629467.087,24923941.213,2.563,0.004,0.001,-0.005,0.623,1.249,0.794,0.000,16,16,4*42
$GPGGA,091638.60,3135.6196849,N,12046.6077834,E,4,16,1.5,2.5666,M,8.310,M,00,0004*67
$GPHPD,1957,33416.400,321.36,-0.45,12.21,31.5936614,120.7767964,2.567,13629467.122,24923941.225,2.567,0.008,-0.013,-0.005,0.623,1.249,0.794,0.000,16,16,4*68
$GPGGA,091638.80,3135.6196859,N,12046.6077844,E,4,16,1.5,2.5715,M,8.310,M,00,0004*6A
$GPHPD,1957,33416.600,321.60,-0.66,12.24,31.5936614,120.7767964,2.572,13629467.110,24923941.232,2.572,0.001,0.003,-0.008,0.623,1.249,0.794,0.000,16,16,4*42
$GPGGA,091639.00,3135.6196852,N,12046.6077855,E,4,16,1.5,2.5697,M,8.310,M,01,0004*62
$GPHPD,1957,33416.800,321.61,-1.04,12.27,31.5936614,120.7767964,2.570,13629467.122,24923941.249,2.570,-0.016,0.024,0.012,0.623,1.249,0.794,0.000,16,16,4*4E
$GPGGA,091639.20,3135.6196851,N,12046.6077847,E,4,16,1.5,2.5705,M,8.310,M,01,0004*6A
$GPHPD,1957,33417.000,321.32,-0.97,12.30,31.5936614,120.7767964,2.571,13629467.122,24923941.240,2.571,-0.006,0.001,-0.002,0.623,1.249,0.794,0.000,16,16,4*6F
$GPGGA,091639.40,3135.6196845,N,12046.6077848,E,4,16,1.5,2.5682,M,8.310,M,01,0004*68
$GPHPD,1957,33417.200,321.43,-0.95,12.33,31.5936614,120.7767964,2.568,13629467.131,24923941.245,2.568,-0.002,0.001,-0.004,0.623,1.249,0.794,0.000,16,16,4*6F
$GPGGA,091639.60,3135.6196864,N,12046.6077836,E,4,16,1.5,2.5683,M,8.310,M,00,0004*60
$GPHPD,1957,33417.400,321.63,-0.97,12.37,31.5936614,120.7767964,2.568,13629467.101,24923941.219,2.568,0.003,-0.001,-0.007,0.623,1.249,0.794,0.000,16,16,4*65
$GPGGA,091639.80,3135.619