4158.00,3135.3084584,N,12046.7382331,E,4,19,1.2,2.5078,M,8.321,M,01,0004*6B
$GPHPD,1957,31335.800,233.67,-0.17,15.28,31.5884743,120.7789706,2.508,13634153.505,24927326.068,2.508,0.417,0.527,-0.387,0.562,0.979,0.627,0.000,19,19,4*4F
$GPGGA,084158.20,3135.3083988,N,12046.7381398,E,4,19,1.2,2.5004,M,8.321,M,01,0004*65
$GPHPD,1957,31336.000,233.60,-0.40,15.30,31.5884733,120.7789690,2.500,13634154.164,24927325.289,2.500,0.445,0.593,-0.407,0.575,1.004,0.689,0.000,19,19,4*4C
$GPGGA,084158.40,3135.3083364,N,12046.7380393,E,4,19,1.2,2.4971,M,8.321,M,01,0004*6B
$GPHPD,1957,31336.200,233.42,-0.17,15.31,31.5884723,120.7789673,2.497,13634154.849,24927324.440,2.497,0.488,0.624,-0.476,0.575,1.004,0.689,0.000,19,19,4*4D
$GPGGA,084158.60,3135.3082695,N,12046.7379377,E,4,19,1.2,2.5015,M,8.321,M,00,0004*64
$GPHPD,1957,31336.400,233.37,-0.25,15.29,31.5884712,120.7789656,2.502,13634155.595,24927323.604,2.502,0.519,0.650,-0.488,0.575,1.004,0.689,0.000,19,19,4*47
$GPGGA,084158.80,3135.3082062,N,12046.7378306,E,4,19,1.2,2.5055,M,8.321,M,00,0004*67
$GPHPD,1957,31336.600,233.41,0.03,15.27,31.5884701,120.7789638,2.506,13634156.279,24927322.681,2.506,0.544,0.704,-0.510,0.568,0.989,0.640,0.000,19,19,4*6F
$GPGGA,084159.00,3135.3081357,N,12046.7377184,E,4,19,1.2,2.4989,M,8.321,M,01,0004*67
$GPHPD,1957,31336.800,233.33,-0.05,15.25,31.5884689,120.7789620,2.499,13634157.056,24927321.738,2.499,0.570,0.710,-0.511,0.568,0.989,0.640,0.000,19,19,4*48
$GPGGA,084159.20,3135.3080620,N,12046.7376058,E,4,19,1.3,2.4914,M,8.321,M,01,0004*65
$GPHPD,1957,31337.000,233.35,0.27,15.22,31.5884677,120.7789601,2.491,13634157.877,24927320.809,2.491,0.590,0.737,-0.549,0.569,1.001,0.746,0.000,19,19,4*60
$GPGGA,084159.40,3135.3079892,N,12046.7374870,E,4,19,1.3,2.4979,M,8.321,M,01,0004*69
$GPHPD,1957,31337.200,233.39,0.02,15.21,31.5884665,120.7789581,2.498,13634158.672,24927319.800,2.498,0.618,0.704,-0.607,0.569,1.001,0.746,0.000,19,19,4*6F
$GPGGA,084159.60,3135.3079160,N,12046.7373695,E,4,19,1.2,2.5033,M,8.321,M,01,0004*6A
$GPHPD,1957,31337.400,233.50,0.26,15.19,31.5884653,120.7789562,2.503,13634159.476,24927318.809,2.503,0.612,0.792,-0.567,0.569,1.001,0.746,0.000,19,19,4*6C
$GPGGA,084159.80,3135.3078402,N,12046.7372470,E,4,19,1.2,2.4979,M,8.321,M,00,0004*6B
$GPHPD,1957,31337.600,233.83,0.02,15.14,31.5884640,120.7789541,2.498,13634160.307,24927317.773,2.498,0.613,0.804,-0.563,0.568,0.989,0.640,0.000,19,19,4*65
$GPGGA,084200.00,3135.3077660,N,12046.7371221,E,4,19,1.2,2.4996,M,8.321,M,01,0004*64
$GPHPD,1957,31337.800,233.76,0.58,15.11,31.5884628,120.7789520,2.500,13634161.110,24927316.698,2.500,0.654,0.787,-0.618,0.568,0.989,0.640,0.000,19,19,4*6A
$GPGGA,084200.20,3135.3076885,N,12046.7369969,E,4,19,1.2,2.5016,M,8.321,M,01,0004*6C
$GPHPD,1957,31338.000,233.76,0.28,15.07,31.5884615,120.7789499,2.502,13634161.960,24927315.639,2.502,0.655,0.810,-0.594,0.568,0.989,0.640,0.000,19,19,4*60
$GPGGA,084200.40,3135.3076118,N,12046.7368707,E,4,19,1.2,2.5066,M,8.321,M,01,0004*67
$GPHPD,1957,31338.200,233.94,0.30,15.02,31.5884602,120.7789478,2.507,13634162.796,24927314.563,2.507,0.657,0.832,-0.599,0.568,0.989,0.640,0.000,19,19,4*6D
$GPGGA,084200.60,3135.3075318,N,12046.7367428,E,4,19,1.2,2.5113,M,8.321,M,00,0004*67
$GPHPD,1957,31338.400,233.95,-0.06,14.96,31.5884589,120.7789457,2.511,13634163.676,24927313.486,2.511,0.692,0.832,-0.600,0.568,0.989,0.640,0.000,19,19,4*4A
$GPGGA,084200.80,3135.3074555,N,12046.7366152,E,4,19,1.2,2.5074,M,8.321,M,00,0004*6E
$GPHPD,1957,31338.600,234.33,-0.10,14.90,31.5884576,120.7789436,2.507,13634164.503,24927312.391,2.507,0.662,0.863,-0.606,0.568,0.989,0.640,0.000,19,19,4*4E
$GPGGA,084201.00,3135.3073809,N,12046.7364884,E,4,19,1.2,2.5086,M,8.321,M,01,0004*68
$GPHPD,1957,31338.800,234.52,-0.02,14.82,31.5884563,120.7789415,2.509,13634165.309,24927311.296,2.509,0.660,0.849,-0.603,0.569,1.000,0.746,0.000,19,19,4*4A
$GPGGA,084201.20,3135.3073047,N,12046.7363611,E,4,19,1.2,2.5120,M,8.321,M,01,0004*60
$GPHPD,1957,31339.000,234.51,-0.03,14.73,31.5884551,120.7789394,2.512,13634166.135,24927310.204,2.512,0.668,0.871,-0.583,0.568,0.989,0.640,0.000,19,19,4*43
$GPGGA,084201.40,3135.3072304,N,12046.7362351,E,4,19,1.2,2.5125,M,8.321,M,01,0004*66
$GPHPD,1957,31339.200,234.80,-0.07,14.64,31.5884538,120.7789373,2.513,13634166.938,24927309.117,2.513,0.687,0.832,-0.579,0.568,0.989,0.640,0.000,19,19,4*46
$GPGGA,084201.60,3135.3071546,N,12046.7361072,E,4,19,1.2,2.5131,M,8.321,M,01,0004*63
$GPHPD,1957,31339.400,234.75,-0.31,14.60,31.5884526,120.7789351,2.513,13634167.758,24927308.016,2.513,0.676,0.817,-0.588,0.568,0.989,0.640,0.000,19,19,4*4B
$GPGGA,084201.80,3135.3070795,N,12046.7359807,E,4,19,1.2,2.5079,M,8.321,M,00,0004*6D
$GPHPD,1957,31339.600,235.03,-0.18,14.56,31.5884513,120.7789330,2.508,13634168.571,24927306.927,2.508,0.668,0.845,-0.589,0.568,0.989,0.640,0.000,19,19,4*4C
$GPGGA,084202.00,3135.3070058,N,12046.7358517,E,4,19,1.2,2.5068,M,8.321,M,01,0004*6C
$GPHPD,1957,31339.800,234.92,-0.29,14.50,31.5884501,120.7789309,2.507,13634169.359,24927305.800,2.507,0.677,0.836,-0.583,0.568,0.989,0.640,0.000,19,19,4*4C
$GPGGA,084202.20,3135.3069285,N,12046.7357229,E,4,19,1.2,2.5084,M,8.321,M,01,0004*63
$GPHPD,1957,31340.000,235.30,-0.02,14.47,31.5884488,120.7789287,2.508,13634170.198,24927304.697,2.508,0.690,0.813,-0.584,0.568,0.989,0.640,0.000,19,19,4*44
$GPGGA,084202.40,3135.3068540,N,12046.7355932,E,4,19,1.3,2.5092,M,8.321,M,01,0004*6F
$GPHPD,1957,31340.200,235.29,-0.34,14.45,31.5884476,120.7789266,2.509,13634170.996,24927303.566,2.509,0.689,0.837,-0.600,0.568,0.989,0.640,0.000,19,19,4*4A
$GPGGA,084202.60,3135.3067775,N,12046.7354642,E,4,19,1.2,2.5083,M,8.321,M,00,0004*6F
$GPHPD,1957,31340.400,235.50,-0.04,14.43,31.5884463,120.7789244,2.508,13634171.824,24927302.455,2.508,0.691,0.840,-0.592,0.568,0.989,0.640,0.000,19,19,4*4B
$GPGGA,084202.80,3135.3067005,N,12046.7353282,E,4,19,1.2,2.5133,M,8.321,M,00,0004*64
$GPHPD,1957,31340.600,235.71,-0.24,14.39,31.5884450,120.7789221,2.513,13634172.644,24927301.263,2.513,0.697,0.834,-0.609,0.575,1.004,0.689,0.000,19,19,4*4D
$GPGGA,084203.00,3135.3066244,N,12046.7351970,E,4,19,1.2,2.5120,M,8.321,M,01,0004*6C
$GPHPD,1957,31340.800,235.78,-0.49,14.34,31.5884437,120.7789200,2.512,13634173.462,24927300.124,2.512,0.713,0.846,-0.597,0.575,1.004,0.689,0.000,19,19,4*44
$GPGGA,084203.20,3135.3065514,N,12046.7350713,E,4,19,1.2,2.5145,M,8.321,M,01,0004*66
$GPHPD,1957,31341.000,235.83,-0.29,14.28,31.5884425,120.7789179,2.515,13634174.246,24927299.032,2.515,0.708,0.842,-0.598,0.575,1.004,0.689,0.000,19,19,4*4D
$GPGGA,084203.40,3135.3064776,N,12046.7349376,E,4,19,1.2,2.5063,M,8.321,M,01,0004*6D
$GPHPD,1957,31341.200,236.08,-0.63,14.24,31.5884413,120.7789156,2.506,13634175.026,24927297.849,2.506,0.686,0.832,-0.575,0.568,0.989,0.640,0.000,19,19,4*4D
$GPGGA,084203.60,3135.3064062,N,12046.7348129,E,4,19,1.2,2.5077,M,8.321,M,01,0004*61
$GPHPD,1957,31341.400,236.03,-0.13,14.17,31.5884401,120.7789135,2.508,13634175.790,24927296.761,2.508,0.707,0.812,-0.590,0.568,0.989,0.640,0.000,19,19,4*4E
$GPGGA,084203.80,3135.3063389,N,12046.7346872,E,4,19,1.2,2.5052,M,8.321,M,00,0004*61
$GPHPD,1957,31341.600,236.35,-0.09,14.10,31.5884390,120.7789115,2.505,13634176.494,24927295.637,2.505,0.685,0.801,-0.575,0.568,0.989,0.640,0.000,19,19,4*4F
$GPGGA,084204.00,3135.3062699,N,12046.7345665,E,4,19,1.2,2.5091,M,8.321,M,01,0004*6E
$GPHPD,1957,31341.800,236.21,-0.23,14.03,31.5884378,120.7789094,2.509,13634177.232,24927294.582,2.509,0.689,0.768,-0.546,0.568,0.989,0.640,0.000,19,19,4*4B
$GPGGA,084204.20,3135.3062051,N,12046.7344488,E,4,19,1.2,2.5068,M,8.321,M,01,0004*68
$GPHPD,1957,31342.000,236.71,-0.33,13.98,31.5884368,120.7789075,2.507,13634177.916,24927293.540,2.507,0.664,0.753,-0.538,0.568,0.989,0.640,0.000,19,19,4*49
$GPGGA,084204.40,3135.3061405,N,12046.7343307,E,4,19,1.2,2.5079,M,8.321,M,01,0004*6F
$GPHPD,1957,31342.200,236.77,-0.17,13.92,31.5884357,120.7789055,2.508,13634178.596,24927292.492,2.508,0.633,0.752,-0.513,0.568,0.989,0.640,0.000,19,19,4*41
$GPGGA,084204.60,3135.3060783,N,12046.7342160,E,4,19,1.2,2.5052,M,8.321,M,00,0004*6B
$GPHPD,1957,31342.400,236.82,-0.46,13.87,31.5884346,120.7789036,2.505,13634179.249,24927291.470,2.505,0.638,0.735,-0.500,0.568,0.989,0.640,0.000,19,19,4*4B
$GPGGA,084204.80,3135.3060176,N,12046.7341065,E,4,19,1.2,2.5088,M,8.321,M,00,0004*69
$GPHPD,1957,31342.600,236.88,-0.20,13.83,31.5884336,120.7789018,2.509,13634179.892,24927290.503,2.509,0.633,0.689,-0.496,0.575,1.003,0.689,0.000,19,19,4*44
$GPGGA,084205.00,3135.3059583,N,12046.7339960,E,4,19,1.2,2.5041,M,8.321,M,01,0004*63
$GPHPD,1957,31342.800,237.02,-0.37,13.79,31.5884326,120.7788999,2.504,13634180.512,24927289.515,2.504,0.598,0.725,-0.473,0.568,0.989,0.640,0.000,19,19,4*4B
$GPGGA,084205.20,3135.3058975,N,12046.7338883,E,4,19,1.2,2.4951,M,8.321,M,01,0004*61
$GPHPD,1957,31343.000,236.97,0.02,13.78,31.5884316,120.7788981,2.495,13634181.160,24927288.570,2.495,0.590,0.684,-0.461,0.568,0.989,0.640,0.000,19,19,4*6C
$GPGGA,084205.40,3135.3058401,N,12046.7337826,E,4,19,1.2,2.4989,M,8.321,M,01,0004*6C
$GPHPD,1957,31343.200,237.17,-0.02,13.76,31.5884307,120.7788964,2.499,13634181.763,24927287.629,2.499,0.598,0.669,-0.485,0.569,1.000,0.746,0.000,19,19,4*44
$GPGGA,084205.60,3135.3057870,N,12046.7336779,E,4,19,1.2,2.5078,M,8.321,M,01,0004*69
$GPHPD,1957,31343.400,237.06,-0.21,13.72,31.5884298,120.7788946,2.508,13634182.307,24927286.676,2.508,0.579,0.673,-0.463,0.569,1.000,0.746,0.000,19,19,4*42
$GPGGA,084205.80,3135.3057245,N,12046.7335694,E,4,19,1.3,2.4985,M,8.321,M,00,0004*60
$GPHPD,1957,31343.600,237.17,-0.30,13.71,31.5884287,120.7788928,2.499,13634182.977,24927285.731,2.499,0.576,0.671,-0.432,0.568,0.989,0.640,0.000,19,19,4*4F
$GPGGA,084206.00,3135.3056661,N,12046.7334675,E,4,19,1.3,2.4937,M,8.321,M,01,0004*6E
$GPHPD,1957,31343.800,237.15,0.01,13.71,31.5884278,120.7788911,2.494,13634183.602,24927284.842,2.494,0.596,0.636,-0.471,0.568,0.989,0.640,0.000,19,19,4*6A
$GPGGA,084206.20,3135.3056097,N,12046.7333605,E,4,19,1.3,2.4976,M,8.321,M,01,0004*66
$GPHPD,1957,31344.000,237.36,0.32,13.72,31.5884268,120.7788893,2.498,13634184.188,24927283.879,2.498,0.569,0.663,-0.456,0.561,0.989,0.683,0.000,19,19,4*63
$GPGGA,084206.40,3135.3055519,N,12046.7332573,E,4,19,1.3,2.4971,M,8.321,M,01,0004*64
$GPHPD,1957,31344.200,237.19,0.02,13.72,31.5884259,120.7788876,2.497,13634184.802,24927282.971,2.497,0.578,0.665,-0.446,0.569,1.000,0.746,0.000,19,19,4*6B
$GPGGA,084206.60,3135.3054939,N,12046.7331474,E,4,19,1.3,2.5048,M,8.321,M,00,0004*6F
$GPHPD,1957,31344.400,237.15,0.11,13.72,31.5884249,120.7788858,2.505,13634185.405,24927281.983,2.505,0.575,0.680,-0.457,0.568,0.989,0.640,0.000,19,19,4*63
$GPGGA,084206.80,3135.3054354,N,12046.7330400,E,4,19,1.3,2.4996,M,8.321,M,00,0004*69
$GPHPD,1957,31344.600,237.18,-0.23,13.75,31.5884239,120.7788840,2.500,13634186.020,24927281.028,2.500,0.569,0.713,-0.448,0.568,0.989,0.640,0.000,19,19,4*49
$GPGGA,084207.00,3135.3053747,N,12046.7329293,E,4,19,1.3,2.5049,M,8.321,M,01,0004*6E
$GPHPD,1957,31344.800,237.13,0.02,13.76,31.5884229,120.7788822,2.505,13634186.660,24927280.046,2.505,0.607,0.659,-0.475,0.558,0.972,0.597,0.000,19,19,4*6B
$GPGGA,084207.20,3135.3053109,N,12046.7328153,E,4,19,1.3,2.5048,M,8.321,M,01,0004*6F
$GPHPD,1957,31345.000,237.37,-0.02,13.79,31.5884218,120.7788803,2.505,13634187.338,24927279.043,2.505,0.608,0.693,-0.466,0.568,0.989,0.640,0.000,19,19,4*48
$GPGGA,084207.40,3135.3052485,N,12046.7326978,E,4,19,1.3,2.5074,M,8.321,M,01,0004*69
$GPHPD,1957,31345.200,237.36,0.10,13.81,31.5884208,120.7788783,2.507,13634187.988,24927277.989,2.507,0.605,0.740,-0.493,0.568,0.989,0.640,0.000,19,19,4*6C
$GPGGA,084207.60,3135.3051855,N,12046.7325789,E,4,19,1.2,2.5079,M,8.321,M,01,0004*66
$GPHPD,1957,31345.400,237.19,0.09,13.81,31.5884198,120.7788763,2.508,13634188.644,24927276.921,2.508,0.625,0.753,-0.481,0.558,0.972,0.597,0.000,19,19,4*65
$GPGGA,084207.80,3135.3051175,N,12046.7324543,E,4,19,1.2,2.5085,M,8.321,M,00,0004*64
$GPHPD,1957,31345.600,237.16,0.20,13.82,31.5884186,120.7788742,2.509,13634189.360,24927275.814,2.509,0.657,0.720,-0.519,0.568,0.989,0.640,0.000,19,19,4*65
$GPGGA,084208.00,3135.3050510,N,12046.7323316,E,4,19,1.2,2.5134,M,8.321,M,01,0004*6E
$GPHPD,1957,31345.800,237.16,-0.24,13.83,31.5884175,120.7788722,2.513,13634190.058,24927274.722,2.513,0.670,0.776,-0.517,0.568,0.989,0.640,0.000,19,19,4*4A
$GPGGA,084208.20,3135.3049805,N,12046.7322049,E,4,19,1.2,2.5105,M,8.321,M,01,0004*67
$GPHPD,1957,31346.000,237.14,-0.11,13.85,31.5884163,120.7788701,2.511,13634190.805,24927273.604,2.511,0.668,0.797,-0.527,0.568,0.989,0.640,0.000,19,19,4*42
$GPGGA,084208.40,3135.3049116,N,12046.7320731,E,4,19,1.2,2.5164,M,8.321,M,01,0004*67
$GPHPD,1957,31346.200,237.23,-0.16,13.84,31.5884152,120.7788679,2.516,13634191.519,24927272.415,2.516,0.703,0.789,-0.558,0.568,0.989,0.640,0.000,19,19,4*47
$GPGGA,084208.60,3135.3048420,N,12046.7319413,E,4,19,1.2,2.5151,M,8.321,M,00,0004*6A
$GPHPD,1957,31346.400,237.00,-0.46,13.83,31.5884140,120.7788657,2.515,13634192.243,24927271.231,2.515,0.715,0.807,-0.552,0.568,0.989,0.640,0.000,19,18,4*40
$GPGGA,084208.80,3135.3047687,N,12046.7318070,E,4,19,1.2,2.5178,M,8.321,M,00,0004*6F
$GPHPD,1957,31346.600,237.06,-0.38,13.83,31.5884128,120.7788635,2.518,13634193.015,24927270.037,2.518,0.724,0.826,-0.561,0.568,0.989,0.640,0.000,19,18,4*43
$GPGGA,084209.00,3135.3046926,N,12046.7316714,E,4,19,1.2,2.5057,M,8.321,M,01,0004*65
$GPHPD,1957,31346.800,237.26,-0.56,13.83,31.5884115,120.7788612,2.506,13634193.823,24927268.845,2.506,0.733,0.822,-0.577,0.568,0.989,0.640,0.000,19,18,4*40
$GPGGA,084209.20,3135.3046174,N,12046.7315337,E,4,19,1.2,2.5137,M,8.321,M,01,0004*69
$GPHPD,1957,31347.000,237.15,-0.27,13.83,31.5884103,120.7788589,2.514,13634194.615,24927267.622,2.514,0.748,0.842,-0.591,0.568,0.989,0.640,0.000,19,18,4*47
$GPGGA,084209.40,3135.3045446,N,12046.7313980,E,4,18,1.2,2.5043,M,8.321,M,01,0004*6B
$GPHPD,1957,31347.200,237.31,-0.54,13.81,31.5884091,120.7788566,2.504,13634195.377,24927266.409,2.504,0.742,0.873,-0.588,0.575,1.003,0.689,0.000,18,18,4*46
$GPGGA,084209.60,3135.3044681,N,12046.7312587,E,4,18,1.2,2.5090,M,8.321,M,01,0004*65
$GPHPD,1957,31347.400,237.25,-0.18,13.82,31.5884078,120.7788543,2.509,13634196.184,24927265.174,2.509,0.744,0.861,-0.578,0.575,1.003,0.689,0.000,18,18,4*45
$GPGGA,084209.80,3135.3043916,N,12046.7311182,E,4,18,1.2,2.5008,M,8.321,M,00,0004*6F
$GPHPD,1957,31347.600,237.35,-0.25,13.83,31.5884065,120.7788520,2.501,13634196.988,24927263.925,2.501,0.760,0.880,-0.592,0.568,0.989,0.640,0.000,18,18,4*40
$GPGGA,084210.00,3135.3043169,N,12046.7309775,E,4,18,1.2,2.5047,M,8.321,M,01,0004*62
$GPHPD,1957,31347.800,237.50,-0.09,13.83,31.5884053,120.7788496,2.505,13634197.767,24927262.662,2.505,0.771,0.870,-0.616,0.575,1.003,0.689,0.000,18,18,4*4A
$GPGGA,084210.20,3135.3042391,N,12046.7308353,E,4,18,1.2,2.5054,M,8.321,M,01,0004*67
$GPHPD,1957,31348.000,237.30,-0.21,13.83,31.5884040,120.7788473,2.505,13634198.586,24927261.400,2.505,0.791,0.848,-0.617,0.575,1.003,0.689,0.000,18,18,4*4B
$GPGGA,084210.40,3135.3041632,N,12046.7306940,E,4,18,1.2,2.4988,M,8.321,M,01,0004*61
$GPHPD,1957,31348.200,237.47,-0.11,13.83,31.5884027,120.7788449,2.499,13634199.381,24927260.138,2.499,0.787,0.867,-0.632,0.575,1.003,0.689,0.000,18,18,4*40
$GPGGA,084210.60,3135.3040861,N,12046.7305511,E,4,18,1.2,2.5003,M,8.321,M,00,0004*6B
$GPHPD,1957,31348.400,237.21,0.16,13.86,31.5884014,120.7788425,2.500,13634200.189,24927258.863,2.500,0.764,0.889,-0.580,0.575,1.003,0.689,0.000,18,18,4*61
$GPGGA,084210.80,3135.3040110,N,12046.7304087,E,4,18,1.2,2.5055,M,8.321,M,00,0004*62
$GPHPD,1957,31348.600,237.34,0.07,13.86,31.5884002,120.7788401,2.506,13634200.970,24927257.583,2.506,0.762,0.920,-0.612,0.568,0.989,0.640,0.000,18,18,4*6B
$GPGGA,084211.00,3135.3039319,N,12046.7302671,E,4,18,1.2,2.5054,M,8.321,M,01,0004*67
$GPHPD,1957,31348.800,237.26,0.37,13.86,31.5883989,120.7788378,2.505,13634201.809,24927256.335,2.505,0.786,0.889,-0.614,0.575,1.003,0.689,0.000,18,18,4*68
$GPGGA,084211.20,3135.3038548,N,12046.7301239,E,4,18,1.3,2.4961,M,8.321,M,01,0004*62
$GPHPD,1957,31349.000,237.23,0.16,13.86,31.5883976,120.7788354,2.496,13634202.617,24927255.057,2.496,0.776,0.863,-0.632,0.575,1.003,0.689,0.000,18,18,4*60
$GPGGA,084211.40,3135.3037755,N,12046.7299806,E,4,18,1.3,2.5062,M,8.321,M,01,0004*68
$GPHPD,1957,31349.200,237.27,0.14,13.86,31.5883963,120.7788330,2.506,13634203.455,24927253.790,2.506,0.799,0.867,-0.638,0.575,1.003,0.689,0.000,18,18,4*62
$GPGGA,084211.60,3135.3037010,N,12046.7298383,E,4,18,1.3,2.5075,M,8.321,M,01,0004*6D
$GPHPD,1957,31349.400,237.48,0.20,13.84,31.5883950,120.7788306,2.508,13634204.228,24927252.507,2.508,0.778,0.911,-0.617,0.568,0.989,0.640,0.000,18,18,4*6A
$GPGGA,084211.80,3135.3036259,N,12046.7296957,E,4,18,1.3,2.5059,M,8.321,M,00,0004*6F
$GPHPD,1957,31349.600,237.32,-0.16,13.84,31.5883938,120.7788283,2.506,13634205.008,24927251.224,2.506,0.776,0.919,-0.600,0.568,0.989,0.640,0.000,18,18,4*4B
$GPGGA,084212.00,3135.3035477,N,12046.7295512,E,4,18,1.3,2.5066,M,8.321,M,01,0004*6E
$GPHPD,1957,31349.800,237.51,-0.25,13.86,31.5883925,120.7788259,2.507,13634205.829,24927249.937,2.507,0.804,0.871,-0.608,0.575,1.003,0.689,0.000,18,18,4*4C
$GPGGA,084212.20,3135.3034681,N,12046.7294096,E,4,18,1.3,2.5019,M,8.321,M,01,0004*66
$GPHPD,1957,31350.000,237.56,-0.32,13.86,31.5883911,120.7788235,2.502,13634206.675,24927248.692,2.502,0.778,0.889,-0.608,0.575,1.003,0.689,0.000,18,18,4*46
$GPGGA,084212.40,3135.3033946,N,12046.7292654,E,4,18,1.3,2.5079,M,8.321,M,01,0004*6B
$GPHPD,1957,31350.200,237.66,-0.29,13.86,31.5883899,120.7788211,2.508,13634207.430,24927247.381,2.508,0.765,0.927,-0.603,0.568,0.989,0.640,0.000,18,18,4*41
$GPGGA,084212.60,3135.3033194,N,12046.7291238,E,4,18,1.3,2.5044,M,8.321,M,00,0004*6C
$GPHPD,1957,31350.400,237.60,-0.84,13.84,31.5883887,120.7788187,2.504,13634208.213,24927246.111,2.504,0.786,0.884,-0.590,0.568,0.989,0.640,0.000,18,18,4*49
$GPGGA,084212.80,3135.3032461,N,12046.7289771,E,4,18,1.3,2.5020,M,8.321,M,00,0004*6F
$GPHPD,1957,31350.600,237.78,-0.38,13.81,31.5883874,120.7788163,2.502,13634208.960,24927244.768,2.502,0.790,0.861,-0.598,0.568,0.989,0.640,0.000,18,18,4*47
$GPGGA,084213.00,3135.3031687,N,12046.7288352,E,4,18,1.2,2.5104,M,8.321,M,01,0004*6C
$GPHPD,1957,31350.800,237.82,-0.35,13.77,31.5883861,120.7788139,2.510,13634209.775,24927243.507,2.510,0.810,0.887,-0.595,0.568,0.989,0.640,0.000,18,18,4*46
$GPGGA,084213.20,3135.3030919,N,12046.7286881,E,4,18,1.2,2.5090,M,8.321,M,01,0004*60
$GPHPD,1957,31351.000,238.00,-0.31,13.74,31.5883849,120.7788115,2.509,13634210.570,24927242.180,2.509,0.805,0.884,-0.615,0.568,0.989,0.640,0.000,18,18,4*40
$GPGGA,084213.40,3135.3030145,N,12046.7285422,E,4,18,1.2,2.5123,M,8.321,M,01,0004*68
$GPHPD,1957,31351.200,238.08,0.00,13.73,31.5883836,120.7788090,2.512,13634211.377,24927240.871,2.512,0.811,0.894,-0.622,0.568,0.989,0.640,0.000,18,18,4*63
$GPGGA,084213.60,3135.3029367,N,12046.7283988,E,4,18,1.2,2.5105,M,8.321,M,01,0004*6F
$GPHPD,1957,31351.400,238.22,0.00,13.72,31.5883823,120.7788066,2.511,13634212.194,24927239.594,2.511,0.797,0.918,-0.598,0.568,0.989,0.640,0.000,18,18,4*63
$GPGGA,084213.80,3135.3028634,N,12046.7282555,E,4,18,1.2,2.5085,M,8.321,M,00,0004*66
$GPHPD,1957,31351.600,238.31,-0.30,13.70,31.5883811,120.7788043,2.509,13634212.947,24927238.292,2.509,0.805,0.889,-0.605,0.568,0.989,0.640,0.000,18,18,4*45
$GPGGA,084214.00,3135.3027864,N,12046.7281099,E,4,18,1.2,2.5113,M,8.321,M,01,0004*64
$GPHPD,1957,31351.800,238.26,-0.41,13.68,31.5883798,120.7788018,2.511,13634213.748,24927236.984,2.511,0.796,0.897,-0.585,0.568,0.989,0.640,0.000,18,18,4*41
$GPGGA,084214.20,3135.3027134,N,12046.7279655,E,4,18,1.2,2.5050,M,8.321,M,01,0004*6D
$GPHPD,1957,31352.000,238.31,-0.26,13.64,31.5883786,120.7787994,2.505,13634214.495,24927235.667,2.505,0.795,0.881,-0.603,0.568,0.989,0.640,0.000,18,18,4*40
$GPGGA,084214.40,3135.3026386,N,12046.7278219,E,4,19,1.2,2.5101,M,8.321,M,01,0004*68
$GPHPD,1957,31352.200,238.20,-0.08,13.62,31.5883773,120.7787970,2.510,13634215.270,24927234.371,2.510,0.815,0.857,-0.599,0.568,0.989,0.640,0.000,19,18,4*4A
$GPGGA,084214.60,3135.3025669,N,12046.7276778,E,4,19,1.2,2.5063,M,8.321,M,00,0004*65
$GPHPD,1957,31352.400,238.33,-0.47,13.61,31.5883761,120.7787946,2.506,13634215.999,24927233.050,2.506,0.789,0.910,-0.583,0.568,0.989,0.640,0.000,19,18,4*48
$GPGGA,084214.80,3135.3024884,N,12046.7275337,E,4,19,1.3,2.5006,M,8.321,M,00,0004*69
$GPHPD,1957,31352.600,238.30,-0.41,13.62,31.5883748,120.7787922,2.501,13634216.824,24927231.769,2.501,0.797,0.878,-0.580,0.568,0.989,0.640,0.000,19,18,4*4D
$GPGGA,084215.00,3135.3024147,N,12046.7273909,E,4,19,1.3,2.4937,M,8.321,M,01,0004*6C
$GPHPD,1957,31352.800,238.49,-0.53,13.66,31.5883736,120.7787898,2.494,13634217.584,24927230.476,2.494,0.784,0.906,-0.572,0.575,1.003,0.689,0.000,19,18,4*4D
$GPGGA,084215.20,3135.3023409,N,12046.7272464,E,4,19,1.3,2.4932,M,8.321,M,01,0004*64
$GPHPD,1957,31353.000,238.40,-0.22,13.71,31.5883723,120.7787874,2.493,13634218.342,24927229.162,2.493,0.806,0.860,-0.603,0.575,1.003,0.689,0.000,19,18,4*41
$GPGGA,084215.40,3135.3022623,N,12046.7271023,E,4,19,1.3,2.4971,M,8.321,M,01,0004*6A
$GPHPD,1957,31353.200,238.57,-0.35,13.73,31.5883710,120.7787850,2.497,13634219.170,24927227.882,2.497,0.796,0.889,-0.589,0.575,1.003,0.689,0.000,19,18,4*4C
$GPGGA,084215.60,3135.3021880,N,12046.7269593,E,4,19,1.3,2.4983,M,8.321,M,01,0004*66
$GPHPD,1957,31353.400,238.41,-0.23,13.72,31.5883698,120.7787827,2.498,13634219.938,24927226.590,2.498,0.794,0.893,-0.594,0.575,1.003,0.689,0.000,19,19,4*45
$GPGGA,084215.80,3135.3021143,N,12046.7268141,E,4,19,1.3,2.4891,M,8.321,M,00,0004*67
$GPHPD,1957,31353.600,238.47,-0.34,13.70,31.5883686,120.7787802,2.489,13634220.693,24927225.267,2.489,0.764,0.946,-0.582,0.575,1.003,0.689,0.000,19,19,4*44
$GPGGA,084216.00,3135.3020411,N,12046.7266706,E,4,19,1.2,2.4929,M,8.321,M,01,0004*66
$GPHPD,1957,31353.800,238.38,-0.13,13.72,31.5883674,120.7787778,2.493,13634221.445,24927223.963,2.493,0.821,0.867,-0.595,0.568,0.989,0.640,0.000,19,19,4*42
$GPGGA,084216.20,3135.3019674,N,12046.7265252,E,4,19,1.2,2.4899,M,8.321,M,01,0004*62
$GPHPD,1957,31354.000,238.38,-0.45,13.69,31.5883661,120.7787754,2.490,13634222.200,24927222.638,2.490,0.807,0.867,-0.587,0.568,0.989,0.640,0.000,19,19,4*4D
$GPGGA,084216.40,3135.3018927,N,12046.7263819,E,4,19,1.2,2.4918,M,8.321,M,01,0004*67
$GPHPD,1957,31354.200,238.31,-0.15,13.69,31.5883649,120.7787730,2.492,13634222.973,24927221.344,2.492,0.805,0.882,-0.580,0.568,0.989,0.640,0.000,19,19,4*47
$GPGGA,084216.60,3135.3018141,N,12046.7262382,E,4,19,1.2,2.4892,M,8.321,M,00,0004*67
$GPHPD,1957,31354.400,238.22,-0.13,13.67,31.5883636,120.7787706,2.489,13634223.801,24927220.069,2.489,0.789,0.903,-0.583,0.568,0.989,0.640,0.000,19,19,4*4E
$GPGGA,084216.80,3135.3017393,N,12046.7260903,E,4,19,1.2,2.4936,M,8.321,M,00,0004*65
$GPHPD,1957,31354.600,238.55,-0.26,13.67,31.5883623,120.7787682,2.494,13634224.566,24927218.720,2.494,0.787,0.916,-0.605,0.568,0.988,0.640,0.000,19,19,4*4F
$GPGGA,084217.00,3135.3016652,N,12046.7259473,E,4,19,1.2,2.4931,M,8.321,M,01,0004*63
$GPHPD,1957,31354.800,238.33,-0.26,13.66,31.5883611,120.7787658,2.493,13634225.332,24927217.427,2.493,0.805,0.899,-0.594,0.568,0.988,0.640,0.000,19,19,4*43
$GPGGA,084217.20,3135.3015905,N,12046.7258045,E,4,19,1.2,2.4852,M,8.321,M,01,0004*6B
$GPHPD,1957,31355.000,238.28,-0.35,13.62,31.5883598,120.7787634,2.485,13634226.106,24927216.139,2.485,0.796,0.881,-0.582,0.568,0.988,0.640,0.000,19,19,4*48
$GPGGA,084217.40,3135.3015155,N,12046.7256601,E,4,19,1.2,2.4925,M,8.321,M,01,0004*69
$GPHPD,1957,31355.200,238.19,-0.10,13.60,31.5883586,120.7787610,2.493,13634226.881,24927214.834,2.493,0.802,0.871,-0.603,0.568,0.988,0.640,0.000,19,19,4*43
$GPGGA,084217.60,3135.3014409,N,12046.7255178,E,4,19,1.2,2.4946,M,8.321,M,01,0004*69
$GPHPD,1957,31355.400,238.12,-0.25,13.62,31.5883573,120.7787586,2.495,13634227.655,24927213.552,2.495,0.787,0.897,-0.586,0.568,0.988,0.640,0.000,19,19,4*44
$GPGGA,084217.80,3135.3013653,N,12046.7253750,E,4,19,1.2,2.4975,M,8.321,M,00,0004*66
$GPHPD,1957,31355.600,238.00,-0.12,13.64,31.5883561,120.7787563,2.498,13634228.442,24927212.270,2.498,0.782,0.882,-0.582,0.568,0.988,0.640,0.000,19,19,4*47
$GPGGA,084218.00,3135.3012888,N,12046.7252314,E,4,19,1.2,2.4968,M,8.321,M,01,0004*60
$GPHPD,1957,31355.800,237.99,-0.63,13.69,31.5883548,120.7787539,2.497,13634229.241,24927210.983,2.497,0.771,0.929,-0.579,0.568,0.988,0.640,0.000,19,19,4*40
$GPGGA,084218.20,3135.3012155,N,12046.7250914,E,4,19,1.2,2.4914,M,8.320,M,01,0004*69
$GPHPD,1957,31356.000,237.95,-0.33,13.71,31.5883536,120.7787515,2.491,13634230.001,24927209.721,2.491,0.793,0.882,-0.606,0.568,0.988,0.640,0.000,19,19,4*4B
$GPGGA,084218.40,3135.3011385,N,12046.7249449,E,4,19,1.2,2.4950,M,8.320,M,01,0004*6E
$GPHPD,1957,31356.200,237.99,-0.35,13.74,31.5883523,120.7787491,2.495,13634230.800,24927208.402,2.495,0.791,0.866,-0.602,0.568,0.988,0.640,0.000,19,19,4*49
$GPGGA,084218.60,3135.3010642,N,12046.7248025,E,4,19,1.2,2.4936,M,8.320,M,00,0004*6D
$GPHPD,1957,31356.400,237.90,-0.51,13.72,31.5883511,120.7787467,2.494,13634231.570,24927207.117,2.494,0.775,0.906,-0.595,0.568,0.988,0.640,0.000,19,19,4*4F
$GPGGA,084218.80,3135.3009872,N,12046.7246609,E,4,19,1.2,2.4991,M,8.320,M,00,0004*6D
$GPHPD,1957,31356.600,237.82,-0.18,13.73,31.5883498,120.7787443,2.499,13634232.379,24927205.857,2.499,0.782,0.904,-0.583,0.568,0.988,0.640,0.000,19,19,4*4A
$GPGGA,084219.00,3135.3009130,N,12046.7245154,E,4,19,1.2,2.4925,M,8.320,M,01,0004*69
$GPHPD,1957,31356.800,238.01,-0.37,13.75,31.5883486,120.7787419,2.493,13634233.141,24927204.534,2.493,0.765,0.909,-0.592,0.568,0.988,0.640,0.000,19,19,4*4E
$GPGGA,084219.20,3135.3008361,N,12046.7243748,E,4,19,1.2,2.4976,M,8.320,M,01,0004*67
$GPHPD,1957,31357.000,237.82,0.08,13.73,31.5883473,120.7787396,2.498,13634233.951,24927203.286,2.498,0.801,0.883,-0.598,0.568,0.988,0.640,0.000,19,19,4*6A
$GPGGA,084219.40,3135.3007603,N,12046.7242328,E,4,19,1.2,2.4992,M,8.320,M,01,0004*66
$GPHPD,1957,31357.200,237.84,-0.07,13.70,31.5883460,120.7787372,2.499,13634234.742,24927202.015,2.499,0.784,0.879,-0.607,0.568,0.988,0.640,0.000,19,19,4*47
$GPGGA,084219.60,3135.3006869,N,12046.7240925,E,4,19,1.2,2.4989,M,8.320,M,01,0004*68
$GPHPD,1957,31357.400,237.77,-0.16,13.67,31.5883448,120.7787349,2.499,13634235.503,24927200.750,2.499,0.777,0.886,-0.600,0.568,0.988,0.640,0.000,19,19,4*40
$GPGGA,084219.80,3135.3006099,N,12046.7239454,E,4,19,1.2,2.5016,M,8.320,M,00,0004*6B
$GPHPD,1957,31357.600,237.87,-0.27,13.67,31.5883435,120.7787324,2.502,13634236.302,24927199.424,2.502,0.777,0.878,-0.593,0.568,0.988,0.640,0.000,19,19,4*41
$GPGGA,084220.00,3135.3005350,N,12046.7238045,E,4,19,1.2,2.4952,M,8.320,M,01,0004*60
$GPHPD,1957,31357.800,237.80,-0.28,13.69,31.5883423,120.7787301,2.495,13634237.083,24927198.160,2.495,0.775,0.936,-0.576,0.568,0.988,0.640,0.000,19,19,4*44
$GPGGA,084220.20,3135.3004586,N,12046.7236632,E,4,19,1.2,2.5057,M,8.320,M,01,0004*6B
$GPHPD,1957,31358.000,237.83,-0.16,13.69,31.5883410,120.7787277,2.506,13634237.884,24927196.901,2.506,0.779,0.884,-0.594,0.568,0.988,0.640,0.000,19,19,4*4B
$GPGGA,084220.40,3135.3003836,N,12046.7235215,E,4,19,1.2,2.5019,M,8.320,M,01,0004*64
$GPHPD,1957,31358.200,237.84,-0.25,13.71,31.5883397,120.7787254,2.502,13634238.665,24927195.628,2.502,0.758,0.913,-0.579,0.568,0.988,0.640,0.000,19,19,4*48
$GPGGA,084220.60,3135.3003078,N,12046.7233807,E,4,19,1.2,2.5013,M,8.320,M,00,0004*60
$GPHPD,1957,31358.400,237.84,-0.15,13.73,31.5883385,120.7787230,2.501,13634239.459,24927194.371,2.501,0.770,0.873,-0.594,0.568,0.988,0.640,0.000,19,19,4*44
$GPGGA,084220.80,3135.3002326,N,12046.7232368,E,4,19,1.2,2.5023,M,8.320,M,00,0004*67
$GPHPD,1957,31358.600,237.81,-0.31,13.73,31.5883372,120.7787206,2.502,13634240.238,24927193.073,2.502,0.760,0.920,-0.572,0.568,0.988,0.640,0.000,19,19,4*4F
$GPGGA,084221.00,3135.3001595,N,12046.7230982,E,4,19,1.2,2.5038,M,8.320,M,01,0004*64
$GPHPD,1957,31358.800,237.85,0.01,13.75,31.5883360,120.7787183,2.504,13634240.998,24927191.827,2.504,0.781,0.905,-0.586,0.568,0.988,0.640,0.000,19,19,4*69
$GPGGA,084221.20,3135.3000858,N,12046.7229571,E,4,19,1.2,2.4998,M,8.320,M,01,0004*61
$GPHPD,1957,31359.000,237.81,-0.32,13.78,31.5883348,120.7787160,2.500,13634241.762,24927190.554,2.500,0.748,0.910,-0.576,0.568,0.988,0.640,0.000,19,19,4*4F
$GPGGA,084221.40,3135.3000091,N,12046.7228160,E,4,19,1.2,2.4948,M,8.320,M,01,0004*62
$GPHPD,1957,31359.200,237.81,-0.09,13.82,31.5883335,120.7787136,2.495,13634242.568,24927189.299,2.495,0.781,0.868,-0.586,0.568,0.988,0.640,0.000,19,19,4*48
$GPGGA,084221.60,3135.2999340,N,12046.7226735,E,4,19,1.2,2.5014,M,8.320,M,01,0004*6E
$GPHPD,1957,31359.400,237.88,-0.24,13.85,31.5883322,120.7787112,2.501,13634243.348,24927188.017,2.501,0.779,0.873,-0.607,0.568,0.988,0.640,0.000,19,19,4*48
$GPGGA,084221.80,3135.2998594,N,12046.7225320,E,4,19,1.2,2.5039,M,8.320,M,00,0004*63
$GPHPD,1957,31359.600,237.89,0.13,13.87,31.5883310,120.7787089,2.504,13634244.124,24927186.745,2.504,0.779,0.898,-0.593,0.568,0.988,0.640,0.000,19,19,4*68
$GPGGA,084222.00,3135.2997842,N,12046.7223885,E,4,19,1.2,2.5062,M,8.320,M,01,0004*6C
$GPHPD,1957,31359.800,237.96,-0.14,13.87,31.5883297,120.7787065,2.506,13634244.904,24927185.452,2.506,0.770,0.891,-0.589,0.568,0.988,0.640,0.000,19,19,4*49
$GPGGA,084222.20,3135.2997076,N,12046.7222462,E,4,19,1.2,2.5029,M,8.320,M,01,0004*6A
$GPHPD,1957,31360.000,237.86,-0.04,13.85,31.5883285,120.7787041,2.503,13634245.706,24927184.181,2.503,0.780,0.917,-0.581,0.568,0.988,0.640,0.000,19,19,4*43
$GPGGA,084222.40,3135.2996326,N,12046.7221042,E,4,19,1.2,2.5036,M,8.320,M,01,0004*60
$GPHPD,1957,31360.200,238.12,-0.01,13.83,31.5883272,120.7787017,2.504,13634246.486,24927182.905,2.504,0.782,0.892,-0.595,0.568,0.988,0.640,0.000,19,19,4*4A
$GPGGA,084222.60,3135.2995570,N,12046.7219610,E,4,19,1.2,2.5078,M,8.320,M,00,0004*65
$GPHPD,1957,31360.400,237.96,-0.07,13.80,31.5883260,120.7786994,2.508,13634247.273,24927181.618,2.508,0.781,0.929,-0.581,0.568,0.988,0.640,0.000,19,19,4*40
$GPGGA,084222.80,3135.2994827,N,12046.7218178,E,4,19,1.2,2.5070,M,8.320,M,00,0004*65
$GPHPD,1957,31360.600,237.98,-0.06,13.79,31.5883247,120.7786970,2.507,13634248.040,24927180.323,2.507,0.783,0.901,-0.590,0.568,0.988,0.640,0.000,19,19,4*4D
$GPGGA,084223.00,3135.2994054,N,12046.7216744,E,4,19,1.2,2.5047,M,8.320,M,01,0004*62
$GPHPD,1957,31360.800,237.98,-0.15,13.76,31.5883234,120.7786946,2.505,13634248.851,24927179.044,2.505,0.778,0.919,-0.589,0.568,0.988,0.640,0.000,19,19,4*46
$GPGGA,084223.20,3135.2993290,N,12046.7215303,E,4,19,1.2,2.5120,M,8.320,M,01,0004*69
$GPHPD,1957,31361.000,237.85,0.06,13.72,31.5883222,120.7786922,2.512,13634249.646,24927177.750,2.512,0.788,0.887,-0.608,0.568,0.988,0.640,0.000,19,19,4*6B
$GPGGA,084223.40,3135.2992545,N,12046.7213871,E,4,19,1.2,2.5068,M,8.320,M,01,0004*64
$GPHPD,1957,31361.200,237.85,-0.10,13.69,31.5883209,120.7786898,2.507,13634250.417,24927176.457,2.507,0.774,0.925,-0.595,0.568,0.988,0.640,0.000,19,19,4*46
$GPGGA,084223.60,3135.2991770,N,12046.7212441,E,4,19,1.2,2.5073,M,8.320,M,01,0004*65
$GPHPD,1957,31361.400,237.96,-0.21,13.68,31.5883196,120.7786874,2.507,13634251.231,24927175.183,2.507,0.799,0.868,-0.607,0.568,0.988,0.640,0.000,19,19,4*49
$GPGGA,084223.80,3135.2991016,N,12046.7210986,E,4,19,1.2,2.5137,M,8.320,M,00,0004*68
$GPHPD,1957,31361.600,237.93,-0.13,13.65,31.5883184,120.7786850,2.514,13634252.010,24927173.867,2.514,0.785,0.897,-0.604,0.568,0.988,0.640,0.000,19,19,4*4E
$GPGGA,084224.00,3135.2990253,N,12046.7209539,E,4,19,1.2,2.5136,M,8.320,M,01,0004*65
$GPHPD,1957,31361.800,237.97,-0.31,13.65,31.5883171,120.7786826,2.514,13634252.803,24927172.566,2.514,0.786,0.915,-0.585,0.568,0.988,0.640,0.000,19,19,4*4A
$GPGGA,084224.20,3135.2989497,N,12046.7208101,E,4,19,1.2,2.5129,M,8.320,M,01,0004*61
$GPHPD,1957,31362.000,237.92,-0.10,13.64,31.5883158,120.7786802,2.513,13634253.588,24927171.271,2.513,0.792,0.894,-0.598,0.568,0.988,0.640,0.000,19,19,4*47
$GPGGA,084224.40,3135.2988728,N,12046.7206654,E,4,19,1.2,2.5165,M,8.320,M,01,0004*60
$GPHPD,1957,31362.200,237.93,-0.25,13.65,31.5883145,120.7786778,2.517,13634254.390,24927169.974,2.517,0.802,0.861,-0.608,0.568,0.988,0.640,0.000,19,19,4*44
$GPGGA,084224.60,3135.2987972,N,12046.7205211,E,4,19,1.2,2.5122,M,8.320,M,00,0004*68
$GPHPD,1957,31362.400,237.87,-0.44,13.66,31.5883133,120.7786754,2.512,13634255.174,24927168.673,2.512,0.792,0.883,-0.604,0.568,0.988,0.640,0.000,19,19,4*4A
$GPGGA,084224.80,3135.2987199,N,12046.7203762,E,4,19,1.2,2.5121,M,8.320,M,00,0004*6F
$GPHPD,1957,31362.600,237.85,-0.16,13.66,31.5883120,120.7786729,2.512,13634255.981,24927167.376,2.512,0.803,0.878,-0.621,0.568,0.988,0.640,0.000,19,19,4*4C
$GPGGA,084225.00,3135.2986450,N,12046.7202327,E,4,19,1.2,2.5085,M,8.320,M,01,0004*6D
$GPHPD,1957,31362.800,237.75,-0.18,13.67,31.5883108,120.7786705,2.509,13634256.756,24927166.081,2.509,0.791,0.910,-0.606,0.568,0.988,0.640,0.000,19,19,4*45
$GPGGA,084225.20,3135.2985673,N,12046.7200890,E,4,19,1.2,2.5117,M,8.320,M,01,0004*60
$GPHPD,1957,31363.000,237.80,-0.13,13.67,31.5883095,120.7786682,2.512,13634257.572,24927164.800,2.512,0.796,0.877,-0.608,0.568,0.988,0.640,0.000,19,19,4*49
$GPGGA,084225.40,3135.2984897,N,12046.7199439,E,4,19,1.2,2.5130,M,8.320,M,01,0004*6A
$GPHPD,1957,31363.200,237.85,0.06,13.69,31.5883082,120.7786657,2.513,13634258.383,24927163.501,2.513,0.787,0.892,-0.607,0.568,0.988,0.640,0.000,19,19,4*6F
$GPGGA,084225.60,3135.2984128,N,12046.7197976,E,4,19,1.2,2.5123,M,8.320,M,01,0004*6F
$GPHPD,1957,31363.400,237.69,-0.03,13.71,31.5883069,120.7786633,2.512,13634259.181,24927162.185,2.512,0.787,0.916,-0.606,0.568,0.988,0.640,0.000,19,19,4*49
$GPGGA,084225.80,3135.2983351,N,12046.7196538,E,4,19,1.2,2.5137,M,8.320,M,00,0004*69
$GPHPD,1957,31363.600,237.78,-0.32,13.70,31.5883056,120.7786609,2.514,13634259.996,24927160.902,2.514,0.804,0.880,-0.611,0.568,0.988,0.640,0.000,19,19,4*4A
$GPGGA,084226.00,3135.2982565,N,12046.7195082,E,4,19,1.2,2.5123,M,8.320,M,01,0004*61
$GPHPD,1957,31363.800,237.73,-0.14,13.72,31.5883043,120.7786585,2.512,13634260.820,24927159.604,2.512,0.796,0.911,-0.607,0.568,0.988,0.640,0.000,19,19,4*45
$GPGGA,084226.20,3135.2981808,N,12046.7193662,E,4,19,1.2,2.5140,M,8.320,M,01,0004*6D
$GPHPD,1957,31364.000,237.65,-0.20,13.70,31.5883030,120.7786561,2.514,13634261.610,24927158.332,2.514,0.784,0.932,-0.609,0.568,0.988,0.640,0.000,19,19,4*47
$GPGGA,084226.40,3135.2981036,N,12046.7192217,E,4,19,1.2,2.5163,M,8.320,M,01,0004*68
$GPHPD,1957,31364.200,237.75,0.05,13.72,31.5883017,120.7786537,2.516,13634262.417,24927157.038,2.516,0.787,0.888,-0.601,0.568,0.988,0.640,0.000,19,19,4*61
$GPGGA,084226.60,3135.2980254,N,12046.7190785,E,4,19,1.2,2.5222,M,8.320,M,00,0004*66
$GPHPD,1957,31364.400,237.67,-0.30,13.70,31.5883004,120.7786513,2.522,13634263.240,24927155.766,2.522,0.775,0.919,-0.591,0.568,0.988,0.640,0.000,19,19,4*4C
$GPGGA,084226.80,3135.2979520,N,12046.7189362,E,4,19,1.2,2.5113,M,8.320,M,00,0004*6E
$GPHPD,1957,31364.600,237.60,-0.28,13.71,31.5882992,120.7786489,2.511,13634263.997,24927154.477,2.511,0.774,0.916,-0.595,0.568,0.988,0.640,0.000,19,19,4*4D
$GPGGA,084227.00,3135.2978747,N,12046.7187933,E,4,19,1.2,2.5135,M,8.320,M,01,0004*60
$GPHPD,1957,31364.800,237.54,-0.25,13.72,31.5882979,120.7786466,2.514,13634264.808,24927153.203,2.514,0.787,0.887,-0.602,0.568,0.988,0.640,0.000,19,19,4*44
$GPGGA,084227.20,3135.2977980,N,12046.7186509,E,4,19,1.2,2.5152,M,8.320,M,01,0004*6D
$GPHPD,1957,31365.000,237.54,-0.03,13.74,31.5882966,120.7786442,2.515,13634265.611,24927151.932,2.515,0.781,0.896,-0.610,0.568,0.988,0.640,0.000,19,19,4*4E
$GPGGA,084227.40,3135.2977240,N,12046.7185125,E,4,19,1.2,2.5175,M,8.320,M,01,0004*60
$GPHPD,1957,31365.200,237.51,-0.16,13.74,31.5882954,120.7786419,2.518,13634266.385,24927150.694,2.518,0.773,0.900,-0.599,0.567,0.988,0.640,0.000,19,19,4*45
$GPGGA,084227.60,3135.2976486,N,12046.7183687,E,4,19,1.2,2.5166,M,8.320,M,01,0004*64
$GPHPD,1957,31365.400,237.42,-0.17,13.76,31.5882941,120.7786395,2.517,13634267.167,24927149.398,2.517,0.767,0.882,-0.590,0.567,0.988,0.640,0.000,19,19,4*4C
$GPGGA,084227.80,3135.2975706,N,12046.7182287,E,4,19,1.2,2.5143,M,8.320,M,00,0004*61
$GPHPD,1957,31365.600,237.51,-0.12,13.78,31.5882928,120.7786371,2.514,13634267.994,24927148.164,2.514,0.772,0.882,-0.592,0.567,0.988,0.640,0.000,19,19,4*40
$GPGGA,084228.00,3135.2974924,N,12046.7180887,E,4,19,1.2,2.5167,M,8.320,M,01,0004*66
$GPHPD,1957,31365.800,237.40,-0.15,13.80,31.5882915,120.7786348,2.517,13634268.823,24927146.930,2.517,0.768,0.879,-0.601,0.567,0.988,0.640,0.000,19,19,4*49
$GPGGA,084228.20,3135.2974180,N,12046.7179461,E,4,19,1.2,2.5145,M,8.320,M,01,0004*60
$GPHPD,1957,31366.000,237.45,0.17,13.81,31.5882903,120.7786324,2.515,13634269.594,24927145.643,2.515,0.755,0.894,-0.606,0.567,0.988,0.640,0.000,19,19,4*66
$GPGGA,084228.40,3135.2973425,N,12046.7178071,E,4,19,1.2,2.5177,M,8.320,M,01,0004*6E
$GPHPD,1957,31366.200,237.33,-0.08,13.81,31.5882890,120.7786301,2.518,13634270.387,24927144.406,2.518,0.775,0.889,-0.599,0.567,0.988,0.640,0.000,19,19,4*4F
$GPGGA,084228.60,3135.2972665,N,12046.7176664,E,4,19,1.2,2.5195,M,8.320,M,00,0004*6A
$GPHPD,1957,31366.400,237.37,0.07,13.81,31.5882878,120.7786278,2.520,13634271.184,24927143.152,2.520,0.767,0.864,-0.597,0.567,0.988,0.640,0.000,19,19,4*6B
$GPGGA,084228.80,3135.2971917,N,12046.7175233,E,4,19,1.2,2.5087,M,8.320,M,00,0004*6A
$GPHPD,1957,31366.600,237.33,0.01,13.86,31.5882865,120.7786254,2.509,13634271.959,24927141.861,2.509,0.751,0.881,-0.598,0.558,0.971,0.597,0.000,19,19,4*6F
$GPGGA,084229.00,3135.2971129,N,12046.7173859,E,4,19,1.2,2.5167,M,8.320,M,01,0004*68
$GPHPD,1957,31366.800,237.16,0.25,13.86,31.5882852,120.7786231,2.517,13634272.803,24927140.663,2.517,0.790,0.865,-0.610,0.558,0.971,0.597,0.000,19,19,4*63
$GPGGA,084229.20,3135.2970394,N,12046.7172450,E,4,19,1.2,2.5233,M,8.320,M,01,0004*69
$GPHPD,1957,31367.000,237.23,0.28,13.87,31.5882840,120.7786208,2.523,13634273.564,24927139.391,2.523,0.753,0.899,-0.607,0.558,0.971,0.597,0.000,19,19,4*68
$GPGGA,084229.40,3135.2969606,N,12046.7171046,E,4,19,1.2,2.5250,M,8.320,M,01,0004*6C
$GPHPD,1957,31367.200,237.20,-0.08,13.88,31.5882827,120.7786184,2.525,13634274.401,24927138.156,2.525,0.764,0.886,-0.589,0.558,0.971,0.597,0.000,19,19,4*4D
$GPGGA,084229.60,3135.2968842,N,12046.7169630,E,4,19,1.2,2.5243,M,8.320,M,01,0004*6D
$GPHPD,1957,31367.400,237.20,0.01,13.85,31.5882814,120.7786161,2.524,13634275.202,24927136.893,2.524,0.759,0.896,-0.600,0.558,0.971,0.597,0.000,19,19,4*6E
$GPGGA,084229.80,3135.2968075,N,12046.7168227,E,4,19,1.2,2.5231,M,8.320,M,00,0004*68
$GPHPD,1957,31367.600,237.17,0.08,13.87,31.5882801,120.7786137,2.523,13634276.010,24927135.647,2.523,0.774,0.884,-0.611,0.558,0.971,0.597,0.000,19,19,4*6E
$GPGGA,084230.00,3135.2967292,N,12046.7166817,E,4,19,1.2,2.5250,M,8.320,M,01,0004*6D
$GPHPD,1957,31367.800,237.08,0.19,13.87,31.5882788,120.7786114,2.525,13634276.839,24927134.402,2.525,0.770,0.913,-0.613,0.558,0.971,0.597,0.000,19,19,4*69
$GPGGA,084230.20,3135.2966514,N,12046.7165415,E,4,19,1.2,2.5258,M,8.320,M,01,0004*62
$GPHPD,1957,31368.000,237.14,0.22,13.86,31.5882775,120.7786090,2.526,13634277.663,24927133.164,2.526,0.760,0.875,-0.618,0.558,0.971,0.597,0.000,19,19,4*6C
$GPGGA,084230.40,3135.2965752,N,12046.7163989,E,4,19,1.2,2.5287,M,8.320,M,01,0004*6B
$GPHPD,1957,31368.200,237.14,0.07,13.84,31.5882763,120.7786066,2.529,13634278.459,24927131.888,2.529,0.761,0.905,-0.611,0.558,0.971,0.597,0.000,19,19,4*66
$GPGGA,084230.60,3135.2964975,N,12046.7162578,E,4,19,1.2,2.5335,M,8.320,M,00,0004*69
$GPHPD,1957,31368.400,237.08,-0.20,13.85,31.5882750,120.7786043,2.534,13634279.279,24927130.638,2.534,0.767,0.891,-0.605,0.558,0.971,0.597,0.000,19,19,4*4D
$GPGGA,084230.80,3135.2964209,N,12046.7161151,E,4,19,1.2,2.5321,M,8.320,M,00,0004*6E
$GPHPD,1957,31368.600,237.14,-0.07,13.84,31.5882737,120.7786019,2.532,13634280.080,24927129.363,2.532,0.756,0.923,-0.601,0.558,0.971,0.597,0.000,19,19,4*47
$GPGGA,084231.00,3135.2963428,N,12046.7159754,E,4,19,1.2,2.5379,M,8.320,M,01,0004*61
$GPHPD,1957,31368.800,236.88,-0.17,13.82,31.5882724,120.7785996,2.538,13634280.909,24927128.133,2.538,0.768,0.912,-0.595,0.558,0.971,0.597,0.000,19,19,4*4A
$GPGGA,084231.20,3135.2962653,N,12046.7158343,E,4,19,1.2,2.5374,M,8.320,M,01,0004*62
$GPHPD,1957,31369.000,237.00,-0.06,13.84,31.5882711,120.7785972,2.537,13634281.727,24927126.882,2.537,0.752,0.904,-0.599,0.558,0.971,0.597,0.000,19,19,4*44
$GPGGA,084231.40,3135.2961877,N,12046.7156930,E,4,19,1.2,2.5398,M,8.320,M,01,0004*6D
$GPHPD,1957,31369.200,236.92,0.04,13.82,31.5882698,120.7785949,2.540,13634282.545,24927125.629,2.540,0.765,0.895,-0.602,0.558,0.971,0.597,0.000,19,19,4*68
$GPGGA,084231.60,3135.2961119,N,12046.7155521,E,4,19,1.2,2.5327,M,8.320,M,01,0004*65
$GPHPD,1957,31369.400,237.02,0.03,13.83,31.5882685,120.7785925,2.533,13634283.339,24927124.371,2.533,0.761,0.894,-0.603,0.558,0.971,0.597,0.000,19,19,4*67
$GPGGA,084231.80,3135.2960341,N,12046.7154117,E,4,19,1.2,2.5399,M,8.320,M,00,0004*61
$GPHPD,1957,31369.600,236.89,0.30,13.84,31.5882672,120.7785902,2.540,13634284.162,24927123.130,2.540,0.793,0.868,-0.622,0.558,0.971,0.597,0.000,19,19,4*6B
$GPGGA,084232.00,3135.2959603,N,12046.7152773,E,4,19,1.2,2.5352,M,8.320,M,01,0004*67
$GPHPD,1957,31369.800,237.00,-0.09,13.81,31.5882660,120.7785880,2.535,13634284.941,24927121.939,2.535,0.756,0.908,-0.602,0.558,0.971,0.597,0.000,19,19,4*49
$GPGGA,084232.20,3135.2958899,N,12046.7151513,E,4,19,1.2,2.5413,M,8.320,M,01,0004*6C
$GPHPD,1957,31370.000,236.99,0.22,13.77,31.5882648,120.7785859,2.541,13634285.688,24927120.829,2.541,0.741,0.859,-0.588,0.558,0.971,0.597,0.000,19,19,4*63
$GPGGA,084232.40,3135.2958230,N,12046.7150290,E,4,19,1.2,2.5410,M,8.320,M,01,0004*6D
$GPHPD,1957,31370.200,236.96,0.00,13.67,31.5882637,120.7785838,2.541,13634286.393,24927119.743,2.541,0.685,0.826,-0.547,0.558,0.971,0.597,0.000,19,19,4*67
$GPGGA,084232.60,3135.2957643,N,12046.7149222,E,4,19,1.2,2.5418,M,8.320,M,00,0004*68
$GPHPD,1957,31370.400,236.98,-0.01,13.57,31.5882627,120.7785820,2.542,13634287.012,24927118.797,2.542,0.640,0.771,-0.510,0.558,0.971,0.597,0.000,19,19,4*4D
$GPGGA,084232.80,3135.2957117,N,12046.7148266,E,4,19,1.2,2.5398,M,8.320,M,00,0004*6E
$GPHPD,1957,31370.600,236.99,0.21,13.46,31.5882619,120.7785804,2.540,13634287.567,24927117.950,2.540,0.573,0.708,-0.450,0.558,0.971,0.597,0.000,19,19,4*6F
$GPGGA,084233.00,3135.2956659,N,12046.7147444,E,4,19,1.2,2.5431,M,8.320,M,01,0004*67
$GPHPD,1957,31370.800,236.96,0.00,13.36,31.5882611,120.7785791,2.543,13634288.053,24927117.225,2.543,0.524,0.589,-0.417,0.558,0.971,0.597,0.000,19,19,4*6F
$GPGGA,084233.20,3135.2956294,N,12046.7146780,E,4,19,1.2,2.5395,M,8.320,M,01,0004*63
$GPHPD,1957,31371.000,237.11,0.04,13.21,31.5882605,120.7785780,2.540,13634288.438,24927116.637,2.540,0.443,0.536,-0.350,0.558,0.971,0.597,0.000,19,19,4*60
$GPGGA,084233.40,3135.2956036,N,12046.7146310,E,4,19,1.2,2.5407,M,8.320,M,01,0004*6E
$GPHPD,1957,31371.200,236.99,0.18,13.03,31.5882601,120.7785772,2.541,13634288.710,24927116.220,2.541,0.371,0.399,-0.298,0.558,0.971,0.597,0.000,19,19,4*6C
$GPGGA,084233.60,3135.2955883,N,12046.7146023,E,4,19,1.2,2.5433,M,8.320,M,01,0004*6D
$GPHPD,1957,31371.400,236.99,0.16,12.85,31.5882598,120.7785767,2.543,13634288.870,24927115.963,2.543,0.258,0.301,-0.206,0.558,0.971,0.597,0.000,19,19,4*66
$GPGGA,084233.80,3135.2955840,N,12046.7145944,E,4,19,1.2,2.5421,M,8.320,M,00,0004*65
$GPHPD,1957,31371.600,236.93,0.19,12.68,31.5882597,120.7785766,2.542,13634288.915,24927115.893,2.542,0.154,0.190,-0.118,0.558,0.971,0.597,0.000,19,19,4*69
$GPGGA,084234.00,3135.2955857,N,12046.7145993,E,4,19,1.2,2.5398,M,8.320,M,01,0004*62
$GPHPD,1957,31371.800,236.94,0.12,12.58,31.5882598,120.7785767,2.540,13634288.900,24927115.942,2.540,0.044,0.062,-0.035,0.558,0.971,0.597,0.000,19,19,4*6D
$GPGGA,084234.20,3135.2955841,N,12046.7145958,E,4,19,1.2,2.5408,M,8.320,M,01,0004*6E
$GPHPD,1957,31372.000,237.05,0.34,12.66,31.5882597,120.7785766,2.541,13634288.916,24927115.909,2.541,-0.008,-0.006,-0.004,0.558,0.971,0.597,0.000,19,19,4*68
$GPGGA,084234.40,3135.2955852,N,12046.7145972,E,4,19,1.2,2.5383,M,8.320,M,01,0004*66
$GPHPD,1957,31372.200,236.88,0.35,12.71,31.5882598,120.7785766,2.538,13634288.903,24927115.919,2.538,0.002,-0.003,-0.006,0.558,0.971,0.597,0.000,19,19,4*43
$GPGGA,084234.60,3135.2955843,N,12046.7145966,E,4,19,1.2,2.5385,M,8.320,M,00,0004*66
$GPHPD,1957,31372.400,237.10,0.30,12.76,31.5882597,120.7785766,2.539,13634288.915,24927115.917,2.539,0.009,-0.022,-0.001,0.558,0.971,0.597,0.000,19,19,4*4E
$GPGGA,084234.80,3135.2955863,N,12046.7145963,E,4,19,1.2,2.5420,M,8.320,M,00,0004*67
$GPHPD,1957,31372.600,237.02,0.28,12.81,31.5882598,120.7785766,2.542,13634288.886,24927115.902,2.542,-0.003,0.003,-0.000,0.558,0.971,0.597,0.000,19,19,4*46
$GPGGA,084235.00,3135.2955866,N,12046.7145969,E,4,19,1.2,2.5403,M,8.320,M,01,0004*61
$GPHPD,1957,31372.800,236.83,0.27,12.86,31.5882598,120.7785766,2.540,13634288.883,24927115.908,2.540,0.008,-0.006,0.009,0.558,0.971,0.597,0.000,19,19,4*6D
$GPGGA,084235.20,3135.2955866,N,12046.7145964,E,4,19,1.2,2.5367,M,8.320,M,01,0004*6B
$GPHPD,1957,31373.000,236.86,0.28,12.91,31.5882598,120.7785766,2.537,13634288.882,24927115.902,2.537,0.003,0.002,0.001,0.558,0.971,0.597,0.000,19,19,4*49
$GPGGA,084235.40,3135.2955864,N,12046.7145971,E,4,19,1.2,2.5376,M,8.320,M,01,0004*6B
$GPHPD,1957,31373.200,236.93,0.35,12.95,31.5882598,120.7785766,2.538,13634288.886,24927115.911,2.538,0.007,-0.002,-0.004,0.558,0.971,0.597,0.000,19,19,4*40
$GPGGA,084235.60,3135.2955855,N,12046.7145972,E,4,19,1.2,2.5428,M,8.320,M,01,0004*64
$GPHPD,1957,31373.400,236.88,0.49,12.99,31.5882598,120.7785766,2.543,13634288.899,24927115.918,2.543,-0.003,0.001,-0.004,0.558,0.971,0.597,0.000,19,19,4*4B
$GPGGA,084235.80,3135.2955852,N,12046.7145969,E,4,19,1.2,2.5435,M,8.320,M,00,0004*6A
$GPHPD,1957,31373.600,237.01,0.10,13.03,31.5882598,120.7785766,2.544,13634288.903,24927115.916,2.544,-0.005,0.007,-0.002,0.558,0.970,0.597,0.000,19,19,4*4C
$GPGGA,084236.00,3135.2955861,N,12046.7145953,E,4,19,1.2,2.5434,M,8.320,M,01,0004*68
$GPHPD,1957,31373.800,236.94,-0.01,13.06,31.5882598,120.7785766,2.543,13634288.887,24927115.891,2.543,-0.003,0.005,0.002,0.558,0.970,0.597,0.000,19,19,4*4D
$GPGGA,084236.20,3135.2955865,N,12046.7145955,E,4,19,1.2,2.5390,M,8.320,M,01,0004*61
$GPHPD,1957,31374.000,236.87,0.16,13.09,31.5882598,120.7785766,2.539,13634288.881,24927115.891,2.539,0.006,0.004,0.005,0.558,0.970,0.597,0.000,19,19,4*4C
$GPGGA,084236.40,3135.2955858,N,12046.7145959,E,4,19,1.2,2.5400,M,8.320,M,01,0004*6B
$GPHPD,1957,31374.200,236.88,0.29,13.11,31.5882598,120.7785766,2.540,13634288.892,24927115.900,2.540,0.002,0.004,0.001,0.558,0.970,0.597,0.000,19,19,4*4F
$GPGGA,084236.60,3135.2955866,N,12046.7145971,E,4,19,1.2,2.5425,M,8.320,M,00,0004*68
$GPHPD,1957,31374.400,236.97,0.13,13.14,31.5882598,120.7785766,2.543,13634288.883,24927115.910,2.543,-0.002,-0.004,-0.002,0.558,0.970,0.597,0.000,19,19,4*64
$GPGGA,084236.80,3135.2955870,N,12046.7145966,E,4,19,1.2,2.5416,M,8.320,M,00,0004*67
$GPHPD,1957,31374.600,236.81,0.26,13.17,31.5882598,120.7785766,2.542,13634288.877,24927115.902,2.542,-0.006,-0.002,0.008,0.558,0.970,0.597,0.000,19,19,4*49
$GPGGA,084237.00,3135.2955873,N,12046.7145991,E,4,19,1.2,2.5374,M,8.320,M,01,0004*67
$GPHPD,1957,31374.800,236.94,0.08,13.19,31.5882598,120.7785767,2.537,13634288.877,24927115.930,2.537,-0.004,0.009,0.004,0.558,0.970,0.597,0.000,19,19,4*69
$GPGGA,084237.20,3135.2955877,N,12046.7145972,E,4,19,1.2,2.5323,M,8.320,M,01,0004*6E
$GPHPD,1957,31375.000,236.92,0.26,13.22,31.5882598,120.7785766,2.532,13634288.868,24927115.905,2.532,-0.001,-0.016,-0.001,0.558,0.970,0.597,0.000,19,19,4*65
$GPGGA,084237.40,3135.2955870,N,12046.7145987,E,4,19,1.2,2.5373,M,8.320,M,01,0004*60
$GPHPD,1957,31375.200,236.95,0.36,13.25,31.5882598,120.7785766,2.537,13634288.881,24927115.927,2.537,0.008,-0.017,-0.005,0.558,0.970,0.597,0.000,19,19,4*40
$GPGGA,084237.60,3135.2955877,N,12046.7145983,E,4,19,1.2,2.5328,M,8.320,M,01,0004*6F
$GPHPD,1957,31375.400,236.98,0.11,13.26,31.5882598,120.7785766,2.533,13634288.870,24927115.918,2.533,-0.007,-0.005,0.002,0.558,0.970,0.597,0.000,19,19,4*44
$GPGGA,084237.80,3135.2955873,N,12046.7145975,E,4,19,1.2,2.5361,M,8.320,M,00,0004*60
$GPHPD,1957,31375.600,236.88,0.47,13.30,31.5882598,120.7785766,2.536,13634288.874,24927115.911,2.536,0.005,-0.017,-0.006,0.558,0.970,0.597,0.000,19,19,4*4B
$GPGGA,084238.00,3135.2955862,N,12046.7145979,E,4,19,1.2,2.5367,M,8.320,M,01,0004*6C
$GPHPD,1957,31375.800,236.87,0.26,13.33,31.5882598,120.7785766,2.537,13634288.891,24927115.922,2.537,-0.004,0.008,0.001,0.558,0.970,0.597,0.000,19,19,4*60
$GPGGA,084238.20,3135.2955869,N,12046.7145983,E,4,19,1.2,2.5378,M,8.320,M,01,0004*6E
$GPHPD,1957,31376.000,237.04,0.12,13.34,31.5882598,120.7785766,2.538,13634288.881,24927115.923,2.538,-0.005,0.005,-0.004,0.558,0.970,0.597,0.000,19,19,4*45
$GPGGA,084238.40,3135.2955862,N,12046.7145971,E,4,19,1.2,2.5380,M,8.320,M,01,0004*69
$GPHPD,1957,31376.200,236.96,0.08,13.35,31.5882598,120.7785766,2.538,13634288.889,24927115.912,2.538,-0.001,-0.006,0.002,0.558,0.970,0.597,0.000,19,19,4*4C
$GPGGA,084238.60,3135.2955849,N,12046.7145952,E,4,19,1.2,2.5360,M,8.320,M,00,0004*6C
$GPHPD,1957,31376.400,236.86,0.32,13.38,31.5882597,120.7785766,2.536,13634288.904,24927115.897,2.536,0.002,0.000,0.004,0.558,0.970,0.597,0.000,19,19,4*4B
$GPGGA,084238.80,3135.2955863,N,12046.7145947,E,4,19,1.2,2.5378,M,8.320,M,00,0004*67
$GPHPD,1957,31376.600,237.05,0.18,13.40,31.5882598,120.7785766,2.538,13634288.883,24927115.883,2.538,0.007,0.015,-0.004,0.558,0.970,0.597,0.000,19,19,4*6C
$GPGGA,084239.00,3135.2955857,N,12046.7145961,E,4,19,1.2,2.5397,M,8.320,M,01,0004*6D
$GPHPD,1957,31376.800,236.75,0.08,13.42,31.5882598,120.7785766,2.540,13634288.894,24927115.903,2.540,0.009,0.015,0.003,0.558,0.970,0.597,0.000,19,19,4*4C
$GPGGA,084239.20,3135.2955842,N,12046.7145960,E,4,19,1.2,2.5399,M,8.320,M,01,0004*64
$GPHPD,1957,31377.000,237.04,0.12,13.44,31.5882597,120.7785766,2.540,13634288.915,24927115.911,2.540,-0.009,0.005,0.006,0.558,0.970,0.597,0.000,19,19,4*62
$GPGGA,084239.40,3135.2955849,N,12046.7145961,E,4,19,1.2,2.5395,M,8.320,M,01,0004*64
$GPHPD,1957,31377.200,237.01,0.21,13.46,31.5882597,120.7785766,2.540,13634288.905,24927115.908,2.540,-0.002,0.007,-0.005,0.558,0.970,0.597,0.000,19,19,4*49
$GPGGA,084239.60,3135.2955870,N,12046.7145950,E,4,19,1.2,2.5355,M,8.320,M,01,0004*62
$GPHPD,1957,31377.400,237.06,-0.03,13.48,31.5882598,120.7785766,2.536,13634288.873,24927115.882,2.536,0.001,0.005,-0.002,0.558,0.970,0.597,0.000,19,19,4*4C
$GPGGA,084239.80,3135.2955866,N,12046.7145965,E,4,19,1.2,2.5322,M,8.320,M,00,0004*6C
$GPHPD,1957,31377.600,236.87,0.14,13.49,31.5882598,120.7785766,2.532,13634288.882,24927115.903,2.532,0.013,-0.011,0.002,0.558,0.970,0.597,0.000,19,19,4*6C
$GPGGA,084240.00,3135.2955867,N,12046.7145964,E,4,19,1.2,2.5402,M,8.320,M,01,0004*6E
$GPHPD,1957,31377.800,236.99,0.32,13.51,31.5882598,120.7785766,2.540,13634288.880,24927115.901,2.540,0.002,-0.021,-0.003,0.558,0.970,0.597,0.000,19,19,4*4F
$GPGGA,084240.20,3135.2955884,N,12046.7145967,E,4,19,1.2,2.5346,M,8.320,M,01,0004*65
$GPHPD,1957,31378.000,236.87,0.12,13.53,31.5882598,120.7785766,2.535,13634288.857,24927115.895,2.535,0.000,0.002,-0.001,0.558,0.970,0.597,0.000,19,19,4*6D
