$GPGGA,085517.00,3135.4300686,N,12046.7693411,E,4,19,1.5,2.6038,M,8.322,M,01,0004*6F
$GPHPD,1957,32134.800,324.06,0.98,15.31,31.5905011,120.7794890,2.604,13632487.413,24926993.405,2.604,-0.002,0.008,-0.005,0.671,0.983,0.668,0.000,19,18,4*4D
$GPGGA,085517.20,3135.4300689,N,12046.7693435,E,4,19,1.5,2.6053,M,8.322,M,01,0004*69
$GPHPD,1957,32135.000,324.26,0.75,15.26,31.5905011,120.7794891,2.605,13632487.413,24926993.432,2.605,-0.006,0.002,-0.008,0.636,0.947,0.600,0.000,19,18,4*40
$GPGGA,085517.40,3135.4300678,N,12046.7693437,E,4,19,1.5,2.6060,M,8.322,M,01,0004*63
$GPHPD,1957,32135.200,324.07,0.78,15.21,31.5905011,120.7794891,2.606,13632487.429,24926993.441,2.606,-0.004,0.000,-0.009,0.636,0.947,0.600,0.000,19,18,4*47
$GPGGA,085517.60,3135.4300692,N,12046.7693440,E,4,19,1.5,2.6081,M,8.322,M,00,0004*6B
$GPHPD,1957,32135.400,324.21,0.69,15.18,31.5905012,120.7794891,2.608,13632487.410,24926993.436,2.608,-0.003,0.001,-0.003,0.636,0.947,0.600,0.000,19,18,4*4A
$GPGGA,085517.80,3135.4300730,N,12046.7693389,E,4,19,1.5,2.6063,M,8.322,M,00,0004*62
$GPHPD,1957,32135.600,323.97,1.24,15.18,31.5905012,120.7794890,2.606,13632487.346,24926993.353,2.606,0.002,0.008,0.014,0.636,0.947,0.600,0.000,19,18,4*45
$GPGGA,085518.00,3135.4300817,N,12046.7693318,E,4,19,1.5,2.6048,M,8.322,M,01,0004*6F
$GPHPD,1957,32135.800,324.24,0.74,15.25,31.5905014,120.7794889,2.605,13632487.208,24926993.217,2.605,0.031,-0.004,0.023,0.636,0.947,0.600,0.000,19,18,4*6F
$GPGGA,085518.20,3135.4300982,N,12046.7693162,E,4,19,1.5,2.6059,M,8.322,M,01,0004*6F
$GPHPD,1957,32136.000,324.36,0.83,15.28,31.5905016,120.7794886,2.606,13632486.942,24926992.932,2.606,0.073,0.007,0.080,0.612,0.945,0.587,0.000,19,18,4*4F
$GPGGA,085518.40,3135.4301234,N,12046.7692960,E,4,19,1.5,2.6016,M,8.322,M,01,0004*6E
$GPHPD,1957,32136.200,324.42,1.04,15.32,31.5905021,120.7794883,2.602,13632486.543,24926992.542,2.602,0.132,-0.009,0.140,0.657,1.253,0.590,0.000,19,18,4*6C
$GPGGA,085518.60,3135.4301567,N,12046.7692677,E,4,19,1.5,2.5993,M,8.322,M,01,0004*63
$GPHPD,1957,32136.400,324.40,0.55,15.40,31.5905026,120.7794878,2.599,13632486.013,24926992.007,2.599,0.202,-0.042,0.188,0.657,1.253,0.590,0.000,19,18,4*64
$GPGGA,085518.80,3135.4301986,N,12046.7692333,E,4,19,1.5,2.5998,M,8.322,M,00,0004*61
$GPHPD,1957,32136.600,324.51,0.37,15.47,31.5905033,120.7794872,2.600,13632485.348,24926991.348,2.600,0.266,-0.043,0.250,0.657,1.253,0.590,0.000,19,18,4*6B
$GPGGA,085519.00,3135.4302503,N,12046.7691890,E,4,19,1.5,2.5996,M,8.322,M,01,0004*64
$GPHPD,1957,32136.800,324.69,0.41,15.52,31.5905042,120.7794865,2.600,13632484.524,24926990.513,2.600,0.323,-0.022,0.343,0.679,1.254,0.602,0.000,19,18,4*68
$GPGGA,085519.20,3135.4303115,N,12046.7691420,E,4,19,1.5,2.6007,M,8.322,M,01,0004*61
$GPHPD,1957,32137.000,324.73,-0.25,15.56,31.5905052,120.7794857,2.601,13632483.559,24926989.590,2.601,0.418,-0.046,0.399,0.636,0.947,0.600,0.000,19,18,4*44
$GPGGA,085519.40,3135.4303798,N,12046.7690862,E,4,19,1.5,2.6029,M,8.322,M,01,0004*63
$GPHPD,1957,32137.200,324.98,-0.12,15.59,31.5905063,120.7794848,2.603,13632482.476,24926988.519,2.603,0.474,-0.073,0.473,0.679,1.254,0.602,0.000,19,18,4*47
$GPGGA,085519.60,3135.4304526,N,12046.7690242,E,4,18,1.5,2.6058,M,8.322,M,00,0004*6F
$GPHPD,1957,32137.400,324.92,0.08,15.60,31.5905075,120.7794837,2.606,13632481.316,24926987.348,2.606,0.544,-0.053,0.544,0.612,0.945,0.587,0.000,18,18,4*6A
$GPGGA,085519.80,3135.4305350,N,12046.7689588,E,4,19,1.5,2.5976,M,8.322,M,00,0004*69
$GPHPD,1957,32137.600,325.32,-0.11,15.60,31.5905089,120.7794826,2.598,13632480.013,24926986.079,2.598,0.572,-0.034,0.594,0.612,0.945,0.587,0.000,19,17,4*45
$GPGGA,085520.00,3135.4306248,N,12046.7688914,E,4,19,1.5,2.6022,M,8.322,M,01,0004*62
$GPHPD,1957,32137.800,325.27,0.31,15.58,31.5905104,120.7794815,2.602,13632478.601,24926984.744,2.602,0.658,-0.074,0.630,0.612,0.945,0.587,0.000,19,18,4*6B
$GPGGA,085520.20,3135.4307127,N,12046.7688209,E,4,19,1.5,2.6061,M,8.322,M,01,0004*6B
$GPHPD,1957,32138.000,325.32,-0.01,15.54,31.5905119,120.7794803,2.606,13632477.210,24926983.382,2.606,0.676,-0.079,0.687,0.612,0.945,0.587,0.000,19,18,4*4E
$GPGGA,085520.40,3135.4308075,N,12046.7687458,E,4,19,1.5,2.6073,M,8.322,M,01,0004*6A
$GPHPD,1957,32138.200,325.47,0.03,15.54,31.5905135,120.7794791,2.607,13632475.711,24926981.924,2.607,0.714,-0.107,0.701,0.612,0.945,0.587,0.000,19,18,4*6B
$GPGGA,085520.60,3135.4309046,N,12046.7686705,E,4,19,1.5,2.6144,M,8.322,M,01,0004*66
$GPHPD,1957,32138.400,325.45,-0.26,15.51,31.5905151,120.7794778,2.614,13632474.179,24926980.451,2.614,0.724,-0.088,0.746,0.612,0.945,0.587,0.000,19,18,4*44
$GPGGA,085520.80,3135.4310040,N,12046.7685956,E,4,19,1.5,2.6129,M,8.322,M,00,0004*67
$GPHPD,1957,32138.600,325.48,-0.68,15.47,31.5905167,120.7794766,2.613,13632472.615,24926978.969,2.613,0.747,-0.055,0.787,0.612,0.945,0.587,0.000,19,18,4*4E
$GPGGA,085521.00,3135.4311042,N,12046.7685105,E,4,19,1.5,2.6088,M,8.322,M,01,0004*68
$GPHPD,1957,32138.800,325.31,-0.15,15.43,31.5905184,120.7794752,2.609,13632471.020,24926977.359,2.609,0.770,-0.092,0.767,0.636,0.947,0.600,0.000,19,18,4*46
$GPGGA,085521.20,3135.4312077,N,12046.7684309,E,4,19,1.5,2.6106,M,8.322,M,01,0004*67
$GPHPD,1957,32139.000,325.54,-0.04,15.39,31.5905201,120.7794738,2.611,13632469.388,24926975.797,2.611,0.825,-0.128,0.783,0.636,0.947,0.600,0.000,19,17,4*45
$GPGGA,085521.40,3135.4313135,N,12046.7683482,E,4,19,1.5,2.6074,M,8.322,M,01,0004*60
$GPHPD,1957,32139.200,325.34,0.00,15.37,31.5905219,120.7794725,2.607,13632467.718,24926974.183,2.607,0.823,-0.104,0.800,0.612,0.945,0.587,0.000,19,17,4*66
$GPGGA,085521.60,3135.4314191,N,12046.7682655,E,4,19,1.5,2.6248,M,8.322,M,00,0004*6E
$GPHPD,1957,32139.400,325.40,-0.29,15.33,31.5905237,120.7794711,2.625,13632466.050,24926972.571,2.625,0.838,-0.133,0.803,0.644,0.987,0.685,0.000,19,17,4*4E
$GPGGA,085521.80,3135.4315298,N,12046.7681820,E,4,19,1.4,2.5988,M,8.322,M,00,0004*61
$GPHPD,1957,32139.600,325.13,-0.08,15.30,31.5905255,120.7794697,2.599,13632464.309,24926970.920,2.599,0.784,-0.032,0.877,0.632,0.975,0.797,0.000,19,17,4*43
$GPGGA,085522.00,3135.4316356,N,12046.7680949,E,4,19,1.4,2.5981,M,8.322,M,01,0004*6D
$GPHPD,1957,32139.800,324.98,0.39,15.24,31.5905273,120.7794682,2.598,13632462.629,24926969.254,2.598,0.888,-0.184,0.805,0.617,0.953,0.754,0.000,19,17,4*62
$GPGGA,085522.20,3135.4317399,N,12046.7680092,E,4,19,1.3,2.6148,M,8.322,M,01,0004*6B
$GPHPD,1957,32140.000,325.12,0.21,15.16,31.5905290,120.7794668,2.615,13632460.974,24926967.613,2.615,0.872,-0.153,0.817,0.645,0.987,0.892,0.000,19,17,4*6D
$GPGGA,085522.40,3135.4318424,N,12046.7679241,E,4,19,1.3,2.6275,M,8.322,M,01,0004*64
$GPHPD,1957,32140.200,325.09,0.20,15.05,31.5905307,120.7794654,2.628,13632459.346,24926965.990,2.628,0.832,-0.079,0.848,0.616,0.953,0.754,0.000,19,17,4*6C
$GPGGA,085522.60,3135.4319409,N,12046.7678462,E,4,19,1.3,2.6272,M,8.322,M,01,0004*69
$GPHPD,1957,32140.400,325.29,0.02,14.93,31.5905323,120.7794641,2.627,13632457.789,24926964.477,2.627,0.787,-0.030,0.834,0.616,0.949,0.612,0.000,19,17,4*67
$GPGGA,085522.80,3135.4320339,N,12046.7677698,E,4,19,1.3,2.6253,M,8.322,M,00,0004*63
$GPHPD,1957,32140.600,324.82,0.08,14.83,31.5905339,120.7794628,2.625,13632456.313,24926963.014,2.625,0.767,-0.077,0.782,0.616,0.949,0.611,0.000,19,17,4*66
$GPGGA,085523.00,3135.4321261,N,12046.7676976,E,4,19,1.5,2.6229,M,8.322,M,01,0004*63
$GPHPD,1957,32140.800,325.34,-0.29,14.73,31.5905354,120.7794616,2.623,13632454.857,24926961.607,2.623,0.758,-0.086,0.746,0.644,0.987,0.685,0.000,19,17,4*4E
$GPGGA,085523.20,3135.4322143,N,12046.7676286,E,4,19,1.5,2.6200,M,8.322,M,01,0004*6E
$GPHPD,1957,32141.000,325.30,-0.72,14.66,31.5905369,120.7794605,2.620,13632453.464,24926960.261,2.620,0.715,-0.109,0.722,0.632,0.974,0.639,0.000,19,17,4*4C
$GPGGA,085523.40,3135.4322970,N,12046.7675610,E,4,19,1.5,2.6230,M,8.322,M,01,0004*6B
$GPHPD,1957,32141.200,325.24,-0.77,14.59,31.5905383,120.7794594,2.623,13632452.153,24926958.964,2.623,0.685,-0.062,0.697,0.616,0.949,0.611,0.000,19,17,4*41
$GPGGA,085523.60,3135.4323793,N,12046.7674999,E,4,19,1.5,2.6120,M,8.322,M,00,0004*67
$GPHPD,1957,32141.400,325.11,-0.10,14.52,31.5905397,120.7794583,2.612,13632450.860,24926957.748,2.612,0.659,-0.063,0.669,0.612,0.945,0.587,0.000,19,18,4*46
$GPGGA,085523.80,3135.4324539,N,12046.7674362,E,4,19,1.5,2.6305,M,8.322,M,00,0004*67
$GPHPD,1957,32141.600,324.99,-0.18,14.46,31.5905409,120.7794573,2.631,13632449.671,24926956.546,2.631,0.651,-0.105,0.622,0.632,0.974,0.639,0.000,19,17,4*43
$GPGGA,085524.00,3135.4325273,N,12046.7673788,E,4,18,1.3,2.6280,M,8.322,M,01,0004*6D
$GPHPD,1957,32141.800,325.11,-0.56,14.39,31.5905421,120.7794563,2.628,13632448.512,24926955.426,2.628,0.598,-0.026,0.619,0.632,0.974,0.639,0.000,18,17,4*49
$GPGGA,085524.20,3135.4326016,N,12046.7673244,E,4,18,1.3,2.6277,M,8.322,M,01,0004*60
$GPHPD,1957,32142.000,325.08,-0.65,14.34,31.5905434,120.7794554,2.628,13632447.347,24926954.338,2.628,0.573,-0.061,0.575,0.632,0.974,0.639,0.000,18,17,4*48
$GPGGA,085524.40,3135.4326703,N,12046.7672629,E,4,18,1.3,2.6328,M,8.322,M,01,0004*60
$GPHPD,1957,32142.200,324.98,-0.33,14.31,31.5905445,120.7794544,2.633,13632446.246,24926953.196,2.633,0.554,-0.066,0.576,0.632,0.975,0.797,0.000,18,17,4*46
$GPGGA,085524.60,3135.4327377,N,12046.7672116,E,4,18,1.3,2.6302,M,8.322,M,01,0004*67
$GPHPD,1957,32142.400,325.13,-0.17,14.27,31.5905456,120.7794535,2.630,13632445.185,24926952.185,2.630,0.579,-0.055,0.543,0.632,0.974,0.639,0.000,18,17,4*46
$GPGGA,085524.80,3135.4328061,N,12046.7671572,E,4,18,1.3,2.6252,M,8.322,M,01,0004*63
$GPHPD,1957,32142.600,324.88,-0.11,14.24,31.5905468,120.7794526,2.625,13632444.103,24926951.131,2.625,0.540,-0.067,0.538,0.632,0.974,0.639,0.000,18,17,4*49
$GPGGA,085525.00,3135.4328710,N,12046.7671042,E,4,18,1.5,2.6321,M,8.322,M,02,0004*6D
$GPHPD,1957,32142.800,324.95,-0.48,14.21,31.5905479,120.7794517,2.632,13632443.074,24926950.114,2.632,0.543,-0.081,0.524,0.632,0.974,0.639,0.000,18,17,4*46
$GPGGA,085525.20,3135.4329354,N,12046.7670520,E,4,18,1.5,2.6246,M,8.322,M,02,0004*6A
$GPHPD,1957,32143.000,324.82,-0.31,14.19,31.5905489,120.7794509,2.625,13632442.053,24926949.110,2.625,0.527,-0.065,0.512,0.644,0.987,0.685,0.000,18,17,4*43
$GPGGA,085525.40,3135.4330026,N,12046.7669961,E,4,18,1.6,2.6268,M,8.322,M,02,0004*6C
$GPHPD,1957,32143.200,324.84,-0.75,14.25,31.5905500,120.7794499,2.627,13632440.985,24926948.044,2.627,0.510,-0.057,0.502,0.645,0.987,0.892,0.000,18,17,4*4C
$GPGGA,085525.60,3135.4330775,N,12046.7669388,E,4,18,1.5,2.6222,M,8.322,M,02,0004*6F
$GPHPD,1957,32143.400,324.99,-0.35,14.29,31.5905513,120.7794490,2.622,13632439.805,24926946.917,2.622,0.536,-0.027,0.538,0.632,0.975,0.797,0.000,18,17,4*4E
$GPGGA,085525.80,3135.4331510,N,12046.7668794,E,4,18,1.5,2.6172,M,8.322,M,00,0004*6D
$GPHPD,1957,32143.600,324.81,-0.03,14.32,31.5905525,120.7794480,2.617,13632438.641,24926945.773,2.617,0.597,-0.090,0.563,0.632,0.975,0.797,0.000,18,17,4*47
$GPGGA,085526.00,3135.4332272,N,12046.7668165,E,4,17,1.6,2.6220,M,8.322,M,01,0004*67
$GPHPD,1957,32143.800,324.98,-0.13,14.32,31.5905538,120.7794469,2.622,13632437.431,24926944.571,2.622,0.620,-0.122,0.556,0.632,0.974,0.639,0.000,17,17,4*4A
$GPGGA,085526.20,3135.4333023,N,12046.7667564,E,4,18,1.6,2.6154,M,8.322,M,01,0004*67
$GPHPD,1957,32144.000,324.90,0.06,14.30,31.5905550,120.7794459,2.615,13632436.243,24926943.409,2.615,0.606,-0.038,0.591,0.632,0.975,0.797,0.000,18,18,4*61
$GPGGA,085526.40,3135.4333749,N,12046.7666984,E,4,18,1.6,2.6281,M,8.322,M,01,0004*62
$GPHPD,1957,32144.200,324.87,-0.18,14.27,31.5905562,120.7794450,2.628,13632435.094,24926942.287,2.628,0.613,-0.094,0.586,0.632,0.975,0.797,0.000,18,18,4*47
$GPGGA,085526.60,3135.4334453,N,12046.7666387,E,4,18,1.6,2.6347,M,8.322,M,01,0004*6D
$GPHPD,1957,32144.400,324.96,-0.14,14.23,31.5905574,120.7794440,2.635,13632433.973,24926941.157,2.635,0.567,-0.064,0.595,0.632,0.974,0.797,0.000,18,18,4*48
$GPGGA,085526.80,3135.4335203,N,12046.7665839,E,4,18,1.6,2.6252,M,8.322,M,00,0004*68
$GPHPD,1957,32144.600,325.06,-0.40,14.18,31.5905587,120.7794431,2.625,13632432.797,24926940.059,2.625,0.565,-0.038,0.577,0.632,0.974,0.797,0.000,18,18,4*4D
$GPGGA,085527.00,3135.4335875,N,12046.7665252,E,4,18,1.6,2.6259,M,8.322,M,01,0004*67
$GPHPD,1957,32144.800,325.01,0.05,14.16,31.5905598,120.7794421,2.626,13632431.723,24926938.960,2.626,0.580,-0.089,0.558,0.632,0.974,0.639,0.000,18,18,4*60
$GPGGA,085527.20,3135.433670,N,12046.7664680,E,4,18,1.4,2.6354,M,8.322,M,01,0004*6A
$GPHPD,1957,32145.000,325.01,-0.11,14.16,31.5905610,120.7794411,2.635,13632430.620,24926937.866,2.635,0.569,-0.087,0.538,0.632,0.974,0.639,0.000,18,18,4*45
$GPGGA,085527.40,3135.4337244,N,12046.7664138,E,4,19,1.4,2.6382,M,8.322,M,01,0004*63
$GPHPD,1957,32145.200,324.94,-0.07,14.16,31.5905621,120.7794402,2.638,13632429.553,24926936.820,2.638,0.551,-0.072,0.557,0.671,0.983,0.668,0.000,19,18,4*43
$GPGGA,085527.60,3135.4337988,N,12046.7663566,E,4,19,1.3,2.6359,M,8.322,M,00,0004*62
$GPHPD,1957,32145.400,324.88,0.11,14.18,31.5905633,120.7794393,2.636,13632428.380,24926935.697,2.636,0.549,-0.062,0.544,0.632,0.974,0.639,0.000,19,18,4*69
$GPGGA,085527.80,3135.4338724,N,12046.7662957,E,4,19,1.3,2.6423,M,8.322,M,00,0004*6E
$GPHPD,1957,32145.600,324.72,-0.19,14.22,31.5905645,120.7794383,2.642,13632427.211,24926934.534,2.642,0.570,-0.110,0.562,0.632,0.973,0.639,0.000,19,18,4*42
$GPGGA,085528.00,3135.4339496,N,12046.7662339,E,4,19,1.3,2.6400,M,8.322,M,01,0004*60
$GPHPD,1957,32145.800,324.68,0.36,14.27,31.5905658,120.7794372,2.640,13632425.990,24926933.339,2.640,0.599,-0.044,0.588,0.632,0.973,0.639,0.000,19,18,4*6F
$GPGGA,085528.20,3135.4340314,N,12046.7661687,E,4,19,1.3,2.6371,M,8.322,M,01,0004*63
$GPHPD,1957,32146.000,324.62,0.60,14.35,31.5905672,120.7794361,2.637,13632424.696,24926932.077,2.637,0.615,-0.078,0.610,0.632,0.973,0.639,0.000,19,18,4*6E
$GPGGA,085528.40,3135.4341186,N,12046.7660990,E,4,19,1.3,2.6428,M,8.322,M,01,0004*6E
$GPHPD,1957,32146.200,324.81,0.53,14.39,31.5905686,120.7794350,2.643,13632423.316,24926930.728,2.643,0.657,-0.078,0.626,0.632,0.973,0.639,0.000,19,18,4*62
$GPGGA,085528.60,3135.4342086,N,12046.7660246,E,4,19,1.3,2.6421,M,8.322,M,01,0004*67
$GPHPD,1957,32146.400,324.57,0.63,14.42,31.5905701,120.7794337,2.642,13632421.887,24926929.307,2.642,0.668,-0.058,0.685,0.632,0.973,0.639,0.000,19,17,4*67
$GPGGA,085528.80,3135.4343057,N,12046.7659478,E,4,19,1.3,2.6382,M,8.322,M,00,0004*6A
$GPHPD,1957,32146.600,324.67,0.68,14.45,31.5905718,120.7794325,2.638,13632420.352,24926927.816,2.638,0.739,-0.087,0.717,0.632,0.973,0.639,0.000,19,18,4*64
$GPGGA,085529.00,3135.4344022,N,12046.7658731,E,4,19,1.3,2.6398,M,8.322,M,01,0004*63
$GPHPD,1957,32146.800,324.63,0.96,14.48,31.5905734,120.7794312,2.640,13632418.830,24926926.353,2.640,0.759,-0.097,0.742,0.632,0.973,0.639,0.000,19,18,4*60
$GPGGA,085529.20,3135.4345022,N,12046.7657896,E,4,19,1.3,2.6412,M,8.322,M,01,0004*68
$GPHPD,1957,32147.000,324.69,0.58,14.48,31.5905750,120.7794298,2.641,13632417.240,24926924.764,2.641,0.742,-0.039,0.788,0.632,0.973,0.639,0.000,19,18,4*68
$GPGGA,085529.40,3135.4346052,N,12046.7657064,E,4,19,1.3,2.6480,M,8.322,M,01,0004*64
$GPHPD,1957,32147.200,324.85,0.74,14.47,31.5905768,120.7794284,2.648,13632415.608,24926923.161,2.648,0.803,-0.074,0.799,0.632,0.973,0.639,0.000,19,18,4*62
$GPGGA,085529.60,3135.4347080,N,12046.7656221,E,4,19,1.2,2.6555,M,8.322,M,00,0004*63
$GPHPD,1957,32147.400,325.05,0.47,14.45,31.5905785,120.7794270,2.656,13632413.977,24926921.546,2.656,0.830,-0.087,0.815,0.632,0.973,0.639,0.000,19,18,4*62
$GPGGA,085529.80,3135.4348133,N,12046.7655389,E,4,19,1.2,2.6604,M,8.322,M,00,0004*6C
$GPHPD,1957,32147.600,325.04,0.07,14.43,31.5905802,120.7794256,2.660,13632412.313,24926919.929,2.660,0.846,-0.096,0.810,0.632,0.973,0.639,0.000,19,18,4*64
$GPGGA,085530.00,3135.4349198,N,12046.7654515,E,4,19,1.2,2.6724,M,8.322,M,01,0004*6C
$GPHPD,1957,32147.800,324.95,0.29,14.43,31.5905820,120.7794242,2.672,13632410.623,24926918.255,2.672,0.813,-0.070,0.839,0.632,0.973,0.639,0.000,19,18,4*6C
$GPGGA,085530.20,3135.4350299,N,12046.7653639,E,4,19,1.2,2.6739,M,8.322,M,01,0004*62
$GPHPD,1957,32148.000,325.23,-0.13,14.40,31.5905838,120.7794227,2.674,13632408.882,24926916.558,2.674,0.805,-0.023,0.869,0.632,0.973,0.639,0.000,19,18,4*46
$GPGGA,085530.40,3135.4351411,N,12046.7652773,E,4,19,1.2,2.6631,M,8.322,M,01,0004*64
$GPHPD,1957,32148.200,325.22,-0.10,14.38,31.5905857,120.7794213,2.663,13632407.127,24926914.866,2.663,0.834,-0.051,0.882,0.632,0.973,0.639,0.000,19,18,4*4E
$GPGGA,085530.60,3135.4352527,N,12046.7651906,E,4,19,1.2,2.6682,M,8.322,M,01,0004*66
$GPHPD,1957,32148.400,325.36,0.58,14.36,31.5905875,120.7794198,2.668,13632405.366,24926913.171,2.668,0.874,-0.150,0.851,0.632,0.973,0.639,0.000,19,18,4*65
$GPGGA,085530.80,3135.4353637,N,12046.7651012,E,4,19,1.2,2.6706,M,8.322,M,01,0004*6A
$GPHPD,1957,32148.600,325.11,-0.05,14.34,31.5905894,120.7794184,2.671,13632403.608,24926911.447,2.671,0.854,-0.111,0.899,0.632,0.973,0.639,0.000,19,18,4*4D
$GPGGA,085531.00,3135.4354746,N,12046.7650082,E,4,19,1.2,2.6832,M,8.322,M,01,0004*63
$GPHPD,1957,32148.800,325.19,0.44,14.30,31.5905912,120.7794168,2.683,13632401.844,24926909.680,2.683,0.881,-0.118,0.884,0.671,0.982,0.668,0.000,19,18,4*6E
$GPGGA,085531.20,3135.4355855,N,12046.7649183,E,4,19,1.3,2.6716,M,8.322,M,01,0004*6D
$GPHPD,1957,32149.000,325.60,0.43,14.25,31.5905931,120.7794153,2.672,13632400.087,24926907.950,2.672,0.929,-0.087,0.866,0.671,0.982,0.668,0.000,19,18,4*61
$GPGGA,085531.40,3135.4356935,N,12046.7648319,E,4,19,1.2,2.6763,M,8.322,M,01,0004*6C
$GPHPD,1957,32149.200,325.66,1.35,14.20,31.5905949,120.7794139,2.676,13632398.378,24926906.279,2.676,0.899,-0.161,0.848,0.632,0.973,0.639,0.000,19,18,4*65
$GPGGA,085531.60,3135.4358001,N,12046.7647461,E,4,19,1.3,2.6878,M,8.322,M,00,0004*6C
$GPHPD,1957,32149.400,324.90,0.06,14.18,31.5905967,120.7794124,2.688,13632396.690,24926904.624,2.688,0.853,-0.071,0.872,0.632,0.973,0.639,0.000,19,17,4*62
$GPGGA,085531.80,3135.4359093,N,12046.7646608,E,4,19,1.3,2.6857,M,8.322,M,00,0004*69
$GPHPD,1957,32149.600,324.89,-0.08,14.16,31.5905985,120.7794110,2.686,13632394.966,24926902.959,2.686,0.846,-0.058,0.872,0.671,0.982,0.668,0.000,19,17,4*4B
$GPGGA,085532.00,3135.4360190,N,12046.7645610,E,4,18,1.3,2.6615,M,8.322,M,01,0004*68
$GPHPD,1957,32149.800,324.68,0.00,14.14,31.5906003,120.7794094,2.662,13632393.206,24926901.117,2.662,0.833,-0.080,0.863,0.671,0.982,0.668,0.000,18,16,4*68
$GPGGA,085532.20,3135.4361298,N,12046.7644748,E,4,18,1.3,2.6605,M,8.322,M,01,0004*6C
$GPHPD,1957,32150.000,324.68,-0.01,14.15,31.5906022,120.7794079,2.661,13632391.457,24926899.433,2.661,0.893,-0.094,0.858,0.746,0.982,0.671,0.000,18,16,4*4C
$GPGGA,085532.40,3135.4362366,N,12046.7643868,E,4,18,1.3,2.6603,M,8.322,M,01,0004*65
$GPHPD,1957,32150.200,324.64,0.09,14.15,31.5906039,120.7794064,2.660,13632389.762,24926897.750,2.660,0.876,-0.103,0.858,0.746,0.982,0.671,0.000,18,17,4*60
$GPGGA,085532.60,3135.4363450,N,12046.7642977,E,4,18,1.3,2.6600,M,8.322,M,01,0004*69
$GPHPD,1957,32150.400,324.68,0.39,14.17,31.5906058,120.7794050,2.660,13632388.042,24926896.044,2.660,0.874,-0.101,0.839,0.746,0.982,0.671,0.000,18,17,4*6B
$GPGGA,085532.80,3135.4364557,N,12046.7642080,E,4,18,1.3,2.6636,M,8.322,M,00,0004*63
$GPHPD,1957,32150.600,324.83,-0.19,14.19,31.5906076,120.7794035,2.664,13632386.287,24926894.318,2.664,0.865,-0.089,0.859,0.691,0.974,0.639,0.000,18,17,4*46
$GPGGA,085533.00,3135.4365669,N,12046.7641171,E,4,18,1.3,2.6718,M,8.322,M,01,0004*65
$GPHPD,1957,32150.800,324.78,0.26,14.18,31.5906094,120.7794020,2.672,13632384.524,24926892.574,2.672,0.882,-0.087,0.854,0.691,0.974,0.639,0.000,18,17,4*68
$GPGGA,085533.20,3135.4366814,N,12046.7640239,E,4,18,1.3,2.6689,M,8.322,M,01,0004*67
$GPHPD,1957,32151.000,324.87,-0.05,14.18,31.5906114,120.7794004,2.669,13632382.708,24926890.784,2.669,0.863,-0.054,0.909,0.691,0.974,0.639,0.000,18,17,4*4F
$GPGGA,085533.40,3135.4367935,N,12046.7639346,E,4,18,1.3,2.6780,M,8.322,M,01,0004*6D
$GPHPD,1957,32151.200,324.68,0.12,14.19,31.5906132,120.7793989,2.678,13632380.935,24926889.054,2.678,0.904,-0.096,0.891,0.691,0.974,0.639,0.000,18,17,4*67
$GPGGA,085533.60,3135.4369091,N,12046.7638423,E,4,18,1.5,2.6796,M,8.322,M,00,0004*63
$GPHPD,1957,32151.400,324.84,0.21,14.19,31.5906152,120.7793974,2.680,13632379.106,24926887.268,2.680,0.871,-0.059,0.905,0.691,0.974,0.639,0.000,18,17,4*66
$GPGGA,085533.80,3135.4370248,N,12046.7637510,E,4,18,1.3,2.6743,M,8.322,M,00,0004*63
$GPHPD,1957,32151.600,325.26,0.18,14.19,31.5906171,120.7793959,2.674,13632377.278,24926885.493,2.674,0.892,-0.066,0.939,0.691,0.974,0.639,0.000,18,17,4*63
$GPGGA,085534.00,3135.4371400,N,12046.7636599,E,4,18,1.3,2.6803,M,8.322,M,01,0004*6D
$GPHPD,1957,32151.800,325.23,-0.09,14.19,31.5906190,120.7793943,2.680,13632375.457,24926883.724,2.680,0.921,-0.101,0.901,0.691,0.974,0.639,0.000,18,16,4*42
$GPGGA,085534.20,3135.4372543,N,12046.7635645,E,4,18,1.3,2.6757,M,8.322,M,01,0004*65
$GPHPD,1957,32152.000,325.13,0.27,14.19,31.5906209,120.7793927,2.676,13632373.640,24926881.908,2.676,0.863,-0.052,0.945,0.691,0.974,0.639,0.000,18,16,4*6A
$GPGGA,085534.40,3135.4373706,N,12046.7634721,E,4,19,1.3,2.6904,M,8.322,M,01,0004*6A
$GPHPD,1957,32152.200,325.04,-0.03,14.18,31.5906228,120.7793912,2.690,13632371.801,24926880.117,2.690,0.914,-0.095,0.908,0.691,0.974,0.639,0.000,19,16,4*4D
$GPGGA,085534.60,3135.4374868,N,12046.7633796,E,4,19,1.3,2.6910,M,8.322,M,01,0004*66
$GPHPD,1957,32152.400,325.20,-0.17,14.16,31.5906248,120.7793897,2.691,13632369.963,24926878.325,2.691,0.898,-0.029,0.941,0.632,0.973,0.639,0.000,19,17,4*44
$GPGGA,085534.80,3135.4376032,N,12046.7632854,E,4,19,1.3,2.6853,M,8.322,M,00,0004*6A
$GPHPD,1957,32152.600,324.96,-0.25,14.14,31.5906267,120.7793881,2.685,13632368.119,24926876.511,2.685,0.891,-0.067,0.929,0.632,0.973,0.639,0.000,19,17,4*45
$GPGGA,085535.00,3135.4377209,N,12046.7631936,E,4,19,1.2,2.6930,M,8.322,M,01,0004*6A
$GPHPD,1957,32152.800,325.19,0.71,14.13,31.5906287,120.7793866,2.693,13632366.261,24926874.719,2.693,0.919,-0.124,0.902,0.632,0.973,0.639,0.000,19,17,4*65
$GPGGA,085535.20,3135.4378355,N,12046.7631012,E,4,18,1.2,2.7039,M,8.322,M,01,0004*60
$GPHPD,1957,32153.000,324.87,0.22,14.13,31.5906306,120.7793850,2.704,13632364.446,24926872.937,2.704,0.921,-0.101,0.929,0.632,0.973,0.639,0.000,18,17,4*60
$GPGGA,085535.40,3135.4379525,N,12046.7630053,E,4,18,1.3,2.7021,M,8.322,M,01,0004*6A
$GPHPD,1957,32153.200,324.88,-0.19,14.12,31.5906325,120.7793834,2.702,13632362.589,24926871.100,2.702,0.905,-0.061,0.944,0.632,0.973,0.639,0.000,18,17,4*4B
$GPGGA,085535.60,3135.4380734,N,12046.7629106,E,4,18,1.3,2.6864,M,8.322,M,00,0004*6C
$GPHPD,1957,32153.400,325.46,-0.14,14.13,31.5906346,120.7793818,2.686,13632360.680,24926869.254,2.686,0.941,-0.111,0.919,0.671,0.982,0.668,0.000,18,17,4*49
$GPGGA,085535.80,3135.4381917,N,12046.7628161,E,4,18,1.3,2.6860,M,8.322,M,00,0004*68
$GPHPD,1957,32153.600,325.14,-0.01,14.13,31.5906365,120.7793803,2.686,13632358.808,24926867.425,2.686,0.966,-0.164,0.914,0.671,0.982,0.668,0.000,18,17,4*42
$GPGGA,085536.00,3135.4383122,N,12046.7627232,E,4,18,1.3,2.6958,M,8.322,M,01,0004*6E
$GPHPD,1957,32153.800,325.46,-0.17,14.11,31.5906385,120.7793787,2.696,13632356.909,24926865.604,2.696,0.971,-0.191,0.911,0.746,0.982,0.671,0.000,18,17,4*4A
$GPGGA,085536.20,3135.4384276,N,12046.7626230,E,4,17,1.3,2.6983,M,8.322,M,01,0004*63
$GPHPD,1957,32154.000,325.71,-0.06,14.07,31.5906405,120.7793771,2.698,13632355.066,24926863.723,2.698,0.884,-0.130,0.948,0.696,0.984,0.669,0.000,17,17,4*41
$GPGGA,085536.40,3135.4385479,N,12046.7625303,E,4,17,1.3,2.7039,M,8.322,M,01,0004*66
$GPHPD,1957,32154.200,325.33,-0.14,14.06,31.5906425,120.7793755,2.704,13632353.170,24926861.905,2.704,0.956,-0.099,0.925,0.696,0.984,0.669,0.000,17,16,4*4D
$GPGGA,085536.60,3135.4386675,N,12046.7624355,E,4,17,1.3,2.6945,M,8.322,M,01,0004*68
$GPHPD,1957,32154.400,324.97,-0.05,14.05,31.5906445,120.7793739,2.695,13632351.279,24926860.066,2.695,0.891,-0.056,0.975,0.696,0.984,0.669,0.000,17,16,4*42
$GPGGA,085536.80,3135.4387862,N,12046.7623394,E,4,17,1.3,2.6971,M,8.322,M,00,0004*63
$GPHPD,1957,32154.600,325.07,0.13,14.03,31.5906464,120.7793723,2.697,13632349.398,24926858.216,2.697,0.946,-0.123,0.926,0.696,0.984,0.669,0.000,17,16,4*6B
$GPGGA,085537.00,3135.4389069,N,12046.7622431,E,4,17,1.3,2.6963,M,8.322,M,01,0004*6C
$GPHPD,1957,32154.800,325.16,0.32,14.02,31.5906484,120.7793707,2.696,13632347.488,24926856.352,2.696,0.938,-0.092,0.947,0.696,0.984,0.669,0.000,17,16,4*6D
$GPGGA,085537.20,3135.4390269,N,12046.7621478,E,4,17,1.3,2.6919,M,8.322,M,01,0004*67
$GPHPD,1957,32155.000,324.81,-0.01,14.02,31.5906504,120.7793691,2.692,13632345.591,24926854.504,2.692,0.939,-0.127,0.965,0.696,0.984,0.669,0.000,17,16,4*43
$GPGGA,085537.40,3135.4391460,N,12046.7620554,E,4,17,1.3,2.6926,M,8.322,M,01,0004*6D
$GPHPD,1957,32155.200,324.76,0.22,14.03,31.5906524,120.7793676,2.693,13632343.712,24926852.696,2.693,0.966,-0.135,0.924,0.696,0.984,0.669,0.000,17,16,4*62
$GPGGA,085537.60,3135.4392641,N,12046.7619572,E,4,17,1.3,2.7041,M,8.322,M,01,0004*6A
$GPHPD,1957,32155.400,324.60,-0.05,14.02,31.5906544,120.7793660,2.704,13632341.835,24926850.824,2.704,0.940,-0.154,0.933,0.696,0.984,0.669,0.000,17,16,4*43
$GPGGA,085537.80,3135.4393840,N,12046.7618637,E,4,17,1.3,2.7059,M,8.322,M,00,0004*61
$GPHPD,1957,32155.600,324.63,0.17,14.01,31.5906564,120.7793644,2.706,13632339.943,24926848.999,2.706,0.965,-0.123,0.919,0.644,0.977,0.639,0.000,17,16,4*63
$GPGGA,085538.00,3135.4395034,N,12046.7617635,E,4,17,1.4,2.6997,M,8.322,M,01,0004*6A
$GPHPD,1957,32155.800,324.68,0.20,14.02,31.5906584,120.7793627,2.700,13632338.044,24926847.095,2.700,0.914,-0.117,0.947,0.644,0.977,0.639,0.000,17,16,4*65
$GPGGA,085538.20,3135.4396219,N,12046.7616699,E,4,16,1.3,2.7046,M,8.322,M,01,0004*63
$GPHPD,1957,32156.000,324.76,0.16,14.02,31.5906604,120.7793612,2.705,13632336.171,24926845.276,2.705,0.986,-0.111,0.929,0.644,0.977,0.639,0.000,16,16,4*69
$GPGGA,085538.40,3135.4397416,N,12046.7615749,E,4,18,1.3,2.7097,M,8.322,M,01,0004*60
$GPHPD,1957,32156.200,324.78,0.31,14.01,31.5906624,120.7793596,2.710,13632334.278,24926843.434,2.710,0.933,-0.098,0.940,0.644,0.977,0.639,0.000,18,16,4*6F
$GPGGA,085538.60,3135.4398625,N,12046.7614806,E,4,18,1.3,2.7111,M,8.322,M,01,0004*65
$GPHPD,1957,32156.400,324.88,0.49,14.01,31.5906644,120.7793580,2.711,13632332.370,24926841.593,2.711,0.942,-0.101,0.947,0.632,0.973,0.639,0.000,18,17,4*6D
$GPGGA,085538.80,3135.4399806,N,12046.7613833,E,4,18,1.3,2.7163,M,8.322,M,00,0004*60
$GPHPD,1957,32156.600,324.98,0.39,14.01,31.5906663,120.7793564,2.716,13632330.495,24926839.732,2.716,0.951,-0.100,0.951,0.632,0.973,0.639,0.000,18,17,4*6A
$GPGGA,085539.00,3135.4401010,N,12046.7612907,E,4,18,1.3,2.7136,M,8.322,M,01,0004*66
$GPHPD,1957,32156.800,325.13,0.58,14.01,31.5906684,120.7793548,2.714,13632328.597,24926837.914,2.714,0.945,-0.083,0.945,0.632,0.973,0.639,0.000,18,17,4*62
$GPGGA,085539.20,3135.4402183,N,12046.7611930,E,4,18,1.3,2.7074,M,8.322,M,01,0004*6C
$GPHPD,1957,32157.000,324.96,0.19,13.99,31.5906703,120.7793532,2.707,13632326.733,24926836.053,2.707,0.925,-0.115,0.944,0.632,0.973,0.639,0.000,18,17,4*67
$GPGGA,085539.40,3135.4403359,N,12046.7610962,E,4,18,1.3,2.7147,M,8.322,M,01,0004*69
$GPHPD,1957,32157.200,325.12,-0.08,13.99,31.5906723,120.7793516,2.715,13632324.867,24926834.201,2.715,0.954,-0.152,0.902,0.632,0.973,0.639,0.000,18,17,4*4D
$GPGGA,085539.60,3135.4404542,N,12046.7610056,E,4,18,1.2,2.7140,M,8.322,M,00,0004*69
$GPHPD,1957,32157.400,325.16,0.09,14.01,31.5906742,120.7793501,2.714,13632323.003,24926832.420,2.714,0.934,-0.077,0.942,0.632,0.973,0.639,0.000,18,17,4*6E
$GPGGA,085539.80,3135.4405704,N,12046.7609105,E,4,17,1.2,2.7149,M,8.322,M,00,0004*6F
$GPHPD,1957,32157.600,324.95,0.10,14.02,31.5906762,120.7793485,2.715,13632321.160,24926830.596,2.715,0.926,-0.117,0.937,0.632,0.973,0.639,0.000,17,17,4*63
$GPGGA,085540.00,3135.4406890,N,12046.7608185,E,4,17,1.3,2.7242,M,8.322,M,01,0004*69
$GPHPD,1957,32157.800,325.22,0.00,14.01,31.5906782,120.7793470,2.724,13632319.288,24926828.797,2.724,0.897,-0.115,0.935,0.632,0.973,0.639,0.000,17,17,4*69
$GPGGA,085540.20,3135.4408094,N,12046.7607214,E,4,17,1.3,2.7129,M,8.322,M,01,0004*63
$GPHPD,1957,32158.000,325.18,-0.27,14.01,31.5906802,120.7793454,2.713,13632317.382,24926826.925,2.713,0.908,-0.089,0.949,0.632,0.973,0.639,0.000,17,17,4*4A
$GPGGA,085540.40,3135.4409269,N,12046.7606290,E,4,17,1.3,2.7226,M,8.322,M,01,0004*65
$GPHPD,1957,32158.200,325.35,-0.03,14.01,31.5906821,120.7793438,2.723,13632315.525,24926825.126,2.723,0.981,-0.134,0.913,0.644,0.977,0.639,0.000,17,17,4*47
$GPGGA,085540.60,3135.4410443,N,12046.7605337,E,4,17,1.3,2.7257,M,8.322,M,01,0004*68
$GPHPD,1957,32158.400,324.84,-0.01,14.01,31.5906841,120.7793422,2.726,13632313.665,24926823.294,2.726,0.918,-0.121,0.948,0.644,0.977,0.639,0.000,17,17,4*42
$GPGGA,085540.80,3135.4411655,N,12046.7604411,E,4,17,1.3,2.7263,M,8.322,M,00,0004*66
$GPHPD,1957,32158.600,325.00,-0.19,14.00,31.5906861,120.7793407,2.726,13632311.755,24926821.471,2.726,0.910,-0.091,0.950,0.644,0.977,0.639,0.000,17,17,4*44
$GPGGA,085541.00,3135.4412848,N,12046.7603465,E,4,17,1.3,2.7264,M,8.322,M,01,0004*6C
$GPHPD,1957,32158.800,325.37,-0.05,13.99,31.5906881,120.7793391,2.726,13632309.869,24926819.636,2.726,0.913,-0.092,0.937,0.644,0.977,0.639,0.000,17,16,4*41
$GPGGA,085541.20,3135.4414034,N,12046.7602481,E,4,18,1.3,2.7270,M,8.322,M,01,0004*6A
$GPHPD,1957,32159.000,325.26,0.02,13.98,31.5906901,120.7793375,2.727,13632307.985,24926817.759,2.727,0.911,-0.086,0.943,0.644,0.976,0.639,0.000,18,16,4*61
$GPGGA,085541.40,3135.4415226,N,12046.7601547,E,4,18,1.3,2.7250,M,8.322,M,01,0004*66
$GPHPD,1957,32159.200,325.34,-0.41,13.98,31.5906920,120.7793359,2.725,13632306.103,24926815.938,2.725,0.938,-0.094,0.946,0.644,0.976,0.639,0.000,18,17,4*47
$GPGGA,085541.60,3135.4416435,N,12046.7600617,E,4,18,1.3,2.7193,M,8.321,M,00,0004*6A
$GPHPD,1957,32159.400,325.07,-0.31,13.96,31.5906941,120.7793344,2.719,13632304.197,24926814.113,2.719,0.964,-0.109,0.919,0.644,0.976,0.639,0.000,18,17,4*4A
$GPGGA,085541.80,3135.4417628,N,12046.7599663,E,4,18,1.3,2.7310,M,8.321,M,00,0004*62
$GPHPD,1957,32159.600,324.91,0.20,13.96,31.5906960,120.7793328,2.731,13632302.309,24926812.268,2.731,0.944,-0.128,0.938,0.644,0.976,0.639,0.000,18,17,4*6A
$GPGGA,085542.00,3135.4418813,N,12046.7598766,E,4,18,1.3,2.7315,M,8.321,M,01,0004*61
$GPHPD,1957,32159.800,325.11,0.16,13.97,31.5906980,120.7793313,2.732,13632300.444,24926810.496,2.732,0.929,-0.098,0.954,0.696,0.983,0.669,0.000,18,17,4*6D
$GPGGA,085542.20,3135.4420001,N,12046.7597837,E,4,18,1.3,2.7331,M,8.321,M,01,0004*61
$GPHPD,1957,32160.000,324.79,0.16,13.96,31.5907000,120.7793297,2.733,13632298.568,24926808.684,2.733,0.886,-0.103,0.966,0.699,0.984,0.855,0.000,18,17,4*64
$GPGGA,085542.40,3135.4421191,N,12046.7596866,E,4,18,1.3,2.7358,M,8.321,M,01,0004*64
$GPHPD,1957,32160.200,324.38,0.17,13.96,31.5907020,120.7793281,2.736,13632296.681,24926806.821,2.736,0.877,-0.098,0.964,0.644,0.976,0.639,0.000,18,17,4*64
$GPGGA,085542.60,3135.4422371,N,12046.7595930,E,4,18,1.3,2.7300,M,8.321,M,01,0004*65
$GPHPD,1957,32160.400,324.81,0.70,13.96,31.5907040,120.7793266,2.730,13632294.816,24926805.005,2.730,0.919,-0.048,0.958,0.644,0.976,0.639,0.000,18,17,4*6A
$GPGGA,085542.80,3135.4423547,N,12046.7594952,E,4,18,1.3,2.7419,M,8.321,M,00,0004*62
$GPHPD,1957,32160.600,324.79,0.81,13.96,31.5907059,120.7793249,2.742,13632292.947,24926803.141,2.742,0.951,-0.147,0.916,0.713,0.978,0.639,0.000,18,17,4*65
$GPGGA,085543.00,3135.4424736,N,12046.7594008,E,4,18,1.3,2.7466,M,8.321,M,01,0004*67
$GPHPD,1957,32160.800,324.92,0.20,13.94,31.5907079,120.7793233,2.747,13632291.067,24926801.310,2.747,0.928,-0.081,0.945,0.713,0.978,0.639,0.000,18,16,4*66
$GPGGA,085543.20,3135.4425929,N,12046.7593057,E,4,18,1.3,2.7564,M,8.321,M,01,0004*6A
$GPHPD,1957,32161.000,324.77,0.11,13.95,31.5907099,120.7793218,2.756,13632289.180,24926799.469,2.756,0.958,-0.103,0.937,0.644,0.976,0.639,0.000,18,17,4*63
$GPGGA,085543.40,3135.4427107,N,12046.7592081,E,4,18,1.3,2.7625,M,8.321,M,01,0004*66
$GPHPD,1957,32161.200,324.59,0.15,13.94,31.5907118,120.7793201,2.763,13632287.309,24926797.606,2.763,0.905,-0.039,0.969,0.644,0.976,0.639,0.000,18,17,4*6B
$GPGGA,085543.60,3135.4428310,N,12046.7591130,E,4,18,1.3,2.7597,M,8.321,M,00,0004*6C
$GPHPD,1957,32161.400,324.71,0.00,13.92,31.5907139,120.7793186,2.760,13632285.407,24926795.759,2.760,0.926,-0.056,0.953,0.660,0.987,0.685,0.000,18,17,4*66
$GPGGA,085543.80,3135.4429499,N,12046.7590170,E,4,18,1.3,2.7623,M,8.321,M,00,0004*6C
$GPHPD,1957,32161.600,324.75,-0.54,13.91,31.5907158,120.7793170,2.762,13632283.524,24926793.909,2.762,0.948,-0.095,0.952,0.660,0.987,0.685,0.000,18,16,4*4D
$GPGGA,085544.00,3135.4430717,N,12046.7589246,E,4,18,1.3,2.7589,M,8.321,M,01,0004*62
$GPHPD,1957,32161.800,325.05,-0.63,13.88,31.5907179,120.7793154,2.759,13632281.606,24926792.085,2.759,0.903,-0.056,0.966,0.660,0.987,0.685,0.000,18,16,4*46
$GPGGA,085544.20,3135.4431918,N,12046.7588302,E,4,18,1.5,2.7549,M,8.321,M,01,0004*6A
$GPHPD,1957,32162.000,325.21,-0.23,13.89,31.5907199,120.7793138,2.755,13632279.709,24926790.248,2.755,0.903,-0.106,0.953,0.734,0.988,0.686,0.000,18,16,4*4C
$GPGGA,085544.40,3135.4433101,N,12046.7587352,E,4,17,1.5,2.7607,M,8.321,M,01,0004*62
$GPHPD,1957,32162.200,325.44,-0.38,13.87,31.5907218,120.7793123,2.761,13632277.836,24926788.413,2.761,0.948,-0.147,0.925,0.706,1.319,0.691,0.000,17,16,4*45
$GPGGA,085544.60,3135.4434309,N,12046.7586454,E,4,18,1.5,2.7710,M,8.321,M,01,0004*65
$GPHPD,1957,32162.400,325.48,-0.79,13.88,31.5907238,120.7793108,2.771,13632275.938,24926786.627,2.771,0.929,-0.088,0.936,0.660,0.987,0.685,0.000,18,16,4*48
$GPGGA,085544.80,3135.4435506,N,12046.7585515,E,4,18,1.5,2.7662,M,8.321,M,00,0004*61
$GPHPD,1957,32162.600,325.55,-0.53,13.89,31.5907258,120.7793092,2.766,13632274.048,24926784.798,2.766,0.900,-0.098,0.969,0.660,0.987,0.685,0.000,18,16,4*43
$GPGGA,085545.00,3135.4436679,N,12046.7584541,E,4,18,1.6,2.7634,M,8.321,M,01,0004*61
$GPHPD,1957,32162.800,325.56,-0.45,13.91,31.5907278,120.7793076,2.763,13632272.184,24926782.940,2.763,0.921,-0.130,0.942,0.660,0.987,0.685,0.000,18,16,4*4B
$GPGGA,085545.20,3135.4437885,N,12046.7583579,E,4,18,1.6,2.7660,M,8.321,M,01,0004*62
$GPHPD,1957,32163.000,325.53,-0.33,13.92,31.5907298,120.7793060,2.766,13632270.276,24926781.078,2.766,1.052,-0.155,0.877,0.744,1.004,0.752,0.000,18,15,4*45
$GPGGA,085545.40,3135.4439059,N,12046.7582649,E,4,18,1.8,2.7630,M,8.321,M,01,0004*69
$GPHPD,1957,32163.200,325.74,0.19,13.90,31.5907318,120.7793044,2.763,13632268.420,24926779.273,2.763,0.955,-0.107,0.938,0.744,1.004,0.752,0.000,18,15,4*6A
$GPGGA,085545.60,3135.4440274,N,12046.7581682,E,4,18,1.4,2.7671,M,8.321,M,00,0004*64
$GPHPD,1957,32163.400,325.65,0.36,13.90,31.5907338,120.7793028,2.767,13632266.499,24926777.400,2.767,0.939,-0.122,0.929,0.744,1.004,0.752,0.000,18,16,4*67
$GPGGA,085545.80,3135.4441440,N,12046.7580765,E,4,18,1.4,2.7622,M,8.321,M,00,0004*65
$GPHPD,1957,32163.600,325.25,0.27,13.91,31.5907357,120.7793013,2.762,13632264.657,24926775.615,2.762,0.924,-0.090,0.952,0.744,1.004,0.752,0.000,18,16,4*6F
$GPGGA,085546.00,3135.4442645,N,12046.7579827,E,4,18,1.4,2.7574,M,8.321,M,01,0004*64
$GPHPD,1957,32163.800,325.21,0.45,13.90,31.5907377,120.7792997,2.757,13632262.755,24926773.782,2.757,0.927,-0.124,0.930,0.767,1.007,1.052,0.000,18,16,4*67
$GPGGA,085546.20,3135.4443867,N,12046.7578910,E,4,17,1.6,2.7583,M,8.321,M,01,0004*68
$GPHPD,1957,32164.000,325.47,-0.09,13.90,31.5907398,120.7792982,2.758,13632260.833,24926771.965,2.758,0.935,-0.126,0.933,0.767,1.007,1.053,0.000,17,16,4*4C
$GPGGA,085546.40,3135.4445050,N,12046.7577937,E,4,18,1.6,2.7574,M,8.321,M,01,0004*69
$GPHPD,1957,32164.200,325.05,0.40,13.90,31.5907418,120.7792966,2.757,13632258.956,24926770.103,2.757,0.905,-0.146,0.947,0.767,1.007,1.053,0.000,18,15,4*67
$GPGGA,085546.60,3135.4446214,N,12046.7577031,E,4,18,1.6,2.7681,M,8.321,M,01,0004*6C
$GPHPD,1957,32164.400,325.21,0.23,13.93,31.5907437,120.7792951,2.768,13632257.119,24926768.333,2.768,0.942,-0.106,0.932,0.767,1.007,1.053,0.000,18,15,4*69
$GPGGA,085546.80,3135.4447375,N,12046.7576026,E,4,18,1.6,2.7648,M,8.321,M,00,0004*66
$GPHPD,1957,32164.600,325.08,0.08,13.92,31.5907456,120.7792934,2.765,13632255.266,24926766.445,2.765,0.893,-0.102,0.931,0.744,1.004,0.752,0.000,18,15,4*62
$GPGGA,085547.00,3135.4448531,N,12046.7575095,E,4,18,1.6,2.7759,M,8.321,M,01,0004*6D
$GPHPD,1957,32164.800,325.39,0.73,13.92,31.5907476,120.7792918,2.776,13632253.436,24926764.649,2.776,0.953,-0.119,0.924,0.744,1.004,0.752,0.000,18,15,4*64
$GPGGA,085547.20,3135.4449718,N,12046.7574185,E,4,18,1.6,2.7740,M,8.321,M,01,0004*6E
$GPHPD,1957,32165.000,325.29,0.33,13.93,31.5907495,120.7792903,2.774,13632251.565,24926762.861,2.774,0.918,-0.055,0.931,0.744,1.004,0.752,0.000,18,15,4*6B
$GPGGA,085547.40,3135.4450882,N,12046.7573249,E,4,18,1.6,2.7786,M,8.321,M,01,0004*62
$GPHPD,1957,32165.200,324.93,0.81,13.96,31.5907515,120.7792887,2.779,13632249.722,24926761.054,2.779,0.917,-0.094,0.944,0.744,1.004,0.752,0.000,18,15,4*64
$GPGGA,085547.60,3135.4452073,N,12046.7572317,E,4,18,1.6,2.7819,M,8.321,M,00,0004*67
$GPHPD,1957,32165.400,324.70,0.47,13.97,31.5907535,120.7792872,2.782,13632247.842,24926759.237,2.782,0.919,-0.094,0.927,0.744,1.004,0.752,0.000,18,15,4*6C
$GPGGA,085547.80,3135.4453268,N,12046.7571391,E,4,18,1.5,2.7767,M,8.321,M,00,0004*68
$GPHPD,1957,32165.600,324.48,0.06,13.98,31.5907554,120.7792857,2.777,13632245.956,24926757.424,2.777,0.905,-0.076,0.962,0.700,1.004,0.742,0.000,18,17,4*60
$GPGGA,085548.00,3135.4454439,N,12046.7570471,E,4,18,1.5,2.7902,M,8.321,M,01,0004*6E
$GPHPD,1957,32165.800,324.58,0.29,14.01,31.5907574,120.7792841,2.790,13632244.107,24926755.633,2.790,0.938,-0.118,0.925,0.714,1.006,1.023,0.000,18,17,4*69
$GPGGA,085548.20,3135.4455588,N,12046.7569480,E,4,18,1.5,2.7899,M,8.321,M,01,0004*63
$GPHPD,1957,32166.000,324.36,-0.10,14.03,31.5907593,120.7792825,2.790,13632242.274,24926753.769,2.790,0.886,-0.059,0.967,0.700,1.004,0.742,0.000,18,17,4*4D
$GPGGA,085548.40,3135.4456757,N,12046.7568554,E,4,18,1.5,2.7836,M,8.321,M,01,0004*6A
$GPHPD,1957,32166.200,324.43,-0.07,14.04,31.5907613,120.7792809,2.784,13632240.426,24926751.972,2.784,0.919,-0.061,0.925,0.700,1.004,0.742,0.000,18,17,4*46
$GPGGA,085548.60,3135.4457921,N,12046.7567568,E,4,18,1.5,2.7942,M,8.321,M,01,0004*64
$GPHPD,1957,32166.400,324.38,-0.14,14.04,31.5907632,120.7792793,2.794,13632238.573,24926750.105,2.794,0.943,-0.119,0.903,0.646,0.951,0.632,0.000,18,17,4*4E
$GPGGA,085548.80,3135.4459059,N,12046.7566581,E,4,18,1.5,2.7938,M,8.321,M,00,0004*68
$GPHPD,1957,32166.600,324.60,-0.34,14.05,31.5907651,120.7792776,2.794,13632236.756,24926748.252,2.794,0.913,-0.046,0.931,0.646,0.951,0.632,0.000,18,17,4*40
$GPGGA,085549.00,3135.4460220,N,12046.7565678,E,4,18,1.5,2.8010,M,8.321,M,01,0004*6C
$GPHPD,1957,32166.800,325.45,-0.35,14.07,31.5907670,120.7792761,2.801,13632234.924,24926746.487,2.801,0.930,-0.060,0.916,0.646,0.951,0.632,0.000,18,17,4*47
$GPGGA,085549.20,3135.4461397,N,12046.7564701,E,4,18,1.5,2.7929,M,8.321,M,01,0004*60
$GPHPD,1957,32167.000,324.96,0.05,14.08,31.5907690,120.7792745,2.793,13632233.055,24926744.624,2.793,0.909,-0.083,0.919,0.689,1.258,0.634,0.000,18,17,4*67
$GPGGA,085549.40,3135.4462560,N,12046.7563757,E,4,18,1.5,2.7852,M,8.321,M,01,0004*62
$GPHPD,1957,32167.200,325.26,0.01,14.08,31.5907709,120.7792729,2.785,13632231.211,24926742.809,2.785,0.938,-0.064,0.932,0.689,1.258,0.634,0.000,18,17,4*65
$GPGGA,085549.60,3135.4463739,N,12046.7562798,E,4,18,1.5,2.7897,M,8.321,M,00,0004*65
$GPHPD,1957,32167.400,325.14,0.58,14.09,31.5907729,120.7792713,2.790,13632229.342,24926740.966,2.790,0.938,-0.106,0.901,0.646,0.951,0.632,0.000,18,17,4*63
$GPGGA,085549.80,3135.4464927,N,12046.7561858,E,4,18,1.5,2.7865,M,8.321,M,00,0004*60
$GPHPD,1957,32167.600,325.37,0.42,14.11,31.5907749,120.7792698,2.787,13632227.464,24926739.140,2.787,0.919,-0.083,0.926,0.646,0.951,0.632,0.000,18,17,4*63
$GPGGA,085550.00,3135.4466105,N,12046.7560899,E,4,18,1.3,2.7950,M,8.321,M,01,0004*66
$GPHPD,1957,32167.800,325.29,0.59,14.12,31.5907768,120.7792682,2.795,13632225.597,24926737.298,2.795,0.951,-0.132,0.920,0.646,0.951,0.632,0.000,18,17,4*65
$GPGGA,085550.20,3135.4467273,N,12046.7559975,E,4,17,1.3,2.8019,M,8.321,M,01,0004*6A
$GPHPD,1957,32168.000,325.15,0.52,14.11,31.5907788,120.7792666,2.802,13632223.751,24926735.504,2.802,0.927,-0.094,0.930,0.616,0.947,0.611,0.000,17,17,4*6E
$GPGGA,085550.40,3135.4468459,N,12046.7559045,E,4,17,1.3,2.7972,M,8.321,M,01,0004*6C
$GPHPD,1957,32168.200,325.31,0.45,14.12,31.5907808,120.7792651,2.797,13632221.878,24926733.692,2.797,0.907,-0.086,0.945,0.616,0.947,0.611,0.000,17,16,4*62
$GPGGA,085550.60,3135.4469602,N,12046.7558104,E,4,17,1.3,2.8089,M,8.321,M,01,0004*64
$GPHPD,1957,32168.400,324.86,0.77,14.12,31.5907827,120.7792635,2.809,13632220.063,24926731.892,2.809,0.938,-0.147,0.919,0.616,0.947,0.611,0.000,17,16,4*61
$GPGGA,085550.80,3135.4470808,N,12046.7557182,E,4,17,1.3,2.8156,M,8.321,M,00,0004*65
$GPHPD,1957,32168.600,324.59,0.31,14.15,31.5907847,120.7792620,2.816,13632218.164,24926730.078,2.816,0.915,-0.088,0.919,0.616,0.947,0.611,0.000,17,16,4*6B
$GPGGA,085551.00,3135.4471968,N,12046.7556289,E,4,17,1.3,2.8106,M,8.321,M,01,0004*67
$GPHPD,1957,32168.800,325.00,0.39,14.17,31.5907866,120.7792605,2.811,13632216.335,24926728.325,2.811,0.917,-0.094,0.952,0.616,0.947,0.611,0.000,17,16,4*6C
$GPGGA,085551.20,3135.4473117,N,12046.7555336,E,4,17,1.3,2.8168,M,8.321,M,01,0004*69
$GPHPD,1957,32169.000,324.61,0.33,14.20,31.5907885,120.7792589,2.817,13632214.510,24926726.507,2.817,0.907,-0.118,0.926,0.616,0.947,0.611,0.000,17,16,4*6B
$GPGGA,085551.40,3135.4474272,N,12046.7554422,E,4,19,1.3,2.8153,M,8.321,M,01,0004*6D
$GPHPD,1957,32169.200,324.75,0.38,14.22,31.5907905,120.7792574,2.815,13632212.684,24926724.733,2.815,0.918,-0.104,0.921,0.643,0.985,0.684,0.000,19,16,4*69
$GPGGA,085551.60,3135.4475425,N,12046.7553458,E,4,19,1.3,2.8201,M,8.321,M,00,0004*65
$GPHPD,1957,32169.400,324.21,0.01,14.23,31.5907924,120.7792558,2.820,13632210.851,24926722.899,2.820,0.917,-0.124,0.921,0.616,0.947,0.611,0.000,19,17,4*6B
$GPGGA,085551.80,3135.4476599,N,12046.7552552,E,4,19,1.2,2.8166,M,8.321,M,00,0004*67
$GPHPD,1957,32169.600,324.50,0.35,14.26,31.5907943,120.7792543,2.817,13632209.000,24926721.123,2.817,0.923,-0.085,0.919,0.616,0.947,0.611,0.000,19,17,4*6F
$GPGGA,085552.00,3135.4477791,N,12046.7551629,E,4,19,1.2,2.8203,M,8.321,M,01,0004*6A
$GPHPD,1957,32169.800,324.60,0.66,14.29,31.5907963,120.7792527,2.820,13632207.120,24926719.316,2.820,0.894,-0.123,0.928,0.616,0.947,0.611,0.000,19,17,4*6B
$GPGGA,085552.20,3135.4478924,N,12046.7550650,E,4,19,1.2,2.8296,M,8.321,M,01,0004*64
$GPHPD,1957,32170.000,324.12,0.41,14.30,31.5907982,120.7792511,2.830,13632205.312,24926717.475,2.830,0.907,-0.109,0.928,0.616,0.947,0.611,0.000,19,17,4*67
$GPGGA,085552.40,3135.4480069,N,12046.7549697,E,4,19,1.2,2.8169,M,8.321,M,01,0004*65
$GPHPD,1957,32170.200,324.70,0.13,14.31,31.5908001,120.7792495,2.817,13632203.493,24926715.659,2.817,0.919,-0.058,0.928,0.643,0.985,0.684,0.000,19,17,4*69
$GPGGA,085552.60,3135.4481229,N,12046.7548727,E,4,19,1.2,2.8256,M,8.321,M,01,0004*64
$GPHPD,1957,32170.400,324.96,0.18,14.30,31.5908020,120.7792479,2.826,13632201.648,24926713.814,2.826,0.954,-0.116,0.881,0.643,0.985,0.684,0.000,19,17,4*6B
$GPGGA,085552.80,3135.4482394,N,12046.7547767,E,4,19,1.2,2.8249,M,8.321,M,00,0004*6A
$GPHPD,1957,32170.600,325.17,0.58,14.28,31.5908040,120.7792463,2.825,13632199.799,24926711.978,2.825,0.975,-0.090,0.905,0.700,1.003,0.742,0.000,19,17,4*6D
$GPGGA,085553.00,3135.4483576,N,12046.7546812,E,4,19,1.2,2.8393,M,8.321,M,01,0004*63
$GPHPD,1957,32170.800,324.75,0.37,14.23,31.5908060,120.7792447,2.839,13632197.927,24926710.139,2.839,0.947,-0.080,0.935,0.689,1.258,0.634,0.000,19,17,4*66
$GPGGA,085553.20,3135.4484747,N,12046.7545841,E,4,19,1.2,2.8404,M,8.321,M,01,0004*6A
$GPHPD,1957,32171.000,324.90,0.18,14.20,31.5908079,120.7792431,2.840,13632196.067,24926708.286,2.840,0.923,-0.062,0.951,0.689,1.258,0.634,0.000,19,17,4*6D
$GPGGA,085553.40,3135.4485950,N,12046.7544901,E,4,19,1.3,2.8434,M,8.321,M,01,0004*63
$GPHPD,1957,32171.200,325.25,0.16,14.17,31.5908099,120.7792415,2.843,13632194.167,24926706.452,2.843,0.932,-0.056,0.936,0.646,0.951,0.632,0.000,19,17,4*60
$GPGGA,085553.60,3135.4487143,N,12046.7543939,E,4,19,1.3,2.8407,M,8.321,M,00,0004*64
$GPHPD,1957,32171.400,325.06,0.16,14.14,31.5908119,120.7792399,2.841,13632192.278,24926704.597,2.841,0.940,-0.105,0.945,0.616,0.947,0.611,0.000,19,17,4*6A
$GPGGA,085553.80,3135.4488340,N,12046.7542986,E,4,19,1.3,2.8530,M,8.321,M,00,0004*64
$GPHPD,1957,32171.600,325.06,0.01,14.10,31.5908139,120.7792383,2.853,13632190.385,24926702.751,2.853,0.963,-0.128,0.912,0.616,0.947,0.611,0.000,19,17,4*60
$GPGGA,085554.00,3135.4489535,N,12046.7542004,E,4,19,1.3,2.8675,M,8.321,M,01,0004*6E
$GPHPD,1957,32171.800,325.22,-0.25,14.05,31.5908159,120.7792367,2.868,13632188.488,24926700.871,2.868,0.930,-0.076,0.962,0.616,0.947,0.610,0.000,19,17,4*4D
$GPGGA,085554.20,3135.4490724,N,12046.7541036,E,4,19,1.3,2.8527,M,8.321,M,01,0004*60
$GPHPD,1957,32172.000,324.87,-0.29,13.99,31.5908179,120.7792351,2.853,13632186.603,24926699.012,2.853,0.934,-0.076,0.974,0.616,0.947,0.610,0.000,19,17,4*41
$GPGGA,085554.40,3135.4491934,N,12046.7540091,E,4,19,1.2,2.8630,M,8.321,M,01,0004*60
$GPHPD,1957,32172.200,324.46,-0.08,13.96,31.5908199,120.7792335,2.863,13632184.693,24926697.168,2.863,0.964,-0.126,0.939,0.551,0.928,0.608,0.000,19,17,4*4F
$GPGGA,085554.60,3135.4493150,N,12046.7539121,E,4,19,1.2,2.8611,M,8.321,M,01,0004*6D
$GPHPD,1957,32172.400,324.44,-0.09,13.92,31.5908219,120.7792319,2.861,13632182.769,24926695.290,2.861,0.932,-0.083,0.970,0.551,0.928,0.608,0.000,19,17,4*4F
$GPGGA,085554.80,3135.4494334,N,12046.7538117,E,4,19,1.2,2.8657,M,8.321,M,00,0004*63
$GPHPD,1957,32172.600,324.79,0.13,13.89,31.5908239,120.7792302,2.866,13632180.884,24926693.390,2.866,0.968,-0.120,0.962,0.551,0.928,0.608,0.000,19,17,4*6A
$GPGGA,085555.00,3135.4495512,N,12046.7537199,E,4,18,1.2,2.8617,M,8.321,M,01,0004*64
$GPHPD,1957,32172.800,324.81,0.06,13.97,31.5908259,120.7792287,2.862,13632179.025,24926691.597,2.862,0.961,-0.082,0.951,0.550,0.926,0.586,0.000,18,17,4*6F
$GPGGA,085555.20,3135.4496703,N,12046.7536243,E,4,18,1.2,2.8627,M,8.321,M,01,0004*61
$GPHPD,1957,32173.000,324.68,0.76,14.05,31.5908278,120.7792271,2.863,13632177.140,24926689.751,2.863,0.921,-0.131,0.927,0.563,0.954,0.672,0.000,18,17,4*6C
$GPGGA,085555.40,3135.4497903,N,12046.7535316,E,4,18,1.2,2.8679,M,8.321,M,01,0004*61
$GPHPD,1957,32173.200,325.11,0.38,14.04,31.5908298,120.7792255,2.868,13632175.247,24926687.934,2.868,0.923,-0.079,0.946,0.563,0.954,0.672,0.000,18,17,4*6F
$GPGGA,085555.60,3135.4499049,N,12046.7534393,E,4,18,1.2,2.8715,M,8.321,M,00,0004*6C
$GPHPD,1957,32173.400,325.56,0.76,14.05,31.5908317,120.7792240,2.872,13632173.432,24926686.154,2.872,0.925,-0.101,0.950,0.567,0.962,0.672,0.000,18,17,4*60
$GPGGA,085555.80,3135.4500193,N,12046.7533429,E,4,18,1.2,2.8686,M,8.321,M,00,0004*6F
$GPHPD,1957,32173.600,325.60,0.44,14.01,31.5908337,120.7792224,2.869,13632171.612,24926684.325,2.869,0.970,-0.057,0.898,0.563,0.954,0.672,0.000,18,17,4*60
$GPGGA,085556.00,3135.4501342,N,12046.7532472,E,4,18,1.2,2.8654,M,8.321,M,01,0004*6A
$GPHPD,1957,32173.800,324.64,0.33,14.00,31.5908356,120.7792208,2.865,13632169.786,24926682.502,2.865,0.909,-0.082,0.925,0.563,0.954,0.672,0.000,18,17,4*62
$GPGGA,085556.20,3135.4502459,N,12046.7531576,E,4,18,1.2,2.8681,M,8.321,M,01,0004*68
$GPHPD,1957,32174.000,324.77,0.37,13.94,31.5908374,120.7792193,2.868,13632168.018,24926680.771,2.868,0.933,-0.076,0.903,0.551,0.928,0.608,0.000,18,17,4*64
$GPGGA,085556.40,3135.4503506,N,12046.7530720,E,4,18,1.2,2.8650,M,8.321,M,01,0004*68
$GPHPD,1957,32174.200,324.80,0.20,13.88,31.5908392,120.7792179,2.865,13632166.357,24926679.130,2.865,0.885,-0.081,0.888,0.551,0.928,0.608,0.000,18,17,4*6C
