$GPGGA,080921.60,3135.5460743,N,12046.3827236,E,4,15,2.2,2.8093,M,8.297,M,00,0004*62
$GPHPD,1957,29379.400,154.42,-1.57,12.48,31.5924346,120.7730454,2.809,13630060.489,24921656.174,2.809,0.014,-0.010,-0.007,1.220,1.432,0.739,0.000,15,14,4*6B
$GPGGA,080921.80,3135.5460721,N,12046.3827233,E,4,15,2.2,2.8082,M,8.297,M,00,0004*6D
$GPHPD,1957,29379.600,154.61,-1.83,12.48,31.5924345,120.7730454,2.808,13630060.519,24921656.183,2.808,-0.014,0.029,0.005,1.220,1.432,0.739,0.000,15,14,4*47
$GPGGA,080922.00,3135.5460732,N,12046.3827220,E,4,15,2.2,2.8037,M,8.297,M,01,0004*69
$GPHPD,1957,29379.800,154.59,-1.78,12.48,31.5924346,120.7730454,2.804,13630060.501,24921656.161,2.804,-0.010,0.018,0.002,1.220,1.432,0.739,0.000,15,14,4*41
$GPGGA,080922.20,3135.5460718,N,12046.3827213,E,4,15,2.2,2.8074,M,8.297,M,01,0004*64
$GPHPD,1957,29380.000,154.40,-1.54,12.48,31.5924345,120.7730454,2.807,13630060.520,24921656.161,2.807,0.012,-0.003,-0.011,1.220,1.432,0.739,0.000,15,14,4*6E
$GPGGA,080922.40,3135.5460738,N,12046.3827240,E,4,15,2.2,2.8036,M,8.297,M,01,0004*60
$GPHPD,1957,29380.200,154.46,-1.62,12.49,31.5924346,120.7730454,2.804,13630060.497,24921656.182,2.804,0.000,0.001,0.000,1.220,1.432,0.739,0.000,15,14,4*6C
$GPGGA,080922.60,3135.5460768,N,12046.3827247,E,4,15,2.2,2.7947,M,8.297,M,00,0004*61
$GPHPD,1957,29380.400,154.47,-1.26,12.49,31.5924346,120.7730454,2.795,13630060.455,24921656.173,2.795,-0.008,-0.005,-0.001,1.220,1.432,0.739,0.000,15,14,4*4B
$GPGGA,080922.80,3135.5460781,N,12046.3827242,E,4,15,2.2,2.7935,M,8.297,M,00,0004*68
$GPHPD,1957,29380.600,154.51,-1.49,12.50,31.5924346,120.7730454,2.794,13630060.436,24921656.159,2.794,-0.005,-0.005,-0.010,1.220,1.432,0.739,0.000,15,14,4*4F
$GPGGA,080923.00,3135.5460756,N,12046.3827239,E,4,15,2.2,2.7996,M,8.297,M,01,0004*6F
$GPHPD,1957,29380.800,154.52,-1.66,12.50,31.5924346,120.7730454,2.800,13630060.471,24921656.170,2.800,-0.028,-0.046,-0.006,1.220,1.432,0.739,0.000,15,14,4*48
$GPGGA,080923.20,3135.5460764,N,12046.3827248,E,4,15,2.2,2.7979,M,8.297,M,01,0004*6B
$GPHPD,1957,29381.000,154.51,-1.84,12.51,31.5924346,120.7730454,2.798,13630060.461,24921656.177,2.798,0.015,0.003,0.000,1.220,1.432,0.739,0.000,15,14,4*6D
$GPGGA,080923.40,3135.5460775,N,12046.3827241,E,4,15,2.2,2.7959,M,8.297,M,01,0004*66
$GPHPD,1957,29381.200,154.49,-1.70,12.51,31.5924346,120.7730454,2.796,13630060.444,24921656.162,2.796,-0.007,0.004,-0.002,1.220,1.432,0.739,0.000,15,14,4*68
$GPGGA,080923.60,3135.5460751,N,12046.3827225,E,4,15,2.2,2.7957,M,8.297,M,00,0004*6F
$GPHPD,1957,29381.400,154.53,-1.70,12.51,31.5924346,120.7730454,2.796,13630060.475,24921656.156,2.796,0.006,-0.008,0.004,1.220,1.432,0.739,0.000,15,14,4*46
$GPGGA,080923.80,3135.5460730,N,12046.3827217,E,4,15,2.2,2.8057,M,8.297,M,00,0004*61
$GPHPD,1957,29381.600,154.33,-1.57,12.51,31.5924346,120.7730454,2.806,13630060.503,24921656.159,2.806,0.029,-0.037,-0.005,1.220,1.431,0.739,0.000,15,14,4*66
$GPGGA,080924.00,3135.5460750,N,12046.3827224,E,4,15,2.2,2.8002,M,8.297,M,01,0004*69
$GPHPD,1957,29381.800,154.52,-1.63,12.51,31.5924346,120.7730454,2.800,13630060.476,24921656.156,2.800,-0.018,0.033,0.017,1.220,1.431,0.739,0.000,15,14,4*4C
$GPGGA,080924.20,3135.5460764,N,12046.3827233,E,4,15,2.2,2.8002,M,8.297,M,01,0004*6A
$GPHPD,1957,29382.000,154.66,-1.59,12.51,31.5924346,120.7730454,2.800,13630060.458,24921656.158,2.800,-0.002,0.011,0.001,1.220,1.431,0.739,0.000,15,14,4*47
$GPGGA,080924.40,3135.5460760,N,12046.3827240,E,4,15,2.2,2.8031,M,8.297,M,01,0004*6C
$GPHPD,1957,29382.200,154.73,-1.24,12.51,31.5924346,120.7730454,2.803,13630060.465,24921656.169,2.803,0.001,-0.017,0.003,1.220,1.431,0.739,0.000,15,14,4*40
$GPGGA,080924.60,3135.5460743,N,12046.3827225,E,4,15,2.2,2.8024,M,8.297,M,00,0004*69
$GPHPD,1957,29382.400,154.76,-1.53,12.52,31.5924346,120.7730454,2.802,13630060.487,24921656.161,2.802,-0.009,0.014,0.003,1.220,1.431,0.739,0.000,15,14,4*4F
$GPGGA,080924.80,3135.5460737,N,12046.3827221,E,4,15,2.2,2.7999,M,8.297,M,00,0004*60
$GPHPD,1957,29382.600,154.56,-1.16,12.52,31.5924346,120.7730454,2.800,13630060.494,24921656.160,2.800,-0.008,-0.084,-0.007,1.219,1.431,0.739,0.000,15,14,4*4B
$GPGGA,080925.00,3135.5460749,N,12046.3827223,E,4,15,2.2,2.7989,M,8.297,M,01,0004*62
$GPHPD,1957,29382.800,154.52,-1.36,12.51,31.5924346,120.7730454,2.799,13630060.478,24921656.155,2.799,-0.022,-0.044,-0.016,1.219,1.431,0.739,0.000,15,14,4*40
$GPGGA,080925.20,3135.5460758,N,12046.3827232,E,4,15,2.2,2.7959,M,8.297,M,01,0004*6D
$GPHPD,1957,29383.000,154.57,-1.18,12.51,31.5924346,120.7730454,2.796,13630060.467,24921656.161,2.796,-0.022,-0.040,-0.001,1.219,1.431,0.739,0.000,15,14,4*4B
$GPGGA,080925.40,3135.5460744,N,12046.3827228,E,4,15,2.2,2.8016,M,8.297,M,01,0004*60
$GPHPD,1957,29383.200,154.54,-1.48,12.52,31.5924346,120.7730454,2.802,13630060.486,24921656.164,2.802,0.027,0.029,0.007,1.219,1.431,0.739,0.000,15,14,4*67
$GPGGA,080925.60,3135.5460741,N,12046.3827223,E,4,15,2.2,2.7987,M,8.297,M,00,0004*63
$GPHPD,1957,29383.400,154.43,-1.77,12.51,31.5924346,120.7730454,2.799,13630060.489,24921656.160,2.799,-0.012,0.023,0.011,1.219,1.431,0.739,0.000,15,14,4*45
$GPGGA,080925.80,3135.5460766,N,12046.3827255,E,4,15,2.2,2.7959,M,8.297,M,00,0004*6A
$GPHPD,1957,29383.600,154.49,-1.24,12.51,31.5924346,120.7730454,2.796,13630060.460,24921656.184,2.796,-0.009,0.007,0.009,1.219,1.431,0.739,0.000,15,14,4*43
$GPGGA,080926.00,3135.5460757,N,12046.3827226,E,4,15,2.2,2.7941,M,8.297,M,01,0004*6F
$GPHPD,1957,29383.800,154.64,-1.70,12.51,31.5924346,120.7730454,2.794,13630060.467,24921656.154,2.794,-0.007,-0.011,0.005,1.219,1.431,0.739,0.000,15,14,4*61
$GPGGA,080926.20,3135.5460762,N,12046.3827227,E,4,15,2.2,2.7919,M,8.297,M,01,0004*67
$GPHPD,1957,29384.000,154.43,-1.51,12.52,31.5924346,120.7730454,2.792,13630060.460,24921656.152,2.792,0.001,0.012,-0.002,1.219,1.431,0.739,0.000,15,14,4*45
$GPGGA,080926.40,3135.5460782,N,12046.3827230,E,4,16,1.8,2.7848,M,8.297,M,01,0004*66
$GPHPD,1957,29384.200,154.60,-1.21,12.51,31.5924346,120.7730454,2.785,13630060.432,24921656.144,2.785,-0.001,-0.001,-0.001,0.863,1.203,0.672,0.000,16,15,4*4E
$GPGGA,080926.60,3135.5460813,N,12046.3827225,E,4,16,1.8,2.7792,M,8.297,M,00,0004*6E
$GPHPD,1957,29384.400,154.49,-1.21,12.51,31.5924347,120.7730454,2.779,13630060.387,24921656.120,2.779,-0.014,0.007,0.009,0.863,1.203,0.672,0.000,16,15,4*43
$GPGGA,080926.80,3135.5460809,N,12046.3827225,E,4,16,1.8,2.7780,M,8.297,M,00,0004*68
$GPHPD,1957,29384.600,154.48,-1.00,12.51,31.5924347,120.7730454,2.778,13630060.393,24921656.123,2.778,-0.023,0.032,0.006,0.863,1.203,0.672,0.000,16,15,4*48
$GPGGA,080927.00,3135.5460815,N,12046.3827234,E,4,16,1.8,2.7737,M,8.297,M,01,0004*61
$GPHPD,1957,29384.800,154.52,-0.94,12.50,31.5924347,120.7730454,2.774,13630060.386,24921656.130,2.774,0.009,-0.021,0.001,0.863,1.203,0.672,0.000,16,15,4*4B
$GPGGA,080927.20,3135.5460832,N,12046.3827247,E,4,16,1.8,2.7799,M,8.297,M,01,0004*66
$GPHPD,1957,29385.000,154.49,-1.37,12.50,31.5924347,120.7730454,2.780,13630060.364,24921656.136,2.780,-0.001,0.000,-0.005,0.862,1.203,0.672,0.000,16,15,4*69
$GPGGA,080927.40,3135.5460820,N,12046.3827239,E,4,16,1.8,2.7777,M,8.297,M,01,0004*6A
$GPHPD,1957,29385.200,154.60,-1.51,12.50,31.5924347,120.7730454,2.778,13630060.380,24921656.133,2.778,-0.008,0.002,0.009,0.862,1.203,0.672,0.000,16,15,4*45
$GPGGA,080927.60,3135.5460748,N,12046.3827220,E,4,16,1.8,2.7961,M,8.297,M,00,0004*69
$GPHPD,1957,29385.400,154.57,-1.76,12.50,31.5924346,120.7730454,2.796,13630060.478,24921656.152,2.796,0.003,-0.006,0.002,0.862,1.203,0.672,0.000,16,15,4*40
$GPGGA,080927.80,3135.5460804,N,12046.3827224,E,4,16,1.8,2.7792,M,8.297,M,00,0004*66
$GPHPD,1957,29385.600,154.50,-1.26,12.49,31.5924347,120.7730454,2.779,13630060.400,24921656.124,2.779,-0.011,0.025,-0.002,0.862,1.203,0.672,0.000,16,15,4*68
$GPGGA,080928.00,3135.5460794,N,12046.3827227,E,4,16,1.8,2.7826,M,8.297,M,01,0004*65
$GPHPD,1957,29385.800,154.60,-1.29,12.49,31.5924347,120.7730454,2.783,13630060.414,24921656.134,2.783,0.007,-0.005,-0.003,0.862,1.203,0.672,0.000,16,15,4*6A
$GPGGA,080928.20,3135.5460807,N,12046.3827228,E,4,16,1.8,2.7808,M,8.297,M,01,0004*61
$GPHPD,1957,29386.000,154.49,-1.47,12.49,31.5924347,120.7730454,2.781,13630060.396,24921656.127,2.781,0.007,-0.016,-0.002,0.862,1.203,0.672,0.000,16,15,4*6E
$GPGGA,080928.40,3135.5460799,N,12046.3827232,E,4,16,1.8,2.7848,M,8.297,M,01,0004*60
$GPHPD,1957,29386.200,154.50,-1.42,12.49,31.5924347,120.7730454,2.785,13630060.408,24921656.137,2.785,-0.008,0.016,0.003,0.862,1.203,0.672,0.000,16,15,4*43
$GPGGA,080928.60,3135.5460794,N,12046.3827215,E,4,16,1.8,2.7822,M,8.297,M,00,0004*67
$GPHPD,1957,29386.400,154.52,-1.61,12.50,31.5924347,120.7730454,2.782,13630060.412,24921656.119,2.782,0.002,-0.010,0.001,0.862,1.203,0.672,0.000,16,15,4*47
$GPGGA,080928.80,3135.5460807,N,12046.3827211,E,4,16,1.8,2.7776,M,8.297,M,00,0004*66
$GPHPD,1957,29386.600,154.44,-1.56,12.50,31.5924347,120.7730454,2.778,13630060.393,24921656.107,2.778,-0.002,0.003,-0.001,0.862,1.203,0.672,0.000,16,15,4*68
PD,1957,29566.000,145.15,0.39,13.07,31.5896985,120.7771848,2.631,13632893.630,24925606.428,2.631,-0.146,0.013,-0.133,0.879,1.283,0.709,0.000,15,13,4*45
$GPGGA,081228.40,3135.3819050,N,12046.6311029,E,4,15,2.5,2.6562,M,8.314,M,01,0004*6C
$GPHPD,1957,29566.200,144.90,0.48,13.07,31.5896984,120.7771850,2.656,13632893.749,24925606.639,2.656,-0.143,0.036,-0.132,0.879,1.283,0.709,0.000,15,12,4*4A
$GPGGA,081228.60,3135.3818880,N,12046.6311154,E,4,15,2.5,2.6612,M,8.314,M,00,0004*64
$GPHPD,1957,29566.400,144.81,0.61,13.06,31.5896981,120.7771853,2.661,13632894.016,24925606.888,2.661,-0.125,-0.010,-0.149,0.879,1.283,0.709,0.000,15,13,4*6A
$GPGGA,081228.80,3135.3818647,N,12046.6311257,E,4,15,2.5,2.7005,M,8.314,M,00,0004*6E
$GPHPD,1957,29566.600,144.67,0.79,13.06,31.5896977,120.7771854,2.701,13632894.368,24925607.148,2.701,-0.124,0.010,-0.144,0.879,1.283,0.709,0.000,15,13,4*48
$GPGGA,081229.00,3135.3818416,N,12046.6311340,E,4,15,2.5,2.7213,M,8.314,M,01,0004*62
$GPHPD,1957,29566.800,144.74,1.26,13.06,31.5896974,120.7771856,2.721,13632894.713,24925607.383,2.721,-0.126,0.005,-0.118,0.879,1.283,0.709,0.000,15,13,4*4C
$GPGGA,081229.20,3135.3818311,N,12046.6311442,E,4,15,2.5,2.6919,M,8.314,M,01,0004*65
$GPHPD,1957,29567.000,144.93,1.78,13.06,31.5896972,120.7771857,2.692,13632894.883,24925607.567,2.692,-0.085,-0.047,-0.137,0.879,1.283,0.709,0.000,15,12,4*65
$GPGGA,081229.40,3135.3818093,N,12046.6311548,E,4,15,2.5,2.6887,M,8.314,M,01,0004*67
$GPHPD,1957,29567.200,144.97,1.26,13.06,31.5896968,120.7771859,2.689,13632895.214,24925607.822,2.689,-0.110,0.023,-0.134,0.879,1.283,0.709,0.000,15,12,4*45
$GPGGA,081229.60,3135.3817577,N,12046.6311558,E,4,15,2.5,2.7794,M,8.314,M,00,0004*69
$GPHPD,1957,29567.400,144.83,1.41,13.07,31.5896960,120.7771859,2.779,13632895.949,24925608.134,2.779,-0.138,0.077,-0.119,0.879,1.283,0.709,0.000,15,12,4*48
$GPGGA,081229.80,3135.3817461,N,12046.6311752,E,4,15,2.5,2.7432,M,8.314,M,00,0004*66
$GPHPD,1957,29567.600,144.78,1.03,13.08,31.5896958,120.7771863,2.743,13632896.153,24925608.435,2.743,-0.179,0.178,-0.084,0.899,1.344,0.715,0.000,15,13,4*47
$GPGGA,081230.00,3135.3816911,N,12046.6311758,E,4,15,2.5,2.8489,M,8.314,M,01,0004*69
$GPHPD,1957,29567.800,144.72,1.24,13.07,31.5896949,120.7771863,2.849,13632896.936,24925608.763,2.849,-0.152,0.045,-0.118,0.899,1.344,0.715,0.000,15,13,4*40
$GPGGA,081230.20,3135.3816940,N,12046.6311943,E,4,15,2.5,2.7943,M,8.314,M,01,0004*6F
$GPHPD,1957,29568.000,144.46,1.43,13.06,31.5896949,120.7771866,2.794,13632896.932,24925608.969,2.794,-0.119,0.031,-0.118,0.899,1.344,0.715,0.000,15,13,4*49
$GPGGA,081230.40,3135.3817039,N,12046.6312123,E,4,15,2.5,2.7371,M,8.314,M,01,0004*69
$GPHPD,1957,29568.200,144.34,1.53,13.06,31.5896951,120.7771869,2.737,13632896.828,24925609.128,2.737,-0.139,0.018,-0.141,0.651,1.037,0.693,0.000,15,12,4*49
$GPGGA,081230.60,3135.3817002,N,12046.6312264,E,4,15,2.5,2.6974,M,8.314,M,00,0004*6C
$GPHPD,1957,29568.400,144.28,1.41,13.04,31.5896950,120.7771871,2.697,13632896.909,24925609.320,2.697,-0.180,0.118,-0.117,0.651,1.037,0.693,0.000,15,12,4*43
$GPGGA,081230.80,3135.3816837,N,12046.6312360,E,4,15,2.5,2.7155,M,8.314,M,00,0004*62
$GPHPD,1957,29568.600,144.35,1.18,13.01,31.5896947,120.7771873,2.716,13632897.163,24925609.532,2.716,-0.178,0.183,-0.127,0.651,1.037,0.693,0.000,15,13,4*47
$GPGGA,081231.00,3135.3816484,N,12046.6312355,E,4,15,2.5,2.8033,M,8.314,M,01,0004*66
$GPHPD,1957,29568.800,144.26,0.81,12.99,31.5896941,120.7771873,2.803,13632897.663,24925609.731,2.803,-0.221,0.280,-0.002,0.651,1.037,0.693,0.000,15,13,4*43
$GPGGA,081231.20,3135.3816509,N,12046.6312440,E,4,15,2.5,2.8016,M,8.314,M,01,0004*64
$GPHPD,1957,29569.000,144.29,0.57,12.98,31.5896942,120.7771874,2.802,13632897.645,24925609.819,2.802,-0.045,-0.046,-0.089,0.651,1.037,0.693,0.000,15,12,4*6D
$GPGGA,081231.40,3135.3816235,N,12046.6312411,E,4,15,2.5,2.8681,M,8.314,M,01,0004*66
$GPHPD,1957,29569.200,144.20,0.72,12.96,31.5896937,120.7771874,2.868,13632898.029,24925609.944,2.868,-0.083,0.014,-0.056,0.651,1.037,0.693,0.000,15,12,4*45
$GPGGA,081231.60,3135.3816251,N,12046.6312404,E,4,15,2.5,2.8873,M,8.314,M,00,0004*60
$GPHPD,1957,29569.400,144.36,0.83,12.97,31.5896938,120.7771873,2.887,13632898.004,24925609.926,2.887,0.002,-0.109,-0.067,0.651,1.037,0.693,0.000,15,12,4*4E
$GPGGA,081231.80,3135.3816316,N,12046.6312481,E,4,16,2.5,2.8629,M,8.314,M,00,0004*63
$GPHPD,1957,29569.600,144.20,0.58,12.99,31.5896939,120.7771875,2.863,13632897.928,24925609.981,2.863,0.005,0.060,-0.027,0.651,1.037,0.693,0.000,16,12,4*62
$GPGGA,081232.00,3135.3816299,N,12046.6312549,E,4,16,1.6,2.8868,M,8.314,M,01,0004*61
$GPHPD,1957,29569.800,144.11,0.55,13.01,31.5896938,120.7771876,2.887,13632897.965,24925610.073,2.887,-0.036,-0.016,-0.045,0.651,1.037,0.693,0.000,16,12,4*61
$GPGGA,081232.20,3135.3816236,N,12046.6312585,E,4,16,1.6,2.8712,M,8.314,M,01,0004*64
$GPHPD,1957,29570.000,144.15,0.60,13.03,31.5896937,120.7771876,2.871,13632898.062,24925610.153,2.871,-0.065,-0.000,-0.042,0.651,1.037,0.693,0.000,16,12,4*6A
$GPGGA,081232.40,3135.3816135,N,12046.6312651,E,4,16,1.6,2.8734,M,8.314,M,01,0004*6C
$GPHPD,1957,29570.200,144.23,0.09,13.04,31.5896936,120.7771878,2.873,13632898.219,24925610.291,2.873,-0.047,0.035,-0.134,0.651,1.037,0.693,0.000,16,12,4*42
$GPGGA,081232.60,3135.3816067,N,12046.6312693,E,4,16,1.6,2.8716,M,8.314,M,00,0004*67
$GPHPD,1957,29570.400,144.20,0.42,13.05,31.5896934,120.7771878,2.872,13632898.324,24925610.381,2.872,-0.040,-0.036,-0.059,0.651,1.037,0.693,0.000,16,12,4*67
$GPGGA,081232.80,3135.3816034,N,12046.6312746,E,4,16,1.6,2.8570,M,8.314,M,00,0004*64
$GPHPD,1957,29570.600,144.14,0.45,13.05,31.5896934,120.7771879,2.857,13632898.382,24925610.465,2.857,-0.062,0.045,-0.053,0.652,1.037,0.693,0.000,16,12,4*45
$GPGGA,081233.00,3135.3815926,N,12046.6312804,E,4,16,1.5,2.8235,M,8.314,M,01,0004*69
$GPHPD,1957,29570.800,144.13,0.38,13.06,31.5896932,120.7771880,2.824,13632898.547,24925610.597,2.824,-0.051,0.005,-0.031,0.652,1.037,0.693,0.000,16,12,4*46
$GPGGA,081233.20,3135.3816007,N,12046.6312869,E,4,16,1.5,2.8075,M,8.314,M,01,0004*6F
$GPHPD,1957,29571.000,144.18,0.19,13.06,31.5896933,120.7771881,2.808,13632898.445,24925610.629,2.808,-0.027,-0.063,-0.026,0.652,1.037,0.693,0.000,16,12,4*68
$GPGGA,081233.40,3135.3815931,N,12046.6312915,E,4,16,1.5,2.8169,M,8.314,M,01,0004*60
$GPHPD,1957,29571.200,143.98,0.07,13.07,31.5896932,120.7771882,2.817,13632898.562,24925610.728,2.817,-0.074,0.073,-0.043,0.652,1.037,0.693,0.000,16,13,4*45
$GPGGA,081233.60,3135.3815916,N,12046.6312994,E,4,16,1.5,2.8101,M,8.314,M,00,0004*61
$GPHPD,1957,29571.400,143.96,-0.18,13.07,31.5896932,120.7771883,2.810,13632898.599,24925610.832,2.810,-0.049,-0.014,-0.056,0.652,1.037,0.693,0.000,16,13,4*49
$GPGGA,081233.80,3135.3815881,N,12046.6313070,E,4,16,1.5,2.7982,M,8.314,M,00,0004*6E
$GPHPD,1957,29571.600,144.07,-0.32,13.07,31.5896931,120.7771885,2.798,13632898.664,24925610.944,2.798,-0.060,0.058,-0.058,0.652,1.037,0.693,0.000,16,12,4*69
$GPGGA,081234.00,3135.3815831,N,12046.6313108,E,4,16,1.5,2.8199,M,8.314,M,01,0004*68
$GPHPD,1957,29571.800,144.01,-0.11,13.06,31.5896931,120.7771885,2.820,13632898.743,24925611.019,2.820,-0.080,0.044,-0.099,0.652,1.037,0.693,0.000,16,12,4*6B
$GPGGA,081234.20,3135.3815854,N,12046.6313153,E,4,16,1.5,2.8121,M,8.314,M,01,0004*64
$GPHPD,1957,29572.000,144.07,0.11,13.05,31.5896931,120.7771886,2.812,13632898.720,24925611.060,2.812,-0.001,-0.024,0.066,0.652,1.037,0.693,0.000,16,12,4*4F
$GPGGA,081234.40,3135.3815741,N,12046.6313188,E,4,16,1.5,2.8307,M,8.314,M,01,0004*69
$GPHPD,1957,29572.200,144.10,0.35,13.07,31.5896929,120.7771886,2.831,13632898.887,24925611.168,2.831,-0.003,-0.023,0.021,0.652,1.037,0.693,0.000,16,12,4*4B
$GPGGA,081234.60,3135.3815689,N,12046.6313221,E,4,16,1.5,2.8427,M,8.314,M,00,0004*6A
$GPHPD,1957,29572.400,144.12,0.34,13.10,31.5896928,120.7771887,2.843,13632898.968,24925611.238,2.843,-0.038,-0.083,0.017,0.652,1.037,0.693,0.000,16,12,4*49
$GPGGA,081234.80,3135.3815662,N,12046.6313291,E,4,16,1.6,2.8505,M,8.314,M,00,0004*68
$GPHPD,1957,29572.600,144.12,0.46,13.11,31.5896928,120.7771888,2.851,13632899.020,24925611.338,2.851,-0.035,-0.029,-0.068,0.652,1.037,0.693,0.000,16,12,4*6D
$GPGGA,081235.00,3135.3815633,N,12046.6313381,E,4,16,1.6,2.8263,M,8.314,M,01,0004*63
$GPHPD,1957,29572.800,144.06,0.27,13.12,31.5896927,120.7771890,2.826,13632899.080,24925611.464,2.826,-0.066,0.075,-0.128,0.652,1.037,0.693,0.000,16,12,4*47
$GPGGA,081235.20,3135.3815445,N,12046.6313362,E,4,16,1.6,2.8640,M,8.314,M,01,0004*6A
$GPHPD,1957,29573.000,144.08,0.64,13.12,31.5896924,120.7771889,2.864,13632899.343,24925611.550,2.864,-0.051,-0.041,-0.047,0.652,1.037,0.693,0.000,16,12,4*60
$GPGGA,081235.40,3135.3815497,N,12046.6313467,E,4,16,1.6,2.8294,M,8.314,M,01,0004*6C
$GPHPD,1957,29573.200,144.19,0.58,13.13,31.5896925,120.7771891,2.829,13632899.290,24925611.647,2.829,-0.017,-0.062,-0.060,0.652,1.037,0.693,0.000,16,12,4*68
$GPGGA,081235.60,3135.3815406,N,12046.6313573,E,4,16,1.6,2.7915,M,8.314,M,00,0004*6E
$GPHPD,1957,29573.400,144.09,0.63,13.16,31.5896923,120.7771893,2.792,13632899.441,24925611.827,2.792,-0.030,0.068,-0.026,0.652,1.037,0.693,0.000,16,12,4*44
$GPGGA,081235.80,3135.3815359,N,12046.6313634,E,4,16,1.6,2.8107,M,8.314,M,00,0004*69
$GPHPD,1957,29573.600,144.12,0.54,13.19,31.5896923,120.7771894,2.811,13632899.520,24925611.928,2.811,-0.072,-0.084,-0.087,0.652,1.037,0.693,0.000,16,12,4*6A
$GPGGA,081236.00,3135.3815236,N,12046.6313737,E,4,16,1.6,2.7841,M,8.314,M,01,0004*6D
$GPHPD,1957,29573.800,144.12,0.08,13.22,31.5896921,120.7771896,2.784,13632899.716,24925612.124,2.784,-0.091,0.090,-0.059,0.652,1.037,0.693,0.000,16,12,4*43
$GPGGA,081236.20,3135.3815154,N,12046.6313883,E,4,16,1.6,2.7550,M,8.314,M,01,0004*65
$GPHPD,1957,29574.000,144.18,-0.57,13.25,31.5896919,120.7771898,2.755,13632899.862,24925612.348,2.755,-0.098,0.060,-0.061,0.652,1.037,0.694,0.000,16,12,4*6D
$GPGGA,081236.40,3135.3814971,N,12046.6314009,E,4,16,1.6,2.7460,M,8.314,M,01,0004*62
$GPHPD,1957,29574.200,144.18,-0.37,13.27,31.5896916,120.7771900,2.746,13632900.147,24925612.606,2.746,-0.111,0.004,-0.106,0.652,1.037,0.694,0.000,16,12,4*66
$GPGGA,081236.60,3135.3814642,N,12046.6314061,E,4,16,1.6,2.7813,M,8.314,M,00,0004*68
$GPHPD,1957,29574.400,144.26,0.44,13.29,31.5896911,120.7771901,2.781,13632900.625,24925612.861,2.781,-0.154,0.066,-0.118,0.757,1.044,0.738,0.000,16,12,4*4D
$GPGGA,081236.80,3135.3814437,N,12046.6314202,E,4,16,1.6,2.7411,M,8.314,M,00,0004*6F
$GPHPD,1957,29574.600,144.44,0.53,13.31,31.5896907,120.7771903,2.741,13632900.945,24925613.150,2.741,-0.086,-0.060,-0.145,0.652,1.037,0.694,0.000,16,12,4*68
$GPGGA,081237.00,3135.3814345,N,12046.6314556,E,4,16,1.6,2.6317,M,8.314,M,01,0004*63
$GPHPD,1957,29574.800,144.21,0.93,13.34,31.5896906,120.7771909,2.632,13632901.147,24925613.630,2.632,-0.116,-0.005,-0.146,0.652,1.037,0.694,0.000,16,12,4*65
$GPGGA,081237.20,3135.3814167,N,12046.6314830,E,4,16,1.6,2.6203,M,8.314,M,01,0004*6A
$GPHPD,1957,29575.000,144.14,0.19,13.35,31.5896903,120.7771914,2.620,13632901.455,24925614.064,2.620,-0.197,0.015,-0.153,0.652,1.039,0.712,0.000,16,12,4*46
$GPGGA,081237.40,3135.3813816,N,12046.6315040,E,4,16,1.6,2.6028,M,8.314,M,01,0004*61
$GPHPD,1957,29575.200,144.19,0.40,13.38,31.5896897,120.7771917,2.603,13632901.996,24925614.522,2.603,-0.218,-0.064,-0.210,0.652,1.037,0.694,0.000,16,12,4*68
$GPGGA,081237.60,3135.3813507,N,12046.6315184,E,4,16,1.6,2.6174,M,8.314,M,00,0004*6E
$GPHPD,1957,29575.400,144.13,0.32,13.42,31.5896892,120.7771920,2.617,13632902.465,24925614.875,2.617,-0.169,0.000,-0.113,0.652,1.037,0.694,0.000,16,12,4*4A
$GPGGA,081237.80,3135.3813572,N,12046.6315425,E,4,16,1.6,2.7438,M,8.314,M,00,0004*60
$GPHPD,1957,29575.600,143.78,-0.74,13.46,31.5896893,120.7771924,2.744,13632902.421,24925615.128,2.744,-0.161,-0.006,-0.196,0.652,1.037,0.694,0.000,16,12,4*42
$GPGGA,081238.00,3135.3813169,N,12046.6315767,E,4,16,1.6,2.7466,M,8.314,M,01,0004*66
$GPHPD,1957,29575.800,143.79,-0.78,13.51,31.5896886,120.7771929,2.747,13632903.062,24925615.775,2.747,-0.253,0.017,-0.267,0.652,1.037,0.694,0.000,16,12,4*60
$GPGGA,081238.20,3135.3812641,N,12046.6316057,E,4,16,1.6,2.8306,M,8.314,M,01,0004*61
$GPHPD,1957,29576.000,143.98,-0.12,13.57,31.5896877,120.7771934,2.831,13632903.871,24925616.432,2.831,-0.296,-0.022,-0.307,0.652,1.037,0.694,0.000,16,12,4*40
$GPGGA,081238.40,3135.3812158,N,12046.6316495,E,4,16,1.6,2.8036,M,8.314,M,01,0004*62
$GPHPD,1957,29576.200,144.12,1.28,13.62,31.5896869,120.7771942,2.804,13632904.646,24925617.241,2.804,-0.273,-0.198,-0.437,0.652,1.038,0.694,0.000,16,12,4*64
$GPGGA,081238.60,3135.3811312,N,12046.6316814,E,4,16,1.6,2.8819,M,8.314,M,00,0004*6E
$GPHPD,1957,29576.400,144.18,2.02,13.66,31.5896855,120.7771947,2.882,13632905.913,24925618.118,2.882,-0.378,-0.020,-0.387,0.757,1.044,0.738,0.000,16,12,4*6F
$GPGGA,081238.80,3135.3811086,N,12046.6317461,E,4,16,1.6,2.6802,M,8.314,M,00,0004*65
$GPHPD,1957,29576.600,143.64,-0.25,13.72,31.5896851,120.7771958,2.680,13632906.364,24925619.030,2.680,-0.495,0.243,-0.365,0.652,1.038,0.694,0.000,16,12,4*6D
$GPGGA,081239.00,3135.3810307,N,12046.6317925,E,4,16,1.6,2.8234,M,8.314,M,01,0004*6A
$GPHPD,1957,29576.800,143.49,-1.67,13.79,31.5896838,120.7771965,2.823,13632907.565,24925620.043,2.823,-0.463,0.069,-0.471,0.652,1.038,0.694,0.000,16,12,4*68
$GPGGA,081239.20,3135.3809569,N,12046.6318513,E,4,16,1.6,2.8165,M,8.314,M,01,0004*6F
$GPHPD,1957,29577.000,144.02,-2.03,13.81,31.5896826,120.7771975,2.817,13632908.732,24925621.182,2.817,-0.547,0.018,-0.523,0.652,1.038,0.694,0.000,16,12,4*64
$GPGGA,081239.40,3135.3809003,N,12046.6319162,E,4,16,1.6,2.7746,M,8.314,M,01,0004*6B
$GPHPD,1957,29577.200,144.04,-1.17,13.84,31.5896817,120.7771986,2.775,13632909.668,24925622.294,2.775,-0.594,0.086,-0.519,0.652,1.038,0.694,0.000,16,12,4*65
$GPGGA,081239.60,3135.3807628,N,12046.6319855,E,4,16,1.6,2.7363,M,8.314,M,00,0004*67
$GPHPD,1957,29577.400,144.14,-3.39,13.88,31.5896794,120.7771998,2.736,13632911.762,24925623.930,2.736,-0.583,0.062,-0.687,0.757,1.044,0.738,0.000,16,12,4*6D
$GPGGA,081239.80,3135.3806978,N,12046.6320623,E,4,16,1.6,2.7914,M,8.314,M,00,0004*6D
$GPHPD,1957,29577.600,143.75,-1.32,13.96,31.5896783,120.7772010,2.791,13632912.840,24925625.234,2.791,-0.663,0.064,-0.672,0.652,1.039,0.712,0.000,16,12,4*67
$GPGGA,081240.00,3135.3805963,N,12046.6321482,E,4,16,1.6,2.7863,M,8.314,M,01,0004*6A
$GPHPD,1957,29577.800,143.52,-2.91,14.02,31.5896766,120.7772025,2.786,13632914.456,24925626.861,2.786,-0.844,0.344,-0.638,0.652,1.038,0.694,0.000,16,12,4*6F
$GPGGA,081240.20,3135.3804444,N,12046.6322108,E,4,16,1.6,2.9444,M,8.314,M,01,0004*62
$GPHPD,1957,29578.000,143.71,-2.72,14.06,31.5896741,120.7772035,2.944,13632916.741,24925628.500,2.944,-0.828,0.162,-0.763,0.652,1.038,0.694,0.000,16,12,4*64
$GPGGA,081240.40,3135.3803646,N,12046.6323316,E,4,16,1.6,2.7970,M,8.314,M,01,0004*6B
$GPHPD,1957,29578.200,143.59,-5.99,14.09,31.5896727,120.7772055,2.797,13632918.119,24925630.421,2.797,-0.927,0.285,-0.772,0.652,1.038,0.694,0.000,16,12,4*6D
$GPGGA,081240.60,3135.3802434,N,12046.6324291,E,4,16,1.6,2.8505,M,8.314,M,00,0004*66
$GPHPD,1957,29578.400,143.98,-2.11,14.05,31.5896707,120.7772072,2.851,13632920.038,24925632.302,2.851,-0.870,-0.064,-0.960,0.652,1.038,0.694,0.000,16,12,4*49
$GPGGA,081240.80,3135.3801312,N,12046.6325355,E,4,16,1.6,2.8187,M,8.314,M,00,0004*6E
$GPHPD,1957,29578.600,143.63,-3.05,13.99,31.5896689,120.7772089,2.819,13632921.847,24925634.238,2.819,-0.970,0.035,-0.891,0.652,1.038,0.694,0.000,16,12,4*62
$GPGGA,081241.00,3135.3799998,N,12046.6326443,E,4,16,1.6,2.7738,M,8.314,M,01,0004*6E
$GPHPD,1957,29578.800,143.61,-1.56,13.98,31.5896667,120.7772107,2.774,13632923.934,24925636.315,2.774,-0.923,0.015,-0.981,0.652,1.038,0.694,0.000,16,12,4*63
$GPGGA,081241.20,3135.3798561,N,12046.6327476,E,4,16,1.6,2.7997,M,8.314,M,01,0004*6B
$GPHPD,1957,29579.000,143.82,-1.14,14.03,31.5896643,120.7772125,2.800,13632926.184,24925638.397,2.800,-1.052,0.108,-0.938,0.652,1.038,0.694,0.000,16,12,4*61
$GPGGA,081241.40,3135.3797630,N,12046.6328679,E,4,16,1.6,2.7501,M,8.314,M,01,0004*64
$GPHPD,1957,29579.200,143.91,0.32,14.02,31.5896627,120.7772145,2.750,13632927.750,24925640.390,2.750,-1.117,0.074,-0.970,0.652,1.038,0.694,0.000,16,12,4*4C
$GPGGA,081241.60,3135.3796064,N,12046.6329705,E,4,15,1.6,2.7872,M,8.314,M,00,0004*60
$GPHPD,1957,29579.400,143.93,2.60,14.03,31.5896601,120.7772162,2.787,13632930.182,24925642.538,2.787,-0.971,-0.093,-1.140,0.671,1.113,0.722,0.000,15,12,4*65
$GPGGA,081241.80,3135.3794842,N,12046.6330846,E,4,15,1.6,2.8093,M,8.314,M,00,0004*68
$GPHPD,1957,29579.600,143.28,2.35,14.07,31.5896581,120.7772181,2.809,13632932.149,24925644.626,2.809,-1.095,0.118,-1.078,0.760,1.114,0.786,0.000,15,11,4*46
$GPGGA,081242.00,3135.3793347,N,12046.6332035,E,4,15,1.6,2.8127,M,8.314,M,01,0004*6B
$GPHPD,1957,29579.800,143.96,1.00,14.09,31.5896556,120.7772201,2.813,13632934.513,24925646.929,2.813,-1.114,0.176,-1.082,0.671,1.113,0.722,0.000,15,11,4*45
$GPGGA,081242.20,3135.3792021,N,12046.6333286,E,4,15,1.6,2.7307,M,8.314,M,01,0004*6F
$GPHPD,1957,29580.000,144.08,2.11,14.14,31.5896534,120.7772221,2.731,13632936.650,24925649.210,2.731,-1.165,0.019,-1.114,0.671,1.113,0.722,0.000,15,11,4*4A
$GPGGA,081242.40,3135.3790083,N,12046.6334370,E,4,15,1.6,2.8567,M,8.314,M,01,0004*63
$GPHPD,1957,29580.200,143.99,0.42,14.20,31.5896501,120.7772240,2.857,13632939.623,24925651.645,2.857,-1.107,-0.014,-1.170,0.671,1.113,0.722,0.000,15,11,4*65
$GPGGA,081242.60,3135.3788865,N,12046.6335735,E,4,15,1.6,2.7276,M,8.314,M,00,0004*65
$GPHPD,1957,29580.400,143.96,-1.89,14.24,31.5896481,120.7772262,2.728,13632941.629,24925654.000,2.728,-1.269,0.275,-1.180,0.671,1.113,0.722,0.000,15,11,4*61
$GPGGA,081242.80,3135.3787048,N,12046.6336992,E,4,15,1.6,2.8249,M,8.314,M,00,0004*60
$GPHPD,1957,29580.600,144.23,-1.82,14.27,31.5896451,120.7772283,2.825,13632944.465,24925656.573,2.825,-1.238,0.125,-1.226,0.652,1.038,0.694,0.000,15,11,4*64
$GPGGA,081243.00,3135.3785576,N,12046.6338362,E,4,15,1.6,2.8364,M,8.314,M,01,0004*67
$GPHPD,1957,29580.800,143.96,-1.79,14.25,31.5896426,120.7772306,2.836,13632946.833,24925659.082,2.836,-1.345,0.282,-1.229,0.652,1.038,0.694,0.000,15,11,4*6A
$GPGGA,081243.20,3135.3783531,N,12046.6339567,E,4,15,1.6,2.8532,M,8.314,M,01,0004*67
$GPHPD,1957,29581.000,144.69,-5.24,14.15,31.5896392,120.7772326,2.853,13632949.983,24925661.725,2.853,-1.384,0.151,-1.284,0.652,1.038,0.694,0.000,15,11,4*62
$GPGGA,081243.40,3135.3782516,N,12046.6341035,E,4,16,1.6,2.8133,M,8.314,M,01,0004*6E
$GPHPD,1957,29581.200,144.02,-3.48,14.08,31.5896375,120.7772351,2.813,13632951.721,24925664.086,2.813,-1.270,0.074,-1.240,0.652,1.038,0.694,0.000,16,11,4*67
$GPGGA,081243.60,3135.3780848,N,12046.6342335,E,4,16,1.6,2.8444,M,8.314,M,00,0004*6C
$GPHPD,1957,29581.400,144.78,-4.43,14.04,31.5896347,120.7772372,2.844,13632954.354,24925666.625,2.844,-1.236,-0.004,-1.350,0.652,1.038,0.694,0.000,16,12,4*49
$GPGGA,081243.80,3135.3779238,N,12046.6343625,E,4,16,1.6,2.7924,M,8.314,M,00,0004*68
$GPHPD,1957,29581.600,144.75,-4.90,13.99,31.5896321,120.7772394,2.792,13632956.902,24925669.118,2.792,-1.243,0.091,-1.252,0.652,1.038,0.694,0.000,16,12,4*6E
$GPGGA,081244.00,3135.3777431,N,12046.6344923,E,4,16,1.6,2.7905,M,8.314,M,01,0004*6A
$GPHPD,1957,29581.800,144.54,-2.30,13.92,31.5896291,120.7772415,2.791,13632959.732,24925671.735,2.791,-1.282,0.200,-1.233,0.652,1.038,0.694,0.000,16,12,4*62
$GPGGA,081244.20,3135.3775858,N,12046.6346224,E,4,16,1.6,2.7658,M,8.314,M,01,0004*60
$GPHPD,1957,29582.000,145.19,-3.75,13.87,31.5896264,120.7772437,2.766,13632962.230,24925674.219,2.766,-1.281,0.079,-1.267,0.652,1.038,0.694,0.000,16,13,4*61
$GPGGA,081244.40,3135.3774285,N,12046.6347420,E,4,16,1.6,2.7666,M,8.314,M,01,0004*63
$GPHPD,1957,29582.200,145.00,-0.97,13.83,31.5896238,120.7772457,2.767,13632964.706,24925676.577,2.767,-1.262,0.147,-1.245,0.652,1.038,0.694,0.000,16,13,4*65
$GPGGA,081244.60,3135.3772873,N,12046.6348705,E,4,16,1.6,2.7213,M,8.314,M,00,0004*68
$GPHPD,1957,29582.400,145.37,-0.17,13.77,31.5896215,120.7772478,2.721,13632966.972,24925678.948,2.721,-1.242,0.261,-1.228,0.652,1.038,0.694,0.000,16,13,4*69
$GPGGA,081244.80,3135.3771070,N,12046.6349840,E,4,16,1.6,2.7649,M,8.314,M,00,0004*6A
$GPHPD,1957,29582.600,145.27,-0.32,13.76,31.5896185,120.7772497,2.765,13632969.764,24925681.366,2.765,-1.156,0.030,-1.313,0.652,1.038,0.694,0.000,16,13,4*68
$GPGGA,081245.00,3135.3769587,N,12046.6351135,E,4,16,1.6,2.7087,M,8.314,M,01,0004*60
$GPHPD,1957,29582.800,145.47,-2.61,13.70,31.5896160,120.7772519,2.709,13632972.132,24925683.791,2.709,-1.166,0.128,-1.238,0.652,1.038,0.694,0.000,16,13,4*6C
$GPGGA,081245.20,3135.3768053,N,12046.6352403,E,4,16,1.6,2.7061,M,8.314,M,01,0004*64
$GPHPD,1957,29583.000,145.16,-1.32,13.67,31.5896134,120.7772540,2.706,13632974.568,24925686.213,2.706,-1.268,0.235,-1.247,0.652,1.038,0.694,0.000,16,13,4*62
$GPGGA,081245.40,3135.3766561,N,12046.6353580,E,4,16,1.6,2.7630,M,8.314,M,01,0004*61
$GPHPD,1957,29583.200,145.27,-1.02,13.63,31.5896109,120.7772560,2.763,13632976.926,24925688.501,2.763,-1.205,-0.067,-1.274,0.652,1.038,0.694,0.000,16,12,4*45
$GPGGA,081245.60,3135.3764903,N,12046.6354783,E,4,16,1.6,2.7569,M,8.314,M,00,0004*61
$GPHPD,1957,29583.400,145.31,-0.41,13.60,31.5896082,120.7772580,2.757,13632979.525,24925690.916,2.757,-1.256,0.232,-1.232,0.652,1.038,0.694,0.000,16,12,4*65
$GPGGA,081245.80,3135.3763507,N,12046.6356021,E,4,16,1.6,2.7100,M,8.314,M,00,0004*66
$GPHPD,1957,29583.600,145.01,-0.55,13.59,31.5896058,120.7772600,2.710,13632981.758,24925693.222,2.710,-1.194,0.082,-1.177,0.652,1.038,0.694,0.000,16,12,4*61
$GPGGA,081246.00,3135.3762028,N,12046.6357231,E,4,16,1.6,2.7171,M,8.314,M,01,0004*61
$GPHPD,1957,29583.800,144.83,-1.97,13.56,31.5896034,120.7772621,2.717,13632984.104,24925695.542,2.717,-1.156,0.099,-1.230,0.652,1.038,0.694,0.000,16,12,4*64
$GPGGA,081246.20,3135.3760550,N,12046.6358473,E,4,16,1.6,2.6697,M,8.314,M,01,0004*6A
$GPHPD,1957,29584.000,145.23,-0.58,13.58,31.5896009,120.7772641,2.670,13632986.455,24925697.900,2.670,-1.175,0.236,-1.198,0.652,1.038,0.694,0.000,16,12,4*68
$GPGGA,081246.40,3135.3759055,N,12046.6359720,E,4,16,1.6,2.6582,M,8.314,M,01,0004*65
$GPHPD,1957,29584.200,145.03,-1.06,13.60,31.5895984,120.7772662,2.658,13632988.831,24925700.273,2.658,-1.200,0.176,-1.170,0.652,1.038,0.694,0.000,16,13,4*66
$GPGGA,081246.60,3135.3757595,N,12046.6360903,E,4,16,1.5,2.6550,M,8.314,M,00,0004*68
$GPHPD,1957,29584.400,144.96,-0.33,13.64,31.5895960,120.7772682,2.655,13632991.145,24925702.550,2.655,-1.218,0.129,-1.215,0.652,1.038,0.694,0.000,16,12,4*6E
$GPGGA,081246.80,3135.3756015,N,12046.6362078,E,4,16,1.5,2.6765,M,8.314,M,00,0004*69
$GPHPD,1957,29584.600,145.03,0.10,13.67,31.5895934,120.7772701,2.677,13632993.627,24925704.886,2.677,-1.212,0.145,-1.166,0.652,1.038,0.694,0.000,16,12,4*43
$GPGGA,081247.00,3135.3754436,N,12046.6363352,E,4,16,1.5,2.6790,M,8.314,M,01,0004*66
$GPHPD,1957,29584.800,144.73,-0.58,13.72,31.5895907,120.7772723,2.679,13632996.128,24925707.342,2.679,-1.217,0.116,-1.205,0.652,1.038,0.694,0.000,16,12,4*66
$GPGGA,081247.20,3135.3752771,N,12046.6364671,E,4,16,1.5,2.7095,M,8.314,M,01,0004*62
$GPHPD,1957,29585.000,144.75,-0.02,13.77,31.5895880,120.7772745,2.710,13632998.761,24925709.901,2.710,-1.239,0.137,-1.239,0.652,1.038,0.694,0.000,16,12,4*6B
$GPGGA,081247.40,3135.3751110,N,12046.6365922,E,4,16,1.5,2.7168,M,8.314,M,01,0004*6D
$GPHPD,1957,29585.200,144.97,-0.48,13.73,31.5895852,120.7772765,2.717,13633001.373,24925712.377,2.717,-1.329,0.198,-1.237,0.652,1.038,0.694,0.000,16,12,4*67
$GPGGA,081247.60,3135.3749509,N,12046.6367294,E,4,16,1.5,2.6672,M,8.314,M,00,0004*62
$GPHPD,1957,29585.400,144.76,-0.48,13.72,31.5895825,120.7772788,2.667,13633003.925,24925714.963,2.667,-1.295,0.185,-1.278,0.652,1.038,0.694,0.000,16,12,4*6F
$GPGGA,081247.80,3135.3747735,N,12046.6368679,E,4,16,1.5,2.6897,M,8.314,M,00,0004*62
$GPHPD,1957,29585.600,144.78,-0.69,13.65,31.5895796,120.7772811,2.690,13633006.726,24925717.666,2.690,-1.283,0.078,-1.364,0.652,1.038,0.694,0.000,16,12,4*67
$GPGGA,081248.00,3135.3746033,N,12046.6370101,E,4,16,1.5,2.6239,M,8.314,M,01,0004*6B
$GPHPD,1957,29585.800,144.87,-0.88,13.65,31.5895767,120.7772835,2.624,13633009.431,24925720.371,2.624,-1.411,0.227,-1.319,0.652,1.038,0.694,0.000,16,12,4*6C
$GPGGA,081248.20,3135.3744327,N,12046.6371533,E,4,16,1.6,2.6835,M,8.314,M,01,0004*6C
$GPHPD,1957,29586.000,144.92,-1.26,13.75,31.5895739,120.7772859,2.684,13633012.145,24925723.091,2.684,-1.388,0.090,-1.329,0.757,1.045,0.738,0.000,16,12,4*67
$GPGGA,081248.40,3135.3742537,N,12046.6372918,E,4,16,1.6,2.6853,M,8.314,M,01,0004*6D
$GPHPD,1957,29586.200,145.08,-0.32,13.76,31.5895709,120.7772882,2.685,13633014.968,24925725.803,2.685,-1.370,0.159,-1.364,0.652,1.038,0.694,0.000,16,13,4*63
$GPGGA,081248.60,3135.3740760,N,12046.6374290,E,4,16,1.6,2.6782,M,8.314,M,00,0004*62
$GPHPD,1957,29586.400,145.01,-0.35,13.78,31.5895679,120.7772905,2.678,13633017.770,24925728.491,2.678,-1.395,0.186,-1.389,0.652,1.038,0.694,0.000,16,13,4*69
$GPGGA,081248.80,3135.3738874,N,12046.6375687,E,4,16,1.6,2.7262,M,8.314,M,00,0004*60
$GPHPD,1957,29586.600,145.37,-0.72,13.81,31.5895648,120.7772928,2.726,13633020.732,24925731.274,2.726,-1.382,0.191,-1.441,0.652,1.038,0.694,0.000,16,13,4*62
$GPGGA,081249.00,3135.3737077,N,12046.6377130,E,4,16,1.6,2.6826,M,8.314,M,01,0004*6E
$GPHPD,1957,29586.800,145.57,-0.19,13.89,31.5895618,120.7772952,2.683,13633023.577,24925734.060,2.683,-1.405,0.123,-1.464,0.652,1.038,0.694,0.000,16,13,4*63
$GPGGA,081249.20,3135.3735127,N,12046.6378504,E,4,16,1.6,2.6869,M,8.314,M,01,0004*6D
$GPHPD,1957,29587.000,145.73,-0.47,14.02,31.5895585,120.7772975,2.687,13633026.626,24925736.852,2.687,-1.401,0.152,-1.484,0.652,1.038,0.694,0.000,16,13,4*64
$GPGGA,081249.40,3135.3733242,N,12046.6380050,E,4,16,1.6,2.6932,M,8.314,M,01,0004*61
$GPHPD,1957,29587.200,145.81,0.18,13.99,31.5895554,120.7773001,2.693,13633029.616,24925739.813,2.693,-1.449,0.241,-1.495,0.652,1.038,0.694,0.000,16,13,4*45
$GPGGA,081249.60,3135.3731433,N,12046.6381547,E,4,16,1.6,2.7224,M,8.314,M,00,0004*6F
$GPHPD,1957,29587.400,145.84,-0.62,13.78,31.5895524,120.7773026,2.722,13633032.489,24925742.671,2.722,-1.520,0.216,-1.463,0.652,1.038,0.694,0.000,16,13,4*66
$GPGGA,081249.80,3135.3729553,N,12046.6383039,E,4,16,1.6,2.6791,M,8.314,M,00,0004*6B
$GPHPD,1957,29587.600,145.90,-1.17,13.73,31.5895493,120.7773051,2.679,13633035.462,24925745.565,2.679,-1.488,0.204,-1.476,0.676,1.038,0.715,0.000,16,13,4*6D
$GPGGA,081250.00,3135.3727641,N,12046.6384453,E,4,16,1.6,2.6708,M,8.314,M,01,0004*6B
$GPHPD,1957,29587.800,146.06,-2.18,13.70,31.5895461,120.7773074,2.671,13633038.464,24925748.382,2.671,-1.473,0.202,-1.482,0.676,1.038,0.715,0.000,16,13,4*6A
$GPGGA,081250.20,3135.3725848,N,12046.6385935,E,4,16,2.7,2.5485,M,8.314,M,01,0004*67
$GPHPD,1957,29588.000,145.78,-0.76,13.66,31.5895431,120.7773099,2.549,13633041.311,24925751.213,2.549,-1.444,0.209,-1.473,0.676,1.038,0.715,0.000,16,13,4*67
$GPGGA,081250.40,3135.3724025,N,12046.6387313,E,4,16,2.7,2.5565,M,8.314,M,01,0004*60
$GPHPD,1957,29588.200,145.84,-0.44,13.63,31.5895400,120.7773122,2.557,13633044.180,24925753.936,2.557,-1.445,0.192,-1.455,0.676,1.039,0.715,0.000,16,13,4*65
$GPGGA,081250.60,3135.3722167,N,12046.6388767,E,4,16,2.7,2.5589,M,8.314,M,00,0004*68
$GPHPD,1957,29588.400,145.57,-0.76,13.59,31.5895369,120.7773146,2.559,13633047.114,24925756.771,2.559,-1.404,0.169,-1.472,0.676,1.039,0.715,0.000,16,13,4*6D
$GPGGA,081250.80,3135.3720356,N,12046.6390166,E,4,16,2.7,2.5791,M,8.314,M,00,0004*61
$GPHPD,1957,29588.600,145.79,-0.90,13.56,31.5895339,120.7773169,2.579,13633049.970,24925759.512,2.579,-1.392,0.124,-1.445,0.676,1.039,0.715,0.000,16,12,4*64
$GPGGA,081251.00,3135.3718557,N,12046.6391625,E,4,16,2.7,2.5486,M,8.314,M,01,0004*61
$GPHPD,1957,29588.800,145.67,-1.03,13.53,31.5895309,120.7773194,2.549,13633052.821,24925762.318,2.549,-1.398,0.131,-1.447,0.676,1.039,0.715,0.000,16,13,4*6C
$GPGGA,081251.20,3135.3716687,N,12046.6393047,E,4,15,2.7,2.5895,M,8.314,M,01,0004*6E
$GPHPD,1957,29589.000,145.65,-1.15,13.55,31.5895278,120.7773217,2.590,13633055.765,24925765.121,2.590,-1.401,0.164,-1.440,0.676,1.039,0.715,0.000,15,13,4*6D
$GPGGA,081251.40,3135.3714868,N,12046.6394560,E,4,16,2.7,2.5584,M,8.314,M,01,0004*6C
$GPHPD,1957,29589.200,145.69,-0.49,13.60,31.5895248,120.7773243,2.558,13633058.655,24925768.005,2.558,-1.444,0.159,-1.466,0.676,1.039,0.715,0.000,16,13,4*62
$GPGGA,081251.60,3135.3712963,N,12046.6396137,E,4,15,2.7,2.5092,M,8.314,M,00,0004*66
$GPHPD,1957,29589.400,145.41,-0.61,13.62,31.5895216,120.7773269,2.509,13633061.681,24925771.015,2.509,-1.494,0.226,-1.483,0.676,1.039,0.715,0.000,15,12,4*60
$GPGGA,081251.80,3135.3710928,N,12046.6397664,E,4,15,2.7,2.5382,M,8.314,M,00,0004*67
$GPHPD,1957,29589.600,145.39,-1.26,13.65,31.5895182,120.7773294,2.538,13633064.881,24925774.041,2.538,-1.529,0.226,-1.529,0.676,1.039,0.715,0.000,15,12,4*6D
$GPGGA,081252.00,3135.3708946,N,12046.6399303,E,4,15,2.7,2.5203,M,8.314,M,01,0004*6E
$GPHPD,1957,29589.800,145.17,-0.46,13.69,31.5895149,120.7773322,2.520,13633068.028,24925777.171,2.520,-1.562,0.218,-1.565,0.676,1.039,0.715,0.000,15,12,4*63
$GPGGA,081252.20,3135.3706835,N,12046.6400872,E,4,15,2.7,2.5428,M,8.314,M,01,0004*62
$GPHPD,1957,29590.000,145.24,-0.60,13.75,31.5895114,120.7773348,2.543,13633071.345,24925780.292,2.543,-1.589,0.183,-1.599,0.676,1.039,0.715,0.000,15,12,4*6F
$GPGGA,081252.40,3135.3704769,N,12046.6402603,E,4,15,2.7,2.5180,M,8.315,M,01,0004*6C
$GPHPD,1957,29590.200,144.73,-0.52,13.78,31.5895079,120.7773377,2.518,13633074.630,24925783.581,2.518,-1.609,0.183,-1.649,0.676,1.039,0.715,0.000,15,12,4*65
$GPGGA,081252.60,3135.3702501,N,12046.6404274,E,4,15,1.6,2.5852,M,8.315,M,00,0004*63
$GPHPD,1957,29590.400,144.88,-0.56,13.81,31.5895042,120.7773405,2.585,13633078.190,24925786.917,2.585,-1.660,0.173,-1.677,0.676,1.039,0.715,0.000,15,12,4*65
$GPGGA,081252.80,3135.3700319,N,12046.6405986,E,4,15,1.6,2.5662,M,8.315,M,00,0004*6A
$GPHPD,1957,29590.600,145.03,-1.37,13.81,31.5895005,120.7773433,2.566,13633081.637,24925790.251,2.566,-1.710,0.229,-1.686,0.676,1.039,0.715,0.000,15,12,4*63
$GPGGA,081253.00,3135.3698064,N,12046.6407702,E,4,15,1.6,2.5939,M,8.315,M,01,0004*6A
$GPHPD,1957,29590.800,144.97,-1.29,13.84,31.5894968,120.7773462,2.594,13633085.187,24925793.633,2.594,-1.713,0.229,-1.700,0.676,1.039,0.715,0.000,15,12,4*6B
$GPGGA,081253.20,3135.3695913,N,12046.6409464,E,4,15,1.6,2.5615,M,8.315,M,01,0004*60
$GPHPD,1957,29591.000,145.11,-1.96,13.81,31.5894932,120.7773491,2.562,13633088.600,24925797.010,2.562,-1.750,0.272,-1.677,0.677,1.041,0.744,0.000,15,12,4*6B
$GPGGA,081253.40,3135.3693744,N,12046.6411285,E,4,15,1.6,2.5295,M,8.315,M,01,0004*60
$GPHPD,1957,29591.200,144.76,-2.43,13.84,31.5894896,120.7773521,2.530,13633092.049,24925800.468,2.530,-1.718,0.162,-1.762,0.676,1.039,0.715,0.000,15,12,4*69
$GPGGA,081253.60,3135.3691439,N,12046.6413068,E,4,15,1.5,2.4864,M,8.315,M,00,0004*6D
$GPHPD,1957,29591.400,144.97,-3.61,13.84,31.5894857,120.7773551,2.486,13633095.685,24925803.960,2.486,-1.764,0.236,-1.774,0.676,1.039,0.715,0.000,15,12,4*62
$GPGGA,081253.80,3135.3689185,N,12046.6414781,E,4,15,1.5,2.5290,M,8.315,M,00,0004*6F
$GPHPD,1957,29591.600,145.20,-2.35,13.82,31.5894820,120.7773580,2.529,13633099.234,24925807.337,2.529,-1.822,0.293,-1.702,0.677,1.041,0.744,0.000,15,12,4*60
$GPGGA,081254.00,3135.3686980,N,12046.6416688,E,4,15,1.5,2.4770,M,8.315,M,01,0004*63
$GPHPD,1957,29591.800,145.19,-0.71,13.82,31.5894783,120.7773611,2.477,13633102.752,24925810.920,2.477,-1.701,0.077,-1.804,0.677,1.041,0.744,0.000,15,12,4*68
$GPGGA,081254.20,3135.3684728,N,12046.6418533,E,4,15,1.5,2.4218,M,8.315,M,01,0004*69
$GPHPD,1957,29592.000,145.11,-0.30,13.74,31.5894745,120.7773642,2.422,13633106.325,24925814.456,2.422,-1.722,0.060,-1.784,0.677,1.041,0.744,0.000,15,12,4*63
$GPGGA,081254.40,3135.3682378,N,12046.6420186,E,4,15,1.5,2.4943,M,8.315,M,01,0004*6C
$GPHPD,1957,29592.200,145.03,-0.31,13.72,31.5894706,120.7773670,2.494,13633109.998,24925817.817,2.494,-1.704,0.059,-1.834,0.676,1.039,0.715,0.000,15,12,4*6A
$GPGGA,081254.60,3135.3680180,N,12046.6421958,E,4,15,1.5,2.4970,M,8.315,M,00,0004*62
$GPHPD,1957,29592.400,144.75,-1.04,13.67,31.5894670,120.7773699,2.497,13633113.479,24925821.233,2.497,-1.788,0.309,-1.745,0.676,1.039,0.715,0.000,15,12,4*63
$GPGGA,081254.80,3135.3678172,N,12046.6423842,E,4,15,1.5,2.4250,M,8.315,M,00,0004*67
$GPHPD,1957,29592.600,144.71,0.00,13.65,31.5894636,120.7773731,2.425,13633116.713,24925824.674,2.425,-1.720,0.216,-1.726,0.676,1.039,0.715,0.000,15,12,4*4E
$GPGGA,081255.00,3135.3675932,N,12046.6425579,E,4,14,1.5,2.4802,M,8.315,M,01,0004*61
$GPHPD,1957,29592.800,144.88,-2.58,13.60,31.5894599,120.7773760,2.480,13633120.246,24925828.072,2.480,-1.717,-0.041,-1.773,0.676,1.039,0.715,0.000,14,12,4*47
$GPGGA,081255.20,3135.3673780,N,12046.6427269,E,4,14,1.5,2.4860,M,8.315,M,01,0004*62
$GPHPD,1957,29593.000,144.74,-1.88,13.58,31.5894563,120.7773788,2.486,13633123.646,24925831.362,2.486,-1.772,0.129,-1.748,0.676,1.039,0.715,0.000,14,12,4*6F
$GPGGA,081255.40,3135.3671404,N,12046.6428998,E,4,15,1.5,2.5221,M,8.315,M,01,0004*6C
$GPHPD,1957,29593.200,144.52,-4.22,13.61,31.5894523,120.7773817,2.522,13633127.371,24925834.830,2.522,-1.751,0.259,-1.712,0.677,1.041,0.744,0.000,15,12,4*66
$GPGGA,081255.60,3135.3669219,N,12046.6430793,E,4,15,1.6,2.5336,M,8.315,M,00,0004*64
$GPHPD,1957,29593.400,144.15,-1.28,13.60,31.5894487,120.7773847,2.534,13633130.838,24925838.267,2.534,-1.747,0.337,-1.637,0.677,1.041,0.744,0.000,15,11,4*68
$GPGGA,081255.80,3135.3667345,N,12046.6432541,E,4,15,1.5,2.6052,M,8.315,M,00,0004*62
$GPHPD,1957,29593.600,144.24,0.57,13.55,31.5894456,120.7773876,2.605,13633133.854,24925841.465,2.605,-1.756,0.141,-1.687,0.676,1.039,0.715,0.000,15,11,4*45
$GPGGA,081256.00,3135.3664897,N,12046.6434293,E,4,13,1.7,2.5946,M,8.315,M,01,0004*6A
$GPHPD,1957,29593.800,144.40,2.67,13.52,31.5894415,120.7773905,2.595,13633137.687,24925845.003,2.595,-1.699,0.191,-1.671,0.676,1.039,0.715,0.000,13,12,4*4A
$GPGGA,081256.20,3135.3663168,N,12046.6436081,E,4,13,1.7,2.5655,M,8.315,M,01,0004*68
$GPHPD,1957,29594.000,144.25,0.39,13.48,31.5894386,120.7773935,2.566,13633140.504,24925848.165,2.566,-1.718,0.167,-1.612,0.810,1.114,0.841,0.000,13,10,4*46
$GPGGA,081256.40,3135.3661162,N,12046.6437804,E,4,14,1.7,2.5484,M,8.315,M,01,0004*6B
$GPHPD,1957,29594.200,144.45,1.30,13.50,31.5894353,120.7773963,2.548,13633143.703,24925851.411,2.548,-1.727,0.189,-1.652,0.691,1.113,0.748,0.000,14,10,4*49
$GPGGA,081256.60,3135.3659008,N,12046.6439540,E,4,13,1.7,2.5408,M,8.315,M,00,0004*6E
$GPHPD,1957,29594.400,144.87,0.32,13.56,31.5894317,120.7773992,2.541,13633147.114,24925854.758,2.541,-1.614,0.025,-1.700,0.691,1.113,0.748,0.000,13,10,4*42
$GPGGA,081256.80,3135.3656925,N,12046.6441365,E,4,13,1.7,2.5242,M,8.315,M,00,0004*6F
$GPHPD,1957,29594.600,144.65,-1.24,13.63,31.5894282,120.7774023,2.524,13633150.442,24925858.171,2.524,-1.649,-0.003,-1.717,0.810,1.114,0.841,0.000,13,10,4*48
$GPGGA,081257.00,3135.3654250,N,12046.6443141,E,4,13,1.9,2.4479,M,8.315,M,01,0004*6B
$GPHPD,1957,29594.800,144.76,-2.69,13.72,31.5894238,120.7774052,2.448,13633154.602,24925861.869,2.448,-1.778,0.163,-1.734,0.810,1.114,0.841,0.000,13,10,4*69
$GPGGA,081257.20,3135.3652455,N,12046.6445073,E,4,13,1.7,2.5326,M,8.315,M,01,0004*68
$GPHPD,1957,29595.000,144.68,-1.66,13.81,31.5894208,120.7774085,2.533,13633157.543,24925865.244,2.533,-1.759,0.013,-1.758,0.810,1.047,0.778,0.000,13,10,4*6F
$GPGGA,081257.40,3135.3650122,N,12046.6446870,E,4,13,1.7,2.5793,M,8.315,M,01,0004*6B
$GPHPD,1957,29595.200,144.73,-1.85,13.82,31.5894169,120.7774115,2.579,13633161.221,24925868.769,2.579,-1.809,0.358,-1.807,0.810,1.078,0.778,0.000,13,10,4*6B
$GPGGA,081257.60,3135.3647734,N,12046.6448720,E,4,14,1.6,2.5939,M,8.315,M,00,0004*63
$GPHPD,1957,29595.400,144.78,-3.29,13.83,31.5894129,120.7774145,2.594,13633164.988,24925872.389,2.594,-1.930,0.461,-1.755,0.810,1.047,0.778,0.000,14,10,4*6B
$GPGGA,081257.80,3135.3645086,N,12046.6450591,E,4,14,1.6,2.6313,M,8.315,M,00,0004*61
$GPHPD,1957,29595.600,144.33,-3.45,13.82,31.5894085,120.7774177,2.631,13633169.128,24925876.187,2.631,-1.867,0.214,-1.915,0.676,1.039,0.715,0.000,14,11,4*6C
$GPGGA,081258.00,3135.3642849,N,12046.6452672,E,4,13,1.6,2.5808,M,8.315,M,01,0004*62
$GPHPD,1957,29595.800,144.20,0.31,13.80,31.5894047,120.7774211,2.581,13633172.727,24925879.998,2.581,-1.820,0.133,-1.866,0.676,1.039,0.715,0.000,13,10,4*4E
$GPGGA,081258.20,3135.3640227,N,12046.6454589,E,4,13,1.6,2.6344,M,8.315,M,01,0004*61
$GPHPD,1957,29596.000,144.54,0.74,13.77,31.5894004,120.7774243,2.634,13633176.840,24925883.836,2.634,-1.889,0.090,-1.903,0.676,1.039,0.715,0.000,13,10,4*4C
$GPGGA,081258.40,3135.3638067,N,12046.6456512,E,4,13,1.6,2.5985,M,8.315,M,01,0004*6A
$GPHPD,1957,29596.200,144.72,2.88,13.73,31.5893968,120.7774275,2.599,13633180.298,24925887.412,2.599,-1.918,0.249,-1.869,0.810,1.048,0.778,0.000,13,10,4*47
$GPGGA,081258.60,3135.3635409,N,12046.6458568,E,4,13,1.6,2.5144,M,8.315,M,00,0004*6E
$GPHPD,1957,29596.400,144.93,1.16,13.70,31.5893923,120.7774309,2.514,13633184.490,24925891.439,2.514,-1.966,0.291,-1.931,0.810,1.048,0.778,0.000,13,10,4*48
$GPGGA,081258.80,3135.3632735,N,12046.6460531,E,4,13,1.6,2.5228,M,8.315,M,00,0004*65
$GPHPD,1957,29596.600,145.05,-1.62,13.69,31.5893879,120.7774342,2.523,13633188.686,24925895.362,2.523,-1.930,0.142,-1.995,0.810,1.048,0.778,0.000,13,10,4*67
$GPGGA,081259.00,3135.3630609,N,12046.6462676,E,4,13,1.6,2.4717,M,8.315,M,01,0004*6B
$GPHPD,1957,29596.800,145.10,-2.24,13.69,31.5893843,120.7774378,2.472,13633192.140,24925899.186,2.472,-1.888,0.036,-1.982,0.810,1.048,0.778,0.000,13,10,4*68
$GPGGA,081259.20,3135.3628059,N,12046.6464710,E,4,13,1.6,2.5168,M,8.315,M,01,0004*6B
$GPHPD,1957,29597.000,145.69,-1.10,13.61,31.5893801,120.7774412,2.517,13633196.174,24925903.123,2.517,-2.019,0.045,-2.031,0.810,1.048,0.778,0.000,13,10,4*65
$GPGGA,081259.40,3135.3625165,N,12046.6466601,E,4,14,1.6,2.6062,M,8.315,M,01,0004*62
$GPHPD,1957,29597.200,146.00,-1.64,13.67,31.5893753,120.7774443,2.606,13633200.669,24925907.088,2.606,-2.064,0.528,-2.066,0.810,1.048,0.778,0.000,14,10,4*60
$GPGGA,081259.60,3135.3622574,N,12046.6468682,E,4,14,1.6,2.5999,M,8.315,M,00,0004*69
$GPHPD,1957,29597.400,145.32,-0.78,13.90,31.5893710,120.7774478,2.600,13633204.771,24925911.105,2.600,-2.088,0.448,-1.940,0.676,1.039,0.715,0.000,14,10,4*68
$GPGGA,081259.80,3135.3620031,N,12046.6470833,E,4,14,1.6,2.5382,M,8.315,M,00,0004*6C
$GPHPD,1957,29597.600,145.15,-1.56,13.95,31.5893667,120.7774514,2.538,13633208.819,24925915.179,2.538,-2.075,0.237,-2.072,0.676,1.039,0.715,0.000,14,10,4*68
$GPGGA,081300.00,3135.3617326,N,12046.6472844,E,4,14,1.6,2.5725,M,8.315,M,01,0004*62
$GPHPD,1957,29597.800,145.24,0.95,14.02,31.5893622,120.7774547,2.573,13633213.069,24925919.179,2.573,-2.074,0.256,-2.053,0.676,1.039,0.715,0.000,14,10,4*45
$GPGGA,081300.20,3135.3614696,N,12046.6474961,E,4,14,1.6,2.5676,M,8.315,M,01,0004*6A
$GPHPD,1957,29598.000,144.20,2.51,14.16,31.5893578,120.7774583,2.568,13633217.233,24925923.262,2.568,-2.015,0.229,-2.082,0.676,1.039,0.715,0.000,14,10,4*46
$GPGGA,081300.40,3135.3612089,N,12046.6477094,E,4,14,1.7,2.5741,M,8.315,M,01,0004*66
$GPHPD,1957,29598.200,145.47,-0.26,14.09,31.5893535,120.7774618,2.574,13633221.369,24925927.352,2.574,-2.195,0.320,-2.007,0.676,1.039,0.715,0.000,14,9,4*54
$GPGGA,081300.60,3135.3609412,N,12046.6479120,E,4,14,1.7,2.6120,M,8.315,M,00,0004*6B
$GPHPD,1957,29598.400,130.61,17.67,13.96,31.5893490,120.7774652,2.612,13633225.582,24925931.353,2.612,-2.136,0.250,-2.030,0.676,1.039,0.715,0.000,14,9,2*47
$GPGGA,081300.80,3135.3606871,N,12046.6481194,E,4,13,1.7,2.6098,M,8.315,M,00,0004*6E
$GPHPD,1957,29598.600,196.46,-76.28,13.96,31.5893448,120.7774687,2.610,13633229.611,24925935.333,2.610,-2.099,0.226,-2.031,0.706,1.041,0.723,0.000,13,9,5*6F
$GPGGA,081301.00,3135.3604007,N,12046.6483141,E,4,12,1.7,2.6306,M,8.315,M,01,0004*62
$GPHPD,1957,29598.800,168.51,-57.51,13.93,31.5893400,120.7774719,2.631,13633234.074,24925939.348,2.631,-2.055,0.376,-2.079,0.889,1.048,0.807,0.000,12,9,5*6C
$GPGGA,081301.20,3135.3601677,N,12046.6485307,E,4,12,1.7,2.5947,M,8.315,M,01,0004*6E
$GPHPD,1957,29599.000,166.92,-64.06,13.92,31.5893361,120.7774755,2.595,13633237.822,24925943.316,2.595,-1.996,0.079,-2.047,0.889,1.048,0.807,0.000,12,9,5*65
$GPGGA,081301.40,3135.3599001,N,12046.6487238,E,4,13,1.7,2.5959,M,8.315,M,01,0004*6C
$GPHPD,1957,29599.200,162.91,-56.19,13.83,31.5893317,120.7774787,2.596,13633242.015,24925947.202,2.596,-1.973,0.030,-2.064,0.889,1.048,0.807,0.000,13,9,5*69
$GPGGA,081301.60,3135.3596399,N,12046.6489176,E,4,13,1.7,2.6276,M,8.315,M,00,0004*60
$GPHPD,1957,29599.400,157.44,-47.91,13.74,31.5893273,120.7774820,2.628,13633246.104,24925951.053,2.628,-2.042,0.692,-1.959,0.889,1.048,0.807,0.000,13,10,5*56
$GPGGA,081301.80,3135.3593860,N,12046.6491147,E,4,13,1.7,2.6119,M,8.315,M,00,0004*67
$GPHPD,1957,29599.600,156.62,-41.51,13.71,31.5893231,120.7774852,2.612,13633250.110,24925954.908,2.612,-2.001,0.373,-1.977,0.889,1.048,0.807,0.000,13,10,5*5C
$GPGGA,081302.00,3135.3591374,N,12046.6493085,E,4,13,1.7,2.6210,M,8.315,M,01,0004*66
$GPHPD,1957,29599.800,158.39,-41.56,13.66,31.5893190,120.7774885,2.621,13633254.034,24925958.692,2.621,-1.961,0.201,-1.965,0.706,1.041,0.723,0.000,13,10,5*51
$GPGGA,081302.20,3135.3588870,N,12046.6495018,E,4,13,1.7,2.6307,M,8.315,M,01,0004*66
$GPHPD,1957,29600.000,158.90,-43.06,13.60,31.5893148,120.7774917,2.631,13633257.982,24925962.480,2.631,-1.978,0.301,-1.952,0.706,1.041,0.723,0.000,13,10,5*55
$GPGGA,081302.40,3135.3586417,N,12046.6496907,E,4,13,1.7,2.6351,M,8.315,M,01,0004*64
$GPHPD,1957,29600.200,156.79,-39.81,13.57,31.5893107,120.7774948,2.635,13633261.850,24925966.186,2.635,-1.965,0.253,-1.916,0.706,1.041,0.723,0.000,13,10,5*5F
$GPGGA,081302.60,3135.3584179,N,12046.6499032,E,4,13,1.7,2.5635,M,8.315,M,00,0004*6C
$GPHPD,1957,29600.400,156.95,-38.49,13.56,31.5893070,120.7774984,2.564,13633265.459,24925970.051,2.564,-1.877,0.232,-1.924,0.706,1.041,0.723,0.000,13,10,5*57
$GPGGA,081302.80,3135.3581632,N,12046.6500760,E,4,13,1.7,2.5749,M,8.315,M,00,0004*64
$GPHPD,1957,29600.600,156.86,-34.36,13.50,31.5893027,120.7775013,2.575,13633269.427,24925973.617,2.575,-1.986,0.290,-1.880,0.889,1.048,0.807,0.000,13,10,5*53
$GPGGA,081303.00,3135.3579317,N,12046.6502693,E,4,13,1.7,2.5510,M,8.315,M,01,0004*68
$GPHPD,1957,29600.800,154.74,-34.77,13.45,31.5892989,120.7775045,2.551,13633273.107,24925977.296,2.551,-1.855,0.181,-1.916,0.889,1.048,0.807,0.000,13,10,5*5B
$GPGGA,081303.20,3135.3576925,N,12046.6504582,E,4,13,1.7,2.5345,M,8.315,M,01,0004*6D
$GPHPD,1957,29601.000,155.49,-38.85,13.44,31.5892949,120.7775076,2.535,13633276.887,24925980.966,2.535,-1.858,0.162,-1.885,0.706,1.041,0.723,0.000,13,10,5*5A
$GPGGA,081303.40,3135.3574646,N,12046.6506506,E,4,13,1.7,2.5217,M,8.315,M,01,0004*6B
$GPHPD,1957,29601.200,157.12,-43.23,13.40,31.5892911,120.7775108,2.522,13633280.514,24925984.612,2.522,-1.881,0.198,-1.838,0.706,1.041,0.723,0.000,13,10,5*54
$GPGGA,081303.60,3135.3572125,N,12046.6508315,E,4,13,1.7,2.5343,M,8.315,M,00,0004*66
$GPHPD,1957,29601.400,151.67,7.68,13.39,31.5892869,120.7775139,2.534,13633284.462,24925988.261,2.534,-1.833,0.063,-1.895,0.706,1.041,0.723,0.000,13,10,5*45
$GPGGA,081303.80,3135.3569964,N,12046.6510194,E,4,13,1.7,2.5692,M,8.315,M,00,0004*64
$GPHPD,1957,29601.600,151.30,8.22,13.40,31.5892833,120.7775170,2.569,13633287.912,24925991.785,2.569,-1.852,0.349,-1.788,0.889,1.048,0.807,0.000,13,10,5*41
$GPGGA,081304.00,3135.3567712,N,12046.6512001,E,4,13,1.7,2.5758,M,8.315,M,01,0004*63
$GPHPD,1957,29601.800,151.22,5.15,13.44,31.5892795,120.7775200,2.576,13633291.477,24925995.274,2.576,-1.873,0.299,-1.783,0.706,1.041,0.723,0.000,13,10,5*4C
$GPGGA,081304.20,3135.3565378,N,12046.6513678,E,4,13,1.7,2.6076,M,8.315,M,01,0004*6A
$GPHPD,1957,29602.000,145.55,-3.79,13.41,31.5892756,120.7775228,2.608,13633295.133,24925998.655,2.608,-1.809,0.233,-1.818,0.706,1.041,0.723,0.000,13,10,4*69
$GPGGA,081304.40,3135.3563075,N,12046.6515481,E,4,13,1.7,2.5869,M,8.315,M,01,0004*63
$GPHPD,1957,29602.200,171.26,-54.57,13.40,31.5892718,120.7775258,2.587,13633298.769,24926002.170,2.587,-1.810,0.315,-1.740,0.706,1.041,0.723,0.000,13,5,4*6C
$GPGGA,081304.60,3135.3560811,N,12046.6517223,E,4,13,1.7,2.5994,M,8.315,M,00,0004*66
$GPHPD,1957,29602.400,178.15,-60.73,13.43,31.5892680,120.7775287,2.599,13633302.338,24926005.588,2.599,-1.727,0.089,-1.811,0.706,1.041,0.723,0.000,13,10,5*56
$GPGGA,081304.80,3135.3558625,N,12046.6518958,E,4,13,1.7,2.5992,M,8.315,M,00,0004*64
$GPHPD,1957,29602.600,163.74,-43.18,13.42,31.5892644,120.7775316,2.599,13633305.795,24926008.953,2.599,-1.717,0.233,-1.782,0.713,1.042,0.761,0.000,13,10,5*52
$GPGGA,081305.00,3135.3556513,N,12046.6520748,E,4,13,1.7,2.5991,M,8.315,M,01,0004*63
$GPHPD,1957,29602.800,158.43,-39.83,13.40,31.5892609,120.7775346,2.599,13633309.157,24926012.340,2.599,-1.709,0.187,-1.724,0.911,1.051,0.864,0.000,13,10,5*5D
$GPGGA,081305.20,3135.3554456,N,12046.6522500,E,4,13,1.7,2.6129,M,8.315,M,01,0004*67
$GPHPD,1957,29603.000,158.49,-37.62,13.35,31.5892574,120.7775375,2.613,13633312.434,24926015.650,2.613,-1.745,0.246,-1.698,0.707,1.041,0.723,0.000,13,10,5*59
$GPGGA,081305.40,3135.3552310,N,12046.6524275,E,4,13,1.7,2.5831,M,8.315,M,01,0004*62
$GPHPD,1957,29603.200,153.44,-17.24,13.36,31.5892539,120.7775405,2.583,13633315.842,24926019.040,2.583,-1.717,0.199,-1.645,2.073,1.796,1.154,0.000,13,10,5*5C
$GPGGA,081305.60,3135.3550141,N,12046.6526001,E,4,13,3.3,2.4563,M,8.315,M,00,0004*6B
$GPHPD,1957,29603.400,158.76,-31.14,13.36,31.5892502,120.7775433,2.456,13633319.273,24926022.384,2.456,-1.663,0.055,-1.707,0.707,1.041,0.723,0.000,13,10,5*55
$GPGGA,081305.80,3135.3548338,N,12046.6527834,E,4,13,3.3,2.4053,M,8.315,M,00,0004*69
$GPHPD,1957,29603.600,155.61,-33.04,13.30,31.5892472,120.7775464,2.405,13633322.205,24926025.644,2.405,-1.671,0.183,-1.614,0.975,1.292,0.750,0.000,13,10,5*53
$GPGGA,081306.00,3135.3546430,N,12046.6529644,E,4,12,3.3,2.3585,M,8.315,M,01,0004*6D
$GPHPD,1957,29603.800,154.24,-20.19,13.29,31.5892441,120.7775494,2.359,13633325.281,24926028.937,2.359,-1.716,0.082,-1.640,0.975,1.292,0.750,0.000,12,10,5*59
$GPGGA,081306.20,3135.3544036,N,12046.6531148,E,4,12,2.9,2.2903,M,8.315,M,01,0004*65
$GPHPD,1957,29604.000,155.20,-19.66,13.27,31.5892401,120.7775519,2.290,13633328.987,24926032.144,2.290,-1.625,-0.045,-1.635,2.073,1.796,1.153,0.000,12,10,5*75
$GPGGA,081306.40,3135.3542128,N,12046.6532811,E,4,12,2.9,2.3215,M,8.315,M,01,0004*60
$GPHPD,1957,29604.200,150.84,-9.86,13.25,31.5892369,120.7775547,2.322,13633332.034,24926035.260,2.322,-1.616,0.358,-1.599,2.084,1.805,1.159,0.000,12,10,5*6B
$GPGGA,081306.60,3135.3540176,N,12046.6534344,E,4,12,2.9,2.3232,M,8.315,M,00,0004*62
$GPHPD,1957,29604.400,150.38,-15.44,13.21,31.5892336,120.7775572,2.323,13633335.117,24926038.244,2.323,-1.689,0.314,-1.544,2.073,1.796,1.153,0.000,12,10,5*54
$GPGGA,081306.80,3135.3538191,N,12046.6535992,E,4,12,2.9,2.3630,M,8.316,M,00,0004*6F
$GPHPD,1957,29604.600,148.08,-18.02,13.16,31.5892303,120.7775600,2.363,13633338.271,24926041.387,2.363,-1.543,0.257,-1.640,2.073,1.796,1.153,0.000,12,10,5*5D
$GPGGA,081307.00,3135.3536296,N,12046.6537621,E,4,12,2.9,2.3772,M,8.316,M,01,0004*6F
$GPHPD,1957,29604.800,149.45,-21.97,13.17,31.5892272,120.7775627,2.377,13633341.293,24926044.454,2.377,-1.641,0.267,-1.523,2.073,1.796,1.153,0.000,12,9,5*6C
$GPGGA,081307.20,3135.3534271,N,12046.6539163,E,4,11,2.9,2.4076,M,8.316,M,01,0004*6E
$GPHPD,1957,29605.000,147.54,-12.83,13.16,31.5892238,120.7775653,2.408,13633344.482,24926047.492,2.408,-1.642,0.318,-1.523,2.191,1.857,1.275,0.000,11,10,5*51
$GPGGA,081307.40,3135.3532497,N,12046.6540822,E,4,12,2.9,2.4424,M,8.316,M,01,0004*62
$GPHPD,1957,29605.200,147.64,-9.72,13.16,31.5892208,120.7775680,2.442,13633347.337,24926050.526,2.442,-1.575,0.214,-1.499,2.073,1.796,1.153,0.000,12,10,5*6A
$GPGGA,081307.60,3135.3530204,N,12046.6542322,E,4,10,3.2,2.4321,M,8.316,M,00,0004*6C
$GPHPD,1957,29605.400,148.63,-11.70,13.26,31.5892170,120.7775705,2.432,13633350.899,24926053.669,2.432,-1.686,0.296,-1.457,2.191,1.857,1.275,0.000,10,9,5*6B
$GPGGA,081307.80,3135.3528392,N,12046.6543979,E,4,11,3.2,2.4222,M,8.316,M,00,0004*63
$GPHPD,1957,29605.600,157.00,-29.76,13.35,31.5892140,120.7775733,2.422,13633353.808,24926056.722,2.422,-1.557,0.177,-1.532,2.191,1.856,1.275,0.000,11,9,5*6A
$GPGGA,081308.00,3135.3526468,N,12046.6545616,E,4,10,3.2,2.3767,M,8.316,M,01,0004*6B
$GPHPD,1957,29605.800,164.38,-47.22,13.41,31.5892108,120.7775760,2.377,13633356.873,24926059.816,2.377,-1.501,0.004,-1.613,0.911,1.051,0.864,0.000,10,9,5*60
$GPGGA,081308.20,3135.3523842,N,12046.6547179,E,4,10,3.2,2.3058,M,8.316,M,01,0004*6F
$GPHPD,1957,29606.000,166.51,-54.46,13.45,31.5892064,120.7775786,2.306,13633360.920,24926063.229,2.306,-1.515,-0.089,-1.688,2.223,1.865,1.405,0.000,10,8,5*4F
$GPGGA,081308.40,3135.3521259,N,12046.6549214,E,4,09,3.9,1.8656,M,8.316,M,01,0004*6E
$GPHPD,1957,29606.200,163.59,-51.03,13.48,31.5892021,120.7775820,1.866,13633365.002,24926067.186,1.866,-1.625,0.084,-1.524,2.223,1.865,1.405,0.000,9,8,5*58
$GPGGA,081308.60,3135.3519714,N,12046.6551064,E,4,10,3.2,1.8683,M,8.316,M,00,0004*6D
$GPHPD,1957,29606.400,160.42,-50.76,13.48,31.5891995,120.7775851,1.868,13633367.570,24926070.316,1.868,-1.671,0.742,-1.885,2.345,1.867,1.545,0.000,10,8,5*6C
$GPGGA,081308.80,3135.3517514,N,12046.6552830,E,4,10,3.2,1.8373,M,8.316,M,00,0004*6F
$GPHPD,1957,29606.600,153.85,-41.31,13.49,31.5891959,120.7775881,1.837,13633371.053,24926073.726,1.837,-1.806,0.400,-1.518,0.948,1.200,1.052,0.000,10,8,5*62
$GPGGA,081309.00,3135.3515394,N,12046.6554530,E,4,10,3.2,1.8647,M,8.316,M,01,0004*62
$GPHPD,1957,29606.800,152.83,-31.39,13.47,31.5891923,120.7775909,1.865,13633374.409,24926077.010,1.865,-1.702,0.154,-1.607,0.899,1.179,0.899,0.000,10,8,5*62
$GPGGA,081309.20,3135.3512946,N,12046.6556194,E,4,10,3.2,1.9079,M,8.316,M,01,0004*60
$GPHPD,1957,29607.000,151.06,-33.38,13.47,31.5891882,120.7775937,1.908,13633378.224,24926080.442,1.908,-1.774,0.359,-1.673,0.895,1.084,0.809,0.000,10,8,5*64
$GPGGA,081309.40,3135.3511197,N,12046.6558108,E,4,10,3.2,1.8661,M,8.316,M,01,0004*64
$GPHPD,1957,29607.200,155.82,-44.29,13.47,31.5891853,120.7775968,1.866,13633381.095,24926083.768,1.866,-1.672,0.125,-1.654,0.895,1.084,0.809,0.000,10,8,5*65
$GPGGA,081309.60,3135.3508506,N,12046.6559711,E,4,10,3.2,1.9661,M,8.316,M,00,0004*6D
$GPHPD,1957,29607.400,157.70,-53.39,13.46,31.5891808,120.7775995,1.966,13633385.243,24926087.267,1.966,-1.690,0.301,-1.794,0.895,1.084,0.809,0.000,10,8,5*60
$GPGGA,081309.80,3135.3506450,N,12046.6561481,E,4,10,3.2,1.9498,M,8.316,M,00,0004*6A
$GPHPD,1957,29607.600,155.97,-52.12,13.48,31.5891774,120.7776025,1.950,13633388.522,24926090.598,1.950,-1.862,0.262,-1.482,0.895,1.084,0.809,0.000,10,8,5*65
$GPGGA,081310.00,3135.3504611,N,12046.6563550,E,4,10,3.2,1.9436,M,8.316,M,01,0004*65
