$GPGGA,090858.00,3135.5992024,N,12046.7579501,E,4,17,1.5,2.8101,M,8.320,M,01,0004*6D
$GPHPD,0,0.000,56.24,-0.30,-11.84,31.5933200,120.7792992,2.810,13630060.335,24925871.236,2.810,0.000,0.000,0.000,0.000,0.000,0.000,0.000,17,16,4*45
$GPGGA,090858.20,3135.5992229,N,12046.7579844,E,4,17,1.5,2.8176,M,8.320,M,01,0004*6C
$GPHPD,0,0.000,56.51,-0.29,-11.77,31.5933204,120.7792997,2.818,13630060.112,24925871.531,2.818,0.000,0.000,0.000,0.000,0.000,0.000,0.000,17,16,4*45
$GPGGA,090858.40,3135.5992379,N,12046.7580124,E,4,17,1.5,2.8220,M,8.320,M,01,0004*67
$GPHPD,0,0.000,56.54,-0.27,-11.70,31.5933206,120.7793002,2.822,13630059.955,24925871.781,2.822,0.000,0.000,0.000,0.000,0.000,0.000,0.000,17,16,4*47
$GPGGA,090858.60,3135.5992457,N,12046.7580288,E,4,17,1.5,2.8085,M,8.320,M,00,0004*67
$GPHPD,0,0.000,56.57,-0.56,-11.64,31.5933208,120.7793005,2.809,13630059.877,24925871.933,2.809,0.000,0.000,0.000,0.000,0.000,0.000,0.000,17,16,4*48
$GPGGA,090858.80,3135.5992535,N,12046.7580386,E,4,17,1.5,2.7870,M,8.320,M,00,0004*6E
$GPHPD,0,0.000,56.72,-0.35,-11.60,31.5933209,120.7793006,2.787,13630059.786,24925872.006,2.787,0.000,0.000,0.000,0.000,0.000,0.000,0.000,17,16,4*41
$GPGGA,090859.00,3135.5992630,N,12046.7580464,E,4,17,1.5,2.7656,M,8.320,M,01,0004*61
$GPHPD,0,0.000,56.66,-0.48,-11.55,31.5933211,120.7793008,2.766,13630059.667,24925872.045,2.766,0.000,0.000,0.000,0.000,0.000,0.000,0.000,17,17,4*47
$GPGGA,090859.20,3135.5992642,N,12046.7580442,E,4,17,1.5,2.7551,M,8.320,M,01,0004*66
$GPHPD,0,0.000,56.63,-0.06,-11.54,31.5933211,120.7793007,2.755,13630059.645,24925872.011,2.755,0.000,0.000,0.000,0.000,0.000,0.000,0.000,17,17,4*47
$GPGGA,090859.40,3135.5992565,N,12046.7580472,E,4,17,1.6,2.7748,M,8.320,M,01,0004*6C
$GPHPD,0,0.000,56.79,-0.11,-11.57,31.5933209,120.7793008,2.775,13630059.761,24925872.092,2.775,0.000,0.000,0.000,0.000,0.000,0.000,0.000,17,17,4*43
$GPGGA,090859.60,3135.5992621,N,12046.7580501,E,4,17,1.6,2.7793,M,8.320,M,00,0004*6F
$GPHPD,0,0.000,56.81,-0.20,-11.59,31.5933210,120.7793008,2.779,13630059.687,24925872.095,2.779,0.000,0.000,0.000,0.000,0.000,0.000,0.000,17,17,4*4E
$GPGGA,090859.80,3135.5992568,N,12046.7580487,E,4,17,1.6,2.7710,M,8.320,M,00,0004*6B
$GPHPD,0,0.000,56.87,-0.07,-11.60,31.5933209,120.7793008,2.771,13630059.760,24925872.109,2.771,0.000,0.000,0.000,0.000,0.000,0.000,0.000,17,17,4*43
$GPGGA,090900.00,3135.5992630,N,12046.7580514,E,4,17,1.6,2.7565,M,8.320,M,01,0004*6A
$GPHPD,0,0.000,56.84,0.03,-11.63,31.5933211,120.7793009,2.757,13630059.677,24925872.105,2.757,0.000,0.000,0.000,0.000,0.000,0.000,0.000,17,17,4*69
$GPGGA,090900.20,3135.5992620,N,12046.7580516,E,4,17,1.6,2.7660,M,8.320,M,01,0004*6D
$GPHPD,0,0.000,56.90,-0.09,-11.65,31.5933210,120.7793009,2.766,13630059.692,24925872.113,2.766,0.000,0.000,0.000,0.000,0.000,0.000,0.000,17,17,4*40
$GPGGA,090900.40,3135.5992646,N,12046.7580522,E,4,17,1.6,2.7533,M,8.320,M,01,0004*69
$GPHPD,0,0.000,56.87,-0.31,-11.66,31.5933211,120.7793009,2.753,13630059.656,24925872.105,2.753,0.000,0.000,0.000,0.000,0.000,0.000,0.000,17,17,4*40
$GPGGA,090900.60,3135.5992598,N,12046.7580476,E,4,17,1.6,2.7699,M,8.320,M,00,0004*69
$GPHPD,0,0.000,56.82,0.00,-11.68,31.5933210,120.7793008,2.770,13630059.715,24925872.078,2.770,0.000,0.000,0.000,0.000,0.000,0.000,0.000,17,17,4*69
$GPGGA,090900.80,3135.5992542,N,12046.7580458,E,4,17,1.6,2.7791,M,8.320,M,00,0004*65
$GPHPD,0,0.000,56.93,0.03,-11.69,31.5933209,120.7793008,2.779,13630059.791,24925872.089,2.779,0.000,0.000,0.000,0.000,0.000,0.000,0.000,17,17,4*61
$GPGGA,090901.00,3135.5992607,N,12046.7580441,E,4,17,1.6,2.7677,M,8.320,M,01,0004*6E
$GPHPD,0,0.000,56.74,0.14,-11.65,31.5933210,120.7793007,2.768,13630059.695,24925872.030,2.768,0.000,0.000,0.000,0.000,0.000,0.000,0.000,17,17,4*62
$GPGGA,090901.20,3135.5992577,N,12046.7580366,E,4,17,1.6,2.7739,M,8.320,M,01,0004*61
$GPHPD,0,0.000,56.85,-0.12,-11.57,31.5933210,120.7793006,2.774,13630059.722,24925871.957,2.774,0.000,0.000,0.000,0.000,0.000,0.000,0.000,17,17,4*41
$GPGGA,090901.40,3135.5992501,N,12046.7580219,E,4,18,1.6,2.7799,M,8.320,M,01,0004*6A
$GPHPD,0,0.000,56.83,-0.02,-11.44,31.5933208,120.7793004,2.780,13630059.801,24925871.824,2.780,0.000,0.000,0.000,0.000,0.000,0.000,0.000,18,17,4*4B
$GPGGA,090901.60,3135.5992395,N,12046.7579966,E,4,18,1.6,2.7683,M,8.320,M,00,0004*6D
$GPHPD,0,0.000,56.56,-0.42,-11.36,31.5933207,120.7792999,2.768,13630059.901,24925871.581,2.768,0.000,0.000,0.000,0.000,0.000,0.000,0.000,18,17,4*42
$GPGGA,090901.80,3135.5992236,N,12046.7579674,E,4,18,1.6,2.7740,M,8.320,M,00,0004*69
$GPHPD,0,0.000,56.35,-0.58,-11.28,31.5933204,120.7792995,2.774,13630060.068,24925871.322,2.774,0.000,0.000,0.000,0.000,0.000,0.000,0.000,18,17,4*4F
$GPGGA,090902.00,3135.5991807,N,12046.7579159,E,4,18,1.6,2.8003,M,8.320,M,01,0004*6F
$GPHPD,0,0.000,56.31,-0.91,-11.21,31.5933197,120.7792986,2.800,13630060.574,24925870.950,2.800,0.000,0.000,0.000,0.000,0.000,0.000,0.000,18,17,4*4A
$GPGGA,090902.20,3135.5991593,N,12046.7578660,E,4,18,1.6,2.8041,M,8.320,M,01,0004*67
$GPHPD,0,0.000,56.29,-0.29,-11.17,31.5933193,120.7792978,2.804,13630060.778,24925870.473,2.804,0.000,0.000,0.000,0.000,0.000,0.000,0.000,18,17,4*42
$GPGGA,090913.20,3135.5972367,N,12046.7546879,E,4,18,1.5,2.8001,M,8.320,M,01,0004*6B
$GPHPD,0,0.000,55.87,0.21,-12.86,31.5932873,120.7792448,2.800,13630081.712,24925843.346,2.800,0.000,0.000,0.000,0.000,0.000,0.000,0.000,18,16,4*60
$GPGGA,090913.40,3135.5972473,N,12046.7547106,E,4,18,1.4,2.7953,M,8.320,M,01,0004*6F
$GPHPD,0,0.000,55.61,-0.30,-12.93,31.5932875,120.7792452,2.795,13630081.607,24925843.558,2.795,0.000,0.000,0.000,0.000,0.000,0.000,0.000,18,16,4*40
$GPGGA,090913.60,3135.5972638,N,12046.7547425,E,4,18,1.4,2.8028,M,8.320,M,00,0004*6F
$GPHPD,0,0.000,55.84,-0.56,-12.99,31.5932877,120.7792457,2.803,13630081.437,24925843.847,2.803,0.000,0.000,0.000,0.000,0.000,0.000,0.000,18,16,4*44
$GPGGA,090913.80,3135.5972813,N,12046.7547746,E,4,18,1.4,2.7951,M,8.320,M,00,0004*68
$GPHPD,0,0.000,55.92,-0.13,-13.04,31.5932880,120.7792462,2.795,13630081.253,24925844.132,2.795,0.000,0.000,0.000,0.000,0.000,0.000,0.000,18,16,4*41
$GPGGA,090914.00,3135.5973133,N,12046.7548202,E,4,18,1.4,2.7914,M,8.320,M,01,0004*67
$GPHPD,0,0.000,55.77,0.30,-13.10,31.5932886,120.7792470,2.791,13630080.890,24925844.495,2.791,0.000,0.000,0.000,0.000,0.000,0.000,0.000,18,16,4*6A
$GPGGA,090914.20,3135.5973206,N,12046.7548629,E,4,18,1.4,2.8128,M,8.320,M,01,0004*65
$GPHPD,0,0.000,55.92,0.26,-13.14,31.5932887,120.7792477,2.813,13630080.872,24925844.968,2.813,0.000,0.000,0.000,0.000,0.000,0.000,0.000,18,16,4*67
$GPGGA,090914.40,3135.5973616,N,12046.7549184,E,4,18,1.5,2.8281,M,8.320,M,01,0004*66
$GPHPD,0,0.000,55.75,-0.35,-13.19,31.5932894,120.7792486,2.828,13630080.401,24925845.398,2.828,0.000,0.000,0.000,0.000,0.000,0.000,0.000,18,16,4*4C
$GPGGA,090914.60,3135.5973834,N,12046.7549799,E,4,18,1.5,2.8529,M,8.320,M,00,0004*64
$GPHPD,0,0.000,55.39,-0.18,-13.22,31.5932897,120.7792497,2.853,13630080.214,24925846.013,2.853,0.000,0.000,0.000,0.000,0.000,0.000,0.000,18,16,4*41
$GPGGA,090914.80,3135.5974259,N,12046.7550561,E,4,18,1.5,2.8292,M,8.320,M,00,0004*66
$GPHPD,0,0.000,55.09,-0.86,-13.25,31.5932904,120.7792509,2.829,13630079.764,24925846.684,2.829,0.000,0.000,0.000,0.000,0.000,0.000,0.000,18,16,4*43
$GPGGA,090915.00,3135.5974597,N,12046.7551109,E,4,18,1.5,2.8386,M,8.320,M,01,0004*64
$GPHPD,0,0.000,55.63,-0.42,-13.29,31.5932910,120.7792518,2.839,13630079.393,24925847.148,2.839,0.000,0.000,0.000,0.000,0.000,0.000,0.000,18,16,4*44
$GPGGA,090915.20,3135.5975072,N,12046.7552008,E,4,18,1.5,2.8162,M,8.320,M,01,0004*62
$GPHPD,0,0.000,55.40,-0.74,-13.31,31.5932918,120.7792533,2.816,13630078.899,24925847.956,2.816,0.000,0.000,0.000,0.000,0.000,0.000,0.000,18,16,4*4F
$GPGGA,090915.40,3135.5975608,N,12046.7552770,E,4,18,1.5,2.8215,M,8.320,M,01,0004*64
$GPHPD,0,0.000,56.06,-0.26,-13.33,31.5932927,120.7792546,2.822,13630078.291,24925848.563,2.822,0.000,0.000,0.000,0.000,0.000,0.000,0.000,18,16,4*42
$GPGGA,090915.60,3135.5976038,N,12046.7553633,E,4,18,1.4,2.8444,M,8.320,M,00,0004*65
$GPHPD,0,0.000,55.98,-0.63,-13.34,31.5932934,120.7792561,2.844,13630077.853,24925849.353,2.844,0.000,0.000,0.000,0.000,0.000,0.000,0.000,18,16,4*48
$GPGGA,090915.80,3135.5976487,N,12046.7554627,E,4,18,1.4,2.8546,M,8.320,M,00,0004*6A
$GPHPD,0,0.000,56.15,-0.39,-13.34,31.5932941,120.7792577,2.855,13630077.415,24925850.290,2.855,0.000,0.000,0.000,0.000,0.000,0.000,0.000,18,16,4*4C
$GPGGA,090916.00,3135.5977199,N,12046.7555709,E,4,18,1.4,2.8342,M,8.320,M,01,0004*65
$GPHPD,0,0.000,56.11,-0.45,-13.33,31.5932953,120.7792595,2.834,13630076.620,24925851.180,2.834,0.000,0.000,0.000,0.000,0.000,0.000,0.000,18,16,4*4D
$GPGGA,090916.20,3135.5977700,N,12046.7556676,E,4,18,1.5,2.8320,M,8.320,M,01,0004*6E
$GPHPD,0,0.000,56.36,-0.68,-13.32,31.5932962,120.7792611,2.832,13630076.103,24925852.054,2.832,0.000,0.000,0.000,0.000,0.000,0.000,0.000,18,16,4*46
$GPGGA,090916.40,3135.5978194,N,12046.7557751,E,4,17,1.5,2.8282,M,8.320,M,01,0004*6F
$GPHPD,0,0.000,56.58,-0.10,-13.28,31.5932970,120.7792629,2.828,13630075.617,24925853.063,2.828,0.000,0.000,0.000,0.000,0.000,0.000,0.000,17,16,4*49
$GPGGA,090916.60,3135.5978822,N,12046.7558861,E,4,17,1.5,2.8146,M,8.320,M,00,0004*60
$GPHPD,0,0.000,56.70,-0.15,-13.24,31.5932980,120.7792648,2.815,13630074.948,24925854.036,2.815,0.000,0.000,0.000,0.000,0.000,0.000,0.000,17,16,4*41
$GPGGA,090916.80,3135.5979430,N,12046.7559950,E,4,17,1.5,2.8064,M,8.320,M,00,0004*63
$GPHPD,0,0.000,56.78,0.01,-13.19,31.5932991,120.7792666,2.806,13630074.302,24925854.995,2.806,0.000,0.000,0.000,0.000,0.000,0.000,0.000,17,16,4*67
$GPGGA,090917.00,3135.5980030,N,12046.7561111,E,4,17,1.5,2.8044,M,8.320,M,01,0004*6D
$GPHPD,0,0.000,56.75,-0.11,-13.11,31.5933001,120.7792685,2.804,13630073.683,24925856.045,2.804,0.000,0.000,0.000,0.000,0.000,0.000,0.000,17,16,4*4F
$GPGGA,090917.20,3135.5980588,N,12046.7562092,E,4,17,1.5,2.8219,M,8.320,M,01,0004*6A
$GPHPD,0,0.000,56.88,0.19,-13.05,31.5933010,120.7792702,2.822,13630073.087,24925856.903,2.822,0.000,0.000,0.000,0.000,0.000,0.000,0.000,17,16,4*6A
$GPGGA,090917.40,3135.5981228,N,12046.7563194,E,4,17,1.5,2.8057,M,8.320,M,01,0004*6E
$GPHPD,0,0.000,56.91,0.22,-12.99,31.5933020,120.7792720,2.806,13630072.399,24925857.860,2.806,0.000,0.000,0.000,0.000,0.000,0.000,0.000,17,16,4*65
$GPGGA,090917.60,3135.5981806,N,12046.7564308,E,4,17,1.5,2.8013,M,8.320,M,00,0004*6B
$GPHPD,0,0.000,56.96,0.11,-12.93,31.5933030,120.7792738,2.801,13630071.802,24925858.866,2.801,0.000,0.000,0.000,0.000,0.000,0.000,0.000,17,16,4*63
$GPGGA,090917.80,3135.5982363,N,12046.7565410,E,4,17,1.5,2.7953,M,8.320,M,00,0004*63
$GPHPD,0,0.000,56.85,0.35,-12.87,31.5933039,120.7792757,2.795,13630071.232,24925859.871,2.795,0.000,0.000,0.000,0.000,0.000,0.000,0.000,17,16,4*6C
$GPGGA,090918.00,3135.5982891,N,12046.7566337,E,4,17,1.5,2.8025,M,8.320,M,01,0004*65
$GPHPD,0,0.000,56.84,-0.19,-12.82,31.5933048,120.7792772,2.803,13630070.668,24925860.681,2.803,0.000,0.000,0.000,0.000,0.000,0.000,0.000,17,16,4*4B
$GPGGA,090918.20,3135.5983287,N,12046.7567324,E,4,17,1.5,2.8190,M,8.320,M,01,0004*67
$GPHPD,0,0.000,56.74,-0.23,-12.79,31.5933055,120.7792789,2.819,13630070.304,24925861.641,2.819,0.000,0.000,0.000,0.000,0.000,0.000,0.000,17,16,4*43
$GPGGA,090918.40,3135.5983946,N,12046.7568421,E,4,17,1.5,2.8210,M,8.320,M,01,0004*61
$GPHPD,0,0.000,56.65,-0.30,-12.75,31.5933066,120.7792807,2.821,13630069.588,24925862.580,2.821,0.000,0.000,0.000,0.000,0.000,0.000,0.000,17,16,4*43
$GPGGA,090918.60,3135.5984460,N,12046.7569519,E,4,17,1.5,2.8153,M,8.320,M,00,0004*63
$GPHPD,0,0.000,56.69,-0.78,-12.70,31.5933074,120.7792825,2.815,13630069.078,24925863.604,2.815,0.000,0.000,0.000,0.000,0.000,0.000,0.000,17,16,4*41
$GPGGA,090918.80,3135.5985107,N,12046.7570579,E,4,18,1.5,2.8136,M,8.320,M,00,0004*6A
$GPHPD,0,0.000,56.73,-0.77,-12.66,31.5933085,120.7792843,2.814,13630068.371,24925864.506,2.814,0.000,0.000,0.000,0.000,0.000,0.000,0.000,18,16,4*4E
$GPGGA,090919.00,3135.5985577,N,12046.7571459,E,4,18,1.5,2.8429,M,8.320,M,01,0004*68
$GPHPD,0,0.000,56.68,-0.67,-12.61,31.5933093,120.7792858,2.843,13630067.880,24925865.293,2.843,0.000,0.000,0.000,0.000,0.000,0.000,0.000,18,16,4*4F
$GPGGA,090919.20,3135.5986125,N,12046.7572483,E,4,18,1.5,2.8358,M,8.320,M,01,0004*6F
$GPHPD,0,0.000,57.05,0.08,-12.57,31.5933102,120.7792875,2.836,13630067.308,24925866.209,2.836,0.000,0.000,0.000,0.000,0.000,0.000,0.000,18,16,4*69
$GPGGA,090919.40,3135.5986631,N,12046.7573452,E,4,18,1.5,2.8183,M,8.320,M,01,0004*62
$GPHPD,0,0.000,56.82,-0.13,-12.55,31.5933111,120.7792891,2.818,13630066.783,24925867.083,2.818,0.000,0.000,0.000,0.000,0.000,0.000,0.000,18,16,4*4D
$GPGGA,090919.60,3135.5987192,N,12046.7574382,E,4,18,1.5,2.8351,M,8.320,M,01,0004*6F
$GPHPD,0,0.000,56.65,-0.62,-12.55,31.5933120,120.7792906,2.835,13630066.173,24925867.878,2.835,0.000,0.000,0.000,0.000,0.000,0.000,0.000,18,16,4*4A
$GPGGA,090919.80,3135.5987745,N,12046.7575487,E,4,18,1.5,2.8381,M,8.320,M,01,0004*63
$GPHPD,0,0.000,56.65,-0.26,-12.57,31.5933129,120.7792925,2.838,13630065.609,24925868.888,2.838,0.000,0.000,0.000,0.000,0.000,0.000,0.000,18,16,4*49
$GPGGA,090920.00,3135.5988188,N,12046.7576513,E,4,18,1.5,2.8357,M,8.320,M,01,0004*6D
$GPHPD,0,0.000,56.37,-0.56,-12.60,31.5933136,120.7792942,2.836,13630065.186,24925869.867,2.836,0.000,0.000,0.000,0.000,0.000,0.000,0.000,18,16,4*42
$GPGGA,090920.20,3135.5988746,N,12046.7577603,E,4,18,1.5,2.8184,M,8.320,M,01,0004*64
$GPHPD,0,0.000,56.49,-0.36,-12.61,31.5933146,120.7792960,2.818,13630064.612,24925870.857,2.818,0.000,0.000,0.000,0.000,0.000,0.000,0.000,18,16,4*4B
$GPGGA,090920.40,3135.5989462,N,12046.7578694,E,4,18,1.5,2.8242,M,8.320,M,01,0004*6E
$GPHPD,0,0.000,56.50,-0.37,-12.64,31.5933158,120.7792978,2.824,13630063.814,24925871.755,2.824,0.000,0.000,0.000,0.000,0.000,0.000,0.000,18,16,4*42
$GPGGA,090920.60,3135.5990026,N,12046.7579742,E,4,18,1.5,2.8327,M,8.320,M,01,0004*69
$GPHPD,0,0.000,56.25,-0.77,-12.65,31.5933167,120.7792996,2.833,13630063.223,24925872.691,2.833,0.000,0.000,0.000,0.000,0.000,0.000,0.000,18,16,4*4D
$GPGGA,090920.80,3135.5990672,N,12046.7580919,E,4,18,1.5,2.8330,M,8.320,M,01,0004*60
$GPHPD,0,0.000,56.13,-0.29,-12.66,31.5933178,120.7793015,2.833,13630062.542,24925873.734,2.833,0.000,0.000,0.000,0.000,0.000,0.000,0.000,18,16,4*43
$GPGGA,090921.00,3135.5991260,N,12046.7582102,E,4,18,1.5,2.8156,M,8.320,M,02,0004*6E
$GPHPD,0,0.000,55.95,-0.75,-12.66,31.5933188,120.7793035,2.816,13630061.944,24925874.818,2.816,0.000,0.000,0.000,0.000,0.000,0.000,0.000,18,16,4*45
$GPGGA,090921.20,3135.5991896,N,12046.7583173,E,4,17,1.6,2.8110,M,8.320,M,02,0004*66
$GPHPD,0,0.000,55.86,-0.08,-12.66,31.5933198,120.7793053,2.811,13630061.255,24925875.739,2.811,0.000,0.000,0.000,0.000,0.000,0.000,0.000,17,16,4*45
$GPGGA,090921.40,3135.5992623,N,12046.7584355,E,4,18,1.6,2.8008,M,8.320,M,02,0004*65
$GPHPD,0,0.000,55.73,-0.39,-12.64,31.5933210,120.7793073,2.801,13630060.460,24925876.741,2.801,0.000,0.000,0.000,0.000,0.000,0.000,0.000,18,16,4*4C
$GPGGA,090921.60,3135.5993249,N,12046.7585563,E,4,18,1.6,2.8152,M,8.320,M,02,0004*62
$GPHPD,0,0.000,55.85,-0.03,-12.64,31.5933221,120.7793093,2.815,13630059.813,24925877.833,2.815,0.000,0.000,0.000,0.000,0.000,0.000,0.000,18,16,4*49
$GPGGA,090921.80,3135.5993982,N,12046.7586802,E,4,18,1.6,2.8172,M,8.320,M,02,0004*6B
$GPHPD,0,0.000,55.46,-0.18,-12.64,31.5933233,120.7793113,2.817,13630059.020,24925878.900,2.817,0.000,0.000,0.000,0.000,0.000,0.000,0.000,18,16,4*40
$GPGGA,090922.00,3135.5994575,N,12046.7588028,E,4,18,1.5,2.8458,M,8.320,M,01,0004*60
$GPHPD,0,0.000,55.70,-0.45,-12.61,31.5933243,120.7793134,2.846,13630058.424,24925880.033,2.846,0.000,0.000,0.000,0.000,0.000,0.000,0.000,18,16,4*45
$GPGGA,090922.20,3135.5995381,N,12046.7589224,E,4,18,1.5,2.8408,M,8.320,M,01,0004*64
$GPHPD,0,0.000,55.40,-0.01,-12.61,31.5933256,120.7793154,2.841,13630057.519,24925881.006,2.841,0.000,0.000,0.000,0.000,0.000,0.000,0.000,18,16,4*43
$GPGGA,090922.40,3135.5996044,N,12046.7590492,E,4,18,1.5,2.8371,M,8.320,M,01,0004*61
$GPHPD,0,0.000,55.34,-0.09,-12.58,31.5933267,120.7793175,2.837,13630056.832,24925882.149,2.837,0.000,0.000,0.000,0.000,0.000,0.000,0.000,18,16,4*4F
$GPGGA,090922.60,3135.5996743,N,12046.7591731,E,4,18,1.4,2.8241,M,8.320,M,00,0004*6A
$GPHPD,0,0.000,55.41,0.03,-12.53,31.5933279,120.7793196,2.824,13630056.087,24925883.236,2.824,0.000,0.000,0.000,0.000,0.000,0.000,0.000,18,16,4*6F
$GPGGA,090922.80,3135.5997450,N,12046.7592977,E,4,18,1.4,2.8185,M,8.320,M,00,0004*60
$GPHPD,0,0.000,55.12,-0.46,-12.45,31.5933291,120.7793216,2.819,13630055.333,24925884.327,2.819,0.000,0.000,0.000,0.000,0.000,0.000,0.000,18,16,4*46
$GPGGA,090923.00,3135.5998130,N,12046.7594112,E,4,18,1.5,2.8113,M,8.320,M,01,0004*67
$GPHPD,0,0.000,54.92,-0.71,-12.39,31.5933302,120.7793235,2.811,13630054.595,24925885.299,2.811,0.000,0.000,0.000,0.000,0.000,0.000,0.000,18,16,4*44
$GPGGA,090923.20,3135.5998799,N,12046.7595234,E,4,18,1.5,2.8174,M,8.320,M,01,0004*67
$GPHPD,0,0.000,54.64,-0.20,-12.33,31.5933313,120.7793254,2.817,13630053.870,24925886.263,2.817,0.000,0.000,0.000,0.000,0.000,0.000,0.000,18,16,4*43
$GPGGA,090923.40,3135.5999330,N,12046.7596264,E,4,18,1.5,2.8434,M,8.320,M,01,0004*60
$GPHPD,0,0.000,55.13,-0.13,-12.28,31.5933322,120.7793271,2.843,13630053.322,24925887.196,2.843,0.000,0.000,0.000,0.000,0.000,0.000,0.000,18,16,4*49
$GPGGA,090923.60,3135.6000089,N,12046.7597442,E,4,18,1.5,2.8227,M,8.320,M,00,0004*6F
$GPHPD,0,0.000,54.72,-0.14,-12.21,31.5933335,120.7793291,2.823,13630052.480,24925888.174,2.823,0.000,0.000,0.000,0.000,0.000,0.000,0.000,18,16,4*44
$GPGGA,090923.80,3135.6000665,N,12046.7598472,E,4,18,1.5,2.8311,M,8.320,M,00,0004*6D
$GPHPD,0,0.000,55.12,-0.05,-12.17,31.5933344,120.7793308,2.831,13630051.869,24925889.081,2.831,0.000,0.000,0.000,0.000,0.000,0.000,0.000,18,16,4*43
$GPGGA,090924.00,3135.6001281,N,12046.7599500,E,4,18,1.5,2.8508,M,8.320,M,01,0004*67
$GPHPD,0,0.000,54.97,-0.07,-12.13,31.5933355,120.7793325,2.851,13630051.200,24925889.961,2.851,0.000,0.000,0.000,0.000,0.000,0.000,0.000,18,16,4*44
$GPGGA,090924.20,3135.6001919,N,12046.7600525,E,4,18,1.5,2.8366,M,8.320,M,01,0004*65
$GPHPD,0,0.000,54.69,-0.05,-12.10,31.5933365,120.7793342,2.837,13630050.499,24925890.826,2.837,0.000,0.000,0.000,0.000,0.000,0.000,0.000,18,16,4*4B
$GPGGA,090924.40,3135.6002489,N,12046.7601586,E,4,18,1.5,2.8348,M,8.320,M,01,0004*60
$GPHPD,0,0.000,54.71,-0.37,-12.08,31.5933375,120.7793360,2.835,13630049.902,24925891.773,2.835,0.000,0.000,0.000,0.000,0.000,0.000,0.000,18,16,4*42
$GPGGA,090924.60,3135.6002972,N,12046.7602520,E,4,18,1.5,2.8627,M,8.320,M,00,0004*69
$GPHPD,0,0.000,54.79,-0.39,-12.05,31.5933383,120.7793375,2.863,13630049.404,24925892.618,2.863,0.000,0.000,0.000,0.000,0.000,0.000,0.000,18,16,4*40
$GPGGA,090924.80,3135.6003674,N,12046.7603485,E,4,18,1.5,2.8533,M,8.320,M,00,0004*66
$GPHPD,0,0.000,54.38,-0.43,-12.01,31.5933395,120.7793391,2.853,13630048.600,24925893.373,2.853,0.000,0.000,0.000,0.000,0.000,0.000,0.000,18,16,4*4F
$GPGGA,090925.00,3135.6004113,N,12046.7604314,E,4,18,1.5,2.8679,M,8.320,M,01,0004*6A
$GPHPD,0,0.000,54.45,-0.59,-11.97,31.5933402,120.7793405,2.868,13630048.143,24925894.117,2.868,0.000,0.000,0.000,0.000,0.000,0.000,0.000,18,16,4*46
$GPGGA,090925.20,3135.6004720,N,12046.7605237,E,4,18,1.5,2.8409,M,8.320,M,01,0004*6A
$GPHPD,0,0.000,54.11,-0.45,-11.94,31.5933412,120.7793421,2.841,13630047.466,24925894.877,2.841,0.000,0.000,0.000,0.000,0.000,0.000,0.000,18,16,4*4C
$GPGGA,090925.40,3135.6005176,N,12046.7606076,E,4,18,1.5,2.8390,M,8.320,M,01,0004*6B
$GPHPD,0,0.000,54.14,-0.76,-11.91,31.5933420,120.7793435,2.839,13630046.986,24925895.623,2.839,0.000,0.000,0.000,0.000,0.000,0.000,0.000,18,16,4*44
$GPGGA,090925.60,3135.6005595,N,12046.7606877,E,4,18,1.5,2.8733,M,8.320,M,00,0004*65
$GPHPD,0,0.000,53.98,-0.98,-11.89,31.5933427,120.7793448,2.873,13630046.552,24925896.345,2.873,0.000,0.000,0.000,0.000,0.000,0.000,0.000,18,16,4*40
$GPGGA,090925.80,3135.6006162,N,12046.7607731,E,4,18,1.5,2.8666,M,8.320,M,00,0004*69
$GPHPD,0,0.000,53.86,-0.84,-11.87,31.5933436,120.7793462,2.867,13630045.918,24925897.044,2.867,0.000,0.000,0.000,0.000,0.000,0.000,0.000,18,16,4*46
$GPGGA,090926.00,3135.6006604,N,12046.7608574,E,4,18,1.5,2.8684,M,8.320,M,01,0004*64
$GPHPD,0,0.000,53.80,-0.74,-11.85,31.5933443,120.7793476,2.868,13630045.459,24925897.804,2.868,0.000,0.000,0.000,0.000,0.000,0.000,0.000,18,16,4*4E
$GPGGA,090926.20,3135.6007010,N,12046.7609305,E,4,18,1.4,2.8709,M,8.320,M,01,0004*60
$GPHPD,0,0.000,53.75,-0.84,-11.85,31.5933450,120.7793488,2.871,13630045.029,24925898.449,2.871,0.000,0.000,0.000,0.000,0.000,0.000,0.000,18,16,4*41
$GPGGA,090926.40,3135.6007565,N,12046.7610148,E,4,18,1.4,2.8546,M,8.320,M,01,0004*6B
$GPHPD,0,0.000,53.80,-0.68,-11.86,31.5933459,120.7793502,2.855,13630044.410,24925899.142,2.855,0.000,0.000,0.000,0.000,0.000,0.000,0.000,18,16,4*40
$GPGGA,090926.60,3135.6008136,N,12046.7610981,E,4,18,1.4,2.8410,M,8.320,M,00,0004*6A
$GPHPD,0,0.000,54.00,0.17,-11.88,31.5933469,120.7793516,2.841,13630043.766,24925899.814,2.841,0.000,0.000,0.000,0.000,0.000,0.000,0.000,18,16,4*6D
$GPGGA,090926.80,3135.6008643,N,12046.7611846,E,4,18,1.4,2.8311,M,8.320,M,00,0004*6C
$GPHPD,0,0.000,53.98,-0.17,-11.90,31.5933477,120.7793531,2.831,13630043.219,24925900.562,2.831,0.000,0.000,0.000,0.000,0.000,0.000,0.000,18,16,4*45
$GPGGA,090927.00,3135.6009124,N,12046.7612660,E,4,18,1.4,2.8277,M,8.320,M,01,0004*6B
$GPHPD,0,0.000,54.06,-0.57,-11.91,31.5933485,120.7793544,2.828,13630042.699,24925901.263,2.828,0.000,0.000,0.000,0.000,0.000,0.000,0.000,18,16,4*45
$GPGGA,090927.20,3135.6009747,N,12046.7613520,E,4,18,1.4,2.8329,M,8.320,M,01,0004*66
$GPHPD,0,0.000,53.73,-0.50,-11.91,31.5933496,120.7793559,2.833,13630041.987,24925901.937,2.833,0.000,0.000,0.000,0.000,0.000,0.000,0.000,18,16,4*40
$GPGGA,090927.40,3135.6010106,N,12046.7614328,E,4,18,1.4,2.8563,M,8.320,M,01,0004*6A
$GPHPD,0,0.000,53.98,-0.40,-11.90,31.5933502,120.7793572,2.856,13630041.639,24925902.703,2.856,0.000,0.000,0.000,0.000,0.000,0.000,0.000,18,16,4*40
$GPGGA,090927.60,3135.6010680,N,12046.7615165,E,4,18,1.4,2.8532,M,8.320,M,00,0004*6E
$GPHPD,0,0.000,53.84,-0.26,-11.90,31.5933511,120.7793586,2.853,13630040.992,24925903.378,2.853,0.000,0.000,0.000,0.000,0.000,0.000,0.000,18,16,4*42
$GPGGA,090927.80,3135.6011180,N,12046.7615971,E,4,18,1.4,2.8594,M,8.320,M,00,0004*67
$GPHPD,0,0.000,53.80,-0.09,-11.89,31.5933520,120.7793600,2.859,13630040.443,24925904.058,2.859,0.000,0.000,0.000,0.000,0.000,0.000,0.000,18,16,4*4B
$GPGGA,090928.00,3135.6011711,N,12046.7616896,E,4,18,1.4,2.8456,M,8.320,M,01,0004*6B
$GPHPD,0,0.000,53.72,0.40,-11.87,31.5933529,120.7793615,2.846,13630039.874,24925904.865,2.846,0.000,0.000,0.000,0.000,0.000,0.000,0.000,18,16,4*65
$GPGGA,090928.20,3135.6012331,N,12046.7617831,E,4,18,1.4,2.8323,M,8.320,M,01,0004*65
$GPHPD,0,0.000,53.80,0.10,-11.85,31.5933539,120.7793631,2.832,13630039.181,24925905.631,2.832,0.000,0.000,0.000,0.000,0.000,0.000,0.000,18,16,4*65
$GPGGA,090928.40,3135.6012839,N,12046.7618657,E,4,18,1.4,2.8290,M,8.320,M,01,0004*68
$GPHPD,0,0.000,53.65,-0.09,-11.86,31.5933547,120.7793644,2.829,13630038.625,24925906.331,2.829,0.000,0.000,0.000,0.000,0.000,0.000,0.000,18,16,4*4D
$GPGGA,090928.60,3135.6013299,N,12046.7619495,E,4,18,1.4,2.8502,M,8.320,M,00,0004*6B
$GPHPD,0,0.000,53.55,-0.27,-11.88,31.5933555,120.7793658,2.850,13630038.140,24925907.074,2.850,0.000,0.000,0.000,0.000,0.000,0.000,0.000,18,16,4*45
$GPGGA,090928.80,3135.6013784,N,12046.7620320,E,4,18,1.4,2.8502,M,8.320,M,00,0004*6F
$GPHPD,0,0.000,53.26,-0.13,-11.90,31.5933563,120.7793672,2.850,13630037.617,24925907.786,2.850,0.000,0.000,0.000,0.000,0.000,0.000,0.000,18,16,4*42
$GPGGA,090929.00,3135.6014457,N,12046.7621286,E,4,18,1.4,2.8383,M,8.320,M,01,0004*6E
$GPHPD,0,0.000,53.26,-0.40,-11.92,31.5933574,120.7793688,2.838,13630036.854,24925908.559,2.838,0.000,0.000,0.000,0.000,0.000,0.000,0.000,18,16,4*42
$GPGGA,090929.20,3135.6014914,N,12046.7622204,E,4,18,1.4,2.8609,M,8.320,M,01,0004*68
$GPHPD,0,0.000,53.15,-0.21,-11.93,31.5933582,120.7793703,2.861,13630036.389,24925909.400,2.861,0.000,0.000,0.000,0.000,0.000,0.000,0.000,18,16,4*48
$GPGGA,090929.40,3135.6015480,N,12046.7623093,E,4,18,1.4,2.8879,M,8.320,M,01,0004*6B
$GPHPD,0,0.000,52.99,-0.49,-11.95,31.5933591,120.7793718,2.888,13630035.764,24925910.142,2.888,0.000,0.000,0.000,0.000,0.000,0.000,0.000,18,16,4*42
$GPGGA,090929.60,3135.6016108,N,12046.7623975,E,4,18,1.4,2.8730,M,8.320,M,00,0004*6D
$GPHPD,0,0.000,53.10,-0.77,-11.97,31.5933602,120.7793733,2.873,13630035.048,24925910.840,2.873,0.000,0.000,0.000,0.000,0.000,0.000,0.000,18,16,4*4F
$GPGGA,090929.80,3135.6016606,N,12046.7624782,E,4,18,1.4,2.8760,M,8.320,M,00,0004*6E
$GPHPD,0,0.000,53.10,-0.65,-11.98,31.5933610,120.7793746,2.876,13630034.503,24925911.523,2.876,0.000,0.000,0.000,0.000,0.000,0.000,0.000,18,16,4*40
$GPGGA,090930.00,3135.6017202,N,12046.7625773,E,4,18,1.5,2.8426,M,8.320,M,01,0004*61
$GPHPD,0,0.000,53.20,-0.89,-12.00,31.5933620,120.7793763,2.843,13630033.855,24925912.371,2.843,0.000,0.000,0.000,0.000,0.000,0.000,0.000,18,16,4*4C
$GPGGA,090930.20,3135.6017800,N,12046.7626733,E,4,18,1.5,2.8660,M,8.320,M,01,0004*6C
$GPHPD,0,0.000,52.95,-0.62,-12.00,31.5933630,120.7793779,2.866,13630033.198,24925913.181,2.866,0.000,0.000,0.000,0.000,0.000,0.000,0.000,18,16,4*48
$GPGGA,090930.40,3135.6018258,N,12046.7627517,E,4,18,1.5,2.8693,M,8.320,M,01,0004*6B
$GPHPD,0,0.000,53.20,-0.54,-11.99,31.5933638,120.7793792,2.869,13630032.705,24925913.859,2.869,0.000,0.000,0.000,0.000,0.000,0.000,0.000,18,16,4*43
$GPGGA,090930.60,3135.6018887,N,12046.7628356,E,4,18,1.5,2.8319,M,8.320,M,00,0004*6B
$GPHPD,0,0.000,53.20,-0.41,-11.99,31.5933648,120.7793806,2.832,13630031.980,24925914.505,2.832,0.000,0.000,0.000,0.000,0.000,0.000,0.000,18,16,4*41
$GPGGA,090930.80,3135.6019411,N,12046.7629270,E,4,18,1.5,2.8467,M,8.320,M,00,0004*6D
$GPHPD,0,0.000,52.94,-0.28,-12.01,31.5933657,120.7793821,2.847,13630031.419,24925915.302,2.847,0.000,0.000,0.000,0.000,0.000,0.000,0.000,18,16,4*44
$GPGGA,090931.00,3135.6020028,N,12046.7630236,E,4,18,1.5,2.8259,M,8.320,M,01,0004*60
$GPHPD,0,0.000,53.11,-0.11,-12.03,31.5933667,120.7793837,2.826,13630030.736,24925916.107,2.826,0.000,0.000,0.000,0.000,0.000,0.000,0.000,18,16,4*4F
$GPGGA,090931.20,3135.6020620,N,12046.7631163,E,4,18,1.5,2.8346,M,8.320,M,01,0004*61
$GPHPD,0,0.000,53.36,0.21,-12.04,31.5933677,120.7793853,2.835,13630030.081,24925916.880,2.835,0.000,0.000,0.000,0.000,0.000,0.000,0.000,18,16,4*6D
$GPGGA,090931.40,3135.6021192,N,12046.7632104,E,4,18,1.5,2.8296,M,8.320,M,01,0004*66
$GPHPD,0,0.000,53.47,0.24,-12.06,31.5933687,120.7793868,2.830,13630029.457,24925917.682,2.830,0.000,0.000,0.000,0.000,0.000,0.000,0.000,18,16,4*61
$GPGGA,090931.60,3135.6021877,N,12046.7633091,E,4,18,1.5,2.8253,M,8.320,M,00,0004*62
$GPHPD,0,0.000,53.52,0.29,-12.08,31.5933698,120.7793885,2.825,13630028.682,24925918.473,2.825,0.000,0.000,0.000,0.000,0.000,0.000,0.000,18,16,4*63
$GPGGA,090931.80,3135.6022363,N,12046.7633999,E,4,18,1.5,2.8326,M,8.320,M,00,0004*63
$GPHPD,0,0.000,53.55,0.04,-12.09,31.5933706,120.7793900,2.833,13630028.174,24925919.285,2.833,0.000,0.000,0.000,0.000,0.000,0.000,0.000,18,16,4*60
$GPGGA,090932.00,3135.6022787,N,12046.7634903,E,4,18,1.4,2.8341,M,8.320,M,01,0004*63
$GPHPD,0,0.000,53.77,0.52,-12.10,31.5933713,120.7793915,2.834,13630027.753,24925920.128,2.834,0.000,0.000,0.000,0.000,0.000,0.000,0.000,18,16,4*69
$GPGGA,090932.20,3135.6023483,N,12046.7635884,E,4,18,1.4,2.8316,M,8.320,M,01,0004*6A
$GPHPD,0,0.000,53.90,0.85,-12.10,31.5933725,120.7793931,2.832,13630026.961,24925920.906,2.832,0.000,0.000,0.000,0.000,0.000,0.000,0.000,18,16,4*63
$GPGGA,090932.40,3135.6024030,N,12046.7636754,E,4,18,1.4,2.8622,M,8.320,M,01,0004*64
$GPHPD,0,0.000,53.78,0.28,-12.09,31.5933734,120.7793946,2.862,13630026.359,24925921.636,2.862,0.000,0.000,0.000,0.000,0.000,0.000,0.000,18,16,4*66
$GPGGA,090932.60,3135.6024625,N,12046.7637803,E,4,18,1.4,2.8364,M,8.320,M,00,0004*6E
$GPHPD,0,0.000,53.77,0.15,-12.10,31.5933744,120.7793963,2.836,13630025.724,24925922.555,2.836,0.000,0.000,0.000,0.000,0.000,0.000,0.000,18,16,4*67
$GPGGA,090932.80,3135.6025188,N,12046.7638646,E,4,18,1.4,2.8709,M,8.320,M,00,0004*6E
$GPHPD,0,0.000,53.69,-0.12,-12.09,31.5933753,120.7793977,2.871,13630025.094,24925923.243,2.871,0.000,0.000,0.000,0.000,0.000,0.000,0.000,18,16,4*44
$GPGGA,090933.00,3135.6025832,N,12046.7639689,E,4,18,1.4,2.8473,M,8.320,M,01,0004*62
$GPHPD,0,0.000,53.52,-0.74,-12.10,31.5933764,120.7793995,2.847,13630024.388,24925924.126,2.847,0.000,0.000,0.000,0.000,0.000,0.000,0.000,18,16,4*44
$GPGGA,090933.20,3135.6026402,N,12046.7640690,E,4,18,1.4,2.8452,M,8.320,M,01,0004*69
$GPHPD,0,0.000,53.47,-0.35,-12.11,31.5933773,120.7794012,2.845,13630023.779,24925925.001,2.845,0.000,0.000,0.000,0.000,0.000,0.000,0.000,18,16,4*4B
$GPGGA,090933.40,3135.6027050,N,12046.7641792,E,4,18,1.5,2.8552,M,8.320,M,01,0004*6F
$GPHPD,0,0.000,53.50,-1.01,-12.12,31.5933784,120.7794030,2.855,13630023.080,24925925.953,2.855,0.000,0.000,0.000,0.000,0.000,0.000,0.000,18,16,4*4F
$GPGGA,090933.60,3135.6027701,N,12046.7642675,E,4,18,1.5,2.8618,M,8.320,M,01,0004*68
$GPHPD,0,0.000,53.31,-0.53,-12.15,31.5933795,120.7794045,2.862,13630022.332,24925926.638,2.862,0.000,0.000,0.000,0.000,0.000,0.000,0.000,18,16,4*41
$GPGGA,090933.80,3135.6028195,N,12046.7643749,E,4,18,1.5,2.8662,M,8.320,M,00,0004*61
$GPHPD,0,0.000,53.41,-0.71,-12.15,31.5933803,120.7794062,2.866,13630021.846,24925927.646,2.866,0.000,0.000,0.000,0.000,0.000,0.000,0.000,18,16,4*40
$GPGGA,090934.00,3135.6028769,N,12046.7644783,E,4,18,1.5,2.8721,M,8.320,M,01,0004*6D
$GPHPD,0,0.000,53.59,-0.54,-12.13,31.5933813,120.7794080,2.872,13630021.238,24925928.558,2.872,0.000,0.000,0.000,0.000,0.000,0.000,0.000,18,16,4*45
$GPGGA,090934.20,3135.6029489,N,12046.7645768,E,4,18,1.5,2.8704,M,8.320,M,01,0004*60
$GPHPD,0,0.000,53.83,-0.13,-12.13,31.5933825,120.7794096,2.870,13630020.413,24925929.327,2.870,0.000,0.000,0.000,0.000,0.000,0.000,0.000,18,16,4*42
$GPGGA,090934.40,3135.6029902,N,12046.7646793,E,4,18,1.5,2.9041,M,8.320,M,01,0004*68
$GPHPD,0,0.000,54.25,-0.10,-12.13,31.5933832,120.7794113,2.904,13630020.032,24925930.322,2.904,0.000,0.000,0.000,0.000,0.000,0.000,0.000,18,16,4*4A
$GPGGA,090934.60,3135.6030386,N,12046.7647698,E,4,18,1.5,2.8789,M,8.320,M,00,0004*6C
$GPHPD,0,0.000,54.24,0.09,-12.12,31.5933840,120.7794128,2.879,13630019.526,24925931.132,2.879,0.000,0.000,0.000,0.000,0.000,0.000,0.000,18,16,4*6A
$GPGGA,090934.80,3135.6031074,N,12046.7648660,E,4,18,1.4,2.8581,M,8.320,M,00,0004*6E
$GPHPD,0,0.000,53.91,-0.11,-12.13,31.5933851,120.7794144,2.858,13630018.742,24925931.891,2.858,0.000,0.000,0.000,0.000,0.000,0.000,0.000,18,16,4*4D
$GPGGA,090935.00,3135.6031896,N,12046.7649680,E,4,18,1.4,2.8447,M,8.320,M,01,0004*66
$GPHPD,0,0.000,54.27,-0.09,-12.13,31.5933865,120.7794161,2.845,13630017.779,24925932.642,2.845,0.000,0.000,0.000,0.000,0.000,0.000,0.000,18,16,4*4A
$GPGGA,090935.20,3135.6032521,N,12046.7650695,E,4,18,1.4,2.8554,M,8.320,M,01,0004*69
$GPHPD,0,0.000,54.68,-0.21,-12.13,31.5933875,120.7794178,2.855,13630017.094,24925933.502,2.855,0.000,0.000,0.000,0.000,0.000,0.000,0.000,18,16,4*40
$GPGGA,090935.40,3135.6033026,N,12046.7651662,E,4,18,1.4,2.8477,M,8.320,M,01,0004*65
$GPHPD,0,0.000,54.55,-0.45,-12.11,31.5933884,120.7794194,2.848,13630016.571,24925934.374,2.848,0.000,0.000,0.000,0.000,0.000,0.000,0.000,18,16,4*4D
$GPGGA,090935.60,3135.6033472,N,12046.7652558,E,4,18,1.4,2.8612,M,8.320,M,00,0004*6B
$GPHPD,0,0.000,54.70,-0.25,-12.09,31.5933891,120.7794209,2.861,13630016.117,24925935.195,2.861,0.000,0.000,0.000,0.000,0.000,0.000,0.000,18,16,4*4E
$GPGGA,090935.80,3135.6034124,N,12046.7653621,E,4,18,1.4,2.8566,M,8.320,M,00,0004*68
$GPHPD,0,0.000,54.81,-0.34,-12.07,31.5933902,120.7794227,2.857,13630015.404,24925936.097,2.857,0.000,0.000,0.000,0.000,0.000,0.000,0.000,18,16,4*4D
$GPGGA,090936.00,3135.6034629,N,12046.7654629,E,4,18,1.4,2.8564,M,8.320,M,01,0004*65
$GPHPD,0,0.000,54.76,-0.20,-12.03,31.5933910,120.7794244,2.856,13630014.889,24925937.019,2.856,0.000,0.000,0.000,0.000,0.000,0.000,0.000,18,16,4*4D
$GPGGA,090936.20,3135.6035226,N,12046.7655626,E,4,18,1.4,2.8443,M,8.320,M,01,0004*67
$GPHPD,0,0.000,55.29,0.33,-12.00,31.5933920,120.7794260,2.844,13630014.241,24925937.873,2.844,0.000,0.000,0.000,0.000,0.000,0.000,0.000,18,16,4*65
$GPGGA,090936.40,3135.6035940,N,12046.7656515,E,4,18,1.4,2.8402,M,8.320,M,01,0004*6F
$GPHPD,0,0.000,55.65,-0.07,-11.97,31.5933932,120.7794275,2.840,13630013.405,24925938.529,2.840,0.000,0.000,0.000,0.000,0.000,0.000,0.000,18,16,4*41
$GPGGA,090936.60,3135.6036347,N,12046.7657320,E,4,18,1.4,2.8356,M,8.320,M,00,0004*65
$GPHPD,0,0.000,55.85,-0.16,-11.95,31.5933939,120.7794289,2.836,13630012.989,24925939.263,2.836,0.000,0.000,0.000,0.000,0.000,0.000,0.000,18,16,4*45
$GPGGA,090936.80,3135.6036749,N,12046.7658050,E,4,18,1.4,2.8484,M,8.320,M,00,0004*62
$GPHPD,0,0.000,55.79,-0.16,-11.91,31.5933946,120.7794301,2.848,13630012.564,24925939.909,2.848,0.000,0.000,0.000,0.000,0.000,0.000,0.000,18,16,4*43
$GPGGA,090937.00,3135.6037070,N,12046.7658775,E,4,18,1.5,2.8705,M,8.320,M,01,0004*6D
$GPHPD,0,0.000,56.13,0.72,-11.89,31.5933951,120.7794313,2.871,13630012.254,24925940.597,2.871,0.000,0.000,0.000,0.000,0.000,0.000,0.000,18,16,4*6E
$GPGGA,090937.20,3135.6037425,N,12046.7659498,E,4,18,1.5,2.8649,M,8.320,M,01,0004*63
$GPHPD,0,0.000,55.92,0.21,-11.88,31.5933957,120.7794325,2.865,13630011.895,24925941.262,2.865,0.000,0.000,0.000,0.000,0.000,0.000,0.000,18,16,4*68
$GPGGA,090937.40,3135.6037773,N,12046.7660285,E,4,18,1.5,2.8548,M,8.320,M,01,0004*67
$GPHPD,0,0.000,56.03,0.42,-11.89,31.5933963,120.7794338,2.855,13630011.558,24925942.008,2.855,0.000,0.000,0.000,0.000,0.000,0.000,0.000,18,16,4*6D
$GPGGA,090937.60,3135.6038288,N,12046.7661103,E,4,18,1.5,2.8387,M,8.320,M,00,0004*63
$GPHPD,0,0.000,56.40,1.10,-11.92,31.5933971,120.7794352,2.839,13630010.991,24925942.694,2.839,0.000,0.000,0.000,0.000,0.000,0.000,0.000,18,16,4*62
$GPGGA,090937.80,3135.6038710,N,12046.7661880,E,4,18,1.5,2.8499,M,8.320,M,00,0004*63
$GPHPD,0,0.000,56.52,0.91,-11.99,31.5933979,120.7794365,2.850,13630010.547,24925943.386,2.850,0.000,0.000,0.000,0.000,0.000,0.000,0.000,18,16,4*6E
$GPGGA,090938.00,3135.6039200,N,12046.7662685,E,4,18,1.5,2.8521,M,8.320,M,01,0004*6A
$GPHPD,0,0.000,56.85,1.00,-12.06,31.5933987,120.7794378,2.852,13630010.013,24925944.071,2.852,0.000,0.000,0.000,0.000,0.000,0.000,0.000,18,16,4*6D
$GPGGA,090938.20,3135.6039596,N,12046.7663461,E,4,18,1.5,2.8841,M,8.320,M,01,0004*62
$GPHPD,0,0.000,56.83,1.04,-12.12,31.5933993,120.7794391,2.884,13630009.606,24925944.776,2.884,0.000,0.000,0.000,0.000,0.000,0.000,0.000,18,16,4*62
$GPGGA,090938.40,3135.6040182,N,12046.7664525,E,4,18,1.5,2.8804,M,8.320,M,01,0004*6C
$GPHPD,0,0.000,56.80,0.54,-12.16,31.5934003,120.7794409,2.880,13630008.987,24925945.718,2.880,0.000,0.000,0.000,0.000,0.000,0.000,0.000,18,16,4*6E
$GPGGA,090938.60,3135.6040661,N,12046.7665511,E,4,18,1.5,2.8770,M,8.320,M,00,0004*6F
$GPHPD,0,0.000,56.66,-0.72,-12.21,31.5934011,120.7794425,2.877,13630008.505,24925946.628,2.877,0.000,0.000,0.000,0.000,0.000,0.000,0.000,18,15,4*42
$GPGGA,090938.80,3135.6041239,N,12046.7666642,E,4,18,1.5,2.8748,M,8.321,M,00,0004*65
$GPHPD,0,0.000,56.57,-0.85,-12.25,31.5934021,120.7794444,2.875,13630007.911,24925947.655,2.875,0.000,0.000,0.000,0.000,0.000,0.000,0.000,18,15,4*45
$GPGGA,090939.00,3135.6041878,N,12046.7667831,E,4,18,1.5,2.8690,M,8.321,M,01,0004*6D
$GPHPD,0,0.000,56.70,-0.19,-12.28,31.5934031,120.7794464,2.869,13630007.242,24925948.717,2.869,0.000,0.000,0.000,0.000,0.000,0.000,0.000,18,15,4*4E
$GPGGA,090939.20,3135.6042479,N,12046.7668883,E,4,18,1.4,2.8664,M,8.321,M,01,0004*6D
$GPHPD,0,0.000,56.72,-0.25,-12.32,31.5934041,120.7794481,2.866,13630006.599,24925949.635,2.866,0.000,0.000,0.000,0.000,0.000,0.000,0.000,18,15,4*44
$GPGGA,090939.40,3135.6043048,N,12046.7670079,E,4,18,1.4,2.8528,M,8.321,M,01,0004*63
$GPHPD,0,0.000,56.91,-0.16,-12.35,31.5934051,120.7794501,2.853,13630006.031,24925950.746,2.853,0.000,0.000,0.000,0.000,0.000,0.000,0.000,18,15,4*4C
$GPGGA,090939.60,3135.6043690,N,12046.7671273,E,4,18,1.4,2.8564,M,8.321,M,00,0004*62
$GPHPD,0,0.000,57.01,-0.36,-12.41,31.5934062,120.7794521,2.856,13630005.358,24925951.812,2.856,0.000,0.000,0.000,0.000,0.000,0.000,0.000,18,15,4*47
$GPGGA,090939.80,3135.6044366,N,12046.7672622,E,4,18,1.4,2.8512,M,8.321,M,00,0004*65
$GPHPD,0,0.000,56.76,-0.66,-12.44,31.5934073,120.7794544,2.851,13630004.669,24925953.045,2.851,0.000,0.000,0.000,0.000,0.000,0.000,0.000,18,15,4*4B
$GPGGA,090940.00,3135.6045049,N,12046.7674034,E,4,18,1.4,2.8583,M,8.321,M,01,0004*62
$GPHPD,0,0.000,57.02,-0.68,-12.46,31.5934084,120.7794567,2.858,13630003.982,24925954.350,2.858,0.000,0.000,0.000,0.000,0.000,0.000,0.000,18,15,4*41
$GPGGA,090940.20,3135.6045602,N,12046.7675370,E,4,18,1.4,2.8784,M,8.321,M,01,0004*6E
$GPHPD,0,0.000,57.15,-0.97,-12.50,31.5934093,120.7794590,2.878,13630003.465,24925955.639,2.878,0.000,0.000,0.000,0.000,0.000,0.000,0.000,18,15,4*41
$GPGGA,090940.40,3135.6046318,N,12046.7676774,E,4,18,1.4,2.8888,M,8.321,M,01,0004*65
$GPHPD,0,0.000,57.37,-0.71,-12.53,31.5934105,120.7794613,2.889,13630002.730,24925956.915,2.889,0.000,0.000,0.000,0.000,0.000,0.000,0.000,18,15,4*4C
$GPGGA,090940.60,3135.6047303,N,12046.7678259,E,4,18,1.4,2.8641,M,8.321,M,00,0004*62
$GPHPD,0,0.000,57.72,-0.28,-12.56,31.5934122,120.7794638,2.864,13630001.628,24925958.132,2.864,0.000,0.000,0.000,0.000,0.000,0.000,0.000,18,15,4*40
$GPGGA,090940.80,3135.6047746,N,12046.7679592,E,4,18,1.4,2.9063,M,8.321,M,00,0004*6F
$GPHPD,0,0.000,57.37,-0.84,-12.62,31.5934129,120.7794660,2.906,13630001.267,24925959.482,2.906,0.000,0.000,0.000,0.000,0.000,0.000,0.000,18,15,4*46
$GPGGA,090941.00,3135.6048596,N,12046.7681149,E,4,18,1.4,2.9156,M,8.321,M,01,0004*65
$GPHPD,0,0.000,57.38,-0.68,-12.63,31.5934143,120.7794686,2.916,13630000.372,24925960.864,2.916,0.000,0.000,0.000,0.000,0.000,0.000,0.000,18,15,4*44
$GPGGA,090941.20,3135.6049493,N,12046.7682787,E,4,18,1.4,2.8784,M,8.321,M,01,0004*6D
$GPHPD,0,0.000,58.04,-0.34,-12.64,31.5934158,120.7794713,2.878,13629999.426,24925962.317,2.878,0.000,0.000,0.000,0.000,0.000,0.000,0.000,18,15,4*47
$GPGGA,090941.40,3135.6050383,N,12046.7684447,E,4,18,1.4,2.8654,M,8.321,M,01,0004*60
$GPHPD,0,0.000,58.20,-0.37,-12.65,31.5934173,120.7794741,2.865,13629998.495,24925963.800,2.865,0.000,0.000,0.000,0.000,0.000,0.000,0.000,18,15,4*48
$GPGGA,090941.60,3135.6051067,N,12046.7685975,E,4,18,1.4,2.8715,M,8.321,M,00,0004*62
$GPHPD,0,0.000,57.93,-0.58,-12.67,31.5934184,120.7794766,2.872,13629997.830,24925965.245,2.872,0.000,0.000,0.000,0.000,0.000,0.000,0.000,18,15,4*48
$GPGGA,090941.80,3135.6051992,N,12046.7687581,E,4,18,1.5,2.8509,M,8.321,M,00,0004*64
$GPHPD,0,0.000,57.64,-0.06,-12.67,31.5934200,120.7794793,2.851,13629996.839,24925966.642,2.851,0.000,0.000,0.000,0.000,0.000,0.000,0.000,18,15,4*46
$GPGGA,090942.00,3135.6052732,N,12046.7689275,E,4,18,1.5,2.8583,M,8.321,M,01,0004*69
$GPHPD,0,0.000,58.13,-0.34,-12.69,31.5934212,120.7794821,2.858,13629996.128,24925968.254,2.858,0.000,0.000,0.000,0.000,0.000,0.000,0.000,18,15,4*47
$GPGGA,090942.20,3135.6053666,N,12046.7690977,E,4,18,1.5,2.8466,M,8.321,M,01,0004*61
$GPHPD,0,0.000,58.17,-0.92,-12.70,31.5934228,120.7794850,2.847,13629995.142,24925969.763,2.847,0.000,0.000,0.000,0.000,0.000,0.000,0.000,18,15,4*47
$GPGGA,090942.40,3135.6054558,N,12046.7692654,E,4,18,1.5,2.8339,M,8.321,M,01,0004*6F
$GPHPD,0,0.000,57.81,-1.00,-12.69,31.5934243,120.7794878,2.834,13629994.212,24925971.265,2.834,0.000,0.000,0.000,0.000,0.000,0.000,0.000,18,15,4*4F
$GPGGA,090942.60,3135.6055234,N,12046.7694407,E,4,18,1.5,2.8658,M,8.321,M,00,0004*60
$GPHPD,0,0.000,57.93,-0.48,-12.68,31.5934254,120.7794907,2.866,13629993.604,24925972.986,2.866,0.000,0.000,0.000,0.000,0.000,0.000,0.000,18,15,4*4E
$GPGGA,090942.80,3135.6056161,N,12046.7696074,E,4,18,1.5,2.8703,M,8.321,M,00,0004*63
$GPHPD,0,0.000,58.18,-0.49,-12.68,31.5934269,120.7794935,2.870,13629992.621,24925974.456,2.870,0.000,0.000,0.000,0.000,0.000,0.000,0.000,18,16,4*4F
$GPGGA,090943.00,3135.6056924,N,12046.7697802,E,4,18,1.4,2.8871,M,8.321,M,01,0004*61
$GPHPD,0,0.000,58.52,-0.59,-12.70,31.5934282,120.7794963,2.887,13629991.884,24925976.095,2.887,0.000,0.000,0.000,0.000,0.000,0.000,0.000,18,16,4*44
$GPGGA,090943.20,3135.6057826,N,12046.7699597,E,4,18,1.4,2.8898,M,8.321,M,01,0004*69
$GPHPD,0,0.000,58.42,-0.10,-12.69,31.5934297,120.7794993,2.890,13629990.963,24925977.735,2.890,0.000,0.000,0.000,0.000,0.000,0.000,0.000,18,16,4*4E
$GPGGA,090943.40,3135.6058804,N,12046.7701463,E,4,18,1.5,2.8741,M,8.321,M,01,0004*60
$GPHPD,0,0.000,58.01,-0.59,-12.72,31.5934313,120.7795024,2.874,13629989.949,24925979.415,2.874,0.000,0.000,0.000,0.000,0.000,0.000,0.000,18,16,4*48
$GPGGA,090943.60,3135.6059586,N,12046.7703202,E,4,18,1.5,2.8694,M,8.321,M,00,0004*6F
$GPHPD,0,0.000,58.24,-0.26,-12.71,31.5934326,120.7795053,2.869,13629989.187,24925981.057,2.869,0.000,0.000,0.000,0.000,0.000,0.000,0.000,18,16,4*4D
$GPGGA,090943.80,3135.6060435,N,12046.7704983,E,4,18,1.5,2.8482,M,8.321,M,00,0004*62
$GPHPD,0,0.000,58.18,-0.48,-12.70,31.5934341,120.7795083,2.848,13629988.338,24925982.710,2.848,0.000,0.000,0.000,0.000,0.000,0.000,0.000,18,16,4*47
$GPGGA,090944.00,3135.6061468,N,12046.7706859,E,4,18,1.5,2.8129,M,8.321,M,01,0004*65
$GPHPD,0,0.000,58.26,-0.81,-12.69,31.5934358,120.7795114,2.813,13629987.247,24925984.370,2.813,0.000,0.000,0.000,0.000,0.000,0.000,0.000,18,16,4*42
$GPGGA,090944.20,3135.6062295,N,12046.7708598,E,4,18,1.6,2.8567,M,8.321,M,01,0004*63
$GPHPD,0,0.000,57.97,-0.25,-12.70,31.5934372,120.7795143,2.857,13629986.422,24925985.986,2.857,0.000,0.000,0.000,0.000,0.000,0.000,0.000,18,16,4*4D
$GPGGA,090944.40,3135.6063250,N,12046.7710427,E,4,18,1.6,2.8618,M,8.321,M,01,0004*6A
$GPHPD,0,0.000,57.70,-0.67,-12.67,31.5934388,120.7795174,2.862,13629985.432,24925987.635,2.862,0.000,0.000,0.000,0.000,0.000,0.000,0.000,18,16,4*42
$GPGGA,090944.60,3135.6064102,N,12046.7712179,E,4,18,1.5,2.8407,M,8.321,M,00,0004*69
$GPHPD,0,0.000,58.20,-0.53,-12.67,31.5934402,120.7795203,2.841,13629984.574,24925989.252,2.841,0.000,0.000,0.000,0.000,0.000,0.000,0.000,18,16,4*40
$GPGGA,090944.80,3135.6064975,N,12046.7713963,E,4,18,1.5,2.8580,M,8.321,M,00,0004*63
$GPHPD,0,0.000,58.03,-0.63,-12.66,31.5934416,120.7795233,2.858,13629983.692,24925990.895,2.858,0.000,0.000,0.000,0.000,0.000,0.000,0.000,18,16,4*40
$GPGGA,090945.00,3135.6065839,N,12046.7715848,E,4,18,1.5,2.8481,M,8.321,M,01,0004*6D
$GPHPD,0,0.000,58.19,-0.62,-12.61,31.5934431,120.7795264,2.848,13629982.843,24925992.664,2.848,0.000,0.000,0.000,0.000,0.000,0.000,0.000,18,16,4*4B
$GPGGA,090945.20,3135.6066711,N,12046.7717555,E,4,18,1.5,2.8976,M,8.321,M,01,0004*6F
$GPHPD,0,0.000,58.18,-0.49,-12.59,31.5934445,120.7795293,2.898,13629981.947,24925994.215,2.898,0.000,0.000,0.000,0.000,0.000,0.000,0.000,18,16,4*41
$GPGGA,090945.40,3135.6067555,N,12046.7719428,E,4,18,1.5,2.8931,M,8.321,M,01,0004*6C
$GPHPD,0,0.000,58.32,-0.59,-12.58,31.5934459,120.7795324,2.893,13629981.124,24925995.982,2.893,0.000,0.000,0.000,0.000,0.000,0.000,0.000,18,16,4*40
$GPGGA,090945.60,3135.6068559,N,12046.7721259,E,4,18,1.4,2.8788,M,8.321,M,00,0004*6A
$GPHPD,0,0.000,58.04,-0.33,-12.55,31.5934476,120.7795354,2.879,13629980.065,24925997.605,2.879,0.000,0.000,0.000,0.000,0.000,0.000,0.000,18,16,4*49
$GPGGA,090945.80,3135.6069639,N,12046.7723166,E,4,18,1.4,2.8560,M,8.321,M,00,0004*69
$GPHPD,0,0.000,57.98,-0.64,-12.52,31.5934494,120.7795386,2.856,13629978.914,24925999.276,2.856,0.000,0.000,0.000,0.000,0.000,0.000,0.000,18,16,4*43
$GPGGA,090946.00,3135.6070562,N,12046.7724974,E,4,18,1.5,2.8575,M,8.321,M,01,0004*6F
$GPHPD,0,0.000,57.99,-0.59,-12.52,31.5934509,120.7795416,2.858,13629977.965,24926000.919,2.858,0.000,0.000,0.000,0.000,0.000,0.000,0.000,18,16,4*46
$GPGGA,090946.20,3135.6071316,N,12046.7726746,E,4,18,1.5,2.8688,M,8.321,M,01,0004*65
$GPHPD,0,0.000,57.84,-0.63,-12.50,31.5934522,120.7795446,2.869,13629977.250,24926002.616,2.869,0.000,0.000,0.000,0.000,0.000,0.000,0.000,18,16,4*42
$GPGGA,090946.40,3135.6072423,N,12046.7728585,E,4,18,1.5,2.8750,M,8.321,M,01,0004*66
$GPHPD,0,0.000,57.62,-0.44,-12.46,31.5934540,120.7795476,2.875,13629976.047,24926004.189,2.875,0.000,0.000,0.000,0.000,0.000,0.000,0.000,18,16,4*4D
$GPGGA,090946.60,3135.6073238,N,12046.7730368,E,4,18,1.5,2.8725,M,8.321,M,00,0004*66
$GPHPD,0,0.000,57.65,-1.01,-12.46,31.5934554,120.7795506,2.873,13629975.247,24926005.865,2.873,0.000,0.000,0.000,0.000,0.000,0.000,0.000,18,16,4*42
$GPGGA,090946.80,3135.6074141,N,12046.7732224,E,4,18,1.5,2.8766,M,8.321,M,00,0004*6E
$GPHPD,0,0.000,57.61,-0.94,-12.44,31.5934569,120.7795537,2.877,13629974.337,24926007.577,2.877,0.000,0.000,0.000,0.000,0.000,0.000,0.000,18,16,4*4E
$GPGGA,090947.00,3135.6075029,N,12046.7734136,E,4,18,1.5,2.8745,M,8.321,M,01,0004*6F
$GPHPD,0,0.000,57.62,-0.60,-12.41,31.5934584,120.7795569,2.875,13629973.459,24926009.365,2.875,0.000,0.000,0.000,0.000,0.000,0.000,0.000,18,16,4*48
$GPGGA,090947.20,3135.6075953,N,12046.7735936,E,4,18,1.4,2.8730,M,8.321,M,01,0004*63
$GPHPD,0,0.000,57.39,-0.78,-12.41,31.5934599,120.7795599,2.873,13629972.508,24926010.998,2.873,0.000,0.000,0.000,0.000,0.000,0.000,0.000,18,16,4*48
$GPGGA,090947.40,3135.6077008,N,12046.7737743,E,4,18,1.4,2.8453,M,8.321,M,01,0004*68
$GPHPD,0,0.000,57.51,-0.93,-12.41,31.5934617,120.7795629,2.845,13629971.372,24926012.562,2.845,0.000,0.000,0.000,0.000,0.000,0.000,0.000,18,16,4*4D
$GPGGA,090947.60,3135.6077862,N,12046.7739626,E,4,18,1.4,2.8779,M,8.321,M,00,0004*68
$GPHPD,0,0.000,57.35,-0.70,-12.38,31.5934631,120.7795660,2.878,13629970.537,24926014.336,2.878,0.000,0.000,0.000,0.000,0.000,0.000,0.000,18,16,4*42
$GPGGA,090947.80,3135.6078804,N,12046.7741556,E,4,18,1.4,2.8986,M,8.321,M,00,0004*6C
$GPHPD,0,0.000,57.48,-1.07,-12.40,31.5934647,120.7795693,2.899,13629969.586,24926016.114,2.899,0.000,0.000,0.000,0.000,0.000,0.000,0.000,18,16,4*49
$GPGGA,090948.00,3135.6079790,N,12046.7743360,E,4,18,1.4,2.8837,M,8.321,M,01,0004*63
$GPHPD,0,0.000,57.67,-0.57,-12.42,31.5934663,120.7795723,2.884,13629968.547,24926017.715,2.884,0.000,0.000,0.000,0.000,0.000,0.000,0.000,18,16,4*44
$GPGGA,090948.20,3135.6080804,N,12046.7745194,E,4,18,1.4,2.8493,M,8.321,M,01,0004*68
$GPHPD,0,0.000,57.49,-0.39,-12.43,31.5934680,120.7795753,2.849,13629967.475,24926019.336,2.849,0.000,0.000,0.000,0.000,0.000,0.000,0.000,18,16,4*4F
$GPGGA,090948.40,3135.6081692,N,12046.7747120,E,4,18,1.5,2.8544,M,8.321,M,01,0004*69
$GPHPD,0,0.000,57.79,-0.51,-12.41,31.5934695,120.7795785,2.854,13629966.600,24926021.142,2.854,0.000,0.000,0.000,0.000,0.000,0.000,0.000,18,16,4*44
$GPGGA,090948.60,3135.6082647,N,12046.7749022,E,4,18,1.5,2.8640,M,8.321,M,00,0004*6B
$GPHPD,0,0.000,57.71,-0.08,-12.43,31.5934711,120.7795817,2.864,13629965.625,24926022.879,2.864,0.000,0.000,0.000,0.000,0.000,0.000,0.000,18,16,4*4D
$GPGGA,090948.80,3135.6083573,N,12046.7750882,E,4,18,1.5,2.8912,M,8.321,M,00,0004*62
$GPHPD,0,0.000,57.77,-0.43,-12.42,31.5934726,120.7795848,2.891,13629964.683,24926024.583,2.891,0.000,0.000,0.000,0.000,0.000,0.000,0.000,18,16,4*48
$GPGGA,090949.00,3135.6084646,N,12046.7752765,E,4,18,1.5,2.8832,M,8.321,M,01,0004*6F
$GPHPD,0,0.000,57.80,-0.35,-12.40,31.5934744,120.7795879,2.883,13629963.537,24926026.228,2.883,0.000,0.000,0.000,0.000,0.000,0.000,0.000,18,16,4*4A
$GPGGA,090949.20,3135.6085520,N,12046.7754610,E,4,18,1.5,2.8902,M,8.321,M,01,0004*68
$GPHPD,0,0.000,57.65,-0.41,-12.39,31.5934759,120.7795910,2.890,13629962.666,24926027.944,2.890,0.000,0.000,0.000,0.000,0.000,0.000,0.000,18,16,4*48
$GPGGA,090949.40,3135.6086458,N,12046.7756523,E,4,17,1.5,2.8990,M,8.321,M,01,0004*66
$GPHPD,0,0.000,57.63,-0.87,-12.39,31.5934774,120.7795942,2.899,13629961.717,24926029.705,2.899,0.000,0.000,0.000,0.000,0.000,0.000,0.000,17,16,4*42
$GPGGA,090949.60,3135.6087499,N,12046.7758462,E,4,18,1.5,2.8920,M,8.321,M,01,0004*66
$GPHPD,0,0.000,57.61,-0.58,-12.37,31.5934792,120.7795974,2.892,13629960.628,24926031.437,2.892,0.000,0.000,0.000,0.000,0.000,0.000,0.000,18,16,4*49
$GPGGA,090949.80,3135.6088394,N,12046.7760320,E,4,18,1.5,2.9033,M,8.321,M,01,0004*6D
$GPHPD,0,0.000,57.58,-0.76,-12.36,31.5934807,120.7796005,2.903,13629959.729,24926033.156,2.903,0.000,0.000,0.000,0.000,0.000,0.000,0.000,18,16,4*4B
$GPGGA,090950.00,3135.6089372,N,12046.7762239,E,4,18,1.5,2.8966,M,8.321,M,02,0004*64
$GPHPD,0,0.000,57.79,-0.47,-12.36,31.5934823,120.7796037,2.897,13629958.725,24926034.900,2.897,0.000,0.000,0.000,0.000,0.000,0.000,0.000,18,16,4*4C
$GPGGA,090950.20,3135.6090309,N,12046.7764088,E,4,18,1.5,2.8972,M,8.321,M,02,0004*69
$GPHPD,0,0.000,57.76,-0.13,-12.37,31.5934838,120.7796068,2.897,13629957.765,24926036.584,2.897,0.000,0.000,0.000,0.000,0.000,0.000,0.000,18,15,4*49
$GPGGA,090950.40,3135.6091224,N,12046.7766064,E,4,18,1.5,2.9051,M,8.321,M,02,0004*69
$GPHPD,0,0.000,57.66,-0.68,-12.39,31.5934854,120.7796101,2.905,13629956.862,24926038.434,2.905,0.000,0.000,0.000,0.000,0.000,0.000,0.000,18,16,4*40
$GPGGA,090950.60,3135.6092153,N,12046.7767917,E,4,18,1.5,2.9044,M,8.321,M,02,0004*63
$GPHPD,0,0.000,57.65,-0.23,-12.39,31.5934869,120.7796132,2.904,13629955.915,24926040.128,2.904,0.000,0.000,0.000,0.000,0.000,0.000,0.000,18,16,4*47
$GPGGA,090950.80,3135.6093155,N,12046.7769741,E,4,18,1.5,2.9083,M,8.321,M,02,0004*62
$GPHPD,0,0.000,57.69,-0.51,-12.41,31.5934886,120.7796162,2.908,13629954.857,24926041.744,2.908,0.000,0.000,0.000,0.000,0.000,0.000,0.000,18,16,4*4E
$GPGGA,090951.00,3135.6094021,N,12046.7771632,E,4,18,1.5,2.8970,M,8.321,M,01,0004*65
$GPHPD,0,0.000,57.54,-0.48,-12.40,31.5934900,120.7796194,2.897,13629954.007,24926043.520,2.897,0.000,0.000,0.000,0.000,0.000,0.000,0.000,18,16,4*40
$GPGGA,090951.20,3135.6094915,N,12046.7773543,E,4,18,1.4,2.9094,M,8.321,M,01,0004*6D
$GPHPD,0,0.000,58.28,-0.42,-12.42,31.5934915,120.7796226,2.909,13629953.120,24926045.303,2.909,0.000,0.000,0.000,0.000,0.000,0.000,0.000,18,16,4*40
$GPGGA,090951.40,3135.6095919,N,12046.7775419,E,4,18,1.4,2.9083,M,8.321,M,01,0004*68
$GPHPD,0,0.000,57.85,-0.69,-12.42,31.5934932,120.7796257,2.908,13629952.071,24926046.981,2.908,0.000,0.000,0.000,0.000,0.000,0.000,0.000,18,16,4*45
$GPGGA,090951.60,3135.6096964,N,12046.7777297,E,4,18,1.4,2.8901,M,8.321,M,00,0004*62
$GPHPD,0,0.000,58.21,-0.32,-12.40,31.5934949,120.7796288,2.890,13629950.963,24926048.637,2.890,0.000,0.000,0.000,0.000,0.000,0.000,0.000,18,16,4*42
$GPGGA,090951.80,3135.6097943,N,12046.7779168,E,4,18,1.4,2.8596,M,8.321,M,00,0004*67
$GPHPD,0,0.000,58.24,-0.97,-12.39,31.5934966,120.7796319,2.860,13629949.948,24926050.323,2.860,0.000,0.000,0.000,0.000,0.000,0.000,0.000,18,16,4*4A
$GPGGA,090952.00,3135.6098909,N,12046.7781180,E,4,18,1.4,2.8837,M,8.321,M,01,0004*6B
$GPHPD,0,0.000,58.20,-0.58,-12.37,31.5934982,120.7796353,2.884,13629948.980,24926052.187,2.884,0.000,0.000,0.000,0.000,0.000,0.000,0.000,18,16,4*4C
$GPGGA,090952.20,3135.6099864,N,12046.7783124,E,4,18,1.4,2.9067,M,8.321,M,01,0004*62
$GPHPD,0,0.000,58.23,-0.88,-12.35,31.5934998,120.7796385,2.907,13629948.013,24926053.975,2.907,0.000,0.000,0.000,0.000,0.000,0.000,0.000,18,16,4*47
$GPGGA,090952.40,3135.6100702,N,12046.7784988,E,4,18,1.4,2.9114,M,8.321,M,01,0004*66
$GPHPD,0,0.000,58.37,-0.63,-12.33,31.5935012,120.7796416,2.911,13629947.197,24926055.734,2.911,0.000,0.000,0.000,0.000,0.000,0.000,0.000,18,16,4*49
$GPGGA,090952.60,3135.6101721,N,12046.7786882,E,4,18,1.4,2.8855,M,8.321,M,00,0004*61
$GPHPD,0,0.000,58.37,-0.72,-12.33,31.5935029,120.7796448,2.886,13629946.130,24926057.425,2.886,0.000,0.000,0.000,0.000,0.000,0.000,0.000,18,16,4*47
$GPGGA,090952.80,3135.6102755,N,12046.7788789,E,4,18,1.4,2.8982,M,8.321,M,00,0004*6E
$GPHPD,0,0.000,58.55,-0.30,-12.33,31.5935046,120.7796480,2.898,13629945.044,24926059.122,2.898,0.000,0.000,0.000,0.000,0.000,0.000,0.000,18,16,4*45
$GPGGA,090953.00,3135.6103581,N,12046.7790673,E,4,18,1.4,2.9038,M,8.321,M,01,0004*68
$GPHPD,0,0.000,58.40,-0.30,-12.33,31.5935060,120.7796511,2.904,13629944.248,24926060.913,2.904,0.000,0.000,0.000,0.000,0.000,0.000,0.000,18,16,4*43
$GPGGA,090953.20,3135.6104470,N,12046.7792521,E,4,18,1.4,2.9120,M,8.321,M,01,0004*6C
$GPHPD,0,0.000,59.83,-0.16,-12.32,31.5935075,120.7796542,2.912,13629943.357,24926062.624,2.912,0.000,0.000,0.000,0.000,0.000,0.000,0.000,18,16,4*4B
$GPGGA,090953.40,3135.6105417,N,12046.7794499,E,4,18,1.4,2.9246,M,8.321,M,01,0004*6D
$GPHPD,0,0.000,59.42,0.37,-12.32,31.5935090,120.7796575,2.925,13629942.408,24926064.457,2.925,0.000,0.000,0.000,0.000,0.000,0.000,0.000,18,16,4*6B
$GPGGA,090953.60,3135.6106435,N,12046.7796436,E,4,18,1.4,2.9166,M,8.321,M,00,0004*6B
$GPHPD,0,0.000,59.54,0.16,-12.32,31.5935107,120.7796607,2.917,13629941.351,24926066.200,2.917,0.000,0.000,0.000,0.000,0.000,0.000,0.000,18,16,4*68
$GPGGA,090953.80,3135.6107375,N,12046.7798328,E,4,18,1.4,2.8895,M,8.321,M,00,0004*65
$GPHPD,0,0.000,58.99,-0.60,-12.35,31.5935123,120.7796639,2.890,13629940.396,24926067.934,2.890,0.000,0.000,0.000,0.000,0.000,0.000,0.000,18,16,4*4F
$GPGGA,090954.00,3135.6108229,N,12046.7800298,E,4,18,1.4,2.9265,M,8.321,M,01,0004*6C
$GPHPD,0,0.000,59.71,0.50,-12.39,31.5935137,120.7796672,2.927,13629939.578,24926069.812,2.927,0.000,0.000,0.000,0.000,0.000,0.000,0.000,18,16,4*63
$GPGGA,090954.20,3135.6109219,N,12046.7802279,E,4,18,1.4,2.9047,M,8.321,M,01,0004*63
$GPHPD,0,0.000,59.67,-0.11,-12.40,31.5935154,120.7796705,2.905,13629938.569,24926071.625,2.905,0.000,0.000,0.000,0.000,0.000,0.000,0.000,18,16,4*44
$GPGGA,090954.40,3135.6110081,N,12046.7804201,E,4,18,1.4,2.9031,M,8.321,M,01,0004*66
$GPHPD,0,0.000,59.47,0.46,-12.37,31.5935168,120.7796737,2.903,13629937.731,24926073.440,2.903,0.000,0.000,0.000,0.000,0.000,0.000,0.000,18,16,4*64
$GPGGA,090954.60,3135.6111138,N,12046.7806129,E,4,18,1.4,2.9065,M,8.321,M,01,0004*6C
$GPHPD,0,0.000,59.88,0.56,-12.36,31.5935186,120.7796769,2.907,13629936.616,24926075.150,2.907,0.000,0.000,0.000,0.000,0.000,0.000,0.000,18,16,4*6B
$GPGGA,090954.80,3135.6111901,N,12046.7808017,E,4,18,1.4,2.9328,M,8.321,M,01,0004*68
$GPHPD,0,0.000,59.93,-0.85,-12.33,31.5935198,120.7796800,2.933,13629935.911,24926076.982,2.933,0.000,0.000,0.000,0.000,0.000,0.000,0.000,18,15,4*44
$GPGGA,090955.00,3135.6112798,N,12046.7809882,E,4,18,1.4,2.9150,M,8.321,M,01,0004*64
$GPHPD,0,0.000,59.92,-0.65,-12.32,31.5935213,120.7796831,2.915,13629935.011,24926078.709,2.915,0.000,0.000,0.000,0.000,0.000,0.000,0.000,18,15,4*42
$GPGGA,090955.20,3135.6113924,N,12046.7811872,E,4,18,1.4,2.9169,M,8.321,M,01,0004*62
$GPHPD,0,0.000,59.99,-0.77,-12.32,31.5935232,120.7796865,2.917,13629933.811,24926080.452,2.917,0.000,0.000,0.000,0.000,0.000,0.000,0.000,18,15,4*4C
$GPGGA,090955.40,3135.6114582,N,12046.7813747,E,4,17,1.4,2.9403,M,8.321,M,01,0004*6E
$GPHPD,0,0.000,60.01,-0.35,-12.28,31.5935243,120.7796896,2.940,13629933.253,24926082.330,2.940,0.000,0.000,0.000,0.000,0.000,0.000,0.000,17,16,4*41
$GPGGA,090955.60,3135.6115574,N,12046.7815631,E,4,17,1.4,2.9324,M,8.321,M,00,0004*61
$GPHPD,0,0.000,60.63,0.17,-12.28,31.5935260,120.7796927,2.932,13629932.222,24926084.024,2.932,0.000,0.000,0.000,0.000,0.000,0.000,0.000,17,16,4*65
$GPGGA,090955.80,3135.6116601,N,12046.7817623,E,4,17,1.4,2.9286,M,8.321,M,00,0004*65
$GPHPD,0,0.000,60.41,0.43,-12.26,31.5935277,120.7796960,2.929,13629931.163,24926085.828,2.929,0.000,0.000,0.000,0.000,0.000,0.000,0.000,17,16,4*6F
$GPGGA,090956.00,3135.6117446,N,12046.7819513,E,4,17,1.4,2.9468,M,8.321,M,01,0004*67
$GPHPD,0,0.000,60.45,-0.48,-12.27,31.5935291,120.7796992,2.947,13629930.342,24926087.615,2.947,0.000,0.000,0.000,0.000,0.000,0.000,0.000,17,16,4*4B
$GPGGA,090956.20,3135.6118381,N,12046.7821400,E,4,17,1.5,2.9313,M,8.321,M,01,0004*64
$GPHPD,0,0.000,60.45,-0.91,-12.25,31.5935306,120.7797023,2.931,13629929.393,24926089.346,2.931,0.000,0.000,0.000,0.000,0.000,0.000,0.000,17,16,4*49
$GPGGA,090956.40,3135.6119206,N,12046.7823351,E,4,17,1.5,2.9180,M,8.321,M,01,0004*64
$GPHPD,0,0.000,60.33,-0.24,-12.23,31.5935320,120.7797056,2.918,13629928.613,24926091.218,2.918,0.000,0.000,0.000,0.000,0.000,0.000,0.000,17,16,4*49
$GPGGA,090956.60,3135.6120202,N,12046.7825250,E,4,17,1.5,2.9232,M,8.321,M,00,0004*65
$GPHPD,0,0.000,60.42,-0.39,-12.20,31.5935337,120.7797088,2.923,13629927.579,24926092.928,2.923,0.000,0.000,0.000,0.000,0.000,0.000,0.000,17,16,4*4E
$GPGGA,090956.80,3135.6121041,N,12046.7827219,E,4,17,1.5,2.9319,M,8.321,M,00,0004*68
$GPHPD,0,0.000,60.97,0.64,-12.20,31.5935351,120.7797120,2.932,13629926.782,24926094.814,2.932,0.000,0.000,0.000,0.000,0.000,0.000,0.000,17,16,4*6F
$GPGGA,090957.00,3135.6122093,N,12046.7829130,E,4,17,1.5,2.9255,M,8.321,M,01,0004*63
$GPHPD,0,0.000,61.26,1.11,-12.15,31.5935368,120.7797152,2.926,13629925.672,24926096.506,2.926,0.000,0.000,0.000,0.000,0.000,0.000,0.000,17,16,4*6F
$GPGGA,090957.20,3135.6122919,N,12046.7831009,E,4,17,1.5,2.9463,M,8.321,M,01,0004*6B
$GPHPD,0,0.000,60.58,0.04,-12.11,31.5935382,120.7797183,2.946,13629924.875,24926098.290,2.946,0.000,0.000,0.000,0.000,0.000,0.000,0.000,17,16,4*60
$GPGGA,090957.40,3135.6123727,N,12046.7832919,E,4,17,1.5,2.9443,M,8.321,M,01,0004*66
$GPHPD,0,0.000,60.65,-0.08,-12.08,31.5935395,120.7797215,2.944,13629924.111,24926100.123,2.944,0.000,0.000,0.000,0.000,0.000,0.000,0.000,17,16,4*4D
$GPGGA,090957.60,3135.6124727,N,12046.7834867,E,4,17,1.5,2.9411,M,8.321,M,00,0004*6B
$GPHPD,0,0.000,60.02,-1.36,-12.05,31.5935412,120.7797248,2.941,13629923.082,24926101.890,2.941,0.000,0.000,0.000,0.000,0.000,0.000,0.000,17,16,4*41
$GPGGA,090957.80,3135.6125701,N,12046.7836733,E,4,17,1.5,2.9318,M,8.322,M,00,0004*61
$GPHPD,0,0.000,59.80,-1.26,-12.01,31.5935428,120.7797279,2.932,13629922.073,24926103.573,2.932,0.000,0.000,0.000,0.000,0.000,0.000,0.000,17,16,4*42
$GPGGA,090958.00,3135.6126332,N,12046.7838564,E,4,17,1.5,2.9638,M,8.322,M,01,0004*69
$GPHPD,0,0.000,60.26,-0.82,-11.96,31.5935439,120.7797309,2.964,13629921.544,24926105.413,2.964,0.000,0.000,0.000,0.000,0.000,0.000,0.000,17,16,4*43
$GPGGA,090958.20,3135.6127575,N,12046.7840565,E,4,17,1.4,2.9264,M,8.322,M,01,0004*6D
$GPHPD,0,0.000,60.06,-1.08,-11.95,31.5935460,120.7797343,2.926,13629920.180,24926107.102,2.926,0.000,0.000,0.000,0.000,0.000,0.000,0.000,17,16,4*49
$GPGGA,090958.40,3135.6128190,N,12046.7842358,E,4,17,1.4,2.9443,M,8.322,M,01,0004*62
$GPHPD,0,0.000,60.15,-0.44,-11.97,31.5935470,120.7797373,2.944,13629919.666,24926108.906,2.944,0.000,0.000,0.000,0.000,0.000,0.000,0.000,17,16,4*44
$GPGGA,090958.60,3135.6129217,N,12046.7844220,E,4,17,1.5,2.9533,M,8.322,M,01,0004*62
$GPHPD,0,0.000,60.41,-0.58,-11.98,31.5935487,120.7797404,2.953,13629918.581,24926110.553,2.953,0.000,0.000,0.000,0.000,0.000,0.000,0.000,17,16,4*46
$GPGGA,090958.80,3135.6130148,N,12046.7846104,E,4,17,1.5,2.9383,M,8.322,M,00,0004*66
$GPHPD,0,0.000,60.26,-0.57,-12.02,31.5935502,120.7797435,2.938,13629917.637,24926112.283,2.938,0.000,0.000,0.000,0.000,0.000,0.000,0.000,17,16,4*4F
$GPGGA,090959.00,3135.6130989,N,12046.7847889,E,4,17,1.5,2.9297,M,8.322,M,01,0004*62
$GPHPD,0,0.000,60.15,-0.25,-12.02,31.5935516,120.7797465,2.930,13629916.800,24926113.946,2.930,0.000,0.000,0.000,0.000,0.000,0.000,0.000,17,16,4*42
$GPGGA,090959.20,3135.6131844,N,12046.7849708,E,4,17,1.5,2.9412,M,8.322,M,01,0004*62
$GPHPD,0,0.000,60.38,-0.25,-12.02,31.5935531,120.7797495,2.941,13629915.951,24926115.641,2.941,0.000,0.000,0.000,0.000,0.000,0.000,0.000,17,16,4*4F
$GPGGA,090959.40,3135.6132606,N,12046.7851271,E,4,17,1.5,2.9350,M,8.322,M,01,0004*6C
$GPHPD,0,0.000,60.09,-0.16,-12.04,31.5935543,120.7797521,2.935,13629915.182,24926117.082,2.935,0.000,0.000,0.000,0.000,0.000,0.000,0.000,17,16,4*4D
$GPGGA,090959.60,3135.6133429,N,12046.7852945,E,4,17,1.5,2.9342,M,8.322,M,01,0004*6C
$GPHPD,0,0.000,60.17,-0.42,-12.10,31.5935557,120.7797549,2.934,13629914.349,24926118.621,2.934,0.000,0.000,0.000,0.000,0.000,0.000,0.000,17,16,4*49
$GPGGA,090959.80,3135.6134267,N,12046.7854625,E,4,17,1.5,2.9158,M,8.322,M,01,0004*6F
