$GPGGA,091312.80,3135.4967361,N,12046.7087008,E,4,17,1.6,2.6907,M,8.318,M,00,0004*69
$GPHPD,1957,33210.600,143.39,0.79,14.81,31.5916123,120.7784783,2.691,13631417.706,24925873.992,2.691,-0.889,0.156,-0.768,0.597,1.222,0.733,0.000,17,15,4*4A
$GPGGA,091313.00,3135.4966327,N,12046.7087922,E,4,17,1.6,2.6907,M,8.318,M,01,0004*63
$GPHPD,1957,33210.800,143.34,0.89,14.75,31.5916105,120.7784799,2.691,13631419.360,24925875.696,2.691,-0.847,0.127,-0.788,0.597,1.222,0.733,0.000,17,16,4*4C
$GPGGA,091313.20,3135.4965272,N,12046.7088813,E,4,17,1.6,2.6920,M,8.318,M,01,0004*6A
$GPHPD,1957,33211.000,143.15,0.49,14.70,31.5916088,120.7784814,2.692,13631421.038,24925877.385,2.692,-0.870,0.093,-0.811,0.681,1.271,0.735,0.000,17,16,4*40
$GPGGA,091313.40,3135.4964219,N,12046.7089710,E,4,17,1.6,2.6972,M,8.318,M,01,0004*6A
$GPHPD,1957,33211.200,143.17,0.26,14.68,31.5916070,120.7784829,2.697,13631422.716,24925879.079,2.697,-0.869,0.074,-0.819,0.681,1.271,0.735,0.000,17,16,4*46
$GPGGA,091313.60,3135.4963129,N,12046.7090593,E,4,17,1.6,2.7023,M,8.318,M,00,0004*63
$GPHPD,1957,33211.400,142.74,-0.39,14.63,31.5916052,120.7784843,2.702,13631424.443,24925880.779,2.702,-0.903,0.141,-0.803,0.681,1.271,0.735,0.000,17,16,4*65
$GPGGA,091313.80,3135.4962054,N,12046.7091531,E,4,17,1.6,2.7076,M,8.318,M,00,0004*6E
$GPHPD,1957,33211.600,142.82,-0.63,14.57,31.5916034,120.7784859,2.708,13631426.160,24925882.536,2.708,-0.882,0.103,-0.836,0.681,1.271,0.735,0.000,17,16,4*68
$GPGGA,091314.00,3135.4960984,N,12046.7092485,E,4,17,1.6,2.6975,M,8.318,M,01,0004*60
$GPHPD,1957,33211.800,142.80,-1.09,14.55,31.5916016,120.7784875,2.698,13631427.873,24925884.309,2.698,-0.906,0.088,-0.842,0.681,1.271,0.735,0.000,17,16,4*6F
$GPGGA,091314.20,3135.4959894,N,12046.7093486,E,4,17,1.6,2.6874,M,8.318,M,01,0004*6A
$GPHPD,1957,33212.000,142.91,-1.27,14.53,31.5915998,120.7784891,2.687,13631429.623,24925886.151,2.687,-0.914,0.128,-0.841,0.681,1.271,0.735,0.000,17,16,4*6B
$GPGGA,091314.40,3135.4958777,N,12046.7094426,E,4,17,1.6,2.6831,M,8.318,M,01,0004*63
$GPHPD,1957,33212.200,143.44,-0.30,14.48,31.5915980,120.7784907,2.683,13631431.400,24925887.935,2.683,-0.915,0.010,-0.890,0.681,1.271,0.735,0.000,17,16,4*6C
$GPGGA,091314.60,3135.4957645,N,12046.7095380,E,4,17,1.6,2.6889,M,8.318,M,00,0004*66
$GPHPD,1957,33212.400,143.65,0.10,14.48,31.5915961,120.7784923,2.689,13631433.201,24925889.744,2.689,-0.923,0.041,-0.887,0.730,1.310,0.785,0.000,17,16,4*4D
$GPGGA,091314.80,3135.4956514,N,12046.7096362,E,4,17,1.6,2.6764,M,8.318,M,00,0004*6D
$GPHPD,1957,33212.600,143.77,0.40,14.47,31.5915942,120.7784939,2.676,13631435.007,24925891.587,2.676,-0.939,0.112,-0.881,0.681,1.271,0.735,0.000,17,16,4*46
$GPGGA,091315.00,3135.4955357,N,12046.7097343,E,4,17,1.5,2.6840,M,8.318,M,01,0004*6F
$GPHPD,1957,33212.800,144.08,1.43,14.45,31.5915923,120.7784956,2.684,13631436.849,24925893.444,2.684,-0.941,0.080,-0.894,0.681,1.271,0.735,0.000,17,16,4*45
$GPGGA,091315.20,3135.4954194,N,12046.7098325,E,4,17,1.5,2.6753,M,8.318,M,01,0004*63
$GPHPD,1957,33213.000,143.86,0.48,14.43,31.5915903,120.7784972,2.675,13631438.699,24925895.305,2.675,-0.942,0.077,-0.903,0.681,1.271,0.735,0.000,17,16,4*48
$GPGGA,091315.40,3135.4952996,N,12046.7099266,E,4,17,1.5,2.6888,M,8.318,M,01,0004*67
$GPHPD,1957,33213.200,143.82,0.51,14.42,31.5915883,120.7784988,2.689,13631440.592,24925897.137,2.689,-0.952,0.069,-0.909,0.681,1.271,0.735,0.000,17,16,4*49
$GPGGA,091315.60,3135.4951823,N,12046.7100235,E,4,17,1.5,2.6976,M,8.318,M,00,0004*6F
$GPHPD,1957,33213.400,143.54,-0.59,14.43,31.5915864,120.7785004,2.698,13631442.454,24925898.988,2.698,-0.967,0.159,-0.884,0.681,1.271,0.735,0.000,17,16,4*6F
$GPGGA,091315.80,3135.4950613,N,12046.7101217,E,4,17,1.5,2.7073,M,8.318,M,00,0004*61
$GPHPD,1957,33213.600,143.69,-0.41,14.43,31.5915844,120.7785020,2.707,13631444.371,24925900.877,2.707,-0.956,0.122,-0.909,0.681,1.271,0.735,0.000,17,16,4*63
$GPGGA,091316.00,3135.4949405,N,12046.7102233,E,4,17,1.5,2.7168,M,8.318,M,01,0004*68
$GPHPD,1957,33213.800,143.27,-1.12,14.43,31.5915823,120.7785037,2.717,13631446.293,24925902.806,2.717,-0.998,0.172,-0.906,0.681,1.271,0.735,0.000,17,16,4*64
$GPGGA,091316.20,3135.4948230,N,12046.7103283,E,4,17,1.5,2.6954,M,8.318,M,01,0004*67
$GPHPD,1957,33214.000,143.16,-1.73,14.41,31.5915804,120.7785055,2.695,13631448.174,24925904.756,2.695,-0.992,0.116,-0.937,0.681,1.271,0.735,0.000,17,16,4*6F
$GPGGA,091316.40,3135.4947028,N,12046.7104286,E,4,17,1.5,2.6896,M,8.318,M,01,0004*68
$GPHPD,1957,33214.200,143.37,-1.07,14.42,31.5915784,120.7785071,2.690,13631450.085,24925906.665,2.690,-0.995,0.083,-0.947,0.681,1.271,0.735,0.000,17,16,4*67
$GPGGA,091316.60,3135.4945834,N,12046.7105321,E,4,17,1.5,2.6946,M,8.318,M,00,0004*6D
$GPHPD,1957,33214.400,143.33,-0.95,14.40,31.5915764,120.7785089,2.695,13631451.990,24925908.609,2.695,-0.966,0.077,-0.959,0.681,1.271,0.735,0.000,17,16,4*64
$GPGGA,091316.80,3135.4944620,N,12046.7106333,E,4,17,1.5,2.6973,M,8.318,M,00,0004*6F
$GPHPD,1957,33214.600,143.34,-1.07,14.36,31.5915744,120.7785106,2.697,13631453.920,24925910.536,2.697,-1.010,0.091,-0.924,0.681,1.271,0.735,0.000,17,16,4*6A
$GPGGA,091317.00,3135.4943424,N,12046.7107344,E,4,17,1.5,2.6941,M,8.318,M,01,0004*66
$GPHPD,1957,33214.800,143.14,-1.41,14.34,31.5915724,120.7785122,2.694,13631455.823,24925912.451,2.694,-1.000,0.066,-0.961,0.681,1.271,0.735,0.000,17,16,4*68
$GPGGA,091317.20,3135.4942211,N,12046.7108375,E,4,17,1.5,2.6901,M,8.318,M,01,0004*6C
$GPHPD,1957,33215.000,143.31,-0.99,14.34,31.5915704,120.7785140,2.690,13631457.755,24925914.401,2.690,-0.973,0.049,-0.982,0.681,1.271,0.735,0.000,17,16,4*67
$GPGGA,091317.40,3135.4941001,N,12046.7109415,E,4,17,1.5,2.6837,M,8.318,M,01,0004*6E
$GPHPD,1957,33215.200,143.28,-0.41,14.32,31.5915683,120.7785157,2.684,13631459.684,24925916.359,2.684,-1.000,0.077,-0.954,0.681,1.271,0.735,0.000,17,16,4*67
$GPGGA,091317.60,3135.4939821,N,12046.7110421,E,4,17,1.5,2.6789,M,8.318,M,00,0004*6D
$GPHPD,1957,33215.400,143.55,-0.40,14.30,31.5915664,120.7785174,2.679,13631461.564,24925918.259,2.679,-0.993,0.095,-0.955,0.681,1.271,0.735,0.000,17,16,4*66
$GPGGA,091317.80,3135.4938588,N,12046.7111474,E,4,17,1.5,2.6844,M,8.318,M,00,0004*63
$GPHPD,1957,33215.600,143.59,-0.55,14.29,31.5915643,120.7785191,2.684,13631463.528,24925920.247,2.684,-0.984,0.089,-0.939,0.681,1.271,0.735,0.000,17,16,4*65
$GPGGA,091318.00,3135.4937378,N,12046.7112496,E,4,17,1.5,2.6760,M,8.318,M,01,0004*65
$GPHPD,1957,33215.800,143.60,-0.36,14.28,31.5915623,120.7785208,2.676,13631465.454,24925922.184,2.676,-1.003,0.117,-0.937,0.681,1.271,0.735,0.000,17,16,4*6D
$GPGGA,091318.20,3135.4936165,N,12046.7113537,E,4,17,1.5,2.6784,M,8.318,M,01,0004*69
$GPHPD,1957,33216.000,143.70,0.01,14.26,31.5915603,120.7785226,2.678,13631467.388,24925924.146,2.678,-0.988,0.093,-0.955,0.597,1.222,0.733,0.000,17,16,4*44
$GPGGA,091318.40,3135.4934955,N,12046.7114546,E,4,17,1.5,2.6847,M,8.318,M,01,0004*67
$GPHPD,1957,33216.200,143.87,0.35,14.23,31.5915583,120.7785242,2.685,13631469.311,24925926.067,2.685,-1.012,0.078,-0.952,0.597,1.222,0.733,0.000,17,16,4*42
$GPGGA,091318.60,3135.4933711,N,12046.7115548,E,4,17,1.5,2.6824,M,8.318,M,00,0004*67
$GPHPD,1957,33216.400,143.82,-0.27,14.24,31.5915562,120.7785259,2.682,13631471.281,24925927.999,2.682,-0.998,0.080,-0.961,0.597,1.222,0.733,0.000,17,16,4*68
$GPGGA,091318.80,3135.4932512,N,12046.7116583,E,4,17,1.5,2.6854,M,8.318,M,00,0004*6A
$GPHPD,1957,33216.600,143.90,0.83,14.24,31.5915542,120.7785276,2.685,13631473.193,24925929.946,2.685,-0.990,0.090,-0.980,0.617,1.238,0.774,0.000,17,16,4*4E
$GPGGA,091319.00,3135.4931296,N,12046.7117579,E,4,17,1.5,2.6899,M,8.318,M,01,0004*6F
$GPHPD,1957,33216.800,143.96,0.99,14.24,31.5915522,120.7785293,2.690,13631475.122,24925931.855,2.690,-0.992,0.088,-0.955,0.597,1.222,0.733,0.000,17,16,4*46
$GPGGA,091319.20,3135.4930095,N,12046.7118599,E,4,17,1.5,2.6881,M,8.318,M,01,0004*65
$GPHPD,1957,33217.000,144.00,1.02,14.22,31.5915502,120.7785310,2.688,13631477.034,24925933.784,2.688,-0.994,0.107,-0.949,0.597,1.222,0.733,0.000,17,16,4*42
$GPGGA,091319.40,3135.4928880,N,12046.7119593,E,4,17,1.5,2.6947,M,8.318,M,01,0004*66
$GPHPD,1957,33217.200,144.00,0.66,14.21,31.5915481,120.7785327,2.695,13631478.961,24925935.690,2.695,-1.000,0.107,-0.939,0.597,1.222,0.733,0.000,17,16,4*48
$GPGGA,091319.60,3135.4927687,N,12046.7120627,E,4,17,1.5,2.6984,M,8.318,M,00,0004*6A
$GPHPD,1957,33217.400,144.10,0.88,14.19,31.5915461,120.7785344,2.698,13631480.865,24925937.631,2.698,-0.972,0.109,-0.933,0.597,1.222,0.733,0.000,17,16,4*4D
$GPGGA,091319.80,3135.4926483,N,12046.7121607,E,4,17,1.5,2.6989,M,8.318,M,00,0004*6D
$GPHPD,1957,33217.600,144.05,0.71,14.18,31.5915441,120.7785360,2.699,13631482.774,24925939.514,2.699,-0.993,0.099,-0.918,0.597,1.222,0.733,0.000,17,16,4*41
$GPGGA,091320.00,3135.4925256,N,12046.7122597,E,4,17,1.5,2.7151,M,8.318,M,01,0004*66
$GPHPD,1957,33217.800,144.01,-0.16,14.18,31.5915421,120.7785377,2.715,13631484.717,24925941.422,2.715,-0.959,0.061,-0.956,0.597,1.222,0.733,0.000,17,16,4*64
$GPGGA,091320.20,3135.4924055,N,12046.7123581,E,4,17,1.5,2.7133,M,8.318,M,01,0004*66
$GPHPD,1957,33218.000,144.13,-0.25,14.18,31.5915401,120.7785393,2.713,13631486.622,24925943.308,2.713,-1.006,0.143,-0.928,0.597,1.222,0.733,0.000,17,16,4*6A
$GPGGA,091320.40,3135.4922853,N,12046.7124557,E,4,17,1.5,2.7145,M,8.318,M,01,0004*65
$GPHPD,1957,33218.200,143.97,-0.08,14.17,31.5915381,120.7785409,2.715,13631488.527,24925945.185,2.715,-0.993,0.110,-0.953,0.597,1.222,0.733,0.000,17,16,4*6F
$GPGGA,091320.60,3135.492143,N,12046.7125559,E,4,17,1.5,2.7252,M,8.318,M,00,0004*60
$GPHPD,1957,33218.400,143.98,0.03,14.16,31.5915361,120.7785426,2.725,13631490.449,24925947.098,2.725,-0.964,0.081,-0.948,0.597,1.222,0.733,0.000,17,16,4*46
$GPGGA,091320.80,3135.4920453,N,12046.7126561,E,4,17,1.5,2.7235,M,8.318,M,00,0004*65
$GPHPD,1957,33218.600,143.87,-0.57,14.14,31.5915341,120.7785443,2.724,13631492.342,24925948.999,2.724,-0.987,0.133,-0.939,0.597,1.222,0.733,0.000,17,16,4*6F
$GPGGA,091321.00,3135.4919252,N,12046.7127553,E,4,17,1.5,2.7220,M,8.318,M,01,0004*64
$GPHPD,1957,33218.800,143.88,-0.17,14.15,31.5915321,120.7785459,2.722,13631494.249,24925950.894,2.722,-0.990,0.117,-0.931,0.597,1.222,0.733,0.000,17,16,4*67
$GPGGA,091321.20,3135.4918035,N,12046.7128536,E,4,17,1.5,2.7270,M,8.318,M,01,0004*6D
$GPHPD,1957,33219.000,143.81,-0.19,14.13,31.5915301,120.7785476,2.727,13631496.177,24925952.788,2.727,-0.971,0.099,-0.940,0.597,1.222,0.733,0.000,17,16,4*62
$GPGGA,091321.40,3135.4916841,N,12046.7129535,E,4,17,1.5,2.7191,M,8.318,M,01,0004*60
$GPHPD,1957,33219.200,143.85,0.12,14.13,31.5915281,120.7785492,2.719,13631498.075,24925954.688,2.719,-1.002,0.132,-0.934,0.597,1.222,0.733,0.000,17,16,4*44
$GPGGA,091321.60,3135.4915651,N,12046.7130569,E,4,17,1.5,2.7250,M,8.318,M,00,0004*60
$GPHPD,1957,33219.400,143.78,-0.06,14.15,31.5915261,120.7785509,2.725,13631499.974,24925956.628,2.725,-0.948,0.073,-0.973,0.597,1.222,0.733,0.000,17,16,4*63
$GPGGA,091321.80,3135.4914449,N,12046.7131558,E,4,17,1.5,2.7186,M,8.318,M,00,0004*6F
$GPHPD,1957,33219.600,144.00,0.27,14.15,31.5915241,120.7785526,2.719,13631501.882,24925958.520,2.719,-0.992,0.085,-0.941,0.597,1.222,0.733,0.000,17,16,4*4A
$GPGGA,091322.00,3135.4913251,N,12046.7132549,E,4,17,1.5,2.7282,M,8.318,M,01,0004*69
$GPHPD,1957,33219.800,143.99,0.45,14.13,31.5915221,120.7785542,2.728,13631503.784,24925960.413,2.728,-0.987,0.084,-0.947,0.597,1.222,0.733,0.000,17,16,4*47
$GPGGA,091322.20,3135.4912054,N,12046.7133594,E,4,17,1.5,2.7137,M,8.318,M,01,0004*61
$GPHPD,1957,33220.000,144.13,0.50,14.12,31.5915201,120.7785560,2.714,13631505.696,24925962.370,2.714,-1.001,0.137,-0.928,0.597,1.222,0.733,0.000,17,16,4*45
$GPGGA,091322.40,3135.4910814,N,12046.7134579,E,4,17,1.5,2.7280,M,8.318,M,01,0004*62
$GPHPD,1957,33220.200,144.09,0.62,14.11,31.5915180,120.7785576,2.728,13631507.657,24925964.280,2.728,-0.979,0.029,-0.971,0.617,1.238,0.774,0.000,17,16,4*42
$GPGGA,091322.60,3135.4909582,N,12046.7135582,E,4,17,1.5,2.7386,M,8.318,M,00,0004*69
$GPHPD,1957,33220.400,143.80,0.57,14.10,31.5915160,120.7785593,2.739,13631509.610,24925966.206,2.739,-0.995,0.095,-0.957,0.597,1.222,0.733,0.000,17,16,4*43
$GPGGA,091322.80,3135.4908370,N,12046.7136576,E,4,17,1.5,2.7387,M,8.318,M,00,0004*64
$GPHPD,1957,33220.600,143.98,0.22,14.07,31.5915140,120.7785610,2.739,13631511.533,24925968.111,2.739,-1.023,0.169,-0.935,0.597,1.222,0.733,0.000,17,16,4*45
$GPGGA,091323.00,3135.4907143,N,12046.7137612,E,4,17,1.5,2.7420,M,8.318,M,01,0004*6B
$GPHPD,1957,33220.800,144.02,0.59,14.05,31.5915119,120.7785627,2.742,13631513.485,24925970.074,2.742,-0.964,0.118,-0.955,0.597,1.222,0.733,0.000,17,16,4*47
$GPGGA,091323.20,3135.4905909,N,12046.7138625,E,4,17,1.5,2.7491,M,8.318,M,01,0004*6C
$GPHPD,1957,33221.000,144.16,-0.04,14.02,31.5915098,120.7785644,2.749,13631515.443,24925972.014,2.749,-1.011,0.113,-0.953,0.681,1.271,0.735,0.000,17,16,4*6F
$GPGGA,091323.40,3135.4904691,N,12046.7139702,E,4,17,1.5,2.7320,M,8.318,M,01,0004*6D
$GPHPD,1957,33221.200,144.11,0.60,14.02,31.5915078,120.7785662,2.732,13631517.391,24925974.022,2.732,-1.011,0.132,-0.951,0.681,1.271,0.735,0.000,17,16,4*47
$GPGGA,091323.60,3135.4903466,N,12046.7140696,E,4,17,1.5,2.7512,M,8.318,M,00,0004*66
$GPHPD,1957,33221.400,144.35,0.25,13.96,31.5915058,120.7785678,2.751,13631519.333,24925975.934,2.751,-0.995,0.035,-1.019,0.597,1.222,0.733,0.000,17,16,4*4E
$GPGGA,091323.80,3135.4902229,N,12046.7141675,E,4,17,1.5,2.7662,M,8.318,M,00,0004*6C
$GPHPD,1957,33221.600,144.25,-0.15,13.93,31.5915037,120.7785695,2.766,13631521.288,24925977.835,2.766,-1.005,0.102,-0.959,0.597,1.222,0.733,0.000,17,16,4*6C
$GPGGA,091324.00,3135.4900970,N,12046.7142718,E,4,17,1.5,2.7593,M,8.318,M,01,0004*63
$GPHPD,1957,33221.800,144.04,-0.81,13.91,31.5915016,120.7785712,2.759,13631523.288,24925979.826,2.759,-0.998,0.182,-0.935,0.617,1.238,0.774,0.000,17,16,4*60
$GPGGA,091324.20,3135.4899762,N,12046.7143710,E,4,17,1.5,2.7689,M,8.318,M,01,0004*6C
$GPHPD,1957,33222.000,143.99,-1.12,13.90,31.5914996,120.7785729,2.769,13631525.204,24925981.725,2.769,-1.003,0.101,-0.979,0.597,1.222,0.733,0.000,17,16,4*69
$GPGGA,091324.40,3135.4898551,N,12046.7144746,E,4,17,1.5,2.7478,M,8.318,M,01,0004*61
$GPHPD,1957,33222.200,143.82,-1.18,13.89,31.5914976,120.7785746,2.748,13631527.134,24925983.680,2.748,-1.007,0.177,-0.933,0.597,1.222,0.733,0.000,17,16,4*61
$GPGGA,091324.60,3135.4897314,N,12046.7145765,E,4,17,1.5,2.7467,M,8.318,M,00,0004*64
$GPHPD,1957,33222.400,144.08,-1.09,13.91,31.5914955,120.7785763,2.747,13631529.097,24925985.629,2.747,-0.960,0.031,-1.008,0.597,1.226,0.777,0.000,17,16,4*60
$GPGGA,091324.80,3135.4896070,N,12046.7146767,E,4,17,1.8,2.7587,M,8.318,M,00,0004*69
$GPHPD,1957,33222.600,144.08,-0.69,13.91,31.5914935,120.7785779,2.759,13631531.067,24925987.561,2.759,-0.978,0.086,-0.990,0.597,1.222,0.734,0.000,17,16,4*6C
$GPGGA,091325.00,3135.4894850,N,12046.7147780,E,4,17,1.5,2.7515,M,8.318,M,01,0004*67
$GPHPD,1957,33222.800,143.95,-1.12,13.92,31.5914914,120.7785796,2.752,13631533.005,24925989.493,2.752,-1.004,0.140,-0.961,0.597,1.222,0.734,0.000,17,16,4*6F
$GPGGA,091325.20,3135.4893654,N,12046.7148819,E,4,17,1.5,2.7349,M,8.318,M,01,0004*67
$GPHPD,1957,33223.000,143.87,-1.44,13.92,31.5914894,120.7785814,2.735,13631534.915,24925991.442,2.735,-1.001,0.115,-0.971,0.597,1.222,0.734,0.000,17,16,4*64
$GPGGA,091325.40,3135.4892420,N,12046.7149835,E,4,17,1.5,2.7358,M,8.318,M,01,0004*6E
$GPHPD,1957,33223.200,143.99,-1.00,13.94,31.5914874,120.7785831,2.736,13631536.873,24925993.386,2.736,-0.973,0.041,-0.986,0.597,1.222,0.734,0.000,17,16,4*6D
$GPGGA,091325.60,3135.4891189,N,12046.7150837,E,4,17,1.5,2.7415,M,8.318,M,00,0004*6C
$GPHPD,1957,33223.400,144.01,-0.92,13.94,31.5914853,120.7785847,2.742,13631538.825,24925995.311,2.742,-0.994,0.090,-0.972,0.597,1.222,0.734,0.000,17,16,4*68
$GPGGA,091325.80,3135.4889959,N,12046.7151880,E,4,17,1.5,2.7315,M,8.318,M,00,0004*64
$GPHPD,1957,33223.600,143.98,-0.47,13.95,31.5914833,120.7785865,2.732,13631540.783,24925997.285,2.732,-0.999,0.131,-0.952,0.597,1.222,0.734,0.000,17,16,4*65
$GPGGA,091326.00,3135.4888715,N,12046.7152882,E,4,17,1.5,2.7409,M,8.318,M,01,0004*62
$GPHPD,1957,33223.800,144.35,0.50,13.96,31.5914812,120.7785881,2.741,13631542.753,24925999.217,2.741,-0.996,0.079,-0.960,0.597,1.222,0.734,0.000,17,16,4*43
$GPGGA,091326.20,3135.4887469,N,12046.7153884,E,4,17,1.5,2.7512,M,8.318,M,01,0004*6B
$GPHPD,1957,33224.000,144.41,0.73,13.95,31.5914791,120.7785898,2.751,13631544.725,24926001.151,2.751,-0.989,0.105,-0.964,0.597,1.222,0.734,0.000,17,16,4*4C
$GPGGA,091326.40,3135.4886239,N,12046.7154886,E,4,17,1.5,2.7527,M,8.318,M,01,0004*6C
$GPHPD,1957,33224.200,144.47,0.54,13.95,31.5914771,120.7785915,2.753,13631546.675,24926003.076,2.753,-1.029,0.181,-0.952,0.597,1.222,0.734,0.000,17,16,4*4C
$GPGGA,091326.60,3135.4884989,N,12046.7155836,E,4,17,1.5,2.7801,M,8.318,M,00,0004*6E
$GPHPD,1957,33224.400,144.54,0.91,13.93,31.5914750,120.7785931,2.780,13631548.643,24926004.949,2.780,-0.999,0.099,-0.955,0.597,1.222,0.734,0.000,17,16,4*47
$GPGGA,091326.80,3135.4883804,N,12046.7156936,E,4,17,1.5,2.7443,M,8.318,M,00,0004*6B
$GPHPD,1957,33224.600,144.24,0.10,13.93,31.5914730,120.7785949,2.744,13631550.549,24926006.965,2.744,-1.027,0.249,-0.915,0.597,1.222,0.734,0.000,17,16,4*48
$GPGGA,091327.00,3135.4882592,N,12046.7157940,E,4,17,1.8,2.7508,M,8.318,M,01,0004*63
$GPHPD,1957,33224.800,144.75,0.89,13.92,31.5914710,120.7785966,2.751,13631552.474,24926008.882,2.751,-0.969,-0.000,-0.988,0.597,1.222,0.734,0.000,17,15,4*60
$GPGGA,091327.20,3135.4881364,N,12046.7158941,E,4,16,1.8,2.7515,M,8.318,M,01,0004*6E
$GPHPD,1957,33225.000,144.67,0.76,13.90,31.5914689,120.7785982,2.752,13631554.421,24926010.804,2.752,-1.008,0.126,-0.940,0.597,1.222,0.734,0.000,16,15,4*40
$GPGGA,091327.40,3135.4880151,N,12046.7159923,E,4,16,1.8,2.7564,M,8.318,M,01,0004*6E
$GPHPD,1957,33225.200,144.47,0.24,13.90,31.5914669,120.7785999,2.756,13631556.343,24926012.694,2.756,-1.009,0.127,-0.940,0.626,1.634,0.767,0.000,16,14,4*4A
$GPGGA,091327.60,3135.4878936,N,12046.7160932,E,4,16,1.8,2.7582,M,8.318,M,00,0004*61
$GPHPD,1957,33225.400,144.37,0.47,13.92,31.5914649,120.7786016,2.758,13631558.273,24926014.618,2.758,-0.975,0.126,-0.947,0.626,1.634,0.767,0.000,16,14,4*48
$GPGGA,091327.80,3135.4877733,N,12046.7161950,E,4,16,1.8,2.7535,M,8.318,M,00,0004*62
$GPHPD,1957,33225.600,144.42,0.31,13.93,31.5914629,120.7786033,2.754,13631560.188,24926016.546,2.754,-0.990,0.122,-0.929,0.626,1.634,0.767,0.000,16,14,4*48
$GPGGA,091328.00,3135.4876509,N,12046.7162923,E,4,16,1.8,2.7652,M,8.318,M,01,0004*6B
$GPHPD,1957,33225.800,144.52,0.04,13.94,31.5914608,120.7786049,2.765,13631562.124,24926018.432,2.765,-0.993,0.088,-0.962,0.626,1.634,0.767,0.000,16,14,4*4D
$GPGGA,091328.20,3135.4875274,N,12046.7163925,E,4,17,1.8,2.7628,M,8.318,M,01,0004*6C
$GPHPD,1957,33226.000,144.37,-0.29,13.94,31.5914588,120.7786065,2.763,13631564.081,24926020.360,2.763,-0.996,0.147,-0.930,0.631,1.644,0.873,0.000,17,14,4*6B
$GPGGA,091328.40,3135.4874044,N,12046.7164948,E,4,17,1.8,2.7571,M,8.318,M,01,0004*69
$GPHPD,1957,33226.200,144.17,-0.26,13.95,31.5914567,120.7786082,2.757,13631566.035,24926022.309,2.757,-0.999,0.113,-0.967,0.603,1.229,0.848,0.000,17,15,4*66
$GPGGA,091328.60,3135.4872847,N,12046.7165965,E,4,17,1.8,2.7541,M,8.318,M,00,0004*6A
$GPHPD,1957,33226.400,144.37,-0.18,13.97,31.5914547,120.7786099,2.754,13631567.941,24926024.233,2.754,-1.005,0.095,-0.976,0.597,1.222,0.734,0.000,17,15,4*63
$GPGGA,091328.80,3135.4871600,N,12046.7166971,E,4,17,1.5,2.7714,M,8.318,M,00,0004*63
$GPHPD,1957,33226.600,144.42,-0.27,13.94,31.5914527,120.7786116,2.771,13631569.916,24926026.172,2.771,-0.994,0.056,-0.970,0.597,1.222,0.734,0.000,17,15,4*6D
$GPGGA,091329.00,3135.4870374,N,12046.7167944,E,4,17,1.5,2.7729,M,8.318,M,01,0004*65
$GPHPD,1957,33226.800,144.37,0.14,13.93,31.5914506,120.7786132,2.773,13631571.855,24926028.059,2.773,-1.016,0.101,-0.956,0.597,1.222,0.734,0.000,17,15,4*42
$GPGGA,091329.20,3135.4869120,N,12046.7168954,E,4,17,1.5,2.7733,M,8.318,M,01,0004*69
$GPHPD,1957,33227.000,144.31,0.12,13.91,31.5914485,120.7786149,2.773,13631573.840,24926030.007,2.773,-0.982,0.093,-0.971,0.597,1.222,0.734,0.000,17,15,4*41
$GPGGA,091329.40,3135.4867889,N,12046.7169989,E,4,17,1.5,2.7708,M,8.318,M,01,0004*62
$GPHPD,1957,33227.200,144.37,0.29,13.90,31.5914465,120.7786166,2.771,13631575.798,24926031.972,2.771,-0.981,0.086,-0.970,0.597,1.222,0.734,0.000,17,15,4*4F
$GPGGA,091329.60,3135.4866659,N,12046.7170984,E,4,17,1.5,2.7740,M,8.318,M,00,0004*6A
$GPHPD,1957,33227.400,144.54,0.61,13.88,31.5914444,120.7786183,2.774,13631577.747,24926033.888,2.774,-1.007,0.135,-0.947,0.597,1.222,0.734,0.000,17,15,4*4C
$GPGGA,091329.80,3135.4865444,N,12046.7172002,E,4,17,1.5,2.7761,M,8.318,M,00,0004*6F
$GPHPD,1957,33227.600,144.58,0.56,13.89,31.5914424,120.7786200,2.776,13631579.679,24926035.823,2.776,-0.976,0.078,-0.973,0.597,1.222,0.734,0.000,17,15,4*4D
$GPGGA,091330.00,3135.4864220,N,12046.7173009,E,4,17,1.5,2.7687,M,8.318,M,01,0004*68
$GPHPD,1957,33227.800,144.54,0.41,13.88,31.5914404,120.7786217,2.769,13631581.621,24926037.750,2.769,-1.000,0.087,-0.956,0.597,1.222,0.734,0.000,17,15,4*41
$GPGGA,091330.20,3135.4863003,N,12046.7174016,E,4,17,1.5,2.7667,M,8.318,M,01,0004*69
$GPHPD,1957,33228.000,144.46,-0.22,13.88,31.5914383,120.7786234,2.767,13631583.554,24926039.673,2.767,-0.971,0.082,-0.975,0.597,1.222,0.734,0.000,17,15,4*63
$GPGGA,091330.40,3135.4861763,N,12046.7175006,E,4,17,1.5,2.7677,M,8.318,M,01,0004*6D
$GPHPD,1957,33228.200,144.27,-0.30,13.89,31.5914363,120.7786250,2.768,13631585.516,24926041.588,2.768,-0.964,0.075,-0.970,0.597,1.222,0.734,0.000,17,15,4*69
$GPGGA,091330.60,3135.4860573,N,12046.7176031,E,4,17,1.5,2.7690,M,8.318,M,00,0004*62
$GPHPD,1957,33228.400,144.32,-0.08,13.88,31.5914343,120.7786267,2.769,13631587.414,24926043.517,2.769,-0.978,0.091,-0.980,0.618,1.238,0.775,0.000,17,15,4*60
$GPGGA,091330.80,3135.4859346,N,12046.7176996,E,4,17,1.5,2.7794,M,8.318,M,00,0004*67
$GPHPD,1957,33228.600,144.59,0.61,13.90,31.5914322,120.7786283,2.779,13631589.352,24926045.395,2.779,-0.983,0.096,-0.941,0.618,1.238,0.775,0.000,17,15,4*46
$GPGGA,091331.00,3135.4858120,N,12046.7178071,E,4,17,1.5,2.7728,M,8.318,M,01,0004*65
$GPHPD,1957,33228.800,144.46,-0.09,13.92,31.5914302,120.7786301,2.773,13631591.311,24926047.406,2.773,-0.993,0.137,-0.952,0.618,1.238,0.775,0.000,17,15,4*66
$GPGGA,091331.20,3135.4856861,N,12046.7179046,E,4,17,1.5,2.7917,M,8.318,M,01,0004*62
$GPHPD,1957,33229.000,144.75,0.40,13.95,31.5914281,120.7786317,2.792,13631593.297,24926049.314,2.792,-1.008,0.086,-0.966,0.618,1.238,0.775,0.000,17,15,4*44
$GPGGA,091331.40,3135.4855623,N,12046.7180070,E,4,17,1.5,2.8020,M,8.318,M,01,0004*6E
$GPHPD,1957,33229.200,144.65,-0.05,13.94,31.5914260,120.7786335,2.802,13631595.263,24926051.270,2.802,-1.006,0.132,-0.966,0.618,1.238,0.775,0.000,17,15,4*62
$GPGGA,091331.60,3135.4854385,N,12046.7181064,E,4,17,1.6,2.7876,M,8.318,M,00,0004*66
$GPHPD,1957,33229.400,144.51,-0.70,13.93,31.5914240,120.7786351,2.788,13631597.222,24926053.189,2.788,-1.072,0.218,-0.911,0.618,1.238,0.775,0.000,17,15,4*6E
$GPGGA,091331.80,3135.4853155,N,12046.7182044,E,4,16,1.7,2.7803,M,8.318,M,00,0004*63
$GPHPD,1957,33229.600,144.46,-0.23,13.91,31.5914219,120.7786367,2.780,13631599.168,24926055.087,2.780,-0.995,0.114,-0.986,0.631,1.241,0.927,0.000,16,15,4*60
$GPGGA,091332.00,3135.4851908,N,12046.7183047,E,4,15,1.7,2.7845,M,8.318,M,01,0004*68
$GPHPD,1957,33229.800,144.39,-0.37,13.91,31.5914198,120.7786384,2.785,13631601.142,24926057.023,2.785,-0.948,0.075,-0.991,0.758,1.310,0.953,0.000,15,15,4*69
$GPGGA,091332.20,3135.4850669,N,12046.7184047,E,4,15,1.7,2.7911,M,8.318,M,01,0004*64
$GPHPD,1957,33230.000,144.38,-0.19,13.89,31.5914178,120.7786401,2.791,13631603.105,24926058.950,2.791,-0.984,0.139,-0.960,0.758,1.310,0.953,0.000,15,15,4*6D
$GPGGA,091332.40,3135.4849456,N,12046.7185074,E,4,15,1.7,2.7836,M,8.318,M,01,0004*61
$GPHPD,1957,33230.200,144.30,-0.30,13.90,31.5914158,120.7786418,2.784,13631605.036,24926060.895,2.784,-1.005,0.145,-0.948,0.758,1.310,0.953,0.000,15,15,4*6A
$GPGGA,091332.60,3135.4848223,N,12046.7186074,E,4,15,1.7,2.7922,M,8.318,M,00,0004*60
$GPHPD,1957,33230.400,144.37,0.18,13.91,31.5914137,120.7786435,2.792,13631606.990,24926062.818,2.792,-0.984,0.071,-0.975,0.758,1.310,0.953,0.000,15,15,4*43
$GPGGA,091332.80,3135.4847006,N,12046.7187091,E,4,15,1.7,2.7841,M,8.318,M,00,0004*6A
$GPHPD,1957,33230.600,144.36,-0.45,13.91,31.5914117,120.7786452,2.784,13631608.924,24926064.753,2.784,-1.019,0.139,-0.946,0.690,1.275,0.853,0.000,15,15,4*66
$GPGGA,091333.00,3135.4845775,N,12046.7188111,E,4,15,1.7,2.7804,M,8.319,M,01,0004*65
$GPHPD,1957,33230.800,144.46,-0.35,13.91,31.5914096,120.7786469,2.780,13631610.879,24926066.700,2.780,-0.979,0.091,-0.986,0.690,1.275,0.853,0.000,15,15,4*6D
$GPGGA,091333.20,3135.4844546,N,12046.7189143,E,4,15,1.7,2.7845,M,8.319,M,01,0004*67
$GPHPD,1957,33231.000,144.54,-0.07,13.89,31.5914076,120.7786486,2.785,13631612.834,24926068.660,2.785,-0.962,0.075,-0.973,0.690,1.275,0.853,0.000,15,15,4*68
$GPGGA,091333.40,3135.4843270,N,12046.7190193,E,4,15,1.7,2.7914,M,8.319,M,01,0004*64
$GPHPD,1957,33231.200,144.50,0.07,13.89,31.5914055,120.7786503,2.791,13631614.859,24926070.669,2.791,-1.005,0.101,-0.959,0.690,1.275,0.853,0.000,15,15,4*40
$GPGGA,091333.60,3135.4842008,N,12046.7191192,E,4,15,1.6,2.7875,M,8.319,M,00,0004*6C
$GPHPD,1957,33231.400,144.55,-0.42,13.89,31.5914033,120.7786520,2.788,13631616.854,24926072.609,2.788,-1.024,0.121,-0.972,0.690,1.275,0.853,0.000,15,15,4*6D
$GPGGA,091333.80,3135.4840795,N,12046.7192183,E,4,15,1.6,2.7878,M,8.319,M,00,0004*6D
$GPHPD,1957,33231.600,144.49,-0.19,13.87,31.5914013,120.7786536,2.788,13631618.777,24926074.510,2.788,-1.014,0.123,-0.984,0.690,1.275,0.853,0.000,15,15,4*62
$GPGGA,091334.00,3135.4839535,N,12046.7193219,E,4,15,1.6,2.7970,M,8.319,M,01,0004*6D
$GPHPD,1957,33231.800,144.34,-0.19,13.87,31.5913992,120.7786554,2.797,13631620.777,24926076.493,2.797,-0.983,0.096,-0.979,0.690,1.275,0.853,0.000,15,15,4*6D
$GPGGA,091334.20,3135.4838268,N,12046.7194236,E,4,15,1.6,2.7944,M,8.319,M,01,0004*6C
$GPHPD,1957,33232.000,144.38,-0.23,13.86,31.5913971,120.7786571,2.794,13631622.783,24926078.457,2.794,-1.014,0.121,-0.967,0.690,1.275,0.853,0.000,15,15,4*63
$GPGGA,091334.40,3135.4837028,N,12046.7195279,E,4,15,1.6,2.7881,M,8.319,M,01,0004*61
$GPHPD,1957,33232.200,144.36,-0.17,13.84,31.5913950,120.7786588,2.788,13631624.755,24926080.437,2.788,-1.019,0.138,-0.966,0.690,1.275,0.853,0.000,15,15,4*67
$GPGGA,091334.60,3135.4835758,N,12046.7196315,E,4,15,1.6,2.7994,M,8.319,M,00,0004*6D
$GPHPD,1957,33232.400,144.46,-0.11,13.82,31.5913929,120.7786605,2.799,13631626.769,24926082.425,2.799,-0.999,0.067,-0.997,0.690,1.275,0.853,0.000,15,15,4*67
$GPGGA,091334.80,3135.4834539,N,12046.7197316,E,4,15,1.6,2.7935,M,8.319,M,00,0004*6E
$GPHPD,1957,33232.600,144.43,-0.15,13.83,31.5913909,120.7786622,2.794,13631628.703,24926084.342,2.794,-1.034,0.138,-0.966,0.690,1.275,0.853,0.000,15,15,4*6A
$GPGGA,091335.00,3135.4833278,N,12046.7198368,E,4,16,1.6,2.8005,M,8.319,M,01,0004*63
$GPHPD,1957,33232.800,144.54,-0.06,13.83,31.5913888,120.7786639,2.801,13631630.707,24926086.345,2.801,-1.001,0.103,-0.972,0.690,1.275,0.853,0.000,16,15,4*62
$GPGGA,091335.20,3135.4832041,N,12046.7199387,E,4,16,1.6,2.7913,M,8.319,M,01,0004*69
$GPHPD,1957,33233.000,144.33,-0.09,13.84,31.5913867,120.7786656,2.791,13631632.671,24926088.294,2.791,-1.030,0.159,-0.956,0.681,1.270,0.736,0.000,16,15,4*69
$GPGGA,091335.40,3135.4830796,N,12046.7200419,E,4,16,1.6,2.8014,M,8.319,M,01,0004*62
$GPHPD,1957,33233.200,144.53,0.03,13.85,31.5913847,120.7786674,2.801,13631634.648,24926090.263,2.801,-0.977,0.059,-1.010,0.681,1.270,0.736,0.000,16,15,4*44
$GPGGA,091335.60,3135.4829499,N,12046.7201432,E,4,16,1.5,2.8049,M,8.319,M,00,0004*66
$GPHPD,1957,33233.400,144.42,-0.17,13.87,31.5913825,120.7786691,2.805,13631636.695,24926092.240,2.805,-1.020,0.107,-0.960,0.681,1.270,0.736,0.000,16,15,4*69
$GPGGA,091335.80,3135.4828231,N,12046.7202438,E,4,16,1.5,2.8065,M,8.319,M,00,0004*6A
$GPHPD,1957,33233.600,144.51,-0.12,13.87,31.5913804,120.7786707,2.807,13631638.700,24926094.191,2.807,-1.006,0.097,-1.002,0.681,1.270,0.736,0.000,16,15,4*6B
$GPGGA,091336.00,3135.4827002,N,12046.7203489,E,4,16,1.5,2.8172,M,8.319,M,01,0004*61
$GPHPD,1957,33233.800,144.36,-0.22,13.86,31.5913783,120.7786725,2.817,13631640.659,24926096.174,2.817,-1.005,0.119,-0.993,0.731,1.310,0.787,0.000,16,15,4*6E
$GPGGA,091336.20,3135.4825743,N,12046.7204472,E,4,16,1.5,2.8105,M,8.319,M,01,0004*60
$GPHPD,1957,33234.000,144.59,0.03,13.88,31.5913762,120.7786741,2.811,13631642.646,24926098.093,2.811,-1.004,0.099,-0.985,0.681,1.270,0.736,0.000,16,15,4*47
$GPGGA,091336.40,3135.4824512,N,12046.7205508,E,4,16,1.5,2.8117,M,8.319,M,01,0004*6F
$GPHPD,1957,33234.200,144.37,-0.36,13.89,31.5913742,120.7786758,2.812,13631644.604,24926100.059,2.812,-0.992,0.108,-0.990,0.731,1.310,0.787,0.000,16,15,4*66
$GPGGA,091336.60,3135.4823283,N,12046.7206542,E,4,16,1.5,2.8089,M,8.319,M,00,0004*6F
$GPHPD,1957,33234.400,144.34,-0.01,13.91,31.5913721,120.7786776,2.809,13631646.560,24926102.021,2.809,-0.995,0.118,-0.992,0.690,1.275,0.853,0.000,16,15,4*63
$GPGGA,091336.80,3135.4822041,N,12046.7207555,E,4,16,1.5,2.8128,M,8.319,M,00,0004*61
$GPHPD,1957,33234.600,144.36,0.03,13.93,31.5913701,120.7786793,2.813,13631648.529,24926103.966,2.813,-0.984,0.081,-0.982,0.681,1.270,0.736,0.000,16,16,4*45
$GPGGA,091337.00,3135.4820792,N,12046.7208577,E,4,16,1.5,2.8180,M,8.319,M,01,0004*6F
$GPHPD,1957,33234.800,144.43,0.16,13.96,31.5913680,120.7786810,2.818,13631650.510,24926105.925,2.818,-0.977,0.073,-1.000,0.681,1.270,0.736,0.000,16,16,4*45
$GPGGA,091337.20,3135.4819550,N,12046.7209599,E,4,16,1.5,2.8072,M,8.319,M,01,0004*66
$GPHPD,1957,33235.000,144.54,0.14,13.97,31.5913659,120.7786827,2.807,13631652.481,24926107.881,2.807,-1.002,0.130,-0.968,0.681,1.270,0.736,0.000,16,16,4*45
$GPGGA,091337.40,3135.4818299,N,12046.7210619,E,4,16,1.5,2.8183,M,8.319,M,01,0004*6F
$GPHPD,1957,33235.200,144.53,0.87,13.96,31.5913638,120.7786844,2.818,13631654.465,24926109.839,2.818,-0.970,0.050,-1.003,0.681,1.270,0.736,0.000,16,16,4*47
$GPGGA,091337.60,3135.4817036,N,12046.7211616,E,4,16,1.5,2.8173,M,8.319,M,00,0004*65
$GPHPD,1957,33235.400,144.44,0.57,13.94,31.5913617,120.7786860,2.817,13631656.460,24926111.777,2.817,-1.005,0.106,-0.970,0.681,1.270,0.737,0.000,16,16,4*4D
$GPGGA,091337.80,3135.4815798,N,12046.7212639,E,4,16,1.5,2.8211,M,8.319,M,00,0004*63
$GPHPD,1957,33235.600,144.20,0.25,13.94,31.5913597,120.7786877,2.821,13631658.426,24926113.731,2.821,-0.988,0.099,-0.995,0.681,1.270,0.737,0.000,16,16,4*48
$GPGGA,091338.00,3135.4814547,N,12046.7213659,E,4,16,1.5,2.8195,M,8.319,M,01,0004*6C
$GPHPD,1957,33235.800,144.24,0.06,13.93,31.5913576,120.7786894,2.820,13631660.410,24926115.690,2.820,-1.021,0.134,-0.973,0.681,1.270,0.737,0.000,16,16,4*41
$GPGGA,091338.20,3135.4813308,N,12046.7214664,E,4,16,1.5,2.8301,M,8.319,M,01,0004*62
$GPHPD,1957,33236.000,144.15,0.44,13.94,31.5913555,120.7786911,2.830,13631662.373,24926117.623,2.830,-1.011,0.133,-0.974,0.681,1.270,0.737,0.000,16,16,4*4D
$GPGGA,091338.40,3135.4812060,N,12046.7215717,E,4,16,1.5,2.8248,M,8.319,M,01,0004*60
$GPHPD,1957,33236.200,144.02,-0.39,13.93,31.5913534,120.7786929,2.825,13631664.359,24926119.619,2.825,-1.032,0.154,-0.939,0.681,1.270,0.737,0.000,16,16,4*65
$GPGGA,091338.60,3135.4810819,N,12046.7216777,E,4,16,1.5,2.8340,M,8.319,M,00,0004*6B
$GPHPD,1957,33236.400,144.26,0.31,13.91,31.5913514,120.7786946,2.834,13631666.336,24926121.620,2.834,-1.016,0.102,-0.980,0.681,1.270,0.737,0.000,16,16,4*44
$GPGGA,091338.80,3135.4809560,N,12046.7217817,E,4,16,1.5,2.8306,M,8.319,M,00,0004*64
$GPHPD,1957,33236.600,144.34,0.70,13.90,31.5913493,120.7786964,2.831,13631668.335,24926123.607,2.831,-1.044,0.102,-0.988,0.681,1.270,0.737,0.000,16,16,4*4A
$GPGGA,091339.00,3135.4808317,N,12046.7218862,E,4,16,1.5,2.8265,M,8.319,M,01,0004*62
$GPHPD,1957,33236.800,144.31,0.76,13.87,31.5913472,120.7786981,2.827,13631670.312,24926125.591,2.827,-1.038,0.123,-0.987,0.731,1.310,0.787,0.000,16,16,4*42
$GPGGA,091339.20,3135.4807060,N,12046.7219884,E,4,16,1.5,2.8281,M,8.319,M,01,0004*6F
$GPHPD,1957,33237.000,144.52,1.07,13.88,31.5913451,120.7786998,2.828,13631672.305,24926127.555,2.828,-1.019,0.068,-1.003,0.731,1.310,0.787,0.000,16,16,4*48
$GPGGA,091339.40,3135.4805822,N,12046.7220909,E,4,16,1.5,2.8466,M,8.319,M,01,0004*64
$GPHPD,1957,33237.200,144.75,1.55,13.88,31.5913430,120.7787015,2.847,13631674.271,24926129.512,2.847,-1.005,0.103,-0.998,0.681,1.270,0.737,0.000,16,16,4*46
$GPGGA,091339.60,3135.4804580,N,12046.7221954,E,4,16,1.5,2.8564,M,8.319,M,00,0004*69
$GPHPD,1957,33237.400,144.58,1.27,13.88,31.5913410,120.7787033,2.856,13631676.247,24926131.496,2.856,-1.042,0.162,-0.941,0.690,1.275,0.853,0.000,16,16,4*47
$GPGGA,091339.80,3135.4803314,N,12046.7222916,E,4,16,1.5,2.8591,M,8.319,M,00,0004*64
$GPHPD,1957,33237.600,144.25,0.55,13.89,31.5913389,120.7787049,2.859,13631678.240,24926133.393,2.859,-1.029,0.121,-0.963,0.758,1.310,0.954,0.000,16,16,4*42
$GPGGA,091340.00,3135.4802082,N,12046.7223969,E,4,16,1.5,2.8524,M,8.319,M,01,0004*69
$GPHPD,1957,33237.800,143.86,-0.62,13.89,31.5913368,120.7787066,2.852,13631680.203,24926135.380,2.852,-0.996,0.140,-0.982,0.731,1.310,0.787,0.000,16,16,4*66
$GPGGA,091340.20,3135.4800814,N,12046.7224958,E,4,16,1.5,2.8660,M,8.319,M,01,0004*68
$GPHPD,1957,33238.000,144.00,-0.76,13.88,31.5913347,120.7787083,2.866,13631682.204,24926137.311,2.866,-1.020,0.095,-0.971,0.681,1.270,0.737,0.000,16,16,4*63
$GPGGA,091340.40,3135.4799557,N,12046.7225992,E,4,16,1.6,2.8679,M,8.319,M,01,0004*67
$GPHPD,1957,33238.200,143.66,-0.58,13.87,31.5913326,120.7787100,2.868,13631684.199,24926139.289,2.868,-1.016,0.142,-0.971,0.681,1.270,0.737,0.000,16,16,4*69
$GPGGA,091340.60,3135.4798322,N,12046.7226999,E,4,16,1.6,2.8616,M,8.319,M,00,0004*60
$GPHPD,1957,33238.400,143.57,-1.13,13.88,31.5913305,120.7787117,2.862,13631686.157,24926141.223,2.862,-1.011,0.111,-0.984,0.690,1.274,0.853,0.000,16,16,4*66
$GPGGA,091340.80,3135.4797077,N,12046.7228098,E,4,16,1.6,2.8542,M,8.319,M,00,0004*66
$GPHPD,1957,33238.600,143.56,-0.66,13.89,31.5913285,120.7787135,2.854,13631688.148,24926143.273,2.854,-0.973,0.042,-1.030,0.681,1.270,0.737,0.000,16,16,4*6C
$GPGGA,091341.00,3135.4795829,N,12046.7229137,E,4,16,1.6,2.8475,M,8.319,M,01,0004*6F
$GPHPD,1957,33238.800,143.95,-0.08,13.88,31.5913264,120.7787152,2.848,13631690.131,24926145.252,2.848,-1.013,0.043,-1.000,0.681,1.270,0.737,0.000,16,16,4*64
$GPGGA,091341.20,3135.4794573,N,12046.7230165,E,4,16,1.6,2.8574,M,8.319,M,01,0004*61
$GPHPD,1957,33239.000,144.03,0.13,13.87,31.5913243,120.7787169,2.857,13631692.123,24926147.223,2.857,-1.006,0.082,-0.999,0.681,1.270,0.737,0.000,16,16,4*44
$GPGGA,091341.40,3135.4793342,N,12046.7231200,E,4,16,1.6,2.8506,M,8.319,M,01,0004*60
$GPHPD,1957,33239.200,144.03,0.43,13.87,31.5913222,120.7787187,2.851,13631694.082,24926149.188,2.851,-1.041,0.162,-0.960,0.681,1.270,0.737,0.000,16,16,4*4E
$GPGGA,091341.60,3135.4792095,N,12046.7232238,E,4,16,1.6,2.8457,M,8.319,M,00,0004*66
$GPHPD,1957,33239.400,144.00,0.33,13.88,31.5913202,120.7787204,2.846,13631696.063,24926151.166,2.846,-1.014,0.100,-0.970,0.681,1.270,0.737,0.000,16,16,4*48
$GPGGA,091341.80,3135.4790862,N,12046.7233280,E,4,16,1.6,2.8550,M,8.319,M,00,0004*6E
$GPHPD,1957,33239.600,144.16,0.93,13.85,31.5913181,120.7787221,2.855,13631698.025,24926153.140,2.855,-0.999,0.116,-0.976,0.681,1.270,0.737,0.000,16,16,4*43
$GPGGA,091342.00,3135.4789633,N,12046.7234326,E,4,16,1.6,2.8502,M,8.319,M,01,0004*6B
$GPHPD,1957,33239.800,144.03,0.18,13.86,31.5913161,120.7787239,2.850,13631699.983,24926155.117,2.850,-1.046,0.153,-0.938,0.681,1.270,0.737,0.000,16,16,4*4F
$GPGGA,091342.20,3135.4788371,N,12046.7235342,E,4,16,1.6,2.8596,M,8.319,M,01,0004*65
$GPHPD,1957,33240.000,144.09,0.69,13.87,31.5913140,120.7787256,2.860,13631701.981,24926157.077,2.860,-0.998,0.069,-0.977,0.681,1.270,0.737,0.000,16,16,4*41
$GPGGA,091342.40,3135.4787123,N,12046.7236378,E,4,16,1.6,2.8681,M,8.319,M,01,0004*66
$GPHPD,1957,33240.200,143.92,0.17,13.88,31.5913119,120.7787273,2.868,13631703.964,24926159.053,2.868,-1.019,0.147,-0.953,0.681,1.270,0.737,0.000,16,16,4*40
$GPGGA,091342.60,3135.4785883,N,12046.7237405,E,4,16,1.5,2.8734,M,8.319,M,00,0004*64
$GPHPD,1957,33240.400,144.14,0.89,13.87,31.5913098,120.7787290,2.873,13631705.933,24926161.013,2.873,-1.032,0.098,-0.982,0.681,1.270,0.737,0.000,16,16,4*4F
$GPGGA,091342.80,3135.4784615,N,12046.7238441,E,4,16,1.5,2.8737,M,8.319,M,00,0004*66
$GPHPD,1957,33240.600,144.18,1.11,13.87,31.5913077,120.7787307,2.874,13631707.944,24926163.001,2.874,-1.010,0.119,-0.953,0.681,1.270,0.737,0.000,16,16,4*48
$GPGGA,091343.00,3135.4783369,N,12046.7239482,E,4,16,1.5,2.8766,M,8.319,M,01,0004*6D
$GPHPD,1957,33240.800,144.26,1.35,13.89,31.5913056,120.7787325,2.877,13631709.925,24926164.982,2.877,-1.008,0.074,-1.010,0.681,1.270,0.737,0.000,16,16,4*40
$GPGGA,091343.20,3135.4782111,N,12046.7240513,E,4,16,1.5,2.8786,M,8.319,M,01,0004*6A
$GPHPD,1957,33241.000,144.24,0.63,13.87,31.5913035,120.7787342,2.879,13631711.920,24926166.958,2.879,-1.026,0.122,-0.970,0.681,1.270,0.737,0.000,16,16,4*4A
$GPGGA,091343.40,3135.4780857,N,12046.7241524,E,4,16,1.5,2.8842,M,8.319,M,01,0004*67
$GPHPD,1957,33241.200,144.37,1.06,13.82,31.5913014,120.7787359,2.884,13631713.906,24926168.907,2.884,-1.016,0.100,-0.994,0.681,1.270,0.737,0.000,16,16,4*4F
$GPGGA,091343.60,3135.4779621,N,12046.7242518,E,4,16,1.5,2.8931,M,8.319,M,00,0004*64
$GPHPD,1957,33241.400,144.36,1.09,13.81,31.5912994,120.7787375,2.893,13631715.863,24926170.825,2.893,-1.015,0.112,-0.981,0.681,1.270,0.737,0.000,16,16,4*42
$GPGGA,091343.80,3135.4778379,N,12046.7243547,E,4,16,1.5,2.8946,M,8.319,M,00,0004*68
$GPHPD,1957,33241.600,143.80,-0.52,13.81,31.5912973,120.7787392,2.895,13631717.836,24926172.789,2.895,-0.982,0.082,-0.985,0.732,1.310,0.788,0.000,16,16,4*61
$GPGGA,091344.00,3135.4777148,N,12046.7244573,E,4,16,1.5,2.8976,M,8.319,M,01,0004*6A
$GPHPD,1957,33241.800,143.50,-1.30,13.79,31.5912952,120.7787410,2.898,13631719.792,24926174.743,2.898,-0.983,0.096,-0.984,0.681,1.270,0.737,0.000,16,16,4*6E
$GPGGA,091344.20,3135.4775902,N,12046.7245652,E,4,16,1.5,2.8926,M,8.319,M,01,0004*68
$GPHPD,1957,33242.000,143.47,-1.89,13.80,31.5912932,120.7787428,2.893,13631721.780,24926176.770,2.893,-0.997,0.107,-0.971,0.681,1.270,0.737,0.000,16,16,4*66
$GPGGA,091344.40,3135.4774669,N,12046.7246688,E,4,16,1.5,2.8862,M,8.319,M,01,0004*68
$GPHPD,1957,33242.200,143.81,-0.97,13.81,31.5912911,120.7787445,2.886,13631723.741,24926178.737,2.886,-1.041,0.123,-0.967,0.681,1.270,0.737,0.000,16,16,4*6B
$GPGGA,091344.60,3135.4773417,N,12046.7247711,E,4,16,1.5,2.9016,M,8.319,M,00,0004*6D
$GPHPD,1957,33242.400,143.75,-1.22,13.83,31.5912890,120.7787462,2.902,13631725.727,24926180.699,2.902,-1.001,0.058,-0.985,0.681,1.270,0.737,0.000,16,16,4*67
$GPGGA,091344.80,3135.4772203,N,12046.7248770,E,4,16,1.5,2.8729,M,8.319,M,00,0004*63
$GPHPD,1957,33242.600,143.69,-1.44,13.84,31.5912870,120.7787480,2.873,13631727.666,24926182.683,2.873,-1.036,0.157,-0.945,0.681,1.270,0.737,0.000,16,16,4*64
$GPGGA,091345.00,3135.4770973,N,12046.7249810,E,4,16,1.5,2.8724,M,8.319,M,01,0004*60
$GPHPD,1957,33242.800,144.12,-0.45,13.85,31.5912850,120.7787497,2.872,13631729.623,24926184.653,2.872,-0.984,0.045,-1.003,0.681,1.270,0.737,0.000,16,16,4*69
$GPGGA,091345.20,3135.4769736,N,12046.7250826,E,4,16,1.5,2.8733,M,8.319,M,01,0004*6E
$GPHPD,1957,33243.000,144.34,0.71,13.86,31.5912829,120.7787514,2.873,13631731.586,24926186.599,2.873,-0.996,0.051,-0.989,0.681,1.270,0.737,0.000,16,16,4*47
$GPGGA,091345.40,3135.4768500,N,12046.7251823,E,4,16,1.5,2.8686,M,8.319,M,01,0004*65
$GPHPD,1957,33243.200,144.33,0.91,13.89,31.5912808,120.7787530,2.869,13631733.544,24926188.521,2.869,-1.014,0.106,-0.981,0.681,1.270,0.737,0.000,16,16,4*4E
$GPGGA,091345.60,3135.4767264,N,12046.7252901,E,4,16,1.5,2.8611,M,8.319,M,00,0004*60
$GPHPD,1957,33243.400,144.51,2.04,13.91,31.5912788,120.7787548,2.861,13631735.518,24926190.540,2.861,-0.962,0.058,-0.990,0.681,1.270,0.737,0.000,16,16,4*41
$GPGGA,091345.80,3135.4766013,N,12046.7253904,E,4,16,1.5,2.8698,M,8.319,M,00,0004*68
$GPHPD,1957,33243.600,144.64,1.72,13.94,31.5912767,120.7787565,2.870,13631737.498,24926192.478,2.870,-1.004,0.060,-1.007,0.681,1.270,0.737,0.000,16,16,4*4A
$GPGGA,091346.00,3135.4764752,N,12046.7254856,E,4,16,1.5,2.8985,M,8.319,M,01,0004*60
$GPHPD,1957,33243.800,144.52,1.88,13.97,31.5912746,120.7787581,2.899,13631739.482,24926194.360,2.899,-1.002,0.124,-0.967,0.681,1.270,0.737,0.000,16,15,4*49
$GPGGA,091346.20,3135.4763504,N,12046.7255904,E,4,16,1.5,2.8980,M,8.319,M,01,0004*66
$GPHPD,1957,33244.000,144.21,1.63,13.95,31.5912725,120.7787598,2.898,13631741.467,24926196.351,2.898,-1.033,0.219,-0.923,0.681,1.270,0.737,0.000,16,16,4*40
$GPGGA,091346.40,3135.4762268,N,12046.7256941,E,4,16,1.5,2.8989,M,8.319,M,01,0004*67
$GPHPD,1957,33244.200,143.94,0.53,13.92,31.5912704,120.7787616,2.899,13631743.432,24926198.321,2.899,-1.015,0.140,-0.967,0.681,1.270,0.737,0.000,16,16,4*48
$GPGGA,091346.60,3135.4761002,N,12046.7257990,E,4,16,1.5,2.9048,M,8.319,M,01,0004*60
$GPHPD,1957,33244.400,143.77,0.11,13.89,31.5912683,120.7787633,2.905,13631745.443,24926200.323,2.905,-1.023,0.119,-0.964,0.681,1.270,0.737,0.000,16,16,4*4C
$GPGGA,091346.80,3135.4759752,N,12046.7258970,E,4,16,1.5,2.9145,M,8.319,M,01,0004*6A
$GPHPD,1957,33244.600,144.44,1.28,13.88,31.5912663,120.7787650,2.915,13631747.417,24926202.232,2.915,-1.005,0.099,-0.973,0.716,1.696,0.772,0.000,16,16,4*41
$GPGGA,091347.00,3135.4758507,N,12046.7259983,E,4,16,1.5,2.9177,M,8.319,M,02,0004*6F
$GPHPD,1957,33244.800,144.22,1.34,13.88,31.5912642,120.7787666,2.918,13631749.391,24926204.179,2.918,-1.005,0.153,-0.969,0.716,1.696,0.772,0.000,16,16,4*45
$GPGGA,091347.20,3135.4757266,N,12046.7260923,E,4,16,1.5,2.9610,M,8.319,M,02,0004*64
$GPHPD,1957,33245.000,143.52,-0.51,13.88,31.5912621,120.7787682,2.961,13631751.344,24926206.035,2.961,-1.012,0.126,-0.974,0.681,1.270,0.737,0.000,16,16,4*6C
$GPGGA,091347.40,3135.4756064,N,12046.7262136,E,4,16,1.6,2.9140,M,8.319,M,02,0004*6C
$GPHPD,1957,33245.200,142.79,-2.46,13.88,31.5912601,120.7787702,2.914,13631753.296,24926208.198,2.914,-1.041,0.223,-0.907,0.716,1.696,0.772,0.000,16,16,4*6B
$GPGGA,091347.60,3135.4754851,N,12046.7263163,E,4,16,1.6,2.9147,M,8.319,M,02,0004*64
$GPHPD,1957,33245.400,143.48,-1.15,13.86,31.5912581,120.7787719,2.915,13631755.227,24926210.142,2.915,-1.033,-0.030,-1.024,0.695,1.290,0.761,0.000,16,16,4*4D
$GPGGA,091347.80,3135.4753638,N,12046.7264240,E,4,16,1.6,2.8934,M,8.319,M,00,0004*66
$GPHPD,1957,33245.600,144.07,0.12,13.87,31.5912561,120.7787737,2.893,13631757.168,24926212.147,2.893,-1.010,0.121,-0.946,0.681,1.270,0.737,0.000,16,16,4*4F
$GPGGA,091348.00,3135.4752418,N,12046.7265251,E,4,16,1.6,2.8941,M,8.319,M,01,0004*62
$GPHPD,1957,33245.800,143.85,-0.77,13.90,31.5912540,120.7787754,2.894,13631759.106,24926214.077,2.894,-1.006,0.045,-0.987,0.681,1.270,0.737,0.000,16,16,4*69
$GPGGA,091348.20,3135.4751172,N,12046.7266296,E,4,16,1.6,2.8895,M,8.319,M,01,0004*6A
$GPHPD,1957,33246.000,143.71,-0.81,13.89,31.5912520,120.7787772,2.890,13631761.087,24926216.062,2.890,-0.994,0.090,-0.962,0.681,1.270,0.737,0.000,16,16,4*6F
$GPGGA,091348.40,3135.4749908,N,12046.7267381,E,4,16,1.6,2.8910,M,8.319,M,01,0004*6A
$GPHPD,1957,33246.200,143.77,-0.86,13.90,31.5912498,120.7787790,2.891,13631763.103,24926218.107,2.891,-0.991,0.099,-0.975,0.681,1.270,0.737,0.000,16,16,4*63
$GPGGA,091348.60,3135.4748664,N,12046.7268373,E,4,16,1.6,2.8966,M,8.319,M,00,0004*6E
$GPHPD,1957,33246.400,143.70,-0.98,13.92,31.5912478,120.7787806,2.897,13631765.070,24926220.027,2.897,-1.032,0.104,-0.989,0.681,1.270,0.737,0.000,16,16,4*6D
$GPGGA,091348.80,3135.4747394,N,12046.7269370,E,4,16,1.5,2.9151,M,8.319,M,00,0004*69
$GPHPD,1957,33246.600,144.28,0.59,13.94,31.5912457,120.7787823,2.915,13631767.076,24926221.969,2.915,-1.014,0.125,-0.982,0.681,1.270,0.737,0.000,16,16,4*43
$GPGGA,091349.00,3135.4746141,N,12046.7270454,E,4,16,1.5,2.9039,M,8.319,M,01,0004*6C
$GPHPD,1957,33246.800,144.04,0.40,13.93,31.5912436,120.7787841,2.904,13631769.076,24926224.005,2.904,-1.028,0.143,-0.977,0.681,1.270,0.737,0.000,16,16,4*42
$GPGGA,091349.20,3135.4744910,N,12046.7271498,E,4,16,1.5,2.9107,M,8.319,M,01,0004*6D
$GPHPD,1957,33247.000,143.75,0.01,13.91,31.5912415,120.7787858,2.911,13631771.036,24926225.981,2.911,-1.023,0.133,-0.982,0.681,1.270,0.737,0.000,16,16,4*4B
$GPGGA,091349.40,3135.4743675,N,12046.7272542,E,4,16,1.5,2.8964,M,8.319,M,01,0004*69
$GPHPD,1957,33247.200,143.94,-0.01,13.93,31.5912395,120.7787876,2.896,13631773.001,24926227.959,2.896,-1.022,0.097,-0.963,0.681,1.270,0.737,0.000,16,16,4*6A
$GPGGA,091349.60,3135.4742428,N,12046.7273505,E,4,16,1.5,2.9213,M,8.319,M,00,0004*69
$GPHPD,1957,33247.400,144.01,-0.13,13.96,31.5912374,120.7787892,2.921,13631774.968,24926229.846,2.921,-1.005,0.057,-1.000,0.681,1.270,0.737,0.000,16,16,4*60
$GPGGA,091349.80,3135.4741205,N,12046.7274500,E,4,16,1.5,2.9309,M,8.319,M,00,0004*65
$GPHPD,1957,33247.600,144.48,1.64,13.95,31.5912353,120.7787908,2.931,13631776.906,24926231.758,2.931,-1.007,0.172,-0.931,0.681,1.270,0.737,0.000,16,16,4*4A
$GPGGA,091350.00,3135.4739952,N,12046.7275541,E,4,16,1.5,2.9241,M,8.319,M,01,0004*6B
$GPHPD,1957,33247.800,144.46,1.60,13.96,31.5912333,120.7787926,2.924,13631778.897,24926233.743,2.924,-1.011,0.143,-0.946,0.681,1.270,0.737,0.000,16,16,4*4D
$GPGGA,091350.20,3135.4738737,N,12046.7276563,E,4,16,1.5,2.9292,M,8.319,M,01,0004*68
$GPHPD,1957,33248.000,144.34,1.47,13.98,31.5912312,120.7787943,2.929,13631780.830,24926235.683,2.929,-0.988,0.131,-0.981,0.681,1.270,0.737,0.000,16,16,4*43
$GPGGA,091350.40,3135.4737499,N,12046.7277600,E,4,16,1.5,2.9329,M,8.319,M,01,0004*60
$GPHPD,1957,33248.200,144.36,1.95,13.99,31.5912292,120.7787960,2.933,13631782.798,24926237.654,2.933,-1.010,0.155,-0.934,0.681,1.270,0.737,0.000,16,16,4*47
$GPGGA,091350.60,3135.4736281,N,12046.7278592,E,4,16,1.5,2.9284,M,8.319,M,00,0004*6C
$GPHPD,1957,33248.400,144.08,0.99,13.98,31.5912271,120.7787977,2.928,13631784.729,24926239.560,2.928,-1.008,0.103,-0.965,0.681,1.270,0.737,0.000,16,16,4*43
$GPGGA,091350.80,3135.4735056,N,12046.7279617,E,4,16,1.5,2.9395,M,8.319,M,00,0004*67
$GPHPD,1957,33248.600,144.04,1.08,14.00,31.5912251,120.7787994,2.940,13631786.677,24926241.509,2.940,-0.973,0.068,-0.965,0.681,1.270,0.737,0.000,16,16,4*4D
$GPGGA,091351.00,3135.4733844,N,12046.7280651,E,4,16,1.5,2.9421,M,8.319,M,01,0004*6E
$GPHPD,1957,33248.800,143.91,0.41,14.03,31.5912231,120.7788011,2.942,13631788.608,24926243.462,2.942,-1.010,0.106,-0.957,0.681,1.270,0.737,0.000,16,16,4*47
$GPGGA,091351.20,3135.4732617,N,12046.7281678,E,4,16,1.5,2.9370,M,8.319,M,01,0004*6C
$GPHPD,1957,33249.000,143.79,-0.05,14.04,31.5912210,120.7788028,2.937,13631790.558,24926245.414,2.937,-1.020,0.130,-0.938,0.681,1.270,0.737,0.000,16,16,4*6C
$GPGGA,091351.40,3135.4731410,N,12046.7282736,E,4,16,1.5,2.9374,M,8.319,M,01,0004*60
$GPHPD,1957,33249.200,143.67,-0.32,14.05,31.5912190,120.7788046,2.937,13631792.487,24926247.393,2.937,-0.996,0.065,-0.974,0.681,1.270,0.737,0.000,16,16,4*60
$GPGGA,091351.60,3135.4730163,N,12046.7283766,E,4,16,1.6,2.9325,M,8.319,M,00,0004*60
$GPHPD,1957,33249.400,144.01,-0.57,14.06,31.5912169,120.7788063,2.933,13631794.467,24926249.361,2.933,-0.984,0.052,-0.967,0.681,1.270,0.737,0.000,16,16,4*6E
$GPGGA,091351.80,3135.4728938,N,12046.7284795,E,4,16,1.6,2.9429,M,8.319,M,00,0004*61
$GPHPD,1957,33249.600,144.15,0.78,14.07,31.5912149,120.7788080,2.943,13631796.415,24926251.315,2.943,-1.011,0.114,-0.969,0.732,1.310,0.788,0.000,16,16,4*49
$GPGGA,091352.00,3135.4727700,N,12046.7285855,E,4,16,1.6,2.9449,M,8.319,M,01,0004*65
$GPHPD,1957,33249.800,143.84,-0.30,14.06,31.5912128,120.7788098,2.945,13631798.388,24926253.314,2.945,-1.011,0.092,-0.956,0.732,1.310,0.788,0.000,16,16,4*6B
$GPGGA,091352.20,3135.4726493,N,12046.7286899,E,4,16,1.6,2.9402,M,8.319,M,01,0004*63
$GPHPD,1957,33250.000,143.94,-0.43,14.07,31.5912108,120.7788115,2.940,13631800.314,24926255.276,2.940,-1.047,0.140,-0.952,0.732,1.310,0.789,0.000,16,16,4*69
$GPGGA,091352.40,3135.4725267,N,12046.7287914,E,4,16,1.6,2.9214,M,8.319,M,01,0004*6F
$GPHPD,1957,33250.200,144.26,-0.22,14.09,31.5912088,120.7788132,2.921,13631802.261,24926257.214,2.921,-1.020,0.111,-0.943,0.732,1.310,0.789,0.000,16,16,4*62
$GPGGA,091352.60,3135.4723979,N,12046.7288884,E,4,15,1.7,2.9292,M,8.319,M,00,0004*65
$GPHPD,1957,33250.400,144.23,-0.13,14.11,31.5912066,120.7788148,2.929,13631804.287,24926259.133,2.929,-0.940,0.018,-1.010,0.759,1.310,0.955,0.000,15,16,4*68
$GPGGA,091352.80,3135.4722753,N,12046.7289885,E,4,16,1.7,2.9294,M,8.319,M,00,0004*69
$GPHPD,1957,33250.600,144.44,-1.73,14.12,31.5912046,120.7788165,2.929,13631806.231,24926261.054,2.929,-1.007,0.124,-1.009,0.759,1.310,0.955,0.000,16,16,4*68
$GPGGA,091353.00,3135.4721512,N,12046.7290881,E,4,15,1.7,2.9519,M,8.319,M,01,0004*68
$GPHPD,1957,33250.800,144.79,-1.60,14.13,31.5912025,120.7788181,2.952,13631808.196,24926262.978,2.952,-0.987,0.127,-0.962,0.759,1.310,0.955,0.000,15,16,4*65
$GPGGA,091353.20,3135.4720274,N,12046.7291878,E,4,15,1.7,2.9364,M,8.319,M,01,0004*67
$GPHPD,1957,33251.000,144.29,-0.14,14.16,31.5912005,120.7788198,2.936,13631810.156,24926264.901,2.936,-1.027,0.190,-0.915,0.759,1.310,0.955,0.000,15,15,4*64
$GPGGA,091353.40,3135.4719065,N,12046.7292884,E,4,15,1.7,2.9436,M,8.319,M,01,0004*69
$GPHPD,1957,33251.200,144.21,0.15,14.20,31.5911984,120.7788215,2.944,13631812.077,24926266.818,2.944,-0.971,0.093,-0.983,0.759,1.310,0.955,0.000,15,15,4*4F
$GPGGA,091353.60,3135.4717839,N,12046.7293931,E,4,15,1.7,2.9354,M,8.319,M,00,0004*68
$GPHPD,1957,33251.400,144.46,0.26,14.16,31.5911964,120.7788232,2.935,13631814.031,24926268.794,2.935,-0.992,0.118,-0.963,0.759,1.310,0.955,0.000,15,15,4*46
$GPGGA,091353.80,3135.4716571,N,12046.7294952,E,4,15,1.7,2.9457,M,8.319,M,00,0004*60
$GPHPD,1957,33251.600,144.37,0.35,14.14,31.5911943,120.7788249,2.946,13631816.039,24926270.764,2.946,-0.996,0.068,-0.976,0.795,1.742,0.985,0.000,15,15,4*4F
$GPGGA,091354.00,3135.4715283,N,12046.7295971,E,4,16,1.7,2.9543,M,8.319,M,01,0004*60
$GPHPD,1957,33251.800,144.49,0.38,14.11,31.5911921,120.7788266,2.954,13631818.074,24926272.742,2.954,-0.999,0.059,-1.001,0.795,1.742,0.985,0.000,16,15,4*4E
$GPGGA,091354.20,3135.4714032,N,12046.7297037,E,4,16,1.7,2.9609,M,8.319,M,01,0004*6F
$GPHPD,1957,33252.000,144.34,0.00,14.06,31.5911901,120.7788284,2.961,13631820.067,24926274.756,2.961,-1.014,0.061,-1.016,0.732,1.310,0.789,0.000,16,16,4*49
$GPGGA,091354.40,3135.4712785,N,12046.7298047,E,4,16,1.7,2.9505,M,8.319,M,01,0004*63
$GPHPD,1957,33252.200,144.35,-0.12,14.00,31.5911880,120.7788301,2.951,13631822.043,24926276.700,2.951,-1.033,0.099,-0.980,0.732,1.310,0.789,0.000,16,16,4*66
$GPGGA,091354.60,3135.4711617,N,12046.7299088,E,4,16,1.7,2.9426,M,8.319,M,00,0004*6B
$GPHPD,1957,33252.400,144.31,0.34,13.97,31.5911860,120.7788318,2.943,13631823.913,24926278.635,2.943,-0.987,0.081,-0.995,0.732,1.310,0.789,0.000,16,16,4*4C
$GPGGA,091354.80,3135.4710419,N,12046.7300071,E,4,16,1.7,2.9577,M,8.319,M,00,0004*6A
$GPHPD,1957,33252.600,144.49,0.22,13.93,31.5911840,120.7788335,2.958,13631825.814,24926280.518,2.958,-0.967,0.035,-0.941,0.732,1.310,0.789,0.000,16,16,4*4C
$GPGGA,091355.00,3135.4709293,N,12046.7300993,E,4,16,1.7,2.9483,M,8.319,M,01,0004*61
$GPHPD,1957,33252.800,144.60,0.48,13.84,31.5911822,120.7788350,2.948,13631827.600,24926282.286,2.948,-0.988,0.122,-0.913,0.732,1.310,0.789,0.000,16,16,4*4E
$GPGGA,091355.20,3135.4708236,N,12046.7301860,E,4,16,1.7,2.9476,M,8.319,M,01,0004*6B
$GPHPD,1957,33253.000,144.77,0.79,13.72,31.5911804,120.7788364,2.948,13631829.277,24926283.947,2.948,-0.896,0.077,-0.911,0.732,1.310,0.789,0.000,16,16,4*49
