$GPGGA,091116.20,3135.5952311,N,12046.7558850,E,4,17,1.6,2.6655,M,8.320,M,01,0004*65
$GPHPD,0,0.000,64.17,-1.70,-12.33,31.5932539,120.7792648,2.666,13630112.628,24925869.462,2.666,0.000,0.000,0.000,0.000,0.000,0.000,0.000,17,14,4*4B
$GPGGA,091116.40,3135.5952544,N,12046.7559480,E,4,17,1.6,2.6659,M,8.320,M,01,0004*69
$GPHPD,0,0.000,63.98,0.49,-12.31,31.5932542,120.7792658,2.666,13630112.424,24925870.086,2.666,0.000,0.000,0.000,0.000,0.000,0.000,0.000,17,14,4*6A
$GPGGA,091116.60,3135.5952819,N,12046.7560075,E,4,17,1.5,2.6645,M,8.320,M,00,0004*65
$GPHPD,0,0.000,64.08,-0.05,-12.30,31.5932547,120.7792668,2.665,13630112.152,24925870.643,2.665,0.000,0.000,0.000,0.000,0.000,0.000,0.000,17,14,4*4D
$GPGGA,091116.80,3135.5953013,N,12046.7560697,E,4,18,1.5,2.6599,M,8.320,M,00,0004*6F
$GPHPD,0,0.000,64.04,0.24,-12.32,31.5932550,120.7792678,2.660,13630112.002,24925871.280,2.660,0.000,0.000,0.000,0.000,0.000,0.000,0.000,18,14,4*6B
$GPGGA,091117.00,3135.5953288,N,12046.7561337,E,4,18,1.5,2.6418,M,8.320,M,01,0004*61
$GPHPD,0,0.000,62.91,1.05,-12.36,31.5932555,120.7792689,2.642,13630111.740,24925871.892,2.642,0.000,0.000,0.000,0.000,0.000,0.000,0.000,18,14,4*67
$GPGGA,091117.20,3135.5953583,N,12046.7561941,E,4,18,1.5,2.6585,M,8.320,M,01,0004*61
$GPHPD,0,0.000,62.17,1.63,-12.38,31.5932560,120.7792699,2.659,13630111.442,24925872.448,2.659,0.000,0.000,0.000,0.000,0.000,0.000,0.000,18,14,4*69
$GPGGA,091117.40,3135.5953840,N,12046.7562602,E,4,18,1.5,2.6541,M,8.320,M,01,0004*66
$GPHPD,0,0.000,62.38,1.15,-12.39,31.5932564,120.7792710,2.654,13630111.210,24925873.096,2.654,0.000,0.000,0.000,0.000,0.000,0.000,0.000,18,14,4*67
$GPGGA,091117.60,3135.5954150,N,12046.7563252,E,4,18,1.5,2.6687,M,8.320,M,00,0004*63
$GPHPD,0,0.000,62.41,1.36,-12.41,31.5932569,120.7792721,2.669,13630110.900,24925873.699,2.669,0.000,0.000,0.000,0.000,0.000,0.000,0.000,18,14,4*6A
$GPGGA,091117.80,3135.5954412,N,12046.7563970,E,4,18,1.6,2.6485,M,8.320,M,00,0004*66
$GPHPD,0,0.000,63.83,0.38,-12.42,31.5932574,120.7792733,2.649,13630110.672,24925874.412,2.649,0.000,0.000,0.000,0.000,0.000,0.000,0.000,18,14,4*6A
$GPGGA,091118.00,3135.5954737,N,12046.7564649,E,4,18,1.5,2.6505,M,8.320,M,01,0004*6C
$GPHPD,0,0.000,61.05,1.03,-12.42,31.5932579,120.7792744,2.651,13630110.346,24925875.042,2.651,0.000,0.000,0.000,0.000,0.000,0.000,0.000,18,14,4*60
$GPGGA,091118.20,3135.5955032,N,12046.7565340,E,4,18,1.6,2.6631,M,8.320,M,01,0004*67
$GPHPD,0,0.000,62.09,1.20,-12.44,31.5932584,120.7792756,2.663,13630110.066,24925875.703,2.663,0.000,0.000,0.000,0.000,0.000,0.000,0.000,18,14,4*6A
$GPGGA,091118.40,3135.5955303,N,12046.7566046,E,4,18,1.6,2.6545,M,8.320,M,01,0004*66
$GPHPD,0,0.000,62.24,0.56,-12.45,31.5932588,120.7792767,2.655,13630109.823,24925876.397,2.655,0.000,0.000,0.000,0.000,0.000,0.000,0.000,18,14,4*61
$GPGGA,091118.60,3135.5955612,N,12046.7566792,E,4,18,1.5,2.6399,M,8.320,M,00,0004*6A
$GPHPD,0,0.000,61.17,1.09,-12.47,31.5932594,120.7792780,2.640,13630109.534,24925877.116,2.640,0.000,0.000,0.000,0.000,0.000,0.000,0.000,18,14,4*6E
$GPGGA,091118.80,3135.5955913,N,12046.7567461,E,4,18,1.5,2.6634,M,8.320,M,00,0004*66
$GPHPD,0,0.000,61.88,1.04,-12.48,31.5932599,120.7792791,2.663,13630109.240,24925877.748,2.663,0.000,0.000,0.000,0.000,0.000,0.000,0.000,18,14,4*6E
$GPGGA,091119.00,3135.5956228,N,12046.7568184,E,4,18,1.5,2.6736,M,8.320,M,01,0004*6C
$GPHPD,0,0.000,62.55,-0.06,-12.49,31.5932604,120.7792803,2.674,13630108.938,24925878.436,2.674,0.000,0.000,0.000,0.000,0.000,0.000,0.000,18,14,4*41
$GPGGA,091119.20,3135.5956560,N,12046.7568950,E,4,18,1.5,2.6603,M,8.320,M,01,0004*63
$GPHPD,0,0.000,62.37,-0.29,-12.51,31.5932609,120.7792816,2.660,13630108.620,24925879.166,2.660,0.000,0.000,0.000,0.000,0.000,0.000,0.000,18,14,4*4F
$GPGGA,091119.40,3135.5956843,N,12046.7569687,E,4,18,1.5,2.6735,M,8.320,M,01,0004*69
$GPHPD,0,0.000,61.94,1.04,-12.52,31.5932614,120.7792828,2.674,13630108.366,24925879.890,2.674,0.000,0.000,0.000,0.000,0.000,0.000,0.000,18,13,4*64
$GPGGA,091119.60,3135.5957200,N,12046.7570405,E,4,18,1.5,2.6761,M,8.320,M,00,0004*67
$GPHPD,0,0.000,60.38,1.46,-12.52,31.5932620,120.7792840,2.676,13630108.003,24925880.548,2.676,0.000,0.000,0.000,0.000,0.000,0.000,0.000,18,13,4*62
$GPGGA,091119.80,3135.5957547,N,12046.7571252,E,4,18,1.5,2.6582,M,8.320,M,00,0004*67
$GPHPD,0,0.000,60.73,0.59,-12.53,31.5932626,120.7792854,2.658,13630107.681,24925881.368,2.658,0.000,0.000,0.000,0.000,0.000,0.000,0.000,18,13,4*66
$GPGGA,091120.00,3135.5957893,N,12046.7572012,E,4,18,1.5,2.6621,M,8.320,M,01,0004*6F
$GPHPD,0,0.000,60.88,1.83,-12.54,31.5932632,120.7792867,2.662,13630107.342,24925882.083,2.662,0.000,0.000,0.000,0.000,0.000,0.000,0.000,18,13,4*69
$GPGGA,091120.20,3135.5958250,N,12046.7572737,E,4,18,1.5,2.6592,M,8.320,M,01,0004*6C
$GPHPD,0,0.000,59.41,3.02,-12.54,31.5932638,120.7792879,2.659,13630106.980,24925882.749,2.659,0.000,0.000,0.000,0.000,0.000,0.000,0.000,18,13,4*6C
$GPGGA,091120.40,3135.5958626,N,12046.7573544,E,4,18,1.5,2.6477,M,8.320,M,01,0004*62
$GPHPD,0,0.000,60.86,1.03,-12.54,31.5932644,120.7792892,2.648,13630106.608,24925883.503,2.648,0.000,0.000,0.000,0.000,0.000,0.000,0.000,18,14,4*65
$GPGGA,091120.60,3135.5958922,N,12046.7574339,E,4,18,1.6,2.6593,M,8.320,M,00,0004*69
$GPHPD,0,0.000,60.76,1.72,-12.54,31.5932649,120.7792906,2.659,13630106.347,24925884.289,2.659,0.000,0.000,0.000,0.000,0.000,0.000,0.000,18,14,4*61
$GPGGA,091120.80,3135.5959224,N,12046.7575286,E,4,18,1.6,2.6167,M,8.320,M,00,0004*60
$GPHPD,0,0.000,60.99,0.34,-12.53,31.5932654,120.7792921,2.617,13630106.108,24925885.255,2.617,0.000,0.000,0.000,0.000,0.000,0.000,0.000,18,14,4*64
$GPGGA,091121.00,3135.5959649,N,12046.7575885,E,4,18,1.6,2.6526,M,8.320,M,01,0004*6F
$GPHPD,0,0.000,60.21,1.08,-12.52,31.5932661,120.7792931,2.653,13630105.625,24925885.730,2.653,0.000,0.000,0.000,0.000,0.000,0.000,0.000,18,14,4*62
$GPGGA,091121.20,3135.5960017,N,12046.7576653,E,4,18,1.6,2.6706,M,8.320,M,01,0004*6C
$GPHPD,0,0.000,60.29,0.94,-12.51,31.5932667,120.7792944,2.671,13630105.256,24925886.442,2.671,0.000,0.000,0.000,0.000,0.000,0.000,0.000,18,14,4*6C
$GPGGA,091121.40,3135.5960403,N,12046.7577401,E,4,18,1.6,2.6861,M,8.320,M,01,0004*61
$GPHPD,0,0.000,62.11,-0.96,-12.49,31.5932673,120.7792957,2.686,13630104.858,24925887.119,2.686,0.000,0.000,0.000,0.000,0.000,0.000,0.000,18,14,4*4B
$GPGGA,091121.60,3135.5960793,N,12046.7578237,E,4,18,1.6,2.6824,M,8.320,M,00,0004*65
$GPHPD,0,0.000,61.00,-0.19,-12.48,31.5932680,120.7792971,2.682,13630104.472,24925887.900,2.682,0.000,0.000,0.000,0.000,0.000,0.000,0.000,18,15,4*43
$GPGGA,091121.80,3135.5961144,N,12046.7579178,E,4,18,1.6,2.6643,M,8.320,M,00,0004*60
$GPHPD,0,0.000,60.81,0.76,-12.47,31.5932686,120.7792986,2.664,13630104.162,24925888.831,2.664,0.000,0.000,0.000,0.000,0.000,0.000,0.000,18,15,4*66
$GPGGA,091122.00,3135.5961532,N,12046.7579994,E,4,18,1.6,2.6739,M,8.320,M,01,0004*69
$GPHPD,0,0.000,62.17,-0.67,-12.47,31.5932692,120.7793000,2.674,13630103.775,24925889.589,2.674,0.000,0.000,0.000,0.000,0.000,0.000,0.000,18,15,4*4D
$GPGGA,091122.20,3135.5961946,N,12046.7580822,E,4,18,1.5,2.6685,M,8.320,M,01,0004*6B
$GPHPD,0,0.000,60.53,-0.31,-12.46,31.5932699,120.7793014,2.669,13630103.353,24925890.346,2.669,0.000,0.000,0.000,0.000,0.000,0.000,0.000,18,15,4*4E
$GPGGA,091122.40,3135.5962366,N,12046.7581719,E,4,18,1.5,2.6582,M,8.320,M,01,0004*64
$GPHPD,0,0.000,59.96,0.46,-12.47,31.5932706,120.7793029,2.658,13630102.937,24925891.183,2.658,0.000,0.000,0.000,0.000,0.000,0.000,0.000,18,15,4*6B
$GPGGA,091122.60,3135.5962762,N,12046.7582519,E,4,18,1.5,2.6879,M,8.320,M,00,0004*6F
$GPHPD,0,0.000,59.85,0.81,-12.47,31.5932713,120.7793042,2.688,13630102.535,24925891.917,2.688,0.000,0.000,0.000,0.000,0.000,0.000,0.000,18,14,4*61
$GPGGA,091122.80,3135.5963183,N,12046.7583401,E,4,18,1.5,2.6695,M,8.320,M,00,0004*6C
$GPHPD,0,0.000,61.85,-1.80,-12.46,31.5932720,120.7793057,2.670,13630102.114,24925892.735,2.670,0.000,0.000,0.000,0.000,0.000,0.000,0.000,18,14,4*48
$GPGGA,091123.00,3135.5963565,N,12046.7584324,E,4,18,1.5,2.6632,M,8.320,M,01,0004*62
$GPHPD,0,0.000,59.97,-0.79,-12.46,31.5932726,120.7793072,2.663,13630101.756,24925893.626,2.663,0.000,0.000,0.000,0.000,0.000,0.000,0.000,18,14,4*47
$GPGGA,091123.20,3135.5963997,N,12046.7585253,E,4,18,1.6,2.6737,M,8.320,M,01,0004*66
$GPHPD,0,0.000,58.32,0.37,-12.45,31.5932733,120.7793088,2.674,13630101.329,24925894.495,2.674,0.000,0.000,0.000,0.000,0.000,0.000,0.000,18,14,4*6D
$GPGGA,091123.40,3135.5964406,N,12046.7586109,E,4,18,1.5,2.6927,M,8.320,M,01,0004*61
$GPHPD,0,0.000,59.01,0.71,-12.47,31.5932740,120.7793102,2.693,13630100.920,24925895.289,2.693,0.000,0.000,0.000,0.000,0.000,0.000,0.000,18,14,4*63
$GPGGA,091123.60,3135.5964868,N,12046.7586994,E,4,18,1.5,2.6773,M,8.320,M,00,0004*65
$GPHPD,0,0.000,57.39,0.80,-12.53,31.5932748,120.7793117,2.677,13630100.441,24925896.087,2.677,0.000,0.000,0.000,0.000,0.000,0.000,0.000,18,14,4*64
$GPGGA,091123.80,3135.5965351,N,12046.7587937,E,4,18,1.5,2.6779,M,8.320,M,00,0004*69
$GPHPD,0,0.000,58.43,1.36,-12.57,31.5932756,120.7793132,2.678,13630099.945,24925896.943,2.678,0.000,0.000,0.000,0.000,0.000,0.000,0.000,18,14,4*6F
$GPGGA,091124.00,3135.5965834,N,12046.7588935,E,4,18,1.5,2.6622,M,8.320,M,01,0004*6D
$GPHPD,0,0.000,58.02,0.96,-12.63,31.5932764,120.7793149,2.662,13630099.459,24925897.865,2.662,0.000,0.000,0.000,0.000,0.000,0.000,0.000,18,14,4*6F
$GPGGA,091124.20,3135.5966324,N,12046.7589930,E,4,18,1.6,2.6450,M,8.320,M,01,0004*66
$GPHPD,0,0.000,59.43,0.84,-12.67,31.5932772,120.7793166,2.645,13630098.963,24925898.779,2.645,0.000,0.000,0.000,0.000,0.000,0.000,0.000,18,14,4*6E
$GPGGA,091124.40,3135.5966818,N,12046.7591009,E,4,17,1.5,2.6495,M,8.320,M,01,0004*6B
$GPHPD,0,0.000,57.87,1.82,-12.72,31.5932780,120.7793183,2.650,13630098.477,24925899.793,2.650,0.000,0.000,0.000,0.000,0.000,0.000,0.000,17,14,4*6F
$GPGGA,091124.60,3135.5967303,N,12046.7592125,E,4,16,1.6,2.6520,M,8.320,M,00,0004*69
$GPHPD,0,0.000,59.22,1.51,-12.75,31.5932788,120.7793202,2.652,13630098.013,24925900.856,2.652,0.000,0.000,0.000,0.000,0.000,0.000,0.000,16,14,4*65
$GPGGA,091124.80,3135.5967907,N,12046.7593256,E,4,16,1.7,2.6642,M,8.320,M,00,0004*69
$GPHPD,0,0.000,56.12,2.41,-12.81,31.5932798,120.7793221,2.664,13630097.382,24925901.868,2.664,0.000,0.000,0.000,0.000,0.000,0.000,0.000,16,14,4*68
$GPGGA,091125.00,3135.5968484,N,12046.7594503,E,4,16,1.7,2.6529,M,8.320,M,01,0004*66
$GPHPD,0,0.000,53.56,3.71,-12.84,31.5932808,120.7793242,2.653,13630096.812,24925903.036,2.653,0.000,0.000,0.000,0.000,0.000,0.000,0.000,16,14,4*6B
$GPGGA,091125.20,3135.5969103,N,12046.7595762,E,4,16,1.7,2.6520,M,8.320,M,01,0004*62
$GPHPD,0,0.000,47.92,7.81,-12.88,31.5932818,120.7793263,2.652,13630096.186,24925904.194,2.652,0.000,0.000,0.000,0.000,0.000,0.000,0.000,16,14,4*69
$GPGGA,091125.40,3135.5969713,N,12046.7597009,E,4,15,1.7,2.6619,M,8.320,M,01,0004*61
$GPHPD,0,0.000,47.76,7.88,-12.90,31.5932829,120.7793283,2.662,13630095.570,24925905.342,2.662,0.000,0.000,0.000,0.000,0.000,0.000,0.000,15,15,4*6B
$GPGGA,091125.60,3135.5970335,N,12046.7598319,E,4,15,1.7,2.6707,M,8.320,M,00,0004*69
$GPHPD,0,0.000,47.32,7.60,-12.90,31.5932839,120.7793305,2.671,13630094.949,24925906.560,2.671,0.000,0.000,0.000,0.000,0.000,0.000,0.000,15,15,4*61
$GPGGA,091125.80,3135.5971038,N,12046.7599675,E,4,15,1.7,2.6705,M,8.320,M,00,0004*64
$GPHPD,0,0.000,46.46,7.63,-12.90,31.5932851,120.7793328,2.671,13630094.222,24925907.785,2.671,0.000,0.000,0.000,0.000,0.000,0.000,0.000,15,15,4*6F
$GPGGA,091126.00,3135.5971730,N,12046.7601013,E,4,15,1.7,2.6808,M,8.320,M,01,0004*67
$GPHPD,0,0.000,46.70,7.86,-12.87,31.5932862,120.7793350,2.681,13630093.508,24925908.996,2.681,0.000,0.000,0.000,0.000,0.000,0.000,0.000,15,15,4*63
$GPGGA,091126.20,3135.5972444,N,12046.7602409,E,4,15,1.7,2.6786,M,8.320,M,01,0004*63
$GPHPD,0,0.000,51.21,5.58,-12.85,31.5932874,120.7793373,2.679,13630092.774,24925910.263,2.679,0.000,0.000,0.000,0.000,0.000,0.000,0.000,15,15,4*64
$GPGGA,091126.40,3135.5973170,N,12046.7603862,E,4,15,1.7,2.6749,M,8.320,M,01,0004*65
$GPHPD,0,0.000,50.92,4.89,-12.85,31.5932886,120.7793398,2.675,13630092.034,24925911.593,2.675,0.000,0.000,0.000,0.000,0.000,0.000,0.000,15,15,4*62
$GPGGA,091126.60,3135.5973858,N,12046.7605230,E,4,15,1.7,2.6971,M,8.320,M,00,0004*6B
$GPHPD,0,0.000,51.06,5.93,-12.84,31.5932898,120.7793421,2.697,13630091.332,24925912.842,2.697,0.000,0.000,0.000,0.000,0.000,0.000,0.000,15,15,4*6B
$GPGGA,091126.80,3135.5974629,N,12046.7606720,E,4,15,1.7,2.6903,M,8.320,M,00,0004*68
$GPHPD,0,0.000,49.77,5.70,-12.84,31.5932910,120.7793445,2.690,13630090.536,24925914.189,2.690,0.000,0.000,0.000,0.000,0.000,0.000,0.000,15,15,4*61
$GPGGA,091127.00,3135.5975386,N,12046.7608247,E,4,15,1.8,2.6830,M,8.320,M,01,0004*65
$GPHPD,0,0.000,49.13,6.16,-12.83,31.5932923,120.7793471,2.683,13630089.767,24925915.590,2.683,0.000,0.000,0.000,0.000,0.000,0.000,0.000,15,15,4*63
$GPGGA,091127.20,3135.5976151,N,12046.7609798,E,4,15,1.8,2.6738,M,8.320,M,01,0004*6D
$GPHPD,0,0.000,47.69,7.65,-12.86,31.5932936,120.7793497,2.674,13630088.991,24925917.015,2.674,0.000,0.000,0.000,0.000,0.000,0.000,0.000,15,15,4*60
$GPGGA,091127.40,3135.5976929,N,12046.7611260,E,4,15,1.7,2.6972,M,8.320,M,01,0004*68
$GPHPD,0,0.000,48.39,7.19,-12.89,31.5932949,120.7793521,2.697,13630088.180,24925918.325,2.697,0.000,0.000,0.000,0.000,0.000,0.000,0.000,15,15,4*6D
$GPGGA,091127.60,3135.5977775,N,12046.7612797,E,4,16,1.7,2.6944,M,8.320,M,00,0004*65
$GPHPD,0,0.000,49.15,6.24,-12.92,31.5932963,120.7793547,2.694,13630087.286,24925919.685,2.694,0.000,0.000,0.000,0.000,0.000,0.000,0.000,16,15,4*68
$GPGGA,091127.80,3135.5978589,N,12046.7614367,E,4,16,1.7,2.6830,M,8.320,M,00,0004*6A
$GPHPD,0,0.000,51.77,5.78,-12.94,31.5932976,120.7793573,2.683,13630086.445,24925921.104,2.683,0.000,0.000,0.000,0.000,0.000,0.000,0.000,16,15,4*67
$GPGGA,091128.00,3135.5979398,N,12046.7615941,E,4,15,1.8,2.6821,M,8.320,M,01,0004*68
$GPHPD,0,0.000,52.53,5.56,-12.97,31.5932990,120.7793599,2.682,13630085.612,24925922.531,2.682,0.000,0.000,0.000,0.000,0.000,0.000,0.000,15,14,4*61
$GPGGA,091128.20,3135.5980208,N,12046.7617597,E,4,15,1.8,2.6826,M,8.320,M,01,0004*66
$GPHPD,0,0.000,336.91,22.46,-13.00,31.5933003,120.7793627,2.683,13630084.794,24925924.057,2.683,0.000,0.000,0.000,0.000,0.000,0.000,0.000,15,5,1*59
$GPGGA,091128.40,3135.5980993,N,12046.7619141,E,4,15,1.8,2.6973,M,8.320,M,01,0004*69
$GPHPD,0,0.000,71.89,27.15,-13.00,31.5933017,120.7793652,2.697,13630083.989,24925925.461,2.697,0.000,0.000,0.000,0.000,0.000,0.000,0.000,15,15,4*55
$GPGGA,091128.60,3135.5981833,N,12046.7620798,E,4,15,1.8,2.6986,M,8.320,M,00,0004*62
$GPHPD,0,0.000,77.22,19.25,-12.99,31.5933031,120.7793680,2.699,13630083.128,24925926.970,2.699,0.000,0.000,0.000,0.000,0.000,0.000,0.000,15,15,5*5A
$GPGGA,091128.80,3135.5982657,N,12046.7622413,E,4,15,1.8,2.7097,M,8.320,M,00,0004*69
$GPHPD,0,0.000,66.08,-37.15,-12.97,31.5933044,120.7793707,2.710,13630082.282,24925928.438,2.710,0.000,0.000,0.000,0.000,0.000,0.000,0.000,15,15,5*7F
$GPGGA,091129.00,3135.5983457,N,12046.7624125,E,4,15,1.8,2.6921,M,8.320,M,01,0004*61
$GPHPD,0,0.000,65.25,-33.14,-12.94,31.5933058,120.7793735,2.692,13630081.489,24925930.036,2.692,0.000,0.000,0.000,0.000,0.000,0.000,0.000,15,15,5*74
$GPGGA,091129.20,3135.5984243,N,12046.7625756,E,4,15,1.7,2.7042,M,8.320,M,01,0004*66
$GPHPD,0,0.000,65.05,-27.29,-12.94,31.5933071,120.7793763,2.704,13630080.700,24925931.545,2.704,0.000,0.000,0.000,0.000,0.000,0.000,0.000,15,13,5*70
$GPGGA,091129.40,3135.5985095,N,12046.7627406,E,4,15,2.1,2.6872,M,8.320,M,01,0004*63
$GPHPD,0,0.000,63.83,-36.92,-12.94,31.5933085,120.7793790,2.687,13630079.821,24925933.039,2.687,0.000,0.000,0.000,0.000,0.000,0.000,0.000,15,14,5*7E
$GPGGA,091129.60,3135.5985908,N,12046.7629024,E,4,14,2.1,2.7167,M,8.320,M,00,0004*6A
$GPHPD,0,0.000,63.44,-34.70,-12.94,31.5933098,120.7793817,2.717,13630078.991,24925934.517,2.717,0.000,0.000,0.000,0.000,0.000,0.000,0.000,14,13,5*74
$GPGGA,091129.80,3135.5986872,N,12046.7630722,E,4,14,2.1,2.6966,M,8.320,M,00,0004*6A
$GPHPD,0,0.000,70.48,-32.04,-12.93,31.5933115,120.7793845,2.697,13630077.962,24925936.003,2.697,0.000,0.000,0.000,0.000,0.000,0.000,0.000,14,14,5*7D
$GPGGA,091130.00,3135.5987635,N,12046.7632361,E,4,14,2.1,2.6973,M,8.320,M,01,0004*62
$GPHPD,0,0.000,71.36,-19.85,-12.89,31.5933127,120.7793873,2.697,13630077.207,24925937.535,2.697,0.000,0.000,0.000,0.000,0.000,0.000,0.000,14,14,5*73
$GPGGA,091130.20,3135.5988429,N,12046.7633973,E,4,14,2.1,2.7231,M,8.320,M,01,0004*64
$GPHPD,0,0.000,71.05,-12.49,-12.86,31.5933140,120.7793900,2.723,13630076.403,24925939.016,2.723,0.000,0.000,0.000,0.000,0.000,0.000,0.000,14,14,5*7A
$GPGGA,091130.40,3135.5989322,N,12046.7635668,E,4,14,2.3,2.7243,M,8.320,M,01,0004*6B
$GPHPD,0,0.000,72.44,-6.75,-12.84,31.5933155,120.7793928,2.724,13630075.474,24925940.540,2.724,0.000,0.000,0.000,0.000,0.000,0.000,0.000,14,14,5*41
$GPGGA,091130.60,3135.5990141,N,12046.7637309,E,4,14,2.1,2.7333,M,8.320,M,01,0004*62
$GPHPD,0,0.000,73.15,1.11,-12.82,31.5933169,120.7793955,2.733,13630074.640,24925942.042,2.733,0.000,0.000,0.000,0.000,0.000,0.000,0.000,14,14,5*6E
$GPGGA,091130.80,3135.5991065,N,12046.7638976,E,4,14,2.1,2.7382,M,8.320,M,01,0004*6D
$GPHPD,0,0.000,70.01,-7.12,-12.83,31.5933184,120.7793983,2.738,13630073.662,24925943.514,2.738,0.000,0.000,0.000,0.000,0.000,0.000,0.000,14,14,5*49
$GPGGA,091131.00,3135.5991837,N,12046.7640679,E,4,14,2.1,2.7255,M,8.320,M,01,0004*6F
$GPHPD,0,0.000,68.47,-10.01,-12.81,31.5933197,120.7794011,2.726,13630072.908,24925945.118,2.726,0.000,0.000,0.000,0.000,0.000,0.000,0.000,14,16,5*7D
$GPGGA,091131.20,3135.5992755,N,12046.7642377,E,4,14,2.0,2.7261,M,8.320,M,01,0004*6A
$GPHPD,0,0.000,358.23,24.94,-12.80,31.5933213,120.7794040,2.726,13630071.944,24925946.631,2.726,0.000,0.000,0.000,0.000,0.000,0.000,0.000,14,7,1*53
$GPGGA,091131.40,3135.5993599,N,12046.7644063,E,4,16,1.6,2.7138,M,8.320,M,01,0004*67
$GPHPD,0,0.000,66.37,21.58,-12.77,31.5933227,120.7794068,2.714,13630071.084,24925948.173,2.714,0.000,0.000,0.000,0.000,0.000,0.000,0.000,16,16,4*55
$GPGGA,091131.60,3135.5994438,N,12046.7645688,E,4,16,1.6,2.7376,M,8.320,M,00,0004*63
$GPHPD,0,0.000,94.76,-25.69,-12.73,31.5933241,120.7794095,2.738,13630070.218,24925949.643,2.738,0.000,0.000,0.000,0.000,0.000,0.000,0.000,16,14,5*70
$GPGGA,091131.80,3135.5995196,N,12046.7647361,E,4,16,1.6,2.7532,M,8.320,M,00,0004*6B
$GPHPD,0,0.000,49.85,27.30,-12.68,31.5933253,120.7794123,2.753,13630069.477,24925951.219,2.753,0.000,0.000,0.000,0.000,0.000,0.000,0.000,16,15,5*5E
$GPGGA,091132.00,3135.5996178,N,12046.7648918,E,4,16,1.7,2.7857,M,8.320,M,01,0004*66
$GPHPD,0,0.000,49.65,43.84,-12.65,31.5933270,120.7794149,2.786,13630068.395,24925952.525,2.786,0.000,0.000,0.000,0.000,0.000,0.000,0.000,16,16,5*5F
$GPGGA,091132.20,3135.5997020,N,12046.7650612,E,4,16,1.7,2.8013,M,8.320,M,01,0004*62
$GPHPD,0,0.000,49.16,29.53,-12.64,31.5933284,120.7794177,2.801,13630067.539,24925954.077,2.801,0.000,0.000,0.000,0.000,0.000,0.000,0.000,16,14,5*53
$GPGGA,091132.40,3135.5997805,N,12046.7652389,E,4,16,1.7,2.7618,M,8.320,M,01,0004*6C
$GPHPD,0,0.000,54.00,35.57,-12.62,31.5933297,120.7794206,2.762,13630066.781,24925955.763,2.762,0.000,0.000,0.000,0.000,0.000,0.000,0.000,16,14,5*53
$GPGGA,091132.60,3135.5998545,N,12046.7654205,E,4,16,1.7,2.7372,M,8.320,M,00,0004*63
$GPHPD,0,0.000,58.81,35.51,-12.61,31.5933309,120.7794237,2.737,13630066.094,24925957.522,2.737,0.000,0.000,0.000,0.000,0.000,0.000,0.000,16,14,5*51
$GPGGA,091132.80,3135.5999548,N,12046.7655945,E,4,16,1.7,2.7114,M,8.320,M,00,0004*6D
$GPHPD,0,0.000,55.02,27.93,-12.58,31.5933326,120.7794266,2.711,13630065.018,24925959.036,2.711,0.000,0.000,0.000,0.000,0.000,0.000,0.000,16,14,5*50
$GPGGA,091133.00,3135.6000269,N,12046.7657615,E,4,16,1.7,2.7206,M,8.320,M,01,0004*63
$GPHPD,0,0.000,54.86,27.06,-12.55,31.5933338,120.7794294,2.721,13630064.330,24925960.630,2.721,0.000,0.000,0.000,0.000,0.000,0.000,0.000,16,14,5*5C
$GPGGA,091133.20,3135.6001062,N,12046.7659286,E,4,16,1.7,2.7174,M,8.320,M,01,0004*6F
$GPHPD,0,0.000,54.01,26.50,-12.54,31.5933351,120.7794321,2.717,13630063.538,24925962.183,2.717,0.000,0.000,0.000,0.000,0.000,0.000,0.000,16,14,5*54
$GPGGA,091133.40,3135.6001806,N,12046.7660999,E,4,17,1.7,2.7151,M,8.321,M,01,0004*6B
$GPHPD,0,0.000,54.85,31.68,-12.53,31.5933363,120.7794350,2.715,13630062.826,24925963.816,2.715,0.000,0.000,0.000,0.000,0.000,0.000,0.000,17,15,5*52
$GPGGA,091133.60,3135.6002664,N,12046.7662571,E,4,16,1.6,2.7204,M,8.321,M,00,0004*6A
$GPHPD,0,0.000,53.87,32.20,-12.54,31.5933378,120.7794376,2.720,13630061.922,24925965.212,2.720,0.000,0.000,0.000,0.000,0.000,0.000,0.000,16,15,5*5E
$GPGGA,091133.80,3135.6003425,N,12046.7664218,E,4,16,1.6,2.7302,M,8.321,M,00,0004*6B
$GPHPD,0,0.000,53.08,32.46,-12.55,31.5933390,120.7794404,2.730,13630061.172,24925966.754,2.730,0.000,0.000,0.000,0.000,0.000,0.000,0.000,16,15,5*55
$GPGGA,091134.00,3135.6004239,N,12046.7665852,E,4,16,1.7,2.7460,M,8.321,M,01,0004*6E
$GPHPD,0,0.000,55.80,33.61,-12.56,31.5933404,120.7794431,2.746,13630060.344,24925968.251,2.746,0.000,0.000,0.000,0.000,0.000,0.000,0.000,16,15,5*50
$GPGGA,091134.20,3135.6004949,N,12046.7667537,E,4,16,1.7,2.7159,M,8.321,M,01,0004*63
$GPHPD,0,0.000,55.19,30.67,-12.55,31.5933416,120.7794459,2.716,13630059.673,24925969.869,2.716,0.000,0.000,0.000,0.000,0.000,0.000,0.000,16,15,5*50
$GPGGA,091134.40,3135.6005659,N,12046.7669162,E,4,16,1.7,2.7148,M,8.321,M,01,0004*60
$GPHPD,0,0.000,54.46,30.93,-12.55,31.5933428,120.7794486,2.715,13630058.991,24925971.415,2.715,0.000,0.000,0.000,0.000,0.000,0.000,0.000,16,15,5*53
$GPGGA,091134.60,3135.6006533,N,12046.7670842,E,4,16,1.7,2.7108,M,8.321,M,00,0004*68
$GPHPD,0,0.000,48.15,29.18,-12.56,31.5933442,120.7794514,2.711,13630058.087,24925972.932,2.711,0.000,0.000,0.000,0.000,0.000,0.000,0.000,16,15,5*53
$GPGGA,091134.80,3135.6007218,N,12046.7672323,E,4,16,1.7,2.7479,M,8.321,M,00,0004*64
$GPHPD,0,0.000,46.23,27.34,-12.56,31.5933454,120.7794539,2.748,13630057.411,24925974.319,2.748,0.000,0.000,0.000,0.000,0.000,0.000,0.000,16,15,5*51
$GPGGA,091135.00,3135.6008007,N,12046.7673925,E,4,16,1.7,2.7509,M,8.321,M,01,0004*64
$GPHPD,0,0.000,45.89,29.31,-12.58,31.5933467,120.7794565,2.751,13630056.612,24925975.791,2.751,0.000,0.000,0.000,0.000,0.000,0.000,0.000,16,15,5*5B
$GPGGA,091135.20,3135.6008768,N,12046.7675379,E,4,16,1.7,2.8066,M,8.321,M,01,0004*6E
$GPHPD,0,0.000,60.07,0.13,-12.55,31.5933479,120.7794590,2.807,13630055.823,24925977.102,2.807,0.000,0.000,0.000,0.000,0.000,0.000,0.000,16,15,4*69
$GPGGA,091135.40,3135.6009584,N,12046.7676846,E,4,16,1.7,2.8440,M,8.321,M,01,0004*6D
$GPHPD,0,0.000,60.50,-0.89,-12.55,31.5933493,120.7794614,2.844,13630054.958,24925978.395,2.844,0.000,0.000,0.000,0.000,0.000,0.000,0.000,16,15,4*41
$GPGGA,091135.60,3135.6010423,N,12046.7678397,E,4,16,1.7,2.8340,M,8.321,M,00,0004*64
$GPHPD,0,0.000,60.89,0.00,-12.53,31.5933507,120.7794640,2.834,13630054.077,24925979.777,2.834,0.000,0.000,0.000,0.000,0.000,0.000,0.000,16,15,4*6F
$GPGGA,091135.80,3135.6011035,N,12046.7680166,E,4,16,1.7,2.7921,M,8.321,M,00,0004*61
$GPHPD,0,0.000,60.90,-0.40,-12.52,31.5933517,120.7794669,2.792,13630053.563,24925981.554,2.792,0.000,0.000,0.000,0.000,0.000,0.000,0.000,16,15,4*46
$GPGGA,091136.00,3135.6011763,N,12046.7681725,E,4,16,1.7,2.8071,M,8.321,M,01,0004*6C
$GPHPD,0,0.000,60.67,-0.58,-12.50,31.5933529,120.7794695,2.807,13630052.842,24925983.010,2.807,0.000,0.000,0.000,0.000,0.000,0.000,0.000,16,15,4*43
$GPGGA,091136.20,3135.6012698,N,12046.7683303,E,4,16,1.7,2.8069,M,8.321,M,01,0004*63
$GPHPD,0,0.000,60.47,-0.91,-12.48,31.5933545,120.7794722,2.807,13630051.831,24925984.368,2.807,0.000,0.000,0.000,0.000,0.000,0.000,0.000,16,15,4*46
$GPGGA,091136.40,3135.6013217,N,12046.7684976,E,4,16,1.7,2.7780,M,8.321,M,01,0004*67
$GPHPD,0,0.000,61.13,-1.28,-12.46,31.5933554,120.7794750,2.778,13630051.429,24925986.083,2.778,0.000,0.000,0.000,0.000,0.000,0.000,0.000,16,15,4*4F
$GPGGA,091136.60,3135.6014070,N,12046.7686443,E,4,16,1.7,2.7940,M,8.321,M,01,0004*6A
$GPHPD,0,0.000,60.48,-0.70,-12.44,31.5933568,120.7794774,2.794,13630050.512,24925987.356,2.794,0.000,0.000,0.000,0.000,0.000,0.000,0.000,16,15,4*45
$GPGGA,091136.80,3135.6014840,N,12046.7687925,E,4,16,1.7,2.8094,M,8.321,M,01,0004*6C
$GPHPD,0,0.000,60.16,-0.21,-12.41,31.5933581,120.7794799,2.809,13630049.716,24925988.694,2.809,0.000,0.000,0.000,0.000,0.000,0.000,0.000,16,15,4*41
$GPGGA,091137.00,3135.6015583,N,12046.7689694,E,4,16,1.7,2.7691,M,8.321,M,02,0004*62
$GPHPD,0,0.000,60.85,-0.30,-12.37,31.5933593,120.7794828,2.769,13630049.016,24925990.395,2.769,0.000,0.000,0.000,0.000,0.000,0.000,0.000,16,15,4*46
$GPGGA,091137.20,3135.6016155,N,12046.7691267,E,4,16,1.6,2.7482,M,8.321,M,02,0004*6C
$GPHPD,0,0.000,61.63,-1.08,-12.36,31.5933603,120.7794854,2.748,13630048.519,24925991.958,2.748,0.000,0.000,0.000,0.000,0.000,0.000,0.000,16,15,4*44
$GPGGA,091137.40,3135.6017016,N,12046.7692959,E,4,16,1.6,2.7224,M,8.321,M,02,0004*62
$GPHPD,0,0.000,61.16,1.85,-12.35,31.5933617,120.7794883,2.722,13630047.635,24925993.497,2.722,0.000,0.000,0.000,0.000,0.000,0.000,0.000,16,15,4*6C
$GPGGA,091137.60,3135.6017837,N,12046.7694490,E,4,16,1.6,2.7195,M,8.321,M,02,0004*6C
$GPHPD,0,0.000,61.03,0.90,-12.34,31.5933631,120.7794908,2.720,13630046.777,24925994.865,2.720,0.000,0.000,0.000,0.000,0.000,0.000,0.000,16,15,4*6A
$GPGGA,091137.80,3135.6018557,N,12046.7695955,E,4,16,1.6,2.7668,M,8.321,M,02,0004*66
$GPHPD,0,0.000,61.30,1.43,-12.33,31.5933643,120.7794933,2.767,13630046.048,24925996.213,2.767,0.000,0.000,0.000,0.000,0.000,0.000,0.000,16,15,4*6D
$GPGGA,091138.00,3135.6018873,N,12046.7697417,E,4,16,1.6,2.7835,M,8.321,M,01,0004*66
$GPHPD,0,0.000,61.53,-0.56,-12.33,31.5933648,120.7794957,2.784,13630045.893,24925997.792,2.784,0.000,0.000,0.000,0.000,0.000,0.000,0.000,16,15,4*49
$GPGGA,091138.20,3135.6019853,N,12046.7699153,E,4,16,1.7,2.7104,M,8.321,M,01,0004*66
$GPHPD,0,0.000,60.56,0.26,-12.33,31.5933664,120.7794986,2.710,13630044.849,24925999.314,2.710,0.000,0.000,0.000,0.000,0.000,0.000,0.000,16,15,4*67
$GPGGA,091138.40,3135.6020544,N,12046.7700616,E,4,16,2.1,2.7638,M,8.321,M,01,0004*6B
$GPHPD,0,0.000,59.99,0.53,-12.35,31.5933676,120.7795010,2.764,13630044.161,24926000.676,2.764,0.000,0.000,0.000,0.000,0.000,0.000,0.000,16,15,4*66
$GPGGA,091138.60,3135.6021229,N,12046.7702022,E,4,15,2.1,2.7924,M,8.321,M,00,0004*67
$GPHPD,0,0.000,60.49,0.10,-12.37,31.5933687,120.7795034,2.792,13630043.470,24926001.973,2.792,0.000,0.000,0.000,0.000,0.000,0.000,0.000,15,14,4*67
$GPGGA,091138.80,3135.6022155,N,12046.7703786,E,4,15,2.1,2.7150,M,8.321,M,00,0004*61
$GPHPD,0,0.000,60.18,0.04,-12.36,31.5933703,120.7795063,2.715,13630042.509,24926003.560,2.715,0.000,0.000,0.000,0.000,0.000,0.000,0.000,15,14,4*6A
$GPGGA,091139.00,3135.6022790,N,12046.7705348,E,4,15,2.5,2.7163,M,8.321,M,01,0004*62
$GPHPD,0,0.000,60.04,3.61,-12.38,31.5933713,120.7795089,2.716,13630041.921,24926005.074,2.716,0.000,0.000,0.000,0.000,0.000,0.000,0.000,15,14,4*6F
$GPGGA,091139.20,3135.6023632,N,12046.7706706,E,4,15,2.5,2.7711,M,8.321,M,01,0004*66
$GPHPD,0,0.000,59.98,0.95,-12.39,31.5933727,120.7795112,2.771,13630040.997,24926006.221,2.771,0.000,0.000,0.000,0.000,0.000,0.000,0.000,15,14,4*60
$GPGGA,091139.40,3135.6024404,N,12046.7708261,E,4,15,2.3,2.7591,M,8.321,M,01,0004*66
$GPHPD,0,0.000,60.42,0.42,-12.38,31.5933740,120.7795138,2.759,13630040.212,24926007.647,2.759,0.000,0.000,0.000,0.000,0.000,0.000,0.000,15,14,4*6C
$GPGGA,091139.60,3135.6025097,N,12046.7709798,E,4,15,2.2,2.7584,M,8.321,M,00,0004*6D
$GPHPD,0,0.000,61.03,-2.52,-12.37,31.5933752,120.7795163,2.758,13630039.537,24926009.097,2.758,0.000,0.000,0.000,0.000,0.000,0.000,0.000,15,14,4*4F
$GPGGA,091139.80,3135.6025704,N,12046.7711293,E,4,15,2.2,2.7618,M,8.321,M,00,0004*6F
$GPHPD,0,0.000,60.85,-1.75,-12.36,31.5933762,120.7795188,2.762,13630038.975,24926010.546,2.762,0.000,0.000,0.000,0.000,0.000,0.000,0.000,15,14,4*4B
$GPGGA,091140.00,3135.6026417,N,12046.7712408,E,4,15,2.9,2.8859,M,8.321,M,01,0004*62
$GPHPD,0,0.000,60.08,-2.95,-12.36,31.5933774,120.7795207,2.886,13630038.185,24926011.475,2.886,0.000,0.000,0.000,0.000,0.000,0.000,0.000,15,14,4*47
$GPGGA,091140.20,3135.6027161,N,12046.7714123,E,4,15,2.9,2.8253,M,8.321,M,01,0004*6F
$GPHPD,0,0.000,60.37,-3.76,-12.34,31.5933786,120.7795235,2.825,13630037.473,24926013.110,2.825,0.000,0.000,0.000,0.000,0.000,0.000,0.000,15,14,4*4E
$GPGGA,091140.40,3135.6028154,N,12046.7715763,E,4,15,2.9,2.7911,M,8.321,M,01,0004*61
$GPHPD,0,0.000,61.03,-3.35,-12.31,31.5933803,120.7795263,2.791,13630036.391,24926014.509,2.791,0.000,0.000,0.000,0.000,0.000,0.000,0.000,15,14,4*4A
$GPGGA,091140.60,3135.6028732,N,12046.7717284,E,4,15,2.9,2.8006,M,8.321,M,00,0004*6A
$GPHPD,0,0.000,62.36,-1.61,-12.28,31.5933812,120.7795288,2.801,13630035.876,24926016.007,2.801,0.000,0.000,0.000,0.000,0.000,0.000,0.000,15,14,4*49
$GPGGA,091140.80,3135.6029526,N,12046.7718710,E,4,15,2.9,2.8363,M,8.321,M,00,0004*65
$GPHPD,0,0.000,60.22,-5.38,-12.27,31.5933825,120.7795312,2.836,13630035.034,24926017.264,2.836,0.000,0.000,0.000,0.000,0.000,0.000,0.000,15,14,4*47
$GPGGA,091141.00,3135.6030233,N,12046.7720396,E,4,15,2.9,2.7781,M,8.321,M,01,0004*60
$GPHPD,0,0.000,60.39,-4.34,-12.25,31.5933837,120.7795340,2.778,13630034.368,24926018.885,2.778,0.000,0.000,0.000,0.000,0.000,0.000,0.000,15,14,4*47
$GPGGA,091141.20,3135.6030952,N,12046.7721865,E,4,15,1.9,2.8025,M,8.321,M,01,0004*6D
$GPHPD,0,0.000,60.67,-4.83,-12.28,31.5933849,120.7795364,2.803,13630033.642,24926020.238,2.803,0.000,0.000,0.000,0.000,0.000,0.000,0.000,15,14,4*4F
$GPGGA,091141.40,3135.6031613,N,12046.7723379,E,4,15,1.9,2.7974,M,8.321,M,01,0004*66
$GPHPD,0,0.000,59.97,-0.28,-12.31,31.5933860,120.7795390,2.797,13630033.007,24926021.679,2.797,0.000,0.000,0.000,0.000,0.000,0.000,0.000,15,14,4*40
$GPGGA,091141.60,3135.6032551,N,12046.7724859,E,4,15,1.9,2.7881,M,8.321,M,00,0004*66
$GPHPD,0,0.000,58.84,2.12,-12.32,31.5933876,120.7795414,2.788,13630031.971,24926022.917,2.788,0.000,0.000,0.000,0.000,0.000,0.000,0.000,15,14,4*64
$GPGGA,091141.80,3135.6033208,N,12046.7726386,E,4,15,1.9,2.7795,M,8.321,M,00,0004*63
$GPHPD,0,0.000,60.69,2.15,-12.36,31.5933887,120.7795440,2.780,13630031.345,24926024.376,2.780,0.000,0.000,0.000,0.000,0.000,0.000,0.000,15,14,4*66
$GPGGA,091142.00,3135.6033915,N,12046.7727936,E,4,15,1.9,2.7688,M,8.321,M,01,0004*63
$GPHPD,0,0.000,60.78,1.32,-12.38,31.5933899,120.7795466,2.769,13630030.652,24926025.833,2.769,0.000,0.000,0.000,0.000,0.000,0.000,0.000,15,14,4*6C
$GPGGA,091142.20,3135.6034667,N,12046.7729444,E,4,15,1.9,2.7655,M,8.321,M,01,0004*6A
$GPHPD,0,0.000,60.59,2.28,-12.41,31.5933911,120.7795491,2.766,13630029.886,24926027.214,2.766,0.000,0.000,0.000,0.000,0.000,0.000,0.000,15,14,4*62
$GPGGA,091142.40,3135.6035366,N,12046.7730828,E,4,15,1.9,2.7855,M,8.321,M,01,0004*69
$GPHPD,0,0.000,60.56,1.59,-12.44,31.5933923,120.7795514,2.786,13630029.171,24926028.476,2.786,0.000,0.000,0.000,0.000,0.000,0.000,0.000,15,14,4*6C
$GPGGA,091142.60,3135.6036045,N,12046.7732314,E,4,15,2.0,2.7704,M,8.321,M,00,0004*6C
$GPHPD,0,0.000,60.07,-0.31,-12.45,31.5933934,120.7795539,2.770,13630028.505,24926029.872,2.770,0.000,0.000,0.000,0.000,0.000,0.000,0.000,15,14,4*4D
$GPGGA,091142.80,3135.6036729,N,12046.7733789,E,4,15,2.0,2.7683,M,8.321,M,00,0004*60
$GPHPD,0,0.000,60.08,1.29,-12.45,31.5933945,120.7795563,2.768,13630027.829,24926031.253,2.768,0.000,0.000,0.000,0.000,0.000,0.000,0.000,15,14,4*62
$GPGGA,091143.00,3135.6037631,N,12046.7735181,E,4,15,2.0,2.7988,M,8.321,M,01,0004*6D
$GPHPD,0,0.000,59.13,2.20,-12.44,31.5933961,120.7795586,2.799,13630026.827,24926032.406,2.799,0.000,0.000,0.000,0.000,0.000,0.000,0.000,15,14,4*6E
$GPGGA,091143.20,3135.6038336,N,12046.7736640,E,4,15,2.0,2.7947,M,8.321,M,01,0004*68
$GPHPD,0,0.000,59.90,1.63,-12.44,31.5933972,120.7795611,2.795,13630026.118,24926033.755,2.795,0.000,0.000,0.000,0.000,0.000,0.000,0.000,15,14,4*6F
$GPGGA,091143.40,3135.6039186,N,12046.7738179,E,4,17,1.6,2.7803,M,8.321,M,01,0004*63
$GPHPD,0,0.000,59.86,2.74,-12.40,31.5933986,120.7795636,2.780,13630025.220,24926035.115,2.780,0.000,0.000,0.000,0.000,0.000,0.000,0.000,17,15,4*6B
$GPGGA,091143.60,3135.6039825,N,12046.7739679,E,4,17,1.8,2.7598,M,8.321,M,00,0004*67
$GPHPD,0,0.000,59.83,4.44,-12.37,31.5933997,120.7795661,2.760,13630024.613,24926036.552,2.760,0.000,0.000,0.000,0.000,0.000,0.000,0.000,17,15,4*68
$GPGGA,091143.80,3135.6040699,N,12046.7741017,E,4,16,1.8,2.7927,M,8.321,M,00,0004*66
$GPHPD,0,0.000,60.52,1.48,-12.34,31.5934012,120.7795684,2.793,13630023.640,24926037.656,2.793,0.000,0.000,0.000,0.000,0.000,0.000,0.000,16,15,4*6A
$GPGGA,091144.00,3135.6041494,N,12046.7742402,E,4,17,1.8,2.8162,M,8.321,M,01,0004*62
$GPHPD,0,0.000,60.13,0.58,-12.31,31.5934025,120.7795707,2.816,13630022.789,24926038.864,2.816,0.000,0.000,0.000,0.000,0.000,0.000,0.000,17,15,4*60
$GPGGA,091144.20,3135.6042245,N,12046.7743868,E,4,16,1.8,2.8076,M,8.321,M,01,0004*6D
$GPHPD,0,0.000,60.47,0.61,-12.30,31.5934037,120.7795731,2.808,13630022.016,24926040.194,2.808,0.000,0.000,0.000,0.000,0.000,0.000,0.000,16,15,4*65
$GPGGA,091144.40,3135.6043020,N,12046.7745405,E,4,16,1.8,2.7798,M,8.321,M,01,0004*62
$GPHPD,0,0.000,60.38,-0.79,-12.27,31.5934050,120.7795757,2.780,13630021.224,24926041.596,2.780,0.000,0.000,0.000,0.000,0.000,0.000,0.000,16,15,4*49
$GPGGA,091144.60,3135.6043601,N,12046.7746891,E,4,16,1.8,2.7651,M,8.321,M,00,0004*62
$GPHPD,0,0.000,60.87,-0.05,-12.27,31.5934060,120.7795782,2.765,13630020.697,24926043.050,2.765,0.000,0.000,0.000,0.000,0.000,0.000,0.000,16,16,4*4E
$GPGGA,091144.80,3135.6044527,N,12046.7748218,E,4,16,2.0,2.8056,M,8.321,M,00,0004*6C
$GPHPD,0,0.000,59.19,-1.50,-12.30,31.5934075,120.7795804,2.806,13630019.648,24926044.111,2.806,0.000,0.000,0.000,0.000,0.000,0.000,0.000,16,15,4*49
$GPGGA,091145.00,3135.6045130,N,12046.7749712,E,4,16,1.8,2.7792,M,8.321,M,01,0004*62
$GPHPD,0,0.000,60.40,-1.38,-12.31,31.5934086,120.7795829,2.779,13630019.091,24926045.561,2.779,0.000,0.000,0.000,0.000,0.000,0.000,0.000,16,16,4*40
$GPGGA,091145.20,3135.6045914,N,12046.7751136,E,4,16,1.8,2.7818,M,8.321,M,01,0004*6A
$GPHPD,0,0.000,59.85,-0.21,-12.32,31.5934099,120.7795852,2.782,13630018.263,24926046.822,2.782,0.000,0.000,0.000,0.000,0.000,0.000,0.000,16,15,4*4F
$GPGGA,091145.40,3135.6046718,N,12046.7752512,E,4,16,1.8,2.7879,M,8.321,M,01,0004*6B
$GPHPD,0,0.000,59.22,-0.50,-12.33,31.5934112,120.7795875,2.788,13630017.397,24926048.013,2.788,0.000,0.000,0.000,0.000,0.000,0.000,0.000,16,15,4*43
$GPGGA,091145.60,3135.6047580,N,12046.7753908,E,4,16,1.7,2.7932,M,8.321,M,00,0004*6D
$GPHPD,0,0.000,60.18,-0.79,-12.35,31.5934126,120.7795898,2.793,13630016.453,24926049.194,2.793,0.000,0.000,0.000,0.000,0.000,0.000,0.000,16,15,4*48
$GPGGA,091145.80,3135.6048305,N,12046.7755354,E,4,16,1.8,2.7803,M,8.321,M,00,0004*6E
$GPHPD,0,0.000,60.80,0.14,-12.38,31.5934138,120.7795923,2.780,13630015.713,24926050.515,2.780,0.000,0.000,0.000,0.000,0.000,0.000,0.000,16,15,4*6D
$GPGGA,091146.00,3135.6048984,N,12046.7756825,E,4,16,1.7,2.7460,M,8.321,M,01,0004*6F
$GPHPD,0,0.000,60.38,0.96,-12.41,31.5934150,120.7795947,2.746,13630015.044,24926051.894,2.746,0.000,0.000,0.000,0.000,0.000,0.000,0.000,16,15,4*66
$GPGGA,091146.20,3135.6049665,N,12046.7758203,E,4,16,1.7,2.7711,M,8.321,M,01,0004*69
$GPHPD,0,0.000,58.65,4.12,-12.41,31.5934161,120.7795970,2.771,13630014.353,24926053.159,2.771,0.000,0.000,0.000,0.000,0.000,0.000,0.000,16,15,4*65
$GPGGA,091146.40,3135.6050501,N,12046.7759621,E,4,15,1.7,2.7776,M,8.321,M,01,0004*61
$GPHPD,0,0.000,58.91,2.21,-12.41,31.5934175,120.7795994,2.778,13630013.450,24926054.382,2.778,0.000,0.000,0.000,0.000,0.000,0.000,0.000,15,15,4*64
$GPGGA,091146.60,3135.6051275,N,12046.7761040,E,4,15,1.7,2.7652,M,8.321,M,00,0004*6A
$GPHPD,0,0.000,59.61,2.84,-12.41,31.5934188,120.7796017,2.765,13630012.635,24926055.642,2.765,0.000,0.000,0.000,0.000,0.000,0.000,0.000,15,15,4*6E
$GPGGA,091146.80,3135.6051947,N,12046.7762436,E,4,16,1.7,2.7805,M,8.321,M,00,0004*67
$GPHPD,0,0.000,59.09,3.04,-12.39,31.5934199,120.7796041,2.781,13630011.961,24926056.934,2.781,0.000,0.000,0.000,0.000,0.000,0.000,0.000,16,15,4*66
$GPGGA,091147.00,3135.6052677,N,12046.7763804,E,4,16,1.7,2.7898,M,8.321,M,01,0004*68
$GPHPD,0,0.000,58.35,5.11,-12.39,31.5934211,120.7796063,2.790,13630011.199,24926058.159,2.790,0.000,0.000,0.000,0.000,0.000,0.000,0.000,16,15,4*6B
$GPGGA,091147.20,3135.6053486,N,12046.7765188,E,4,16,1.7,2.7931,M,8.321,M,01,0004*6E
$GPHPD,0,0.000,59.18,3.42,-12.37,31.5934225,120.7796086,2.793,13630010.327,24926059.357,2.793,0.000,0.000,0.000,0.000,0.000,0.000,0.000,16,15,4*6C
$GPGGA,091147.40,3135.6054235,N,12046.7766533,E,4,16,1.7,2.8029,M,8.321,M,01,0004*69
$GPHPD,0,0.000,59.26,5.24,-12.37,31.5934237,120.7796109,2.803,13630009.533,24926060.542,2.803,0.000,0.000,0.000,0.000,0.000,0.000,0.000,16,15,4*61
$GPGGA,091147.60,3135.6054850,N,12046.7767894,E,4,16,1.7,2.8106,M,8.321,M,00,0004*6E
$GPHPD,0,0.000,59.54,2.92,-12.36,31.5934248,120.7796132,2.811,13630008.933,24926061.825,2.811,0.000,0.000,0.000,0.000,0.000,0.000,0.000,16,15,4*6F
$GPGGA,091147.80,3135.6055690,N,12046.7769391,E,4,16,1.7,2.7689,M,8.321,M,00,0004*6C
$GPHPD,0,0.000,59.18,-0.85,-12.36,31.5934262,120.7796157,2.769,13630008.040,24926063.141,2.769,0.000,0.000,0.000,0.000,0.000,0.000,0.000,16,15,4*41
$GPGGA,091148.00,3135.6056431,N,12046.7770719,E,4,16,1.7,2.8011,M,8.321,M,01,0004*64
$GPHPD,0,0.000,59.36,2.49,-12.36,31.5934274,120.7796179,2.801,13630007.254,24926064.311,2.801,0.000,0.000,0.000,0.000,0.000,0.000,0.000,16,15,4*61
$GPGGA,091148.20,3135.6057142,N,12046.7772033,E,4,16,1.6,2.8428,M,8.321,M,01,0004*64
$GPHPD,0,0.000,58.58,2.94,-12.36,31.5934286,120.7796201,2.843,13630006.507,24926065.482,2.843,0.000,0.000,0.000,0.000,0.000,0.000,0.000,16,15,4*65
$GPGGA,091148.40,3135.6057890,N,12046.7773367,E,4,16,1.6,2.8566,M,8.321,M,01,0004*6C
$GPHPD,0,0.000,59.46,0.25,-12.36,31.5934298,120.7796223,2.857,13630005.713,24926066.655,2.857,0.000,0.000,0.000,0.000,0.000,0.000,0.000,16,15,4*63
$GPGGA,091148.60,3135.6058688,N,12046.7774841,E,4,16,1.6,2.8404,M,8.321,M,00,0004*6A
$GPHPD,0,0.000,59.54,-1.80,-12.36,31.5934311,120.7796247,2.840,13630004.875,24926067.967,2.840,0.000,0.000,0.000,0.000,0.000,0.000,0.000,16,15,4*40
$GPGGA,091148.80,3135.6059314,N,12046.7776171,E,4,16,1.6,2.8617,M,8.321,M,00,0004*6D
$GPHPD,0,0.000,59.87,0.42,-12.35,31.5934322,120.7796270,2.862,13630004.253,24926069.207,2.862,0.000,0.000,0.000,0.000,0.000,0.000,0.000,16,15,4*66
$GPGGA,091149.00,3135.6060063,N,12046.7777719,E,4,16,1.6,2.8072,M,8.321,M,01,0004*60
$GPHPD,0,0.000,59.18,0.18,-12.34,31.5934334,120.7796295,2.807,13630003.499,24926070.637,2.807,0.000,0.000,0.000,0.000,0.000,0.000,0.000,16,15,4*6A
$GPGGA,091149.20,3135.6060794,N,12046.7778979,E,4,16,1.6,2.8622,M,8.321,M,01,0004*69
$GPHPD,0,0.000,58.95,1.56,-12.31,31.5934347,120.7796316,2.862,13630002.714,24926071.731,2.862,0.000,0.000,0.000,0.000,0.000,0.000,0.000,16,15,4*6F
$GPGGA,091149.40,3135.6061564,N,12046.7780489,E,4,16,1.6,2.8208,M,8.321,M,01,0004*6A
$GPHPD,0,0.000,60.26,-0.39,-12.32,31.5934359,120.7796341,2.821,13630001.923,24926073.103,2.821,0.000,0.000,0.000,0.000,0.000,0.000,0.000,16,14,4*4A
$GPGGA,091149.60,3135.6062280,N,12046.7781937,E,4,16,1.6,2.8029,M,8.321,M,00,0004*6F
$GPHPD,0,0.000,59.81,0.60,-12.29,31.5934371,120.7796366,2.803,13630001.197,24926074.432,2.803,0.000,0.000,0.000,0.000,0.000,0.000,0.000,16,14,4*6E
$GPGGA,091149.80,3135.6062853,N,12046.7783483,E,4,16,1.6,2.7654,M,8.321,M,00,0004*66
$GPHPD,0,0.000,60.21,-0.50,-12.28,31.5934381,120.7796391,2.765,13630000.693,24926075.963,2.765,0.000,0.000,0.000,0.000,0.000,0.000,0.000,16,14,4*4C
$GPGGA,091150.00,3135.6063789,N,12046.7784767,E,4,16,1.6,2.8041,M,8.321,M,01,0004*6D
$GPHPD,0,0.000,60.69,-0.22,-12.29,31.5934396,120.7796413,2.804,13629999.621,24926076.966,2.804,0.000,0.000,0.000,0.000,0.000,0.000,0.000,16,14,4*41
$GPGGA,091150.20,3135.6064461,N,12046.7786123,E,4,16,1.6,2.8262,M,8.321,M,01,0004*6A
$GPHPD,0,0.000,60.14,-0.26,-12.29,31.5934408,120.7796435,2.826,13629998.939,24926078.210,2.826,0.000,0.000,0.000,0.000,0.000,0.000,0.000,16,14,4*48
$GPGGA,091150.40,3135.6065198,N,12046.7787474,E,4,16,1.6,2.8416,M,8.321,M,01,0004*6D
$GPHPD,0,0.000,59.97,-0.94,-12.31,31.5934420,120.7796458,2.842,13629998.163,24926079.410,2.842,0.000,0.000,0.000,0.000,0.000,0.000,0.000,16,14,4*48
$GPGGA,091150.60,3135.6066028,N,12046.7788974,E,4,16,1.6,2.8098,M,8.321,M,00,0004*67
$GPHPD,0,0.000,60.39,-0.32,-12.31,31.5934434,120.7796483,2.810,13629997.285,24926080.735,2.810,0.000,0.000,0.000,0.000,0.000,0.000,0.000,16,14,4*4F
$GPGGA,091150.80,3135.6066605,N,12046.7790350,E,4,16,1.6,2.8155,M,8.321,M,00,0004*65
$GPHPD,0,0.000,60.72,0.61,-12.29,31.5934443,120.7796506,2.816,13629996.741,24926082.058,2.816,0.000,0.000,0.000,0.000,0.000,0.000,0.000,16,14,4*6C
$GPGGA,091151.00,3135.6067392,N,12046.7791867,E,4,16,1.8,2.7837,M,8.321,M,01,0004*65
$GPHPD,0,0.000,59.87,1.30,-12.28,31.5934457,120.7796531,2.784,13629995.928,24926083.429,2.784,0.000,0.000,0.000,0.000,0.000,0.000,0.000,16,14,4*68
$GPGGA,091151.20,3135.6068179,N,12046.7793280,E,4,16,1.8,2.7879,M,8.321,M,01,0004*64
$GPHPD,0,0.000,60.50,2.17,-12.29,31.5934470,120.7796555,2.788,13629995.094,24926084.675,2.788,0.000,0.000,0.000,0.000,0.000,0.000,0.000,16,14,4*6A
$GPGGA,091151.40,3135.6068709,N,12046.7794727,E,4,16,1.8,2.7784,M,8.321,M,01,0004*61
$GPHPD,0,0.000,60.54,1.91,-12.29,31.5934478,120.7796579,2.778,13629994.631,24926086.111,2.778,0.000,0.000,0.000,0.000,0.000,0.000,0.000,16,16,4*68
$GPGGA,091151.60,3135.6069493,N,12046.7796163,E,4,17,1.7,2.7648,M,8.321,M,01,0004*69
$GPHPD,0,0.000,60.04,3.41,-12.30,31.5934492,120.7796603,2.765,13629993.806,24926087.386,2.765,0.000,0.000,0.000,0.000,0.000,0.000,0.000,17,17,4*60
$GPGGA,091151.80,3135.6070218,N,12046.7797599,E,4,17,1.6,2.7724,M,8.321,M,00,0004*61
$GPHPD,0,0.000,60.48,3.33,-12.31,31.5934504,120.7796627,2.772,13629993.064,24926088.696,2.772,0.000,0.000,0.000,0.000,0.000,0.000,0.000,17,17,4*63
$GPGGA,091152.00,3135.6070863,N,12046.7798960,E,4,17,1.7,2.7962,M,8.321,M,01,0004*65
$GPHPD,0,0.000,60.24,2.31,-12.28,31.5934514,120.7796649,2.796,13629992.421,24926089.961,2.796,0.000,0.000,0.000,0.000,0.000,0.000,0.000,17,17,4*69
$GPGGA,091152.20,3135.6071615,N,12046.7800385,E,4,17,1.7,2.7953,M,8.321,M,01,0004*64
$GPHPD,0,0.000,60.16,0.78,-12.27,31.5934527,120.7796673,2.795,13629991.639,24926091.242,2.795,0.000,0.000,0.000,0.000,0.000,0.000,0.000,17,17,4*6A
$GPGGA,091152.40,3135.6072273,N,12046.7801886,E,4,17,1.6,2.7865,M,8.321,M,01,0004*69
$GPHPD,0,0.000,60.25,1.44,-12.26,31.5934538,120.7796698,2.787,13629991.006,24926092.668,2.787,0.000,0.000,0.000,0.000,0.000,0.000,0.000,17,17,4*6B
$GPGGA,091152.60,3135.6072944,N,12046.7803250,E,4,17,1.6,2.7934,M,8.321,M,00,0004*63
$GPHPD,0,0.000,60.30,1.38,-12.26,31.5934549,120.7796721,2.793,13629990.326,24926093.922,2.793,0.000,0.000,0.000,0.000,0.000,0.000,0.000,17,17,4*61
$GPGGA,091152.80,3135.6073746,N,12046.7804653,E,4,17,1.6,2.8031,M,8.321,M,00,0004*63
$GPHPD,0,0.000,60.34,0.61,-12.26,31.5934562,120.7796744,2.803,13629989.468,24926095.147,2.803,0.000,0.000,0.000,0.000,0.000,0.000,0.000,17,16,4*6B
$GPGGA,091153.00,3135.6074345,N,12046.7806131,E,4,17,1.5,2.7995,M,8.321,M,01,0004*61
$GPHPD,0,0.000,60.31,-0.09,-12.28,31.5934572,120.7796769,2.800,13629988.914,24926096.581,2.800,0.000,0.000,0.000,0.000,0.000,0.000,0.000,17,16,4*47
$GPGGA,091153.20,3135.6075160,N,12046.7807599,E,4,17,1.5,2.7876,M,8.321,M,01,0004*6C
$GPHPD,0,0.000,60.05,0.47,-12.27,31.5934586,120.7796793,2.788,13629988.051,24926097.876,2.788,0.000,0.000,0.000,0.000,0.000,0.000,0.000,17,16,4*6A
$GPGGA,091153.40,3135.6075826,N,12046.7808956,E,4,17,1.5,2.8105,M,8.321,M,01,0004*63
$GPHPD,0,0.000,60.17,0.91,-12.27,31.5934597,120.7796816,2.811,13629987.378,24926099.125,2.811,0.000,0.000,0.000,0.000,0.000,0.000,0.000,17,16,4*66
$GPGGA,091153.60,3135.6076542,N,12046.7810315,E,4,17,1.5,2.8186,M,8.321,M,00,0004*63
$GPHPD,0,0.000,60.12,-0.35,-12.27,31.5934609,120.7796839,2.819,13629986.633,24926100.346,2.819,0.000,0.000,0.000,0.000,0.000,0.000,0.000,17,16,4*44
$GPGGA,091153.80,3135.6077197,N,12046.7811735,E,4,17,1.5,2.8426,M,8.321,M,00,0004*68
$GPHPD,0,0.000,60.03,-0.22,-12.27,31.5934620,120.7796862,2.843,13629985.988,24926101.677,2.843,0.000,0.000,0.000,0.000,0.000,0.000,0.000,17,16,4*4D
$GPGGA,091154.00,3135.6077906,N,12046.7813069,E,4,17,1.6,2.8771,M,8.321,M,01,0004*68
$GPHPD,0,0.000,60.12,-0.45,-12.30,31.5934632,120.7796884,2.877,13629985.248,24926102.873,2.877,0.000,0.000,0.000,0.000,0.000,0.000,0.000,17,17,4*4E
$GPGGA,091154.20,3135.6078594,N,12046.7814596,E,4,17,1.6,2.8463,M,8.321,M,01,0004*60
$GPHPD,0,0.000,60.26,-0.23,-12.30,31.5934643,120.7796910,2.846,13629984.578,24926104.314,2.846,0.000,0.000,0.000,0.000,0.000,0.000,0.000,17,17,4*4A
$GPGGA,091154.40,3135.6079257,N,12046.7816064,E,4,17,1.6,2.8561,M,8.321,M,01,0004*66
$GPHPD,0,0.000,60.37,0.68,-12.31,31.5934654,120.7796934,2.856,13629983.931,24926105.698,2.856,0.000,0.000,0.000,0.000,0.000,0.000,0.000,17,16,4*6E
$GPGGA,091154.60,3135.6080003,N,12046.7817642,E,4,17,1.6,2.8033,M,8.321,M,00,0004*61
$GPHPD,0,0.000,60.98,0.51,-12.33,31.5934667,120.7796961,2.803,13629983.188,24926107.166,2.803,0.000,0.000,0.000,0.000,0.000,0.000,0.000,17,17,4*6C
$GPGGA,091154.80,3135.6080726,N,12046.7819113,E,4,17,1.6,2.7855,M,8.321,M,00,0004*65
$GPHPD,0,0.000,60.43,0.28,-12.35,31.5934679,120.7796985,2.786,13629982.456,24926108.519,2.786,0.000,0.000,0.000,0.000,0.000,0.000,0.000,17,16,4*62
$GPGGA,091155.00,3135.6081435,N,12046.7820454,E,4,17,1.5,2.8197,M,8.321,M,01,0004*6A
$GPHPD,0,0.000,60.62,0.00,-12.35,31.5934691,120.7797008,2.820,13629981.718,24926109.723,2.820,0.000,0.000,0.000,0.000,0.000,0.000,0.000,17,16,4*60
$GPGGA,091155.20,3135.6082066,N,12046.7821965,E,4,17,1.5,2.8058,M,8.321,M,01,0004*65
$GPHPD,0,0.000,60.82,0.18,-12.37,31.5934701,120.7797033,2.806,13629981.125,24926111.178,2.806,0.000,0.000,0.000,0.000,0.000,0.000,0.000,17,16,4*6C
$GPGGA,091155.40,3135.6082863,N,12046.7823327,E,4,17,1.5,2.8234,M,8.321,M,01,0004*68
$GPHPD,0,0.000,61.04,-0.54,-12.37,31.5934714,120.7797055,2.823,13629980.266,24926112.356,2.823,0.000,0.000,0.000,0.000,0.000,0.000,0.000,17,16,4*4A
$GPGGA,091155.60,3135.6083459,N,12046.7824852,E,4,17,1.5,2.8006,M,8.321,M,00,0004*62
$GPHPD,0,0.000,60.82,0.13,-12.36,31.5934724,120.7797081,2.801,13629979.726,24926113.848,2.801,0.000,0.000,0.000,0.000,0.000,0.000,0.000,17,16,4*62
$GPGGA,091155.80,3135.6084178,N,12046.7826285,E,4,17,1.5,2.8098,M,8.321,M,00,0004*68
$GPHPD,0,0.000,61.25,1.16,-12.34,31.5934736,120.7797105,2.810,13629978.992,24926115.157,2.810,0.000,0.000,0.000,0.000,0.000,0.000,0.000,17,16,4*67
$GPGGA,091156.00,3135.6084826,N,12046.7827708,E,4,17,1.5,2.8114,M,8.321,M,01,0004*64
$GPHPD,0,0.000,60.89,0.63,-12.34,31.5934747,120.7797128,2.811,13629978.357,24926116.496,2.811,0.000,0.000,0.000,0.000,0.000,0.000,0.000,17,18,4*6C
$GPGGA,091156.20,3135.6085517,N,12046.7829057,E,4,17,1.5,2.8300,M,8.321,M,01,0004*6C
$GPHPD,0,0.000,61.04,0.31,-12.34,31.5934759,120.7797151,2.830,13629977.646,24926117.720,2.830,0.000,0.000,0.000,0.000,0.000,0.000,0.000,17,18,4*6B
$GPGGA,091156.40,3135.6086303,N,12046.7830534,E,4,17,1.5,2.8119,M,8.322,M,01,0004*6B
$GPHPD,0,0.000,60.63,0.69,-12.34,31.5934772,120.7797176,2.812,13629976.826,24926119.043,2.812,0.000,0.000,0.000,0.000,0.000,0.000,0.000,17,17,4*60
$GPGGA,091156.60,3135.6086879,N,12046.7831966,E,4,17,1.5,2.8224,M,8.322,M,01,0004*68
$GPHPD,0,0.000,60.77,1.24,-12.34,31.5934781,120.7797199,2.822,13629976.296,24926120.435,2.822,0.000,0.000,0.000,0.000,0.000,0.000,0.000,17,17,4*6E
$GPGGA,091156.80,3135.6087598,N,12046.7833320,E,4,17,1.5,2.8457,M,8.322,M,01,0004*6D
$GPHPD,0,0.000,60.69,0.22,-12.34,31.5934793,120.7797222,2.846,13629975.546,24926121.649,2.846,0.000,0.000,0.000,0.000,0.000,0.000,0.000,17,17,4*67
$GPGGA,091157.00,3135.6088296,N,12046.7834816,E,4,17,1.5,2.8166,M,8.322,M,02,0004*6F
$GPHPD,0,0.000,60.65,0.44,-12.34,31.5934805,120.7797247,2.817,13629974.855,24926123.046,2.817,0.000,0.000,0.000,0.000,0.000,0.000,0.000,17,16,4*6C
$GPGGA,091157.20,3135.6088973,N,12046.7836198,E,4,17,1.5,2.8258,M,8.322,M,02,0004*6E
$GPHPD,0,0.000,60.36,0.79,-12.35,31.5934816,120.7797270,2.826,13629974.170,24926124.318,2.826,0.000,0.000,0.000,0.000,0.000,0.000,0.000,17,16,4*62
$GPGGA,091157.40,3135.6089696,N,12046.7837618,E,4,17,1.5,2.8354,M,8.322,M,02,0004*6E
$GPHPD,0,0.000,60.58,1.63,-12.35,31.5934828,120.7797294,2.835,13629973.428,24926125.610,2.835,0.000,0.000,0.000,0.000,0.000,0.000,0.000,17,16,4*64
$GPGGA,091157.60,3135.6090432,N,12046.7839029,E,4,17,1.5,2.8254,M,8.322,M,02,0004*63
$GPHPD,0,0.000,60.33,0.38,-12.37,31.5934841,120.7797317,2.825,13629972.666,24926126.882,2.825,0.000,0.000,0.000,0.000,0.000,0.000,0.000,17,17,4*6F
$GPGGA,091157.80,3135.6091160,N,12046.7840343,E,4,17,1.5,2.8487,M,8.322,M,02,0004*67
$GPHPD,0,0.000,60.57,0.14,-12.37,31.5934853,120.7797339,2.849,13629971.896,24926128.043,2.849,0.000,0.000,0.000,0.000,0.000,0.000,0.000,17,16,4*64
$GPGGA,091158.00,3135.6091742,N,12046.7841736,E,4,17,1.5,2.8584,M,8.322,M,03,0004*62
$GPHPD,0,0.000,60.23,0.87,-12.35,31.5934862,120.7797362,2.858,13629971.349,24926129.384,2.858,0.000,0.000,0.000,0.000,0.000,0.000,0.000,17,16,4*63
$GPGGA,091158.20,3135.6092544,N,12046.7843156,E,4,17,1.5,2.8460,M,8.322,M,03,0004*6E
$GPHPD,0,0.000,60.11,1.13,-12.33,31.5934876,120.7797386,2.846,13629970.494,24926130.629,2.846,0.000,0.000,0.000,0.000,0.000,0.000,0.000,17,16,4*6B
$GPGGA,091158.40,3135.6093151,N,12046.7844544,E,4,17,1.5,2.8486,M,8.322,M,03,0004*61
$GPHPD,0,0.000,60.12,1.52,-12.33,31.5934886,120.7797409,2.849,13629969.911,24926131.949,2.849,0.000,0.000,0.000,0.000,0.000,0.000,0.000,17,16,4*62
$GPGGA,091158.60,3135.6093870,N,12046.7845808,E,4,17,1.5,2.8869,M,8.322,M,03,0004*60
$GPHPD,0,0.000,60.08,0.99,-12.33,31.5934898,120.7797430,2.887,13629969.143,24926133.055,2.887,0.000,0.000,0.000,0.000,0.000,0.000,0.000,17,16,4*63
$GPGGA,091158.80,3135.6094624,N,12046.7847286,E,4,17,1.5,2.8562,M,8.322,M,03,0004*6E
$GPHPD,0,0.000,60.11,0.94,-12.33,31.5934910,120.7797455,2.856,13629968.369,24926134.398,2.856,0.000,0.000,0.000,0.000,0.000,0.000,0.000,17,17,4*6B
$GPGGA,091159.00,3135.6095159,N,12046.7848845,E,4,17,1.7,2.8302,M,8.322,M,04,0004*64
$GPHPD,0,0.000,59.53,1.25,-12.30,31.5934919,120.7797481,2.830,13629967.922,24926135.966,2.830,0.000,0.000,0.000,0.000,0.000,0.000,0.000,17,16,4*6E
$GPGGA,091159.20,3135.6096018,N,12046.7850178,E,4,17,1.7,2.8403,M,8.322,M,04,0004*69
$GPHPD,0,0.000,60.17,1.85,-12.29,31.5934934,120.7797503,2.840,13629966.969,24926137.073,2.840,0.000,0.000,0.000,0.000,0.000,0.000,0.000,17,16,4*63
$GPGGA,091159.40,3135.6096719,N,12046.7851661,E,4,17,1.6,2.8248,M,8.322,M,04,0004*6F
$GPHPD,0,0.000,60.19,1.55,-12.29,31.5934945,120.7797528,2.825,13629966.271,24926138.453,2.825,0.000,0.000,0.000,0.000,0.000,0.000,0.000,17,16,4*64
$GPGGA,091159.60,3135.6097578,N,12046.7853083,E,4,17,1.6,2.8299,M,8.322,M,04,0004*6D
$GPHPD,0,0.000,59.57,1.26,-12.27,31.5934960,120.7797551,2.830,13629965.336,24926139.668,2.830,0.000,0.000,0.000,0.000,0.000,0.000,0.000,17,16,4*6D
$GPGGA,091159.80,3135.6098111,N,12046.7854532,E,4,17,1.7,2.7888,M,8.322,M,00,0004*6F
$GPHPD,0,0.000,60.18,1.82,-12.28,31.5934969,120.7797576,2.789,13629964.870,24926141.105,2.789,0.000,0.000,0.000,0.000,0.000,0.000,0.000,17,16,4*6A
$GPGGA,091200.00,3135.6098916,N,12046.7855799,E,4,17,1.6,2.8284,M,8.322,M,01,0004*6C
$GPHPD,0,0.000,59.56,2.41,-12.25,31.5934982,120.7797597,2.828,13629963.980,24926142.164,2.828,0.000,0.000,0.000,0.000,0.000,0.000,0.000,17,16,4*6C
$GPGGA,091200.20,3135.6099476,N,12046.7857176,E,4,17,1.6,2.8318,M,8.322,M,01,0004*65
$GPHPD,0,0.000,60.74,1.87,-12.28,31.5934991,120.7797620,2.832,13629963.461,24926143.498,2.832,0.000,0.000,0.000,0.000,0.000,0.000,0.000,17,17,4*6B
$GPGGA,091200.40,3135.6100170,N,12046.7858592,E,4,17,1.6,2.7945,M,8.322,M,01,0004*6D
$GPHPD,0,0.000,59.50,2.41,-12.31,31.5935003,120.7797643,2.795,13629962.760,24926144.801,2.795,0.000,0.000,0.000,0.000,0.000,0.000,0.000,17,17,4*68
$GPGGA,091200.60,3135.6100917,N,12046.7859974,E,4,17,1.6,2.7857,M,8.322,M,01,0004*61
$GPHPD,0,0.000,60.29,2.87,-12.37,31.5935015,120.7797666,2.786,13629961.976,24926146.033,2.786,0.000,0.000,0.000,0.000,0.000,0.000,0.000,17,17,4*61
$GPGGA,091200.80,3135.6101699,N,12046.7861249,E,4,17,1.6,2.8260,M,8.322,M,01,0004*68
$GPHPD,0,0.000,59.78,2.38,-12.41,31.5935028,120.7797687,2.826,13629961.121,24926147.115,2.826,0.000,0.000,0.000,0.000,0.000,0.000,0.000,17,17,4*65
$GPGGA,091201.00,3135.6102352,N,12046.7862615,E,4,16,1.6,2.8096,M,8.322,M,02,0004*67
$GPHPD,0,0.000,60.53,2.69,-12.48,31.5935039,120.7797710,2.810,13629960.468,24926148.382,2.810,0.000,0.000,0.000,0.000,0.000,0.000,0.000,16,17,4*6F
$GPGGA,091201.20,3135.6103095,N,12046.7863911,E,4,17,1.7,2.8197,M,8.322,M,02,0004*66
$GPHPD,0,0.000,59.77,3.16,-12.52,31.5935052,120.7797732,2.820,13629959.672,24926149.512,2.820,0.000,0.000,0.000,0.000,0.000,0.000,0.000,17,17,4*60
$GPGGA,091201.40,3135.6103749,N,12046.7865217,E,4,16,1.6,2.8221,M,8.322,M,02,0004*63
$GPHPD,0,0.000,59.71,3.82,-12.57,31.5935062,120.7797754,2.822,13629959.005,24926150.706,2.822,0.000,0.000,0.000,0.000,0.000,0.000,0.000,16,16,4*64
$GPGGA,091201.60,3135.6104396,N,12046.7866542,E,4,16,1.6,2.8239,M,8.322,M,02,0004*6D
$GPHPD,0,0.000,59.86,3.10,-12.62,31.5935073,120.7797776,2.824,13629958.352,24926151.927,2.824,0.000,0.000,0.000,0.000,0.000,0.000,0.000,16,16,4*6D
$GPGGA,091201.80,3135.6105167,N,12046.7867869,E,4,16,1.6,2.8057,M,8.322,M,00,0004*63
$GPHPD,0,0.000,59.89,3.25,-12.63,31.5935086,120.7797798,2.806,13629957.523,24926153.078,2.806,0.000,0.000,0.000,0.000,0.000,0.000,0.000,16,16,4*61
$GPGGA,091202.00,3135.6105797,N,12046.7869121,E,4,16,1.7,2.8288,M,8.322,M,01,0004*6A
$GPHPD,0,0.000,59.95,3.01,-12.70,31.5935097,120.7797819,2.829,13629956.880,24926154.221,2.829,0.000,0.000,0.000,0.000,0.000,0.000,0.000,16,16,4*62
$GPGGA,091202.20,3135.6106390,N,12046.7870412,E,4,16,1.7,2.8162,M,8.322,M,01,0004*62
$GPHPD,0,0.000,59.96,2.28,-12.78,31.5935107,120.7797840,2.816,13629956.296,24926155.432,2.816,0.000,0.000,0.000,0.000,0.000,0.000,0.000,16,16,4*6F
$GPGGA,091202.40,3135.6107136,N,12046.7871699,E,4,16,1.6,2.8266,M,8.322,M,01,0004*6D
$GPHPD,0,0.000,59.50,2.85,-12.85,31.5935119,120.7797862,2.827,13629955.495,24926156.550,2.827,0.000,0.000,0.000,0.000,0.000,0.000,0.000,16,16,4*6F
$GPGGA,091202.60,3135.6107898,N,12046.7873075,E,4,16,1.6,2.8258,M,8.322,M,01,0004*69
$GPHPD,0,0.000,59.66,3.40,-12.85,31.5935132,120.7797885,2.826,13629954.689,24926157.765,2.826,0.000,0.000,0.000,0.000,0.000,0.000,0.000,16,16,4*69
$GPGGA,091202.80,3135.6108737,N,12046.7874464,E,4,16,1.6,2.8093,M,8.322,M,01,0004*64
$GPHPD,0,0.000,59.87,3.99,-12.82,31.5935146,120.7797908,2.809,13629953.775,24926158.952,2.809,0.000,0.000,0.000,0.000,0.000,0.000,0.000,16,16,4*62
$GPGGA,091203.00,3135.6109421,N,12046.7875784,E,4,16,1.6,2.8322,M,8.322,M,02,0004*6E
$GPHPD,0,0.000,59.93,3.31,-12.77,31.5935157,120.7797930,2.832,13629953.069,24926160.145,2.832,0.000,0.000,0.000,0.000,0.000,0.000,0.000,16,16,4*6B
$GPGGA,091203.20,3135.6110156,N,12046.7877171,E,4,16,1.6,2.8293,M,8.322,M,02,0004*64
$GPHPD,0,0.000,59.97,3.29,-12.77,31.5935169,120.7797953,2.829,13629952.303,24926161.390,2.829,0.000,0.000,0.000,0.000,0.000,0.000,0.000,16,16,4*6B
$GPGGA,091203.40,3135.6110929,N,12046.7878584,E,4,16,1.6,2.8223,M,8.322,M,02,0004*68
$GPHPD,0,0.000,59.59,3.74,-12.77,31.5935182,120.7797976,2.822,13629951.489,24926162.643,2.822,0.000,0.000,0.000,0.000,0.000,0.000,0.000,16,16,4*6D
$GPGGA,091203.60,3135.6111552,N,12046.7879936,E,4,16,1.6,2.8446,M,8.322,M,00,0004*68
$GPHPD,0,0.000,59.85,3.87,-12.76,31.5935193,120.7797999,2.845,13629950.875,24926163.911,2.845,0.000,0.000,0.000,0.000,0.000,0.000,0.000,16,16,4*67
$GPGGA,091203.80,3135.6112407,N,12046.7881328,E,4,16,1.6,2.8630,M,8.322,M,00,0004*65
$GPHPD,0,0.000,59.41,4.18,-12.74,31.5935207,120.7798022,2.863,13629949.940,24926165.091,2.863,0.000,0.000,0.000,0.000,0.000,0.000,0.000,16,16,4*6C
$GPGGA,091204.00,3135.6113097,N,12046.7882755,E,4,16,1.6,2.8663,M,8.322,M,01,0004*6C
$GPHPD,0,0.000,59.54,4.05,-12.77,31.5935218,120.7798046,2.866,13629949.246,24926166.410,2.866,0.000,0.000,0.000,0.000,0.000,0.000,0.000,16,16,4*68
$GPGGA,091204.20,3135.6113941,N,12046.7884144,E,4,16,1.6,2.9006,M,8.322,M,01,0004*68
$GPHPD,0,0.000,59.08,4.88,-12.75,31.5935232,120.7798069,2.901,13629948.326,24926167.594,2.901,0.000,0.000,0.000,0.000,0.000,0.000,0.000,16,16,4*69
$GPGGA,091204.40,3135.6114768,N,12046.7885585,E,4,16,1.6,2.9103,M,8.322,M,01,0004*60
$GPHPD,0,0.000,59.21,4.34,-12.74,31.5935246,120.7798093,2.910,13629947.440,24926168.850,2.910,0.000,0.000,0.000,0.000,0.000,0.000,0.000,16,16,4*60
$GPGGA,091204.60,3135.6115538,N,12046.7887039,E,4,16,1.6,2.9110,M,8.322,M,01,0004*66
$GPHPD,0,0.000,59.59,3.80,-12.78,31.5935259,120.7798117,2.911,13629946.638,24926170.155,2.911,0.000,0.000,0.000,0.000,0.000,0.000,0.000,16,16,4*61
$GPGGA,091204.80,3135.6116382,N,12046.7888591,E,4,16,1.6,2.8902,M,8.322,M,01,0004*6E
$GPHPD,0,0.000,58.61,5.08,-12.81,31.5935273,120.7798143,2.890,13629945.751,24926171.535,2.890,0.000,0.000,0.000,0.000,0.000,0.000,0.000,16,16,4*6C
$GPGGA,091205.00,3135.6117187,N,12046.7890148,E,4,16,1.6,2.8775,M,8.322,M,02,0004*65
$GPHPD,0,0.000,59.41,3.17,-12.88,31.5935286,120.7798169,2.878,13629944.920,24926172.943,2.878,0.000,0.000,0.000,0.000,0.000,0.000,0.000,16,16,4*6B
$GPGGA,091205.20,3135.6118026,N,12046.7891628,E,4,16,1.6,2.8930,M,8.322,M,02,0004*6D
$GPHPD,0,0.000,59.98,2.90,-12.90,31.5935300,120.7798194,2.893,13629944.025,24926174.239,2.893,0.000,0.000,0.000,0.000,0.000,0.000,0.000,16,16,4*69
$GPGGA,091205.40,3135.6118794,N,12046.7893129,E,4,16,1.6,2.9028,M,8.322,M,02,0004*60
$GPHPD,0,0.000,60.21,2.19,-12.88,31.5935313,120.7798219,2.903,13629943.235,24926175.602,2.903,0.000,0.000,0.000,0.000,0.000,0.000,0.000,16,16,4*64
$GPGGA,091205.60,3135.6119600,N,12046.7894733,E,4,16,1.7,2.8768,M,8.322,M,02,0004*66
$GPHPD,0,0.000,59.84,1.91,-12.95,31.5935327,120.7798246,2.877,13629942.412,24926177.067,2.877,0.000,0.000,0.000,0.000,0.000,0.000,0.000,16,16,4*66
$GPGGA,091205.80,3135.6120489,N,12046.7896347,E,4,16,1.7,2.8743,M,8.322,M,00,0004*6F
$GPHPD,0,0.000,59.06,3.11,-12.92,31.5935341,120.7798272,2.874,13629941.473,24926178.495,2.874,0.000,0.000,0.000,0.000,0.000,0.000,0.000,16,16,4*64
$GPGGA,091206.00,3135.6121317,N,12046.7897921,E,4,16,1.7,2.8998,M,8.322,M,01,0004*67
$GPHPD,0,0.000,60.24,0.74,-12.75,31.5935355,120.7798299,2.900,13629940.613,24926179.911,2.900,0.000,0.000,0.000,0.000,0.000,0.000,0.000,16,16,4*62
$GPGGA,091206.20,3135.6122095,N,12046.7899528,E,4,16,1.7,2.9079,M,8.322,M,01,0004*63
$GPHPD,0,0.000,60.71,-0.15,-12.69,31.5935368,120.7798325,2.908,13629939.830,24926181.396,2.908,0.000,0.000,0.000,0.000,0.000,0.000,0.000,16,16,4*4E
$GPGGA,091206.40,3135.6122943,N,12046.7901218,E,4,16,1.7,2.9036,M,8.322,M,01,0004*68
$GPHPD,0,0.000,60.69,0.16,-12.60,31.5935382,120.7798354,2.904,13629938.965,24926182.940,2.904,0.000,0.000,0.000,0.000,0.000,0.000,0.000,16,16,4*60
$GPGGA,091206.60,3135.6123883,N,12046.7902878,E,4,16,1.7,2.9118,M,8.322,M,00,0004*65
$GPHPD,0,0.000,59.71,1.51,-12.61,31.5935398,120.7798381,2.912,13629937.963,24926184.394,2.912,0.000,0.000,0.000,0.000,0.000,0.000,0.000,16,16,4*6F
$GPGGA,091206.80,3135.6124611,N,12046.7904578,E,4,16,1.7,2.9078,M,8.322,M,00,0004*65
$GPHPD,0,0.000,60.73,-0.64,-12.60,31.5935410,120.7798410,2.908,13629937.270,24926186.020,2.908,0.000,0.000,0.000,0.000,0.000,0.000,0.000,16,16,4*43
$GPGGA,091207.00,3135.6125476,N,12046.7906274,E,4,16,1.7,2.8985,M,8.322,M,01,0004*6C
$GPHPD,0,0.000,59.98,0.20,-12.63,31.5935425,120.7798438,2.899,13629936.381,24926187.562,2.899,0.000,0.000,0.000,0.000,0.000,0.000,0.000,16,16,4*62
$GPGGA,091207.20,3135.6126255,N,12046.7907835,E,4,16,1.6,2.9157,M,8.322,M,01,0004*63
