$GPGGA,084600.40,3135.2944265,N,12046.7186487,E,4,19,1.2,2.6480,M,8.320,M,01,0004*64
$GPHPD,1957,31578.200,55.33,-0.35,13.21,31.5882404,120.7786441,2.648,13634313.534,24927171.525,2.648,-0.239,-0.299,0.203,0.556,0.961,0.595,0.000,19,19,4*5B
$GPGGA,084600.60,3135.2944609,N,12046.7187057,E,4,19,1.2,2.6484,M,8.320,M,00,0004*65
$GPHPD,1957,31578.400,55.48,-0.27,13.31,31.5882410,120.7786451,2.648,13634313.160,24927172.013,2.648,-0.279,-0.323,0.241,0.556,0.961,0.595,0.000,19,19,4*53
$GPGGA,084600.80,3135.2944992,N,12046.7187711,E,4,19,1.2,2.6546,M,8.320,M,00,0004*6C
$GPHPD,1957,31578.600,55.48,-0.40,13.41,31.5882417,120.7786462,2.655,13634312.747,24927172.579,2.655,-0.313,-0.391,0.269,0.556,0.961,0.595,0.000,19,19,4*55
$GPGGA,084601.00,3135.2945415,N,12046.7188468,E,4,19,1.2,2.6549,M,8.320,M,01,0004*6A
$GPHPD,1957,31578.800,55.42,-0.33,13.51,31.5882424,120.7786474,2.655,13634312.299,24927173.245,2.655,-0.360,-0.425,0.301,0.556,0.961,0.595,0.000,19,19,4*5F
$GPGGA,084601.20,3135.2945900,N,12046.7189314,E,4,19,1.2,2.6525,M,8.320,M,01,0004*66
$GPHPD,1957,31579.000,55.54,-0.40,13.61,31.5882432,120.7786489,2.653,13634311.779,24927173.984,2.653,-0.415,-0.478,0.330,0.556,0.961,0.595,0.000,19,19,4*52
$GPGGA,084601.40,3135.2946434,N,12046.7190233,E,4,19,1.2,2.6491,M,8.320,M,01,0004*6B
$GPHPD,1957,31579.200,55.66,-0.51,13.69,31.5882441,120.7786504,2.649,13634311.205,24927174.781,2.649,-0.451,-0.539,0.383,0.556,0.961,0.595,0.000,19,19,4*57
$GPGGA,084601.60,3135.2946998,N,12046.7191207,E,4,19,1.2,2.6480,M,8.320,M,01,0004*64
$GPHPD,1957,31579.400,55.68,-0.23,13.75,31.5882450,120.7786520,2.648,13634310.600,24927175.628,2.648,-0.487,-0.582,0.408,0.556,0.961,0.595,0.000,19,19,4*5D
$GPGGA,084601.80,3135.2947600,N,12046.7192245,E,4,19,1.2,2.6492,M,8.320,M,00,0004*62
$GPHPD,1957,31579.600,55.70,-0.38,13.80,31.5882460,120.7786537,2.649,13634309.953,24927176.529,2.649,-0.522,-0.642,0.435,0.556,0.961,0.595,0.000,19,19,4*5C
$GPGGA,084602.00,3135.2948239,N,12046.7193327,E,4,19,1.2,2.6438,M,8.320,M,01,0004*6D
$GPHPD,1957,31579.800,55.82,-0.40,13.84,31.5882471,120.7786555,2.644,13634309.263,24927177.462,2.644,-0.548,-0.662,0.477,0.556,0.961,0.595,0.000,19,19,4*5F
$GPGGA,084602.20,3135.2948852,N,12046.7194433,E,4,19,1.2,2.6492,M,8.320,M,01,0004*6D
$GPHPD,1957,31580.000,55.99,-0.32,13.88,31.5882481,120.7786574,2.649,13634308.614,24927178.439,2.649,-0.568,-0.719,0.485,0.556,0.961,0.595,0.000,19,19,4*58
$GPGGA,084602.40,3135.2949510,N,12046.7195604,E,4,19,1.2,2.6459,M,8.320,M,01,0004*61
$GPHPD,1957,31580.200,56.07,-0.22,13.90,31.5882492,120.7786593,2.646,13634307.914,24927179.469,2.646,-0.605,-0.711,0.493,0.556,0.961,0.595,0.000,19,19,4*5E
$GPGGA,084602.60,3135.2950185,N,12046.7196806,E,4,19,1.2,2.6479,M,8.320,M,00,0004*6F
$GPHPD,1957,31580.400,56.27,-0.41,13.92,31.5882503,120.7786613,2.648,13634307.197,24927180.526,2.648,-0.625,-0.762,0.503,0.556,0.961,0.595,0.000,19,19,4*5E
$GPGGA,084602.80,3135.2950872,N,12046.7198023,E,4,19,1.2,2.6406,M,8.320,M,00,0004*69
$GPHPD,1957,31580.600,56.45,0.10,13.90,31.5882515,120.7786634,2.641,13634306.465,24927181.594,2.641,-0.648,-0.750,0.525,0.556,0.961,0.595,0.000,19,19,4*7E
$GPGGA,084603.00,3135.2951573,N,12046.7199250,E,4,19,1.2,2.6430,M,8.320,M,01,0004*6E
$GPHPD,1957,31580.800,56.61,0.04,13.89,31.5882526,120.7786654,2.643,13634305.716,24927182.666,2.643,-0.650,-0.808,0.534,0.556,0.961,0.595,0.000,19,19,4*7F
$GPGGA,084603.20,3135.2952252,N,12046.7200522,E,4,19,1.2,2.6373,M,8.320,M,01,0004*6A
$GPHPD,1957,31581.000,56.67,-0.24,13.89,31.5882538,120.7786675,2.637,13634305.007,24927183.805,2.637,-0.660,-0.798,0.542,0.556,0.961,0.595,0.000,19,19,4*5A
$GPGGA,084603.40,3135.2952950,N,12046.7201793,E,4,19,1.2,2.6430,M,8.320,M,01,0004*6C
$GPHPD,1957,31581.200,56.84,-0.10,13.89,31.5882549,120.7786697,2.643,13634304.271,24927184.931,2.643,-0.678,-0.809,0.533,0.556,0.961,0.595,0.000,19,19,4*53
$GPGGA,084603.60,3135.2953632,N,12046.7203035,E,4,19,1.2,2.6383,M,8.320,M,01,0004*62
$GPHPD,1957,31581.400,56.94,-0.26,13.83,31.5882561,120.7786717,2.638,13634303.551,24927186.032,2.638,-0.709,-0.768,0.551,0.556,0.961,0.595,0.000,19,19,4*59
$GPGGA,084603.80,3135.2954327,N,12046.7204286,E,4,19,1.2,2.6377,M,8.320,M,00,0004*6D
$GPHPD,1957,31581.600,57.14,-0.30,13.81,31.5882572,120.7786738,2.638,13634302.815,24927187.137,2.638,-0.676,-0.791,0.540,0.556,0.961,0.595,0.000,19,19,4*5E
$GPGGA,084604.00,3135.2954994,N,12046.7205487,E,4,19,1.2,2.6466,M,8.320,M,01,0004*60
$GPHPD,1957,31581.800,57.28,-0.13,13.81,31.5882583,120.7786758,2.647,13634302.109,24927188.197,2.647,-0.674,-0.800,0.529,0.556,0.961,0.595,0.000,19,19,4*5D
$GPGGA,084604.20,3135.2955672,N,12046.7206775,E,4,19,1.2,2.6453,M,8.320,M,01,0004*6F
$GPHPD,1957,31582.000,57.45,-0.28,13.81,31.5882595,120.7786780,2.645,13634301.405,24927189.356,2.645,-0.681,-0.767,0.537,0.556,0.961,0.595,0.000,19,19,4*58
$GPGGA,084604.40,3135.2956354,N,12046.7208020,E,4,19,1.2,2.6389,M,8.320,M,01,0004*62
$GPHPD,1957,31582.200,57.52,-0.27,13.80,31.5882606,120.7786800,2.639,13634300.686,24927190.461,2.639,-0.685,-0.812,0.538,0.556,0.961,0.595,0.000,19,19,4*59
$GPGGA,084604.60,3135.2957059,N,12046.7209338,E,4,19,1.2,2.6476,M,8.320,M,00,0004*62
$GPHPD,1957,31582.400,57.57,-0.01,13.81,31.5882618,120.7786822,2.648,13634299.949,24927191.640,2.648,-0.674,-0.810,0.526,0.556,0.961,0.595,0.000,19,19,4*5E
$GPGGA,084604.80,3135.2957713,N,12046.7210637,E,4,19,1.2,2.6433,M,8.320,M,00,0004*66
$GPHPD,1957,31582.600,57.59,-0.27,13.82,31.5882629,120.7786844,2.643,13634299.281,24927192.826,2.643,-0.708,-0.806,0.548,0.556,0.961,0.595,0.000,19,19,4*50
$GPGGA,084605.00,3135.2958432,N,12046.7211938,E,4,19,1.2,2.6408,M,8.320,M,01,0004*68
$GPHPD,1957,31582.800,57.72,-0.08,13.83,31.5882641,120.7786866,2.641,13634298.521,24927193.977,2.641,-0.714,-0.822,0.529,0.556,0.961,0.595,0.000,19,19,4*51
$GPGGA,084605.20,3135.2959155,N,12046.7213285,E,4,19,1.2,2.6424,M,8.320,M,01,0004*6E
$GPHPD,1957,31583.000,57.88,-0.27,13.84,31.5882653,120.7786888,2.642,13634297.765,24927195.181,2.642,-0.718,-0.828,0.556,0.556,0.961,0.595,0.000,19,19,4*50
$GPGGA,084605.40,3135.2959857,N,12046.7214630,E,4,19,1.2,2.6410,M,8.320,M,01,0004*69
$GPHPD,1957,31583.200,58.05,-0.54,13.84,31.5882664,120.7786911,2.641,13634297.037,24927196.394,2.641,-0.728,-0.843,0.563,0.556,0.961,0.595,0.000,19,19,4*54
$GPGGA,084605.60,3135.2960588,N,12046.7215994,E,4,19,1.2,2.6433,M,8.320,M,01,0004*6F
$GPHPD,1957,31583.400,58.01,-0.17,13.84,31.5882676,120.7786933,2.643,13634296.273,24927197.614,2.643,-0.738,-0.847,0.561,0.556,0.961,0.595,0.000,19,19,4*5A
$GPGGA,084605.80,3135.2961305,N,12046.7217377,E,4,19,1.2,2.6414,M,8.320,M,00,0004*62
$GPHPD,1957,31583.600,58.14,-0.41,13.82,31.5882688,120.7786956,2.641,13634295.532,24927198.865,2.641,-0.748,-0.859,0.570,0.556,0.961,0.595,0.000,19,19,4*55
$GPGGA,084606.00,3135.2962039,N,12046.7218769,E,4,19,1.2,2.6416,M,8.320,M,01,0004*61
$GPHPD,1957,31583.800,57.98,-0.48,13.80,31.5882701,120.7786979,2.642,13634294.769,24927200.116,2.642,-0.749,-0.866,0.562,0.556,0.961,0.595,0.000,19,19,4*5A
$GPGGA,084606.20,3135.2962756,N,12046.7220133,E,4,19,1.2,2.6480,M,8.320,M,01,0004*60
$GPHPD,1957,31584.000,58.10,-0.41,13.73,31.5882713,120.7787002,2.648,13634294.025,24927201.344,2.648,-0.758,-0.864,0.580,0.556,0.961,0.595,0.000,19,19,4*5D
$GPGGA,084606.40,3135.2963453,N,12046.7221473,E,4,19,1.2,2.6387,M,8.320,M,01,0004*61
$GPHPD,1957,31584.200,58.04,-0.42,13.68,31.5882724,120.7787025,2.639,13634293.304,24927202.555,2.639,-0.755,-0.865,0.557,0.556,0.961,0.595,0.000,19,19,4*56
$GPGGA,084606.60,3135.2964135,N,12046.7222775,E,4,19,1.2,2.6393,M,8.320,M,00,0004*63
$GPHPD,1957,31584.400,58.09,-0.15,13.59,31.5882736,120.7787046,2.639,13634292.596,24927203.728,2.639,-0.730,-0.849,0.544,0.556,0.961,0.595,0.000,19,19,4*51
$GPGGA,084606.80,3135.2964806,N,12046.7224060,E,4,19,1.2,2.6420,M,8.320,M,00,0004*6E
$GPHPD,1957,31584.600,58.04,-0.14,13.53,31.5882747,120.7787068,2.642,13634291.901,24927204.887,2.642,-0.721,-0.805,0.541,0.556,0.961,0.595,0.000,19,19,4*5E
$GPGGA,084607.00,3135.2965440,N,12046.7225284,E,4,19,1.2,2.6346,M,8.320,M,01,0004*67
$GPHPD,1957,31584.800,58.11,-0.32,13.48,31.5882757,120.7787088,2.635,13634291.247,24927205.995,2.635,-0.701,-0.771,0.538,0.556,0.961,0.595,0.000,19,19,4*5F
$GPGGA,084607.20,3135.2966056,N,12046.7226456,E,4,19,1.2,2.6358,M,8.320,M,01,0004*60
$GPHPD,1957,31585.000,58.03,0.16,13.47,31.5882768,120.7787108,2.636,13634290.607,24927207.050,2.636,-0.661,-0.763,0.497,0.556,0.961,0.595,0.000,19,19,4*77
$GPGGA,084607.40,3135.2966679,N,12046.7227642,E,4,19,1.2,2.6296,M,8.320,M,01,0004*68
$GPHPD,1957,31585.200,57.92,-0.02,13.44,31.5882778,120.7787127,2.630,13634289.960,24927208.117,2.630,-0.649,-0.723,0.496,0.556,0.961,0.595,0.000,19,19,4*51
$GPGGA,084607.60,3135.2967256,N,12046.7228732,E,4,19,1.2,2.6308,M,8.320,M,01,0004*6D
$GPHPD,1957,31585.400,58.08,0.04,13.41,31.5882788,120.7787146,2.631,13634289.359,24927209.096,2.631,-0.628,-0.745,0.478,0.556,0.961,0.595,0.000,19,19,4*73
$GPGGA,084607.80,3135.2967860,N,12046.7229775,E,4,19,1.2,2.6388,M,8.320,M,00,0004*67
$GPHPD,1957,31585.600,57.84,-0.12,13.37,31.5882798,120.7787163,2.639,13634288.711,24927210.003,2.639,-0.612,-0.694,0.462,0.556,0.961,0.595,0.000,19,19,4*55
$GPGGA,084608.00,3135.2968427,N,12046.7230829,E,4,19,1.2,2.6401,M,8.320,M,01,0004*69
$GPHPD,1957,31585.800,57.74,-0.09,13.33,31.5882807,120.7787180,2.640,13634288.117,24927210.944,2.640,-0.582,-0.675,0.473,0.556,0.961,0.595,0.000,19,19,4*51
$GPGGA,084608.20,3135.2968932,N,12046.7231819,E,4,19,1.2,2.6452,M,8.320,M,01,0004*66
$GPHPD,1957,31586.000,57.69,-0.26,13.30,31.5882816,120.7787197,2.645,13634287.599,24927211.844,2.645,-0.571,-0.661,0.450,0.556,0.961,0.595,0.000,19,19,4*5B
$GPGGA,084608.40,3135.2969472,N,12046.7232833,E,4,19,1.2,2.6390,M,8.320,M,01,0004*6A
$GPHPD,1957,31586.200,57.68,0.07,13.28,31.5882825,120.7787214,2.639,13634287.035,24927212.753,2.639,-0.549,-0.621,0.426,0.556,0.961,0.595,0.000,19,19,4*70
$GPGGA,084608.60,3135.2969975,N,12046.7233816,E,4,19,1.2,2.6413,M,8.320,M,00,0004*69
$GPHPD,1957,31586.400,57.69,0.18,13.26,31.5882833,120.7787230,2.641,13634286.518,24927213.646,2.641,-0.526,-0.636,0.409,0.556,0.961,0.595,0.000,19,19,4*7B
$GPGGA,084608.80,3135.2970513,N,12046.7234772,E,4,19,1.2,2.6431,M,8.320,M,00,0004*69
$GPHPD,1957,31586.600,57.72,-0.17,13.24,31.5882842,120.7787246,2.643,13634285.946,24927214.486,2.643,-0.542,-0.602,0.410,0.556,0.961,0.595,0.000,19,19,4*54
$GPGGA,084609.00,3135.2971005,N,12046.7235738,E,4,19,1.2,2.6361,M,8.320,M,01,0004*6F
$GPHPD,1957,31586.800,57.88,0.02,13.24,31.5882850,120.7787262,2.636,13634285.441,24927215.364,2.636,-0.527,-0.596,0.393,0.556,0.961,0.595,0.000,19,19,4*72
$GPGGA,084609.20,3135.2971502,N,12046.7236667,E,4,19,1.2,2.6384,M,8.320,M,01,0004*6C
$GPHPD,1957,31587.000,57.94,0.29,13.25,31.5882858,120.7787278,2.638,13634284.922,24927216.196,2.638,-0.515,-0.608,0.373,0.556,0.961,0.595,0.000,19,19,4*73
$GPGGA,084609.40,3135.2971978,N,12046.7237608,E,4,19,1.2,2.6435,M,8.320,M,01,0004*6E
$GPHPD,1957,31587.200,58.02,0.49,13.25,31.5882866,120.7787293,2.644,13634284.434,24927217.053,2.644,-0.515,-0.605,0.382,0.556,0.961,0.595,0.000,19,19,4*7F
$GPGGA,084609.60,3135.2972472,N,12046.7238544,E,4,19,1.2,2.6339,M,8.320,M,01,0004*67
$GPHPD,1957,31587.400,58.18,-0.11,13.27,31.5882875,120.7787309,2.634,13634283.921,24927217.895,2.634,-0.525,-0.558,0.394,0.556,0.961,0.595,0.000,19,19,4*53
$GPGGA,084609.80,3135.2972954,N,12046.7239451,E,4,19,1.2,2.6437,M,8.320,M,00,0004*6C
$GPHPD,1957,31587.600,58.28,0.11,13.28,31.5882883,120.7787324,2.644,13634283.418,24927218.708,2.644,-0.505,-0.600,0.374,0.556,0.961,0.595,0.000,19,19,4*77
$GPGGA,084610.00,3135.2973447,N,12046.7240422,E,4,19,1.2,2.6489,M,8.320,M,01,0004*6C
$GPHPD,1957,31587.800,58.41,-0.25,13.30,31.5882891,120.7787340,2.649,13634282.913,24927219.592,2.649,-0.528,-0.555,0.386,0.556,0.961,0.595,0.000,19,19,4*52
$GPGGA,084610.20,3135.2973961,N,12046.7241378,E,4,19,1.2,2.6425,M,8.320,M,01,0004*68
$GPHPD,1957,31588.000,58.34,-0.32,13.34,31.5882899,120.7787356,2.643,13634282.375,24927220.446,2.643,-0.538,-0.570,0.397,0.556,0.961,0.595,0.000,19,19,4*54
$GPGGA,084610.40,3135.2974483,N,12046.7242384,E,4,19,1.2,2.6447,M,8.320,M,01,0004*6C
$GPHPD,1957,31588.200,58.45,-0.05,13.38,31.5882908,120.7787373,2.645,13634281.835,24927221.356,2.645,-0.526,-0.596,0.408,0.556,0.961,0.595,0.000,19,19,4*5B
$GPGGA,084610.60,3135.2975034,N,12046.7243436,E,4,19,1.2,2.6471,M,8.320,M,00,0004*6C
$GPHPD,1957,31588.400,58.43,-0.10,13.42,31.5882917,120.7787391,2.647,13634281.264,24927222.304,2.647,-0.558,-0.575,0.414,0.556,0.961,0.595,0.000,19,19,4*53
$GPGGA,084610.80,3135.2975583,N,12046.7244463,E,4,19,1.2,2.6497,M,8.320,M,00,0004*64
$GPHPD,1957,31588.600,58.35,0.20,13.46,31.5882926,120.7787408,2.650,13634280.690,24927223.223,2.650,-0.574,-0.627,0.437,0.556,0.961,0.595,0.000,19,19,4*7F
$GPGGA,084611.00,3135.2976153,N,12046.7245594,E,4,19,1.2,2.6446,M,8.320,M,01,0004*62
$GPHPD,1957,31588.800,58.29,-0.15,13.52,31.5882936,120.7787427,2.645,13634280.108,24927224.255,2.645,-0.585,-0.639,0.452,0.556,0.961,0.595,0.000,19,19,4*5C
$GPGGA,084611.20,3135.2976743,N,12046.7246719,E,4,19,1.2,2.6442,M,8.321,M,01,0004*66
$GPHPD,1957,31589.000,58.35,-0.18,13.57,31.5882946,120.7787445,2.644,13634279.496,24927225.269,2.644,-0.596,-0.719,0.437,0.556,0.961,0.595,0.000,19,18,4*5A
$GPGGA,084611.40,3135.2977350,N,12046.7247915,E,4,19,1.2,2.6457,M,8.321,M,01,0004*60
$GPHPD,1957,31589.200,58.51,0.15,13.61,31.5882956,120.7787465,2.646,13634278.874,24927226.358,2.646,-0.622,-0.745,0.455,0.556,0.961,0.595,0.000,19,18,4*7C
$GPGGA,084611.60,3135.2977995,N,12046.7249143,E,4,19,1.2,2.6473,M,8.321,M,01,0004*62
$GPHPD,1957,31589.400,58.49,0.09,13.65,31.5882967,120.7787486,2.647,13634278.204,24927227.464,2.647,-0.659,-0.743,0.479,0.556,0.961,0.595,0.000,19,18,4*75
$GPGGA,084611.80,3135.2978644,N,12046.7250415,E,4,19,1.2,2.6457,M,8.321,M,00,0004*69
$GPHPD,1957,31589.600,58.43,-0.35,13.69,31.5882977,120.7787507,2.646,13634277.538,24927228.620,2.646,-0.671,-0.747,0.501,0.556,0.961,0.595,0.000,19,18,4*50
$GPGGA,084612.00,3135.2979310,N,12046.7251648,E,4,18,1.2,2.6521,M,8.321,M,01,0004*6C
$GPHPD,1957,31589.800,58.38,-0.44,13.71,31.5882989,120.7787527,2.652,13634276.839,24927229.720,2.652,-0.692,-0.793,0.508,0.556,0.961,0.595,0.000,18,18,4*5F
$GPGGA,084612.20,3135.2979992,N,12046.7252949,E,4,19,1.2,2.6469,M,8.321,M,01,0004*6F
$GPHPD,1957,31590.000,58.52,-0.51,13.73,31.5883000,120.7787549,2.647,13634276.132,24927230.892,2.647,-0.705,-0.704,0.571,0.557,1.027,0.600,0.000,19,18,4*52
$GPGGA,084612.40,3135.2980669,N,12046.7254258,E,4,18,1.2,2.6483,M,8.321,M,01,0004*6C
$GPHPD,1957,31590.200,58.58,-0.24,13.75,31.5883011,120.7787571,2.648,13634275.433,24927232.077,2.648,-0.694,-0.817,0.529,0.557,1.027,0.600,0.000,18,18,4*5B
$GPGGA,084612.60,3135.2981382,N,12046.7255619,E,4,19,1.2,2.6379,M,8.321,M,00,0004*6D
$GPHPD,1957,31590.400,58.26,0.32,13.77,31.5883023,120.7787594,2.638,13634274.694,24927233.303,2.638,-0.717,-0.854,0.535,0.557,1.027,0.600,0.000,19,18,4*78
$GPGGA,084612.80,3135.2982096,N,12046.7256937,E,4,18,1.2,2.6522,M,8.321,M,00,0004*6F
$GPHPD,1957,31590.600,58.29,0.45,13.78,31.5883035,120.7787616,2.652,13634273.944,24927234.477,2.652,-0.724,-0.913,0.524,0.557,1.027,0.600,0.000,18,18,4*71
$GPGGA,084613.00,3135.2982801,N,12046.7258334,E,4,18,1.2,2.6459,M,8.321,M,01,0004*6B
$GPHPD,1957,31590.800,58.10,0.59,13.80,31.5883047,120.7787639,2.646,13634273.223,24927235.752,2.646,-0.728,-0.851,0.556,0.557,1.027,0.600,0.000,18,18,4*76
$GPGGA,084613.20,3135.2983528,N,12046.7259747,E,4,18,1.2,2.6451,M,8.321,M,01,0004*67
$GPHPD,1957,31591.000,57.97,1.25,13.80,31.5883059,120.7787662,2.645,13634272.474,24927237.033,2.645,-0.757,-0.899,0.534,0.557,1.027,0.600,0.000,18,18,4*7B
$GPGGA,084613.40,3135.2984264,N,12046.7261059,E,4,18,1.2,2.6673,M,8.321,M,01,0004*68
$GPHPD,1957,31591.200,57.86,1.23,13.85,31.5883071,120.7787684,2.667,13634271.692,24927238.187,2.667,-0.745,-0.846,0.579,0.557,1.027,0.600,0.000,18,18,4*78
$GPGGA,084613.60,3135.2985005,N,12046.7262436,E,4,18,1.2,2.6704,M,8.321,M,01,0004*61
$GPHPD,1957,31591.400,57.55,1.27,13.85,31.5883083,120.7787707,2.670,13634270.916,24927239.417,2.670,-0.762,-0.922,0.575,0.557,1.027,0.600,0.000,18,18,4*76
$GPGGA,084613.80,3135.2985739,N,12046.7263886,E,4,18,1.2,2.6549,M,8.321,M,00,0004*6B
$GPHPD,1957,31591.600,58.00,0.07,13.85,31.5883096,120.7787731,2.655,13634270.165,24927240.738,2.655,-0.754,-0.820,0.607,0.557,1.027,0.600,0.000,18,18,4*75
$GPGGA,084614.00,3135.2986508,N,12046.7265325,E,4,18,1.2,2.6520,M,8.321,M,01,0004*6D
$GPHPD,1957,31591.800,57.77,0.80,13.80,31.5883108,120.7787755,2.652,13634269.361,24927242.026,2.652,-0.754,-0.832,0.590,0.557,1.027,0.600,0.000,18,18,4*70
$GPGGA,084614.20,3135.2987251,N,12046.7266737,E,4,18,1.2,2.6736,M,8.321,M,01,0004*64
$GPHPD,1957,31592.000,57.91,0.14,13.78,31.5883121,120.7787779,2.674,13634268.590,24927243.297,2.674,-0.797,-1.037,0.550,0.557,1.027,0.600,0.000,18,18,4*73
$GPGGA,084614.40,3135.2988043,N,12046.7268199,E,4,18,1.2,2.6654,M,8.321,M,01,0004*65
$GPHPD,1957,31592.200,58.01,-0.65,13.76,31.5883134,120.7787803,2.665,13634267.758,24927244.599,2.665,-0.810,-0.767,0.657,0.557,1.027,0.600,0.000,18,18,4*54
$GPGGA,084614.60,3135.2988789,N,12046.7269642,E,4,18,1.2,2.6622,M,8.321,M,00,0004*66
$GPHPD,1957,31592.400,58.00,-0.44,13.74,31.5883146,120.7787827,2.662,13634266.988,24927245.906,2.662,-0.785,-0.981,0.574,0.557,1.027,0.600,0.000,18,18,4*5F
$GPGGA,084614.80,3135.2989531,N,12046.7271200,E,4,18,1.3,2.6444,M,8.321,M,00,0004*60
$GPHPD,1957,31592.600,58.08,-0.95,13.73,31.5883159,120.7787853,2.644,13634266.247,24927247.353,2.644,-0.827,-0.814,0.649,0.573,1.041,0.622,0.000,18,18,4*52
$GPGGA,084615.00,3135.2990325,N,12046.7272526,E,4,18,1.3,2.6719,M,8.321,M,01,0004*68
$GPHPD,1957,31592.800,57.76,-0.66,13.72,31.5883172,120.7787875,2.672,13634265.386,24927248.490,2.672,-0.797,-0.922,0.568,0.573,1.041,0.622,0.000,18,17,4*5D
$GPGGA,084615.20,3135.2991124,N,12046.7274038,E,4,17,1.3,2.6635,M,8.321,M,01,0004*64
$GPHPD,1957,31593.000,58.41,-3.15,13.71,31.5883185,120.7787901,2.664,13634264.554,24927249.849,2.664,-0.773,-0.941,0.609,0.557,1.027,0.600,0.000,17,17,4*52
$GPGGA,084615.40,3135.2991882,N,12046.7275480,E,4,17,1.3,2.6578,M,8.321,M,01,0004*6B
$GPHPD,1957,31593.200,57.75,0.03,13.69,31.5883198,120.7787925,2.658,13634263.767,24927251.147,2.658,-0.789,-0.964,0.599,0.591,1.089,0.623,0.000,17,16,4*7F
$GPGGA,084615.60,3135.2992637,N,12046.7276879,E,4,17,1.3,2.6663,M,8.321,M,01,0004*6A
$GPHPD,1957,31593.400,57.53,0.36,13.62,31.5883211,120.7787948,2.666,13634262.976,24927252.394,2.666,-0.791,-0.849,0.630,0.573,1.041,0.622,0.000,17,16,4*77
$GPGGA,084615.80,3135.2993386,N,12046.7278301,E,4,16,1.3,2.6738,M,8.321,M,00,0004*6F
$GPHPD,1957,31593.600,57.24,0.19,13.60,31.5883223,120.7787972,2.674,13634262.197,24927253.674,2.674,-0.802,-0.848,0.605,0.573,1.041,0.622,0.000,16,16,4*7C
$GPGGA,084616.00,3135.2994166,N,12046.7279693,E,4,16,1.3,2.6805,M,8.321,M,01,0004*60
$GPHPD,1957,31593.800,57.28,0.06,13.64,31.5883236,120.7787995,2.681,13634261.369,24927254.899,2.681,-0.804,-0.841,0.588,0.591,1.089,0.623,0.000,16,16,4*73
$GPGGA,084616.20,3135.2994949,N,12046.7281158,E,4,16,1.3,2.6766,M,8.321,M,01,0004*6A
$GPHPD,1957,31594.000,57.42,0.18,13.66,31.5883249,120.7788019,2.677,13634260.551,24927256.210,2.677,-0.777,-0.825,0.626,0.591,1.089,0.623,0.000,16,16,4*7C
$GPGGA,084616.40,3135.2995744,N,12046.7282577,E,4,16,1.3,2.6878,M,8.321,M,01,0004*64
$GPHPD,1957,31594.200,57.25,0.24,13.65,31.5883262,120.7788043,2.688,13634259.706,24927257.459,2.688,-0.797,-0.892,0.628,0.591,1.089,0.623,0.000,16,16,4*79
$GPGGA,084616.60,3135.2996526,N,12046.7284088,E,4,16,1.3,2.6802,M,8.321,M,00,0004*6C
$GPHPD,1957,31594.400,57.64,-0.43,13.64,31.5883275,120.7788068,2.680,13634258.899,24927258.826,2.680,-0.766,-0.935,0.637,0.630,1.089,0.624,0.000,16,16,4*58
$GPGGA,084616.80,3135.2997274,N,12046.7285521,E,4,16,1.3,2.6743,M,8.321,M,00,0004*6E
$GPHPD,1957,31594.600,57.35,-0.31,13.63,31.5883288,120.7788092,2.674,13634258.124,24927260.119,2.674,-0.793,-0.899,0.612,0.568,1.064,0.600,0.000,16,16,4*5B
$GPGGA,084617.00,3135.2998042,N,12046.7287001,E,4,16,1.3,2.6796,M,8.321,M,01,0004*63
$GPHPD,1957,31594.800,57.40,-0.41,13.62,31.5883301,120.7788117,2.680,13634257.331,24927261.457,2.680,-0.788,-0.901,0.604,0.568,1.064,0.600,0.000,16,16,4*57
$GPGGA,084617.20,3135.2998878,N,12046.7288396,E,4,16,1.3,2.6958,M,8.321,M,01,0004*6E
$GPHPD,1957,31595.000,57.13,-0.08,13.60,31.5883315,120.7788140,2.696,13634256.423,24927262.653,2.696,-0.813,-0.965,0.577,0.568,1.064,0.600,0.000,16,16,4*58
$GPGGA,084617.40,3135.2999616,N,12046.7289871,E,4,16,1.4,2.6899,M,8.321,M,01,0004*67
$GPHPD,1957,31595.200,57.49,-0.78,13.61,31.5883327,120.7788165,2.690,13634255.671,24927264.002,2.690,-0.763,-0.941,0.609,0.568,1.064,0.600,0.000,16,16,4*53
$GPGGA,084617.60,3135.3000385,N,12046.7291300,E,4,16,1.4,2.6863,M,8.321,M,01,0004*63
$GPHPD,1957,31595.400,58.01,-0.33,13.59,31.5883340,120.7788188,2.686,13634254.866,24927265.278,2.686,-0.832,-0.926,0.583,0.568,1.064,0.600,0.000,16,16,4*5C
$GPGGA,084617.80,3135.3001221,N,12046.7292829,E,4,16,1.4,2.6596,M,8.321,M,00,0004*66
$GPHPD,1957,31595.600,58.28,0.16,13.61,31.5883354,120.7788214,2.660,13634253.985,24927266.636,2.660,-0.766,-0.899,0.595,0.570,1.071,0.703,0.000,16,16,4*72
$GPGGA,084618.00,3135.3001926,N,12046.7294455,E,4,17,1.4,2.6062,M,8.321,M,01,0004*62
$GPHPD,1957,31595.800,57.97,0.38,13.61,31.5883365,120.7788241,2.606,13634253.310,24927268.187,2.606,-0.758,-0.991,0.626,0.568,1.064,0.600,0.000,17,16,4*7D
$GPGGA,084618.20,3135.3002743,N,12046.7295968,E,4,17,1.4,2.5817,M,8.321,M,01,0004*65
$GPHPD,1957,31596.000,59.12,-0.52,13.65,31.5883379,120.7788266,2.582,13634252.454,24927269.536,2.582,-0.766,-1.115,0.480,0.567,0.981,0.595,0.000,17,16,4*54
$GPGGA,084618.40,3135.3003510,N,12046.7297375,E,4,17,1.4,2.5780,M,8.321,M,01,0004*63
$GPHPD,1957,31596.200,58.06,0.10,13.64,31.5883392,120.7788290,2.578,13634251.647,24927270.787,2.578,-0.783,-1.153,0.529,0.567,0.981,0.595,0.000,17,16,4*7C
$GPGGA,084618.60,3135.3003916,N,12046.7298893,E,4,16,1.5,2.5853,M,8.321,M,00,0004*67
$GPHPD,1957,31596.400,58.43,-0.07,13.64,31.5883399,120.7788315,2.585,13634251.375,24927272.381,2.585,-0.785,-1.146,0.487,0.567,0.981,0.595,0.000,16,15,4*56
$GPGGA,084618.80,3135.3004904,N,12046.7300197,E,4,17,1.5,2.6139,M,8.321,M,00,0004*67
$GPHPD,1957,31596.600,57.42,0.32,13.64,31.5883415,120.7788337,2.614,13634250.233,24927273.379,2.614,-1.057,-0.503,0.377,0.581,1.020,0.604,0.000,17,16,4*71
$GPGGA,084619.00,3135.3005529,N,12046.7301686,E,4,17,1.5,2.6077,M,8.321,M,01,0004*60
$GPHPD,1957,31596.800,58.01,-0.25,13.61,31.5883425,120.7788361,2.608,13634249.645,24927274.811,2.608,-0.862,-0.808,0.557,0.581,1.020,0.604,0.000,17,14,4*59
$GPGGA,084619.20,3135.3006404,N,12046.7303071,E,4,17,1.5,2.6012,M,8.321,M,01,0004*60
$GPHPD,1957,31597.000,57.56,-0.18,13.61,31.5883440,120.7788385,2.601,13634248.680,24927275.972,2.601,-0.840,-0.846,0.569,0.601,1.032,0.604,0.000,17,14,4*58
$GPGGA,084619.40,3135.3007134,N,12046.7304485,E,4,18,1.5,2.6081,M,8.321,M,01,0004*6C
$GPHPD,1957,31597.200,57.75,0.26,13.62,31.5883452,120.7788408,2.608,13634247.927,24927277.253,2.608,-0.780,-0.953,0.577,0.581,1.020,0.604,0.000,18,14,4*70
$GPGGA,084619.60,3135.3007850,N,12046.7305947,E,4,17,1.5,2.6041,M,8.321,M,01,0004*64
$GPHPD,1957,31597.400,57.66,0.28,13.62,31.5883464,120.7788432,2.604,13634247.204,24927278.599,2.604,-0.791,-0.872,0.588,0.582,1.025,0.629,0.000,17,16,4*74
$GPGGA,084619.80,3135.3008576,N,12046.7307335,E,4,18,1.5,2.6060,M,8.321,M,00,0004*6C
$GPHPD,1957,31597.600,57.52,-0.23,13.61,31.5883476,120.7788456,2.606,13634246.451,24927279.851,2.606,-0.815,-0.919,0.547,0.587,1.048,0.767,0.000,18,16,4*5C
$GPGGA,084620.00,3135.3009265,N,12046.7308768,E,4,17,1.4,2.6028,M,8.321,M,01,0004*6A
$GPHPD,1957,31597.800,57.65,0.11,13.61,31.5883488,120.7788479,2.603,13634245.760,24927281.178,2.603,-0.781,-0.890,0.550,0.590,1.053,0.692,0.000,17,16,4*7D
$GPGGA,084620.20,3135.3010098,N,12046.7310141,E,4,16,1.4,2.6045,M,8.321,M,01,0004*6E
$GPHPD,1957,31598.000,57.83,-0.17,13.62,31.5883502,120.7788502,2.605,13634244.853,24927282.349,2.605,-0.789,-0.907,0.547,0.588,1.137,0.783,0.000,16,15,4*51
$GPGGA,084620.40,3135.3010872,N,12046.7311496,E,4,16,1.4,2.6225,M,8.321,M,01,0004*6E
$GPHPD,1957,31598.200,57.80,0.05,13.61,31.5883515,120.7788525,2.623,13634244.025,24927283.533,2.623,-0.765,-0.904,0.577,0.590,1.152,0.873,0.000,16,15,4*75
$GPGGA,084620.60,3135.3011587,N,12046.7312917,E,4,16,1.5,2.6196,M,8.321,M,00,0004*66
$GPHPD,1957,31598.400,57.75,0.05,13.60,31.5883526,120.7788549,2.620,13634243.295,24927284.831,2.620,-0.764,-0.863,0.587,0.587,1.048,0.767,0.000,16,15,4*7C
$GPGGA,084620.80,3135.3012376,N,12046.7314288,E,4,16,1.5,2.6319,M,8.321,M,00,0004*6D
$GPHPD,1957,31598.600,57.40,0.24,13.60,31.5883540,120.7788571,2.632,13634242.449,24927286.025,2.632,-0.738,-0.892,0.601,0.590,1.056,0.850,0.000,16,15,4*71
$GPGGA,084621.00,3135.3013017,N,12046.7315875,E,4,16,1.5,2.5976,M,8.321,M,01,0004*69
$GPHPD,1957,31598.800,57.27,0.58,13.61,31.5883550,120.7788598,2.598,13634241.858,24927287.566,2.598,-0.754,-0.813,0.655,0.606,1.061,0.955,0.000,16,15,4*70
$GPGGA,084621.20,3135.3013823,N,12046.7317291,E,4,15,1.5,2.5953,M,8.321,M,01,0004*62
$GPHPD,1957,31599.000,57.23,0.26,13.62,31.5883564,120.7788622,2.595,13634240.997,24927288.805,2.595,-0.802,-0.911,0.565,0.606,1.166,0.686,0.000,15,16,4*7E
$GPGGA,084621.40,3135.3014628,N,12046.7318686,E,4,16,1.5,2.6067,M,8.321,M,01,0004*65
$GPHPD,1957,31599.200,58.22,-0.27,13.60,31.5883577,120.7788645,2.607,13634240.134,24927290.019,2.607,-0.795,-0.912,0.585,0.603,1.135,0.635,0.000,16,15,4*55
$GPGGA,084621.60,3135.3015372,N,12046.7320100,E,4,16,1.4,2.6207,M,8.321,M,01,0004*6B
$GPHPD,1957,31599.400,57.07,0.60,13.60,31.5883590,120.7788668,2.621,13634239.361,24927291.291,2.621,-0.761,-0.920,0.583,0.603,1.135,0.635,0.000,16,15,4*70
$GPGGA,084621.80,3135.3016178,N,12046.7321530,E,4,16,1.4,2.6104,M,8.321,M,00,0004*69
$GPHPD,1957,31599.600,57.16,-0.19,13.59,31.5883603,120.7788692,2.610,13634238.503,24927292.547,2.610,-0.788,-0.843,0.624,0.603,1.135,0.635,0.000,16,15,4*56
$GPGGA,084622.00,3135.3016806,N,12046.7323042,E,4,16,1.4,2.6006,M,8.321,M,01,0004*62
$GPHPD,1957,31599.800,57.22,0.15,13.59,31.5883613,120.7788717,2.601,13634237.915,24927294.005,2.601,-0.785,-0.891,0.610,0.610,1.137,0.639,0.000,16,15,4*7B
$GPGGA,084622.20,3135.3017569,N,12046.7324428,E,4,16,1.4,2.5901,M,8.321,M,01,0004*67
$GPHPD,1957,31600.000,57.46,0.19,13.56,31.5883626,120.7788740,2.590,13634237.109,24927295.233,2.590,-0.788,-0.882,0.627,0.610,1.137,0.639,0.000,16,15,4*7D
$GPGGA,084622.40,3135.3018360,N,12046.7325882,E,4,16,1.4,2.6065,M,8.321,M,01,0004*64
$GPHPD,1957,31600.200,57.69,0.09,13.57,31.5883639,120.7788765,2.607,13634236.278,24927296.526,2.607,-0.709,-0.920,0.564,0.610,1.137,0.639,0.000,16,15,4*7B
$GPGGA,084622.60,3135.3019155,N,12046.7327283,E,4,16,1.4,2.5947,M,8.321,M,00,0004*61
$GPHPD,1957,31600.400,56.64,0.01,13.56,31.5883653,120.7788788,2.595,13634235.430,24927297.753,2.595,-0.783,-0.832,0.683,0.610,1.137,0.639,0.000,16,15,4*75
$GPGGA,084622.80,3135.3019911,N,12046.7328713,E,4,16,1.4,2.6005,M,8.321,M,00,0004*68
$GPHPD,1957,31600.600,57.97,-0.20,13.56,31.5883665,120.7788812,2.601,13634234.643,24927299.038,2.601,-0.722,-0.901,0.620,0.644,1.029,0.629,0.000,16,15,4*53
$GPGGA,084623.00,3135.3020699,N,12046.7330114,E,4,16,1.4,2.6047,M,8.321,M,01,0004*6B
$GPHPD,1957,31600.800,57.47,-0.14,13.54,31.5883678,120.7788835,2.605,13634233.805,24927300.269,2.605,-0.779,-0.903,0.610,0.604,1.024,0.625,0.000,16,15,4*5A
$GPGGA,084623.20,3135.3021466,N,12046.7331572,E,4,17,1.4,2.6065,M,8.321,M,01,0004*6E
$GPHPD,1957,31601.000,57.89,-0.38,13.55,31.5883691,120.7788860,2.607,13634233.008,24927301.581,2.607,-0.761,-0.893,0.615,0.610,1.137,0.639,0.000,17,15,4*52
$GPGGA,084623.40,3135.3022234,N,12046.7333020,E,4,17,1.4,2.5966,M,8.321,M,01,0004*63
$GPHPD,1957,31601.200,57.44,-0.05,13.53,31.5883704,120.7788884,2.597,13634232.208,24927302.880,2.597,-0.812,-0.872,0.604,0.610,1.137,0.639,0.000,17,15,4*56
$GPGGA,084623.60,3135.3022971,N,12046.7334457,E,4,17,1.4,2.5994,M,8.321,M,01,0004*65
$GPHPD,1957,31601.400,57.66,0.07,13.53,31.5883716,120.7788908,2.599,13634231.450,24927304.185,2.599,-0.793,-0.946,0.579,0.610,1.137,0.639,0.000,17,15,4*72
$GPGGA,084623.80,3135.3023736,N,12046.7335910,E,4,17,1.4,2.5937,M,8.321,M,00,0004*60
$GPHPD,1957,31601.600,57.68,-0.35,13.51,31.5883729,120.7788932,2.594,13634230.655,24927305.492,2.594,-0.802,-0.883,0.591,0.582,1.110,0.610,0.000,17,16,4*5D
$GPGGA,084624.00,3135.3024511,N,12046.7337345,E,4,17,1.4,2.5938,M,8.321,M,01,0004*69
$GPHPD,1957,31601.800,56.98,-0.10,13.54,31.5883742,120.7788956,2.594,13634229.842,24927306.771,2.594,-0.790,-0.931,0.580,0.582,1.110,0.610,0.000,17,15,4*52
$GPGGA,084624.20,3135.3025293,N,12046.7338732,E,4,17,1.3,2.6023,M,8.321,M,01,0004*6B
$GPHPD,1957,31602.000,57.17,-0.23,13.53,31.5883755,120.7788979,2.602,13634229.010,24927307.989,2.602,-0.779,-0.910,0.595,0.602,1.120,0.610,0.000,17,15,4*5C
$GPGGA,084624.40,3135.3025991,N,12046.7340152,E,4,17,1.4,2.6083,M,8.321,M,01,0004*66
$GPHPD,1957,31602.200,57.49,-0.04,13.54,31.5883767,120.7789003,2.608,13634228.304,24927309.296,2.608,-0.795,-0.878,0.576,0.602,1.120,0.610,0.000,17,15,4*5F
$GPGGA,084624.60,3135.3026813,N,12046.7341606,E,4,18,1.3,2.5994,M,8.321,M,00,0004*6E
$GPHPD,1957,31602.400,57.16,-0.56,13.53,31.5883780,120.7789027,2.599,13634227.428,24927310.571,2.599,-0.802,-0.845,0.596,0.582,1.110,0.610,0.000,18,15,4*5A
$GPGGA,084624.80,3135.3027577,N,12046.7343021,E,4,18,1.4,2.6093,M,8.321,M,00,0004*65
$GPHPD,1957,31602.600,57.37,0.05,13.54,31.5883793,120.7789050,2.609,13634226.627,24927311.833,2.609,-0.774,-0.913,0.599,0.581,1.020,0.604,0.000,18,15,4*74
$GPGGA,084625.00,3135.3028387,N,12046.7344469,E,4,18,1.4,2.6034,M,8.321,M,01,0004*69
$GPHPD,1957,31602.800,56.94,0.51,13.53,31.5883806,120.7789074,2.603,13634225.767,24927313.108,2.603,-0.791,-0.869,0.620,0.581,1.020,0.604,0.000,18,15,4*72
$GPGGA,084625.20,3135.3029125,N,12046.7345905,E,4,18,1.4,2.6068,M,8.321,M,01,0004*6F
$GPHPD,1957,31603.000,57.41,0.01,13.53,31.5883819,120.7789098,2.607,13634225.007,24927314.410,2.607,-0.780,-0.889,0.626,0.581,1.020,0.604,0.000,18,15,4*79
$GPGGA,084625.40,3135.3029904,N,12046.7347356,E,4,18,1.4,2.6056,M,8.321,M,01,0004*61
$GPHPD,1957,31603.200,57.68,-0.23,13.53,31.5883832,120.7789123,2.606,13634224.192,24927315.707,2.606,-0.797,-0.874,0.612,0.581,1.020,0.604,0.000,18,15,4*5E
$GPGGA,084625.60,3135.3030681,N,12046.7348808,E,4,18,1.4,2.5978,M,8.321,M,01,0004*60
$GPHPD,1957,31603.400,56.84,-0.04,13.53,31.5883845,120.7789147,2.598,13634223.380,24927317.006,2.598,-0.786,-0.837,0.629,0.597,1.024,0.619,0.000,18,16,4*5D
$GPGGA,084625.80,3135.3031463,N,12046.7350244,E,4,18,1.4,2.5936,M,8.321,M,00,0004*61
$GPHPD,1957,31603.600,57.31,-0.12,13.52,31.5883858,120.7789171,2.594,13634222.557,24927318.283,2.594,-0.782,-0.959,0.589,0.597,1.024,0.619,0.000,18,16,4*56
$GPGGA,084626.00,3135.3032175,N,12046.7351624,E,4,18,1.3,2.6124,M,8.321,M,01,0004*66
$GPHPD,1957,31603.800,56.82,0.93,13.52,31.5883870,120.7789194,2.612,13634221.823,24927319.533,2.612,-0.757,-0.973,0.583,0.569,1.074,0.629,0.000,18,16,4*79
$GPGGA,084626.20,3135.3032949,N,12046.7353094,E,4,18,1.3,2.6055,M,8.321,M,01,0004*6B
$GPHPD,1957,31604.000,57.51,-0.05,13.50,31.5883882,120.7789218,2.606,13634221.019,24927320.855,2.606,-0.794,-0.890,0.596,0.574,1.005,0.640,0.000,18,16,4*57
$GPGGA,084626.40,3135.3033697,N,12046.7354503,E,4,18,1.3,2.6051,M,8.321,M,01,0004*68
$GPHPD,1957,31604.200,58.14,-0.47,13.49,31.5883895,120.7789242,2.605,13634220.239,24927322.119,2.605,-0.791,-0.903,0.596,0.591,1.088,0.623,0.000,18,16,4*5B
$GPGGA,084626.60,3135.3034477,N,12046.7355932,E,4,17,1.3,2.6025,M,8.321,M,00,0004*63
$GPHPD,1957,31604.400,56.94,0.03,13.49,31.5883908,120.7789266,2.603,13634219.418,24927323.389,2.603,-0.752,-0.912,0.605,0.566,0.981,0.594,0.000,17,16,4*7F
$GPGGA,084626.80,3135.3035245,N,12046.7357347,E,4,17,1.3,2.6049,M,8.321,M,00,0004*6B
$GPHPD,1957,31604.600,56.85,0.31,13.48,31.5883921,120.7789289,2.605,13634218.612,24927324.648,2.605,-0.770,-0.904,0.620,0.591,1.088,0.623,0.000,17,14,4*75
$GPGGA,084627.00,3135.3036004,N,12046.7358713,E,4,17,1.3,2.6229,M,8.321,M,01,0004*69
$GPHPD,1957,31604.800,57.29,0.55,13.49,31.5883933,120.7789312,2.623,13634217.808,24927325.854,2.623,-0.757,-0.923,0.604,0.568,1.064,0.600,0.000,17,14,4*74
$GPGGA,084627.20,3135.3036748,N,12046.7360140,E,4,17,1.3,2.6149,M,8.321,M,01,0004*6A
$GPHPD,1957,31605.000,57.99,-1.11,13.50,31.5883946,120.7789336,2.615,13634217.037,24927327.142,2.615,-0.787,-0.840,0.635,0.568,1.064,0.600,0.000,17,14,4*55
$GPGGA,084627.40,3135.3037529,N,12046.7361626,E,4,17,1.3,2.6053,M,8.321,M,01,0004*64
$GPHPD,1957,31605.200,58.21,-0.46,13.52,31.5883959,120.7789360,2.605,13634216.226,24927328.480,2.605,-0.762,-0.906,0.577,0.568,1.064,0.600,0.000,17,14,4*5D
$GPGGA,084627.60,3135.3038283,N,12046.7363054,E,4,17,1.3,2.6109,M,8.321,M,01,0004*61
$GPHPD,1957,31605.400,57.85,-0.14,13.51,31.5883971,120.7789384,2.611,13634215.442,24927329.764,2.611,-0.852,-0.970,0.519,0.600,1.064,0.603,0.000,17,15,4*5B
$GPGGA,084627.80,3135.3039069,N,12046.7364451,E,4,18,1.3,2.6122,M,8.321,M,00,0004*69
$GPHPD,1957,31605.600,58.97,-0.64,13.51,31.5883984,120.7789408,2.612,13634214.606,24927330.991,2.612,-0.774,-0.930,0.557,0.597,0.982,0.598,0.000,18,15,4*52
$GPGGA,084628.00,3135.3039760,N,12046.7365893,E,4,18,1.3,2.6090,M,8.321,M,01,0004*6A
$GPHPD,1957,31605.800,58.18,-0.20,13.50,31.5883996,120.7789432,2.609,13634213.914,24927332.328,2.609,-0.761,-0.836,0.642,0.597,0.982,0.598,0.000,18,15,4*55
$GPGGA,084628.20,3135.3040529,N,12046.7367332,E,4,18,1.3,2.6016,M,8.321,M,01,0004*65
$GPHPD,1957,31606.000,58.26,-1.08,13.47,31.5884009,120.7789456,2.602,13634213.111,24927333.616,2.602,-0.784,-0.852,0.614,0.597,0.982,0.598,0.000,18,16,4*59
$GPGGA,084628.40,3135.3041292,N,12046.7368794,E,4,17,1.3,2.6011,M,8.321,M,01,0004*6A
$GPHPD,1957,31606.200,58.05,0.14,13.47,31.5884022,120.7789480,2.601,13634212.321,24927334.935,2.601,-0.748,-0.898,0.604,0.600,1.064,0.603,0.000,17,16,4*74
$GPGGA,084628.60,3135.3042063,N,12046.7370217,E,4,17,1.3,2.6176,M,8.321,M,00,0004*61
$GPHPD,1957,31606.400,57.96,-0.57,13.48,31.5884034,120.7789504,2.618,13634211.511,24927336.203,2.618,-0.759,-0.888,0.590,0.600,1.064,0.603,0.000,17,15,4*5E
$GPGGA,084628.80,3135.3042814,N,12046.7371758,E,4,17,1.3,2.5951,M,8.321,M,00,0004*66
$GPHPD,1957,31606.600,58.38,-0.86,13.50,31.5884047,120.7789529,2.595,13634210.754,24927337.624,2.595,-0.799,-0.852,0.631,0.600,1.064,0.603,0.000,17,15,4*58
$GPGGA,084629.00,3135.3043567,N,12046.7373157,E,4,17,1.3,2.6055,M,8.321,M,01,0004*63
$GPHPD,1957,31606.800,58.14,-0.02,13.50,31.5884059,120.7789553,2.606,13634209.965,24927338.873,2.606,-0.802,-0.994,0.564,0.600,1.064,0.603,0.000,17,16,4*57
$GPGGA,084629.20,3135.3044330,N,12046.7374614,E,4,17,1.3,2.5991,M,8.321,M,01,0004*67
$GPHPD,1957,31607.000,56.76,1.08,13.47,31.5884072,120.7789577,2.599,13634209.174,24927340.187,2.599,-0.808,-0.893,0.591,0.600,1.064,0.603,0.000,17,16,4*78
$GPGGA,084629.40,3135.3045103,N,12046.7376026,E,4,17,1.3,2.6025,M,8.321,M,01,0004*62
$GPHPD,1957,31607.200,57.33,1.05,13.47,31.5884085,120.7789600,2.603,13634208.360,24927341.440,2.603,-0.791,-0.905,0.566,0.600,1.064,0.603,0.000,17,16,4*7C
$GPGGA,084629.60,3135.3045871,N,12046.7377489,E,4,17,1.3,2.6013,M,8.321,M,01,0004*69
$GPHPD,1957,31607.400,57.46,0.43,13.46,31.5884098,120.7789625,2.601,13634207.562,24927342.757,2.601,-0.776,-0.951,0.580,0.600,1.064,0.603,0.000,17,16,4*7C
$GPGGA,084629.80,3135.3046651,N,12046.7378871,E,4,17,1.3,2.6108,M,8.321,M,00,0004*66
$GPHPD,1957,31607.600,57.40,0.34,13.47,31.5884111,120.7789648,2.611,13634206.732,24927343.970,2.611,-0.770,-0.987,0.569,0.568,1.063,0.600,0.000,17,17,4*7C
$GPGGA,084630.00,3135.3047472,N,12046.7380328,E,4,17,1.3,2.6030,M,8.321,M,01,0004*6F
$GPHPD,1957,31607.800,57.04,0.09,13.48,31.5884125,120.7789672,2.603,13634205.858,24927345.250,2.603,-0.784,-0.868,0.627,0.568,1.063,0.600,0.000,17,17,4*70
$GPGGA,084630.20,3135.3048258,N,12046.7381739,E,4,17,1.3,2.6022,M,8.321,M,01,0004*6A
$GPHPD,1957,31608.000,57.41,-0.05,13.49,31.5884138,120.7789696,2.602,13634205.025,24927346.494,2.602,-0.736,-0.985,0.631,0.575,1.092,0.647,0.000,17,16,4*53
$GPGGA,084630.40,3135.3048989,N,12046.7383150,E,4,17,1.3,2.6159,M,8.321,M,01,0004*6D
$GPHPD,1957,31608.200,57.72,0.79,13.51,31.5884150,120.7789719,2.616,13634204.270,24927347.770,2.616,-0.723,-0.879,0.648,0.587,1.094,0.648,0.000,17,17,4*70
$GPGGA,084630.60,3135.3049692,N,12046.7384649,E,4,17,1.3,2.6017,M,8.321,M,00,0004*69
$GPHPD,1957,31608.400,57.33,0.68,13.50,31.5884162,120.7789744,2.602,13634203.573,24927349.169,2.602,-0.826,-0.792,0.638,0.587,1.094,0.648,0.000,17,17,4*7F
$GPGGA,084630.80,3135.3050469,N,12046.7386072,E,4,17,1.3,2.6068,M,8.321,M,00,0004*6D
$GPHPD,1957,31608.600,56.58,1.09,13.49,31.5884174,120.7789768,2.607,13634202.755,24927350.433,2.607,-0.814,-0.920,0.541,0.575,1.092,0.647,0.000,17,17,4*7C
$GPGGA,084631.00,3135.3051200,N,12046.7387484,E,4,17,1.3,2.6154,M,8.321,M,01,0004*6F
$GPHPD,1957,31608.800,57.71,0.82,13.48,31.5884187,120.7789791,2.615,13634202.000,24927351.711,2.615,-0.807,-0.853,0.608,0.578,1.115,0.699,0.000,17,17,4*7D
$GPGGA,084631.20,3135.3051926,N,12046.7388981,E,4,17,1.4,2.6034,M,8.321,M,01,0004*65
$GPHPD,1957,31609.000,57.84,0.10,13.49,31.5884199,120.7789816,2.603,13634201.269,24927353.094,2.603,-0.805,-0.829,0.627,0.596,1.154,0.739,0.000,17,17,4*71
$GPGGA,084631.40,3135.3052677,N,12046.7390376,E,4,17,1.4,2.6230,M,8.321,M,01,0004*66
$GPHPD,1957,31609.200,57.12,-0.41,13.48,31.5884211,120.7789840,2.623,13634200.483,24927354.339,2.623,-0.798,-0.910,0.582,0.596,1.154,0.739,0.000,17,17,4*58
$GPGGA,084631.60,3135.3053450,N,12046.7391785,E,4,17,1.4,2.6211,M,8.321,M,01,0004*68
$GPHPD,1957,31609.400,57.80,-0.98,13.47,31.5884224,120.7789863,2.621,13634199.668,24927355.589,2.621,-0.830,-0.805,0.639,0.591,1.102,0.657,0.000,17,17,4*57
$GPGGA,084631.80,3135.3054225,N,12046.7393231,E,4,17,1.4,2.6161,M,8.321,M,00,0004*68
$GPHPD,1957,31609.600,57.68,-0.87,13.48,31.5884237,120.7789887,2.616,13634198.857,24927356.881,2.616,-0.778,-0.874,0.597,0.569,1.074,0.628,0.000,17,17,4*52
$GPGGA,084632.00,3135.3054972,N,12046.7394709,E,4,17,1.4,2.6112,M,8.321,M,01,0004*66
$GPHPD,1957,31609.800,58.49,-1.14,13.46,31.5884250,120.7789912,2.611,13634198.093,24927358.229,2.611,-0.776,-0.939,0.581,0.569,1.074,0.628,0.000,17,17,4*5E
$GPGGA,084632.20,3135.3055726,N,12046.7396178,E,4,17,1.4,2.6036,M,8.321,M,01,0004*6F
$GPHPD,1957,31610.000,58.06,-0.79,13.47,31.5884262,120.7789936,2.604,13634197.317,24927359.562,2.604,-0.756,-0.949,0.597,0.568,1.063,0.600,0.000,17,17,4*5F
$GPGGA,084632.40,3135.3056551,N,12046.7397562,E,4,17,1.3,2.6128,M,8.321,M,01,0004*6F
$GPHPD,1957,31610.200,56.87,0.38,13.48,31.5884276,120.7789959,2.613,13634196.423,24927360.751,2.613,-0.795,-0.964,0.573,0.568,1.063,0.600,0.000,17,16,4*73
$GPGGA,084632.60,3135.3057311,N,12046.7399030,E,4,17,1.3,2.5968,M,8.321,M,00,0004*6C
$GPHPD,1957,31610.400,57.72,-0.84,13.47,31.5884289,120.7789984,2.597,13634195.638,24927362.080,2.597,-0.815,-0.920,0.601,0.568,1.063,0.600,0.000,17,16,4*58
$GPGGA,084632.80,3135.3058093,N,12046.7400470,E,4,17,1.3,2.6006,M,8.321,M,00,0004*61
$GPHPD,1957,31610.600,57.48,0.31,13.47,31.5884302,120.7790008,2.601,13634194.816,24927363.361,2.601,-0.743,-0.994,0.557,0.568,1.063,0.600,0.000,17,16,4*7A
$GPGGA,084633.00,3135.3058851,N,12046.7401892,E,4,17,1.3,2.5950,M,8.321,M,01,0004*67
$GPHPD,1957,31610.800,57.80,-0.12,13.46,31.5884314,120.7790032,2.595,13634194.025,24927364.635,2.595,-0.778,-0.938,0.588,0.568,1.063,0.600,0.000,17,16,4*54
$GPGGA,084633.20,3135.3059598,N,12046.7403335,E,4,17,1.3,2.6099,M,8.321,M,01,0004*67
$GPHPD,1957,31611.000,57.24,0.45,13.46,31.5884327,120.7790056,2.610,13634193.254,24927365.941,2.610,-0.747,-1.007,0.577,0.568,1.063,0.600,0.000,17,16,4*78
$GPGGA,084633.40,3135.3060354,N,12046.7404790,E,4,17,1.3,2.5965,M,8.321,M,01,0004*68
$GPHPD,1957,31611.200,56.21,-0.31,13.46,31.5884339,120.7790080,2.597,13634192.472,24927367.256,2.597,-0.804,-0.855,0.605,0.577,1.063,0.607,0.000,17,16,4*51
$GPGGA,084633.60,3135.3061126,N,12046.7406210,E,4,17,1.3,2.6034,M,8.321,M,01,0004*6D
$GPHPD,1957,31611.400,56.47,0.16,13.46,31.5884352,120.7790104,2.603,13634191.661,24927368.519,2.603,-0.782,-0.938,0.571,0.568,1.063,0.600,0.000,17,16,4*7D
$GPGGA,084633.80,3135.3061923,N,12046.7407665,E,4,17,1.3,2.6079,M,8.321,M,00,0004*61
$GPHPD,1957,31611.600,57.35,-0.49,13.43,31.5884365,120.7790128,2.608,13634190.821,24927369.810,2.608,-0.794,-0.952,0.590,0.568,1.063,0.600,0.000,17,16,4*59
$GPGGA,084634.00,3135.3062663,N,12046.7409093,E,4,17,1.3,2.6059,M,8.321,M,01,0004*64
$GPHPD,1957,31611.800,58.33,-0.68,13.44,31.5884378,120.7790152,2.606,13634190.056,24927371.102,2.606,-0.790,-0.852,0.632,0.568,1.063,0.600,0.000,17,16,4*5E
$GPGGA,084634.20,3135.3063457,N,12046.7410591,E,4,17,1.3,2.5883,M,8.321,M,01,0004*61
$GPHPD,1957,31612.000,57.65,-0.64,13.43,31.5884391,120.7790177,2.588,13634189.229,24927372.446,2.588,-0.784,-0.923,0.616,0.568,1.063,0.600,0.000,17,16,4*52
$GPGGA,084634.40,3135.3064238,N,12046.7412027,E,4,17,1.3,2.5924,M,8.321,M,01,0004*69
$GPHPD,1957,31612.200,56.78,0.20,13.42,31.5884404,120.7790200,2.592,13634188.408,24927373.724,2.592,-0.772,-0.977,0.591,0.568,1.063,0.600,0.000,17,16,4*7F
$GPGGA,084634.60,3135.3064978,N,12046.7413441,E,4,17,1.3,2.5965,M,8.321,M,00,0004*65
$GPHPD,1957,31612.400,57.30,0.18,13.42,31.5884416,120.7790224,2.597,13634187.641,24927374.998,2.597,-0.784,-0.844,0.644,0.568,1.063,0.600,0.000,17,15,4*74
$GPGGA,084634.80,3135.3065739,N,12046.7414862,E,4,17,1.3,2.5981,M,8.321,M,00,0004*61
$GPHPD,1957,31612.600,57.37,0.31,13.43,31.5884429,120.7790248,2.598,13634186.845,24927376.269,2.598,-0.779,-0.823,0.624,0.577,1.063,0.607,0.000,17,15,4*7D
$GPGGA,084635.00,3135.3066527,N,12046.7416314,E,4,17,1.3,2.5815,M,8.321,M,01,0004*63
$GPHPD,1957,31612.800,56.55,0.92,13.42,31.5884442,120.7790272,2.582,13634186.018,24927377.562,2.582,-0.812,-0.892,0.605,0.600,1.087,0.629,0.000,17,15,4*79
$GPGGA,084635.20,3135.3067245,N,12046.7417676,E,4,17,1.3,2.6017,M,8.322,M,01,0004*69
$GPHPD,1957,31613.000,55.82,1.46,13.42,31.5884454,120.7790295,2.602,13634185.271,24927378.787,2.602,-0.774,-0.960,0.574,0.568,1.063,0.599,0.000,17,14,4*7F
$GPGGA,084635.40,3135.3068031,N,12046.7419135,E,4,17,1.3,2.5998,M,8.322,M,01,0004*62
$GPHPD,1957,31613.200,56.66,0.93,13.43,31.5884467,120.7790319,2.600,13634184.448,24927380.089,2.600,-0.794,-0.837,0.616,0.577,1.063,0.607,0.000,17,13,4*7D
$GPGGA,084635.60,3135.3068794,N,12046.7420504,E,4,17,1.3,2.6087,M,8.322,M,01,0004*60
$GPHPD,1957,31613.400,57.26,0.18,13.46,31.5884480,120.7790342,2.609,13634183.639,24927381.296,2.609,-0.794,-0.882,0.608,0.595,1.119,0.731,0.000,17,14,4*73
$GPGGA,084635.80,3135.3069580,N,12046.7421893,E,4,16,1.3,2.6154,M,8.322,M,00,0004*65
$GPHPD,1957,31613.600,57.45,-0.37,13.48,31.5884493,120.7790365,2.615,13634182.801,24927382.514,2.615,-0.776,-0.823,0.636,0.587,1.094,0.807,0.000,16,13,4*56
$GPGGA,084636.00,3135.3070343,N,12046.7423316,E,4,16,1.3,2.6142,M,8.322,M,01,0004*6D
$GPHPD,1957,31613.800,58.09,-0.89,13.47,31.5884506,120.7790389,2.614,13634182.003,24927383.786,2.614,-0.756,-0.886,0.604,0.577,1.063,0.607,0.000,16,13,4*5D
$GPGGA,084636.20,3135.3071096,N,12046.7424716,E,4,16,1.3,2.6191,M,8.322,M,01,0004*68
$GPHPD,1957,31614.000,58.61,-1.58,13.47,31.5884518,120.7790412,2.619,13634181.215,24927385.036,2.619,-0.773,-0.906,0.608,0.616,1.090,0.629,0.000,16,14,4*56
$GPGGA,084636.40,3135.3071871,N,12046.7426181,E,4,16,1.3,2.6059,M,8.322,M,01,0004*60
$GPHPD,1957,31614.200,58.34,-0.72,13.47,31.5884531,120.7790436,2.606,13634180.408,24927386.352,2.606,-0.765,-0.852,0.608,0.600,1.087,0.629,0.000,16,14,4*5F
$GPGGA,084636.60,3135.3072599,N,12046.7427614,E,4,16,1.3,2.5984,M,8.322,M,00,0004*6B
$GPHPD,1957,31614.400,57.82,-1.01,13.47,31.5884543,120.7790460,2.598,13634179.662,24927387.657,2.598,-0.777,-0.895,0.614,0.608,1.123,0.691,0.000,16,14,4*50
$GPGGA,084636.80,3135.3073346,N,12046.7429073,E,4,17,1.3,2.6082,M,8.322,M,00,0004*64
$GPHPD,1957,31614.600,57.99,-0.37,13.47,31.5884556,120.7790485,2.608,13634178.894,24927388.982,2.608,-0.771,-0.897,0.570,0.608,1.123,0.691,0.000,17,14,4*59
$GPGGA,084637.00,3135.3074119,N,12046.7430486,E,4,17,1.3,2.6063,M,8.322,M,01,0004*6A
$GPHPD,1957,31614.800,58.34,-1.50,13.47,31.5884569,120.7790508,2.606,13634178.079,24927390.236,2.606,-0.791,-0.896,0.605,0.568,1.063,0.599,0.000,17,14,4*54
$GPGGA,084637.20,3135.3074881,N,12046.7431879,E,4,17,1.3,2.6057,M,8.322,M,01,0004*6A
$GPHPD,1957,31615.000,57.23,-0.56,13.48,31.5884581,120.7790531,2.606,13634177.277,24927391.473,2.606,-0.778,-0.899,0.592,0.577,1.063,0.607,0.000,17,14,4*5A
$GPGGA,084637.40,3135.3075642,N,12046.7433275,E,4,16,1.4,2.6299,M,8.322,M,01,0004*6E
$GPHPD,1957,31615.200,57.60,-0.21,13.47,31.5884594,120.7790555,2.630,13634176.476,24927392.713,2.630,-0.737,-0.877,0.617,0.577,1.063,0.607,0.000,16,14,4*52
$GPGGA,084637.60,3135.3076430,N,12046.7434764,E,4,15,1.3,2.5955,M,8.322,M,01,0004*66
$GPHPD,1957,31615.400,56.01,0.01,13.46,31.5884607,120.7790579,2.596,13634175.656,24927394.051,2.596,-0.813,-0.812,0.646,0.637,1.087,0.629,0.000,15,13,4*74
$GPGGA,084637.80,3135.3077170,N,12046.7436212,E,4,15,1.3,2.6084,M,8.322,M,00,0004*69
$GPHPD,1957,31615.600,57.60,0.02,13.47,31.5884620,120.7790604,2.608,13634174.895,24927395.366,2.608,-0.770,-0.936,0.569,0.600,1.087,0.629,0.000,15,13,4*7F
$GPGGA,084638.00,3135.3077964,N,12046.7437590,E,4,15,1.3,2.6059,M,8.322,M,01,0004*6E
$GPHPD,1957,31615.800,57.06,-0.28,13.48,31.5884633,120.7790627,2.606,13634174.044,24927396.566,2.606,-0.805,-0.940,0.613,0.600,1.087,0.629,0.000,15,13,4*5B
$GPGGA,084638.20,3135.3078765,N,12046.7438973,E,4,15,1.3,2.6103,M,8.322,M,01,0004*6C
$GPHPD,1957,31616.000,57.65,-0.25,13.48,31.5884646,120.7790650,2.610,13634173.184,24927397.768,2.610,-0.760,-0.815,0.650,0.637,1.087,0.629,0.000,15,13,4*53
$GPGGA,084638.40,3135.3079492,N,12046.7440401,E,4,16,1.3,2.6101,M,8.322,M,01,0004*66
$GPHPD,1957,31616.200,57.82,-1.29,13.45,31.5884658,120.7790673,2.610,13634172.438,24927399.067,2.610,-0.748,-0.865,0.616,0.600,1.087,0.629,0.000,16,13,4*5B
$GPGGA,084638.60,3135.3080248,N,12046.7441805,E,4,16,1.4,2.6131,M,8.322,M,00,0004*6F
$GPHPD,1957,31616.400,57.62,-0.42,13.46,31.5884671,120.7790697,2.613,13634171.646,24927400.321,2.613,-0.783,-0.894,0.594,0.577,1.063,0.607,0.000,16,14,4*51
$GPGGA,084638.80,3135.3081003,N,12046.7443276,E,4,16,1.3,2.6148,M,8.322,M,00,0004*68
$GPHPD,1957,31616.600,57.73,-0.62,13.44,31.5884683,120.7790721,2.615,13634170.869,24927401.655,2.615,-0.783,-0.850,0.589,0.577,1.063,0.607,0.000,16,13,4*54
$GPGGA,084639.00,3135.3081763,N,12046.7444649,E,4,16,1.4,2.6171,M,8.322,M,01,0004*63
$GPHPD,1957,31616.800,57.66,-0.71,13.46,31.5884696,120.7790744,2.617,13634170.065,24927402.869,2.617,-0.806,-0.916,0.581,0.577,1.063,0.607,0.000,16,13,4*56
$GPGGA,084639.20,3135.3082558,N,12046.7446141,E,4,16,1.3,2.5994,M,8.322,M,01,0004*62
$GPHPD,1957,31617.000,57.84,-0.68,13.45,31.5884709,120.7790769,2.599,13634169.235,24927404.206,2.599,-0.768,-0.841,0.583,0.577,1.063,0.607,0.000,16,13,4*5C
$GPGGA,084639.40,3135.3083302,N,12046.7447562,E,4,16,1.3,2.6018,M,8.322,M,01,0004*66
$GPHPD,1957,31617.200,57.93,-0.13,13.48,31.5884722,120.7790793,2.602,13634168.464,24927405.487,2.602,-0.783,-0.946,0.588,0.577,1.070,0.716,0.000,16,13,4*53
$GPGGA,084639.60,3135.3084073,N,12046.7448983,E,4,17,1.3,2.6113,M,8.322,M,01,0004*61
$GPHPD,1957,31617.400,57.98,-0.24,13.47,31.5884735,120.7790816,2.611,13634167.654,24927406.752,2.611,-0.832,-0.879,0.574,0.590,1.075,0.717,0.000,17,14,4*57
$GPGGA,084639.80,3135.3084845,N,12046.7450385,E,4,17,1.3,2.6077,M,8.322,M,00,0004*65
$GPHPD,1957,31617.600,58.09,-0.42,13.48,31.5884747,120.7790840,2.608,13634166.839,24927407.993,2.608,-0.811,-0.894,0.603,0.589,1.067,0.607,0.000,17,15,4*56
$GPGGA,084640.00,3135.3085589,N,12046.7451867,E,4,17,1.3,2.5984,M,8.322,M,01,0004*6E
$GPHPD,1957,31617.800,58.18,-0.55,13.45,31.5884760,120.7790864,2.598,13634166.080,24927409.348,2.598,-0.767,-0.886,0.610,0.577,1.063,0.607,0.000,17,15,4*52
$GPGGA,084640.20,3135.3086337,N,12046.7453287,E,4,16,1.3,2.6084,M,8.322,M,01,0004*61
$GPHPD,1957,31618.000,58.13,-0.32,13.46,31.5884772,120.7790888,2.608,13634165.302,24927410.625,2.608,-0.803,-0.876,0.589,0.577,1.063,0.607,0.000,16,15,4*51
$GPGGA,084640.40,3135.3087080,N,12046.7454707,E,4,17,1.3,2.6150,M,8.322,M,01,0004*6A
$GPHPD,1957,31618.200,58.21,-0.35,13.44,31.5884785,120.7790912,2.615,13634164.532,24927411.905,2.615,-0.806,-0.865,0.596,0.587,1.094,0.807,0.000,17,15,4*54
$GPGGA,084640.60,3135.3087800,N,12046.7456122,E,4,17,1.3,2.6220,M,8.322,M,00,0004*6E
$GPHPD,1957,31618.400,58.31,-0.54,13.44,31.5884797,120.7790935,2.622,13634163.794,24927413.193,2.622,-0.807,-0.872,0.609,0.577,1.063,0.607,0.000,17,15,4*55
$GPGGA,084640.80,3135.3088537,N,12046.7457552,E,4,17,1.3,2.6195,M,8.322,M,00,0004*69
$GPHPD,1957,31618.600,58.16,-0.93,13.46,31.5884809,120.7790959,2.620,13634163.034,24927414.489,2.620,-0.796,-0.852,0.604,0.568,1.063,0.599,0.000,17,15,4*5F
$GPGGA,084641.00,3135.3089303,N,12046.7459007,E,4,17,1.3,2.6070,M,8.322,M,01,0004*60
$GPHPD,1957,31618.800,58.18,-0.32,13.46,31.5884822,120.7790983,2.607,13634162.238,24927415.798,2.607,-0.811,-0.836,0.603,0.575,1.092,0.647,0.000,17,14,4*51
$GPGGA,084641.20,3135.3090066,N,12046.7460442,E,4,16,1.3,2.6084,M,8.322,M,01,0004*6F
$GPHPD,1957,31619.000,58.12,0.08,13.46,31.5884834,120.7791007,2.608,13634161.442,24927417.084,2.608,-0.779,-0.900,0.578,0.587,1.092,0.663,0.000,16,15,4*74
$GPGGA,084641.40,3135.3090794,N,12046.7461917,E,4,16,1.3,2.5966,M,8.322,M,01,0004*69
$GPHPD,1957,31619.200,58.44,0.04,13.46,31.5884847,120.7791032,2.597,13634160.704,24927418.440,2.597,-0.789,-0.899,0.587,0.579,1.073,0.641,0.000,16,14,4*79
$GPGGA,084641.60,3135.3091543,N,12046.7463308,E,4,16,1.3,2.6071,M,8.322,M,01,0004*68
$GPHPD,1957,31619.400,58.13,-0.04,13.46,31.5884859,120.7791055,2.607,13634159.920,24927419.681,2.607,-0.790,-0.948,0.543,0.579,1.073,0.641,0.000,16,14,4*5F
$GPGGA,084641.80,3135.3092272,N,12046.7464701,E,4,16,1.3,2.6160,M,8.322,M,00,0004*6A
$GPHPD,1957,31619.600,57.82,0.78,13.46,31.5884871,120.7791078,2.616,13634159.164,24927420.937,2.616,-0.797,-0.878,0.593,0.577,1.063,0.607,0.000,16,14,4*7C
$GPGGA,084642.00,3135.3093023,N,12046.7466181,E,4,16,1.3,2.6223,M,8.322,M,01,0004*6F
$GPHPD,1957,31619.800,58.02,0.67,13.45,31.5884884,120.7791103,2.622,13634158.395,24927422.285,2.622,-0.798,-0.814,0.615,0.577,1.063,0.607,0.000,16,14,4*7A
$GPGGA,084642.20,3135.3093789,N,12046.7467614,E,4,16,1.3,2.6082,M,8.322,M,01,0004*69
$GPHPD,1957,31620.000,58.11,-0.13,13.46,31.5884896,120.7791127,2.608,13634157.594,24927423.568,2.608,-0.813,-0.873,0.603,0.579,1.073,0.641,0.000,16,14,4*58
$GPGGA,084642.40,3135.3094534,N,12046.7469058,E,4,16,1.3,2.5997,M,8.322,M,01,0004*62
$GPHPD,1957,31620.200,58.05,0.67,13.48,31.5884909,120.7791151,2.600,13634156.826,24927424.876,2.600,-0.776,-0.945,0.572,0.579,1.073,0.641,0.000,16,14,4*74
$GPGGA,084642.60,3135.3095307,N,12046.7470456,E,4,16,1.3,2.6159,M,8.322,M,00,0004*6D
$GPHPD,1957,31620.400,58.17,-0.11,13.49,31.5884922,120.7791174,2.616,13634156.009,24927426.112,2.616,-0.773,-0.935,0.566,0.577,1.063,0.607,0.000,16,14,4*54
$GPGGA,084642.80,3135.3096036,N,12046.7471842,E,4,16,1.3,2.6300,M,8.322,M,00,0004*67
$GPHPD,1957,31620.600,58.13,-0.24,13.47,31.5884934,120.7791197,2.630,13634155.251,24927427.359,2.630,-0.773,-0.880,0.610,0.577,1.063,0.607,0.000,16,14,4*5D
$GPGGA,084643.00,3135.3096760,N,12046.7473284,E,4,16,1.3,2.6164,M,8.322,M,01,0004*69
$GPHPD,1957,31620.800,58.18,-0.91,13.47,31.5884946,120.7791221,2.616,13634154.513,24927428.677,2.616,-0.769,-0.827,0.619,0.577,1.063,0.607,0.000,16,14,4*54
$GPGGA,084643.20,3135.3097511,N,12046.7474770,E,4,16,1.3,2.6108,M,8.322,M,01,0004*6D
$GPHPD,1957,31621.000,58.07,-0.04,13.50,31.5884959,120.7791246,2.611,13634153.744,24927430.032,2.611,-0.775,-0.913,0.560,0.577,1.063,0.607,0.000,16,14,4*59
$GPGGA,084643.40,3135.3098241,N,12046.7476136,E,4,16,1.3,2.6191,M,8.322,M,01,0004*60
$GPHPD,1957,31621.200,57.65,0.80,13.52,31.5884971,120.7791269,2.619,13634152.982,24927431.255,2.619,-0.806,-0.898,0.577,0.577,1.063,0.607,0.000,16,14,4*7C
$GPGGA,084643.60,3135.3098988,N,12046.7477644,E,4,16,1.3,2.5984,M,8.322,M,01,0004*60
$GPHPD,1957,31621.400,57.89,0.47,13.54,31.5884983,120.7791294,2.598,13634152.223,24927432.639,2.598,-0.768,-0.841,0.599,0.577,1.063,0.607,0.000,16,14,4*74
$GPGGA,084643.80,3135.3099754,N,12046.7479086,E,4,16,1.3,2.5916,M,8.322,M,00,0004*6C
$GPHPD,1957,31621.600,57.54,1.00,13.54,31.5884996,120.7791318,2.592,13634151.425,24927433.932,2.592,-0.798,-0.903,0.584,0.577,1.063,0.607,0.000,16,14,4*77
$GPGGA,084644.00,3135.3100526,N,12046.7480459,E,4,16,1.3,2.5850,M,8.322,M,01,0004*67
$GPHPD,1957,31621.800,57.89,0.07,13.57,31.5885009,120.7791341,2.585,13634150.604,24927435.139,2.585,-0.770,-0.939,0.595,0.577,1.063,0.607,0.000,16,14,4*74
$GPGGA,084644.20,3135.3101252,N,12046.7481873,E,4,16,1.3,2.6023,M,8.322,M,01,0004*6A
$GPHPD,1957,31622.000,57.91,1.16,13.58,31.5885021,120.7791365,2.602,13634149.857,24927436.422,2.602,-0.742,-0.932,0.596,0.577,1.063,0.607,0.000,16,14,4*71
$GPGGA,084644.40,3135.3102001,N,12046.7483309,E,4,16,1.3,2.6186,M,8.322,M,01,0004*61
$GPHPD,1957,31622.200,57.80,0.47,13.58,31.5885033,120.7791388,2.619,13634149.081,24927437.718,2.619,-0.779,-0.899,0.571,0.577,1.063,0.607,0.000,16,14,4*7F
$GPGGA,084644.60,3135.3102738,N,12046.7484742,E,4,16,1.3,2.6230,M,8.322,M,00,0004*6D
$GPHPD,1957,31622.400,58.00,-0.03,13.55,31.5885046,120.7791412,2.623,13634148.322,24927439.017,2.623,-0.782,-0.862,0.619,0.577,1.063,0.607,0.000,16,14,4*58
$GPGGA,084644.80,3135.3103548,N,12046.7486159,E,4,16,1.3,2.6102,M,8.322,M,00,0004*6B
$GPHPD,1957,31622.600,57.70,-0.20,13.58,31.5885059,120.7791436,2.610,13634147.456,24927440.255,2.610,-0.783,-0.887,0.608,0.577,1.063,0.607,0.000,16,14,4*5D
$GPGGA,084645.00,3135.3104279,N,12046.7487604,E,4,16,1.3,2.5891,M,8.322,M,01,0004*6F
$GPHPD,1957,31622.800,58.00,0.29,13.58,31.5885071,120.7791460,2.589,13634146.708,24927441.572,2.589,-0.789,-0.847,0.630,0.577,1.063,0.607,0.000,16,14,4*71
$GPGGA,084645.20,3135.3104988,N,12046.7489054,E,4,16,1.3,2.6235,M,8.322,M,01,0004*62
$GPHPD,1957,31623.000,57.89,0.71,13.54,31.5885083,120.7791484,2.624,13634145.992,24927442.908,2.624,-0.779,-0.944,0.562,0.577,1.063,0.607,0.000,16,14,4*75
$GPGGA,084645.40,3135.3105747,N,12046.7490503,E,4,16,1.3,2.6064,M,8.322,M,01,0004*61
$GPHPD,1957,31623.200,58.07,-0.29,13.53,31.5885096,120.7791508,2.606,13634145.205,24927444.214,2.606,-0.826,-0.821,0.608,0.577,1.063,0.607,0.000,16,14,4*55
$GPGGA,084645.60,3135.3106507,N,12046.7491900,E,4,16,1.3,2.6157,M,8.322,M,01,0004*69
$GPHPD,1957,31623.400,58.34,0.05,13.52,31.5885108,120.7791532,2.616,13634144.406,24927445.457,2.616,-0.777,-1.000,0.543,0.577,1.063,0.607,0.000,16,16,4*75
$GPGGA,084645.80,3135.3107257,N,12046.7493356,E,4,16,1.3,2.6193,M,8.322,M,00,0004*66
$GPHPD,1957,31623.600,57.85,0.41,13.52,31.5885121,120.7791556,2.619,13634143.633,24927446.776,2.619,-0.785,-0.839,0.627,0.577,1.063,0.607,0.000,16,16,4*74
$GPGGA,084646.00,3135.3108044,N,12046.7494755,E,4,16,1.3,2.6238,M,8.322,M,01,0004*61
$GPHPD,1957,31623.800,57.86,0.33,13.51,31.5885134,120.7791579,2.624,13634142.796,24927448.005,2.624,-0.804,-0.915,0.595,0.577,1.063,0.607,0.000,16,16,4*77
$GPGGA,084646.20,3135.3108803,N,12046.7496031,E,4,16,1.3,2.6588,M,8.322,M,01,0004*63
$GPHPD,1957,31624.000,58.40,-0.02,13.50,31.5885147,120.7791601,2.659,13634141.974,24927449.103,2.659,-0.796,-0.892,0.626,0.579,1.073,0.641,0.000,16,16,4*50
$GPGGA,084646.40,3135.3109530,N,12046.7497668,E,4,15,1.3,2.6118,M,8.322,M,01,0004*6C
$GPHPD,1957,31624.200,58.16,-0.26,13.52,31.5885159,120.7791628,2.612,13634141.270,24927450.654,2.612,-0.773,-0.723,0.665,0.577,1.062,0.607,0.000,15,16,4*55
$GPGGA,084646.60,3135.3110270,N,12046.7499080,E,4,15,1.3,2.6126,M,8.322,M,00,0004*67
$GPHPD,1957,31624.400,57.79,-0.21,13.51,31.5885171,120.7791651,2.613,13634140.502,24927451.926,2.613,-0.822,-0.928,0.555,0.600,1.086,0.628,0.000,15,15,4*54
$GPGGA,084646.80,3135.3111017,N,12046.7500566,E,4,15,1.4,2.5953,M,8.322,M,00,0004*69
$GPHPD,1957,31624.600,57.56,0.03,13.52,31.5885184,120.7791676,2.595,13634139.740,24927453.284,2.595,-0.778,-0.958,0.537,0.600,1.086,0.628,0.000,15,15,4*72
$GPGGA,084647.00,3135.3111824,N,12046.7502048,E,4,15,1.3,2.5995,M,8.322,M,01,0004*6F
$GPHPD,1957,31624.800,57.32,0.28,13.46,31.5885197,120.7791701,2.600,13634138.891,24927454.601,2.600,-0.791,-0.918,0.571,0.600,1.086,0.628,0.000,15,15,4*7C
$GPGGA,084647.20,3135.3112592,N,12046.7503457,E,4,15,1.4,2.6039,M,8.322,M,01,0004*6E
$GPHPD,1957,31625.000,57.23,0.58,13.44,31.5885210,120.7791724,2.604,13634138.083,24927455.854,2.604,-0.840,-0.918,0.631,0.608,1.122,0.691,0.000,15,15,4*7E
$GPGGA,084647.40,3135.3113380,N,12046.7504925,E,4,15,1.4,2.6148,M,8.322,M,01,0004*64
$GPHPD,1957,31625.200,57.77,-0.19,13.44,31.5885223,120.7791749,2.615,13634137.258,24927457.166,2.615,-0.780,-0.828,0.657,0.608,1.122,0.691,0.000,15,15,4*5E
$GPGGA,084647.60,3135.3114177,N,12046.7506364,E,4,15,1.4,2.6139,M,8.322,M,01,0004*60
$GPHPD,1957,31625.400,57.49,-0.40,13.42,31.5885236,120.7791773,2.614,13634136.415,24927458.438,2.614,-0.839,-0.878,0.648,0.587,1.092,0.663,0.000,15,15,4*58
$GPGGA,084647.80,3135.3114976,N,12046.7507807,E,4,15,1.4,2.6085,M,8.322,M,00,0004*6F
$GPHPD,1957,31625.600,57.61,-0.25,13.42,31.5885250,120.7791797,2.609,13634135.570,24927459.713,2.609,-0.782,-0.911,0.618,0.587,1.092,0.663,0.000,15,15,4*57
$GPGGA,084648.00,3135.3115735,N,12046.7509239,E,4,15,1.4,2.6132,M,8.322,M,01,0004*65
$GPHPD,1957,31625.800,57.64,0.26,13.42,31.5885262,120.7791821,2.613,13634134.779,24927460.998,2.613,-0.782,-0.915,0.625,0.587,1.092,0.663,0.000,15,15,4*76
$GPGGA,084648.20,3135.3116487,N,12046.7510628,E,4,16,1.4,2.6150,M,8.322,M,01,0004*65
$GPHPD,1957,31626.000,57.61,-0.25,13.41,31.5885275,120.7791844,2.615,13634133.990,24927462.236,2.615,-0.809,-0.929,0.610,0.587,1.092,0.663,0.000,16,15,4*55
$GPGGA,084648.40,3135.3117242,N,12046.7512107,E,4,16,1.4,2.6081,M,8.322,M,01,0004*68
$GPHPD,1957,31626.200,57.88,-0.45,13.41,31.5885287,120.7791868,2.608,13634133.214,24927463.580,2.608,-0.802,-0.905,0.585,0.577,1.062,0.607,0.000,16,16,4*52
$GPGGA,084648.60,3135.3118010,N,12046.7513509,E,4,16,1.4,2.6182,M,8.322,M,00,0004*68
$GPHPD,1957,31626.400,57.60,-0.07,13.43,31.5885300,120.7791892,2.618,13634132.405,24927464.824,2.618,-0.817,-0.951,0.555,0.577,1.062,0.607,0.000,16,16,4*56
$GPGGA,084648.80,3135.3118739,N,12046.7514937,E,4,16,1.4,2.6160,M,8.322,M,00,0004*60
$GPHPD,1957,31626.600,57.76,-0.68,13.45,31.5885312,120.7791916,2.616,13634131.656,24927466.122,2.616,-0.791,-0.849,0.606,0.607,1.062,0.609,0.000,16,16,4*5E
$GPGGA,084649.00,3135.3119521,N,12046.7516357,E,4,16,1.4,2.6155,M,8.322,M,01,0004*6A
$GPHPD,1957,31626.800,57.66,-0.56,13.48,31.5885325,120.7791939,2.616,13634130.831,24927467.380,2.616,-0.818,-0.858,0.582,0.607,1.062,0.609,0.000,16,16,4*5C
$GPGGA,084649.20,3135.3120319,N,12046.7517805,E,4,16,1.3,2.6056,M,8.322,M,01,0004*67
$GPHPD,1957,31627.000,57.87,-0.74,13.54,31.5885339,120.7791963,2.606,13634129.988,24927468.662,2.606,-0.765,-0.891,0.630,0.577,1.062,0.607,0.000,16,16,4*58
$GPGGA,084649.40,3135.3121092,N,12046.7519221,E,4,16,1.3,2.6133,M,8.322,M,01,0004*60
$GPHPD,1957,31627.200,57.76,-0.12,13.57,31.5885352,120.7791987,2.613,13634129.174,24927469.920,2.613,-0.767,-0.950,0.585,0.577,1.062,0.607,0.000,16,16,4*50
$GPGGA,084649.60,3135.3121841,N,12046.7520648,E,4,16,1.3,2.6220,M,8.322,M,01,0004*64
$GPHPD,1957,31627.400,57.96,-0.64,13.55,31.5885364,120.7792011,2.622,13634128.397,24927471.205,2.622,-0.776,-0.928,0.599,0.577,1.062,0.607,0.000,16,16,4*52
