$GPGGA,091823.60,3135.5799777,N,12046.6380325,E,4,16,1.5,2.8989,M,8.313,M,00,0004*6B
$GPHPD,1957,33521.400,141.16,1.19,14.32,31.5929996,120.7773005,2.899,13630092.334,24924537.172,2.899,-0.669,0.020,-0.590,0.683,1.257,0.755,0.000,16,15,4*41
$GPGGA,091823.80,3135.5799125,N,12046.6380912,E,4,16,1.5,2.9007,M,8.313,M,00,0004*64
$GPHPD,1957,33521.600,141.44,1.68,14.25,31.5929985,120.7773015,2.901,13630093.379,24924538.260,2.901,-0.591,0.014,-0.543,0.683,1.257,0.755,0.000,16,15,4*4D
$GPGGA,091824.00,3135.5798523,N,12046.6381426,E,4,16,1.5,2.9151,M,8.313,M,01,0004*60
$GPHPD,1957,33521.800,141.16,1.44,14.18,31.5929975,120.7773024,2.915,13630094.338,24924539.230,2.915,-0.558,0.003,-0.515,0.683,1.257,0.755,0.000,16,15,4*4F
$GPGGA,091824.20,3135.5797977,N,12046.6381978,E,4,16,1.5,2.9121,M,8.313,M,01,0004*61
$GPHPD,1957,33522.000,141.05,1.22,14.10,31.5929966,120.7773033,2.912,13630095.225,24924540.214,2.912,-0.529,0.076,-0.443,0.683,1.257,0.755,0.000,16,15,4*48
$GPGGA,091824.40,3135.5797463,N,12046.6382437,E,4,16,1.5,2.9172,M,8.313,M,01,0004*6C
$GPHPD,1957,33522.200,141.19,1.57,14.04,31.5929958,120.7773041,2.917,13630096.048,24924541.066,2.917,-0.487,0.015,-0.427,0.683,1.257,0.755,0.000,16,15,4*46
$GPGGA,091824.60,3135.5796954,N,12046.6382904,E,4,16,1.5,2.9173,M,8.313,M,00,0004*6B
$GPHPD,1957,33522.400,141.59,2.53,14.00,31.5929949,120.7773048,2.917,13630096.866,24924541.926,2.917,-0.462,0.031,-0.396,0.683,1.257,0.755,0.000,16,15,4*47
$GPGGA,091824.80,3135.5796472,N,12046.6383304,E,4,16,1.5,2.9321,M,8.313,M,00,0004*62
$GPHPD,1957,33522.600,141.59,2.32,13.97,31.5929941,120.7773055,2.932,13630097.631,24924542.689,2.932,-0.426,0.047,-0.393,0.683,1.257,0.755,0.000,16,15,4*4F
$GPGGA,091825.00,3135.5795997,N,12046.6383785,E,4,16,1.5,2.9180,M,8.313,M,01,0004*6B
$GPHPD,1957,33522.800,141.50,2.21,13.98,31.5929933,120.7773063,2.918,13630098.403,24924543.546,2.918,-0.430,0.098,-0.333,0.683,1.257,0.755,0.000,16,15,4*47
$GPGGA,091825.20,3135.5795500,N,12046.6384235,E,4,16,1.5,2.9270,M,8.313,M,01,0004*6E
$GPHPD,1957,33523.000,141.56,2.45,14.02,31.5929925,120.7773071,2.927,13630099.200,24924544.378,2.927,-0.414,-0.018,-0.401,0.724,1.699,0.792,0.000,16,15,4*66
$GPGGA,091825.40,3135.5794988,N,12046.6384688,E,4,16,1.5,2.9283,M,8.313,M,01,0004*6B
$GPHPD,1957,33523.200,141.22,1.69,14.06,31.5929916,120.7773078,2.928,13630100.019,24924545.222,2.928,-0.456,0.055,-0.364,0.683,1.257,0.755,0.000,16,15,4*44
$GPGGA,091825.60,3135.5794431,N,12046.6385242,E,4,16,1.9,2.9306,M,8.313,M,00,0004*64
$GPHPD,1957,33523.400,141.20,1.57,14.12,31.5929907,120.7773087,2.931,13630100.922,24924546.214,2.931,-0.437,0.001,-0.408,0.724,1.699,0.792,0.000,16,16,4*46
$GPGGA,091825.80,3135.5793838,N,12046.6385809,E,4,16,1.9,2.9276,M,8.313,M,00,0004*6B
$GPHPD,1957,33523.600,141.36,1.94,14.18,31.5929897,120.7773097,2.928,13630101.879,24924547.243,2.928,-0.532,0.039,-0.442,0.724,1.699,0.792,0.000,16,16,4*43
$GPGGA,091826.00,3135.5793163,N,12046.6386412,E,4,16,1.9,2.9361,M,8.313,M,01,0004*64
$GPHPD,1957,33523.800,141.37,2.06,14.25,31.5929886,120.7773107,2.936,13630102.960,24924548.363,2.936,-0.525,0.013,-0.460,0.724,1.699,0.792,0.000,16,16,4*4A
$GPGGA,091826.20,3135.5792469,N,12046.6387078,E,4,16,1.5,2.9305,M,8.313,M,01,0004*6F
$GPHPD,1957,33524.000,141.08,1.51,14.32,31.5929874,120.7773118,2.931,13630104.080,24924549.570,2.931,-0.601,0.070,-0.499,0.724,1.699,0.792,0.000,16,16,4*4F
$GPGGA,091826.40,3135.5791707,N,12046.6387788,E,4,16,1.5,2.9335,M,8.313,M,01,0004*6A
$GPHPD,1957,33524.200,141.04,1.86,14.39,31.5929862,120.7773130,2.934,13630105.306,24924550.870,2.934,-0.619,0.004,-0.554,0.683,1.257,0.755,0.000,16,16,4*4F
$GPGGA,091826.60,3135.5790909,N,12046.6388516,E,4,16,1.5,2.9396,M,8.313,M,00,0004*6B
$GPHPD,1957,33524.400,140.56,0.22,14.44,31.5929848,120.7773142,2.940,13630106.587,24924552.213,2.940,-0.676,0.023,-0.599,0.683,1.257,0.755,0.000,16,16,4*4B
$GPGGA,091826.80,3135.5790086,N,12046.6389298,E,4,16,1.5,2.9364,M,8.313,M,00,0004*66
$GPHPD,1957,33524.600,140.54,0.32,14.46,31.5929835,120.7773155,2.936,13630107.914,24924553.635,2.936,-0.717,0.079,-0.620,0.683,1.257,0.755,0.000,16,16,4*4A
$GPGGA,091827.00,3135.5789217,N,12046.6390087,E,4,16,1.5,2.9412,M,8.313,M,01,0004*6E
$GPHPD,1957,33524.800,140.75,0.41,14.48,31.5929820,120.7773168,2.941,13630109.308,24924555.092,2.941,-0.726,0.001,-0.664,0.683,1.257,0.755,0.000,16,16,4*4E
$GPGGA,091827.20,3135.5788369,N,12046.6390993,E,4,16,1.6,2.9142,M,8.313,M,01,0004*6A
$GPHPD,1957,33525.000,140.45,-0.04,14.48,31.5929806,120.7773183,2.914,13630110.695,24924556.679,2.914,-0.757,0.039,-0.670,0.683,1.257,0.755,0.000,16,16,4*68
$GPGGA,091827.40,3135.5787467,N,12046.6391826,E,4,16,1.6,2.9234,M,8.313,M,01,0004*66
$GPHPD,1957,33525.200,140.36,0.08,14.49,31.5929791,120.7773197,2.923,13630112.145,24924558.208,2.923,-0.753,-0.148,-0.759,0.695,1.278,0.776,0.000,16,16,4*61
$GPGGA,091827.60,3135.5786557,N,12046.6392709,E,4,16,1.6,2.9313,M,8.313,M,00,0004*63
$GPHPD,1957,33525.400,140.22,-0.82,14.49,31.5929776,120.7773212,2.931,13630113.616,24924559.803,2.931,-0.800,0.030,-0.709,0.695,1.278,0.776,0.000,16,16,4*65
$GPGGA,091827.80,3135.5785657,N,12046.6393655,E,4,16,1.6,2.9062,M,8.313,M,00,0004*61
$GPHPD,1957,33525.600,140.33,-0.68,14.48,31.5929761,120.7773228,2.906,13630115.085,24924561.467,2.906,-0.832,0.070,-0.681,0.695,1.278,0.776,0.000,16,16,4*66
$GPGGA,091828.00,3135.5784677,N,12046.6394556,E,4,16,1.6,2.9010,M,8.313,M,01,0004*66
$GPHPD,1957,33525.800,140.10,-1.11,14.47,31.5929745,120.7773243,2.901,13630116.659,24924563.125,2.901,-0.817,-0.025,-0.747,0.683,1.257,0.755,0.000,16,16,4*4D
$GPGGA,091828.20,3135.5783706,N,12046.6395431,E,4,16,1.6,2.9062,M,8.313,M,01,0004*60
$GPHPD,1957,33526.000,140.52,-0.34,14.47,31.5929728,120.7773257,2.906,13630118.216,24924564.745,2.906,-0.836,0.009,-0.765,0.683,1.257,0.755,0.000,16,16,4*6E
$GPGGA,091828.40,3135.5782726,N,12046.6396362,E,4,16,1.6,2.9113,M,8.313,M,01,0004*60
$GPHPD,1957,33526.200,140.75,0.47,14.48,31.5929712,120.7773273,2.911,13630119.796,24924566.438,2.911,-0.855,0.046,-0.762,0.683,1.257,0.755,0.000,16,16,4*4E
$GPGGA,091828.60,3135.5781722,N,12046.6397283,E,4,16,1.5,2.9149,M,8.313,M,00,0004*67
$GPHPD,1957,33526.400,141.46,2.32,14.49,31.5929695,120.7773288,2.915,13630121.408,24924568.133,2.915,-0.893,0.093,-0.769,0.683,1.257,0.755,0.000,16,16,4*44
$GPGGA,091828.80,3135.5780700,N,12046.6398263,E,4,16,1.5,2.9168,M,8.313,M,00,0004*6A
$GPHPD,1957,33526.600,141.30,1.86,14.47,31.5929678,120.7773304,2.917,13630123.058,24924569.910,2.917,-0.882,0.028,-0.819,0.683,1.257,0.755,0.000,16,16,4*40
$GPGGA,091829.00,3135.5779635,N,12046.6399186,E,4,16,1.5,2.9409,M,8.313,M,01,0004*68
$GPHPD,1957,33526.800,141.28,1.84,14.45,31.5929661,120.7773320,2.941,13630124.757,24924571.643,2.941,-0.902,0.022,-0.803,0.683,1.257,0.755,0.000,16,16,4*4E
$GPGGA,091829.20,3135.5778585,N,12046.6400155,E,4,16,1.5,2.9442,M,8.313,M,01,0004*65
$GPHPD,1957,33527.000,140.70,0.43,14.43,31.5929643,120.7773336,2.944,13630126.445,24924573.423,2.944,-0.941,0.137,-0.771,0.683,1.257,0.755,0.000,16,16,4*4C
$GPGGA,091829.40,3135.5777523,N,12046.6401176,E,4,16,1.5,2.9500,M,8.313,M,01,0004*67
$GPHPD,1957,33527.200,140.56,0.20,14.41,31.5929625,120.7773353,2.950,13630128.160,24924575.273,2.950,-0.932,0.044,-0.825,0.683,1.257,0.755,0.000,16,16,4*48
$GPGGA,091829.60,3135.5776440,N,12046.6402179,E,4,16,1.5,2.9549,M,8.313,M,00,0004*60
$GPHPD,1957,33527.400,140.57,-0.35,14.39,31.5929607,120.7773370,2.955,13630129.901,24924577.113,2.955,-0.962,0.036,-0.815,0.683,1.257,0.755,0.000,16,16,4*62
$GPGGA,091829.80,3135.5775394,N,12046.6403250,E,4,16,1.5,2.9277,M,8.313,M,00,0004*60
$GPHPD,1957,33527.600,140.43,-0.78,14.34,31.5929590,120.7773388,2.928,13630131.603,24924579.013,2.928,-0.979,0.105,-0.812,0.683,1.256,0.755,0.000,16,16,4*6D
$GPGGA,091830.00,3135.5774297,N,12046.6404284,E,4,16,1.5,2.9325,M,8.313,M,01,0004*6A
$GPHPD,1957,33527.800,140.77,-0.11,14.31,31.5929572,120.7773405,2.933,13630133.370,24924580.899,2.933,-0.919,-0.050,-0.866,0.683,1.256,0.755,0.000,16,16,4*46
$GPGGA,091830.20,3135.5773178,N,12046.6405319,E,4,16,1.5,2.9454,M,8.313,M,01,0004*68
$GPHPD,1957,33528.000,140.63,-0.47,14.28,31.5929553,120.7773422,2.945,13630135.169,24924582.798,2.945,-0.974,0.032,-0.858,0.683,1.256,0.755,0.000,16,16,4*66
$GPGGA,091830.40,3135.5772069,N,12046.6406352,E,4,16,1.5,2.9313,M,8.313,M,01,0004*66
$GPHPD,1957,33528.200,140.63,-0.71,14.24,31.5929534,120.7773439,2.931,13630136.953,24924584.689,2.931,-1.018,0.089,-0.818,0.683,1.256,0.755,0.000,16,16,4*65
$GPGGA,091830.60,3135.5770941,N,12046.6407364,E,4,16,1.5,2.9307,M,8.313,M,00,0004*65
$GPHPD,1957,33528.400,140.63,-0.80,14.21,31.5929516,120.7773456,2.931,13630138.760,24924586.567,2.931,-0.963,-0.033,-0.906,0.683,1.256,0.755,0.000,16,16,4*46
$GPGGA,091830.80,3135.5769841,N,12046.6408406,E,4,16,1.5,2.9253,M,8.313,M,00,0004*6E
$GPHPD,1957,33528.600,140.77,-0.25,14.18,31.5929497,120.7773473,2.925,13630140.533,24924588.463,2.925,-0.970,0.048,-0.888,0.683,1.256,0.755,0.000,16,16,4*6F
$GPGGA,091831.00,3135.5768724,N,12046.6409385,E,4,16,1.5,2.9458,M,8.313,M,01,0004*6B
$GPHPD,1957,33528.800,141.21,0.52,14.15,31.5929479,120.7773490,2.946,13630142.317,24924590.294,2.946,-0.977,0.041,-0.878,0.683,1.256,0.755,0.000,16,16,4*4A
$GPGGA,091831.20,3135.5767648,N,12046.6410383,E,4,16,1.5,2.9493,M,8.313,M,01,0004*64
$GPHPD,1957,33529.000,141.31,0.54,14.10,31.5929461,120.7773506,2.949,13630144.047,24924592.124,2.949,-0.984,0.103,-0.849,0.683,1.256,0.755,0.000,16,16,4*45
$GPGGA,091831.40,3135.5766562,N,12046.6411406,E,4,16,1.5,2.9438,M,8.313,M,01,0004*62
$GPHPD,1957,33529.200,141.33,0.25,14.07,31.5929443,120.7773523,2.944,13630145.797,24924593.990,2.944,-0.956,0.062,-0.840,0.683,1.256,0.755,0.000,16,16,4*4F
$GPGGA,091831.60,3135.5765466,N,12046.6412426,E,4,16,1.5,2.9422,M,8.313,M,00,0004*6D
$GPHPD,1957,33529.400,141.13,-0.34,14.08,31.5929424,120.7773540,2.942,13630147.560,24924595.858,2.942,-0.956,0.064,-0.863,0.683,1.256,0.755,0.000,16,16,4*61
$GPGGA,091831.80,3135.5764375,N,12046.6413402,E,4,16,1.5,2.9463,M,8.313,M,00,0004*65
$GPHPD,1957,33529.600,141.46,0.12,14.06,31.5929406,120.7773557,2.946,13630149.307,24924597.670,2.946,-0.969,0.074,-0.846,0.683,1.256,0.755,0.000,16,16,4*47
$GPGGA,091832.00,3135.5763262,N,12046.6414389,E,4,16,1.5,2.9409,M,8.313,M,01,0004*60
$GPHPD,1957,33529.800,141.57,0.42,14.04,31.5929388,120.7773573,2.941,13630151.087,24924599.509,2.941,-0.980,0.091,-0.846,0.683,1.256,0.755,0.000,16,16,4*44
$GPGGA,091832.20,3135.5762150,N,12046.6415400,E,4,16,1.5,2.9486,M,8.313,M,01,0004*61
$GPHPD,1957,33530.000,141.64,0.52,14.02,31.5929369,120.7773590,2.949,13630152.871,24924601.375,2.949,-0.957,0.053,-0.887,0.683,1.256,0.755,0.000,16,16,4*45
$GPGGA,091832.40,3135.5761038,N,12046.6416419,E,4,16,1.5,2.9418,M,8.313,M,01,0004*67
$GPHPD,1957,33530.200,141.74,-0.03,14.01,31.5929351,120.7773607,2.942,13630154.657,24924603.251,2.942,-0.973,0.065,-0.880,0.683,1.256,0.755,0.000,16,16,4*67
$GPGGA,091832.60,3135.5759922,N,12046.6417474,E,4,16,1.5,2.9390,M,8.313,M,00,0004*60
$GPHPD,1957,33530.400,141.74,-0.03,14.00,31.5929332,120.7773625,2.939,13630156.455,24924605.173,2.939,-0.951,0.016,-0.892,0.683,1.256,0.755,0.000,16,16,4*65
$GPGGA,091832.80,3135.5758764,N,12046.6418488,E,4,16,1.5,2.9479,M,8.313,M,00,0004*6F
$GPHPD,1957,33530.600,142.02,1.04,14.00,31.5929313,120.7773641,2.948,13630158.305,24924607.070,2.948,-0.965,0.005,-0.898,0.683,1.256,0.755,0.000,16,16,4*4C
$GPGGA,091833.00,3135.5757646,N,12046.6419500,E,4,16,1.5,2.9482,M,8.313,M,01,0004*6D
$GPHPD,1957,33530.800,141.97,0.37,13.98,31.5929294,120.7773658,2.948,13630160.098,24924608.941,2.948,-1.004,0.157,-0.858,0.742,1.309,0.818,0.000,16,16,4*40
$GPGGA,091833.20,3135.5756502,N,12046.6420476,E,4,16,1.5,2.9501,M,8.313,M,01,0004*6D
$GPHPD,1957,33531.000,141.87,-0.15,13.97,31.5929275,120.7773675,2.950,13630161.920,24924610.784,2.950,-0.982,0.066,-0.881,0.742,1.309,0.818,0.000,16,16,4*6E
$GPGGA,091833.40,3135.5755381,N,12046.6421477,E,4,16,1.5,2.9475,M,8.313,M,01,0004*67
$GPHPD,1957,33531.200,141.92,-0.14,13.97,31.5929256,120.7773691,2.948,13630163.715,24924612.644,2.948,-0.974,0.132,-0.882,0.683,1.256,0.755,0.000,16,16,4*6C
$GPGGA,091833.60,3135.5754230,N,12046.6422524,E,4,16,1.5,2.9549,M,8.313,M,00,0004*64
$GPHPD,1957,33531.400,142.00,-0.13,13.95,31.5929237,120.7773709,2.955,13630165.562,24924614.577,2.955,-0.961,0.073,-0.885,0.683,1.256,0.755,0.000,16,16,4*66
$GPGGA,091833.80,3135.5753092,N,12046.6423519,E,4,16,1.5,2.9711,M,8.313,M,00,0004*67
$GPHPD,1957,33531.600,141.79,-0.33,13.94,31.5929218,120.7773725,2.971,13630167.379,24924616.439,2.971,-0.996,0.082,-0.887,0.683,1.256,0.755,0.000,16,16,4*6A
$GPGGA,091834.00,3135.5751970,N,12046.6424609,E,4,16,1.5,2.9412,M,8.313,M,01,0004*6B
$GPHPD,1957,33531.800,141.92,-0.57,13.95,31.5929200,120.7773743,2.941,13630169.193,24924618.407,2.941,-1.002,0.148,-0.858,0.683,1.256,0.755,0.000,16,16,4*60
$GPGGA,091834.20,3135.5750817,N,12046.6425581,E,4,16,1.5,2.9523,M,8.313,M,01,0004*69
$GPHPD,1957,33532.000,142.19,0.34,13.96,31.5929180,120.7773760,2.952,13630171.028,24924620.250,2.952,-0.967,0.005,-0.931,0.724,1.699,0.793,0.000,16,16,4*41
$GPGGA,091834.40,3135.5749658,N,12046.6426641,E,4,16,1.5,2.9487,M,8.313,M,01,0004*61
$GPHPD,1957,33532.200,141.78,-0.49,13.97,31.5929161,120.7773777,2.949,13630172.888,24924622.203,2.949,-0.950,0.047,-0.896,0.724,1.699,0.793,0.000,16,16,4*63
$GPGGA,091834.60,3135.5748479,N,12046.6427650,E,4,16,1.5,2.9542,M,8.313,M,00,0004*6B
$GPHPD,1957,33532.400,141.62,-1.15,13.96,31.5929141,120.7773794,2.954,13630174.767,24924624.106,2.954,-0.979,0.014,-0.936,0.683,1.256,0.755,0.000,16,16,4*67
$GPGGA,091834.80,3135.5747345,N,12046.6428701,E,4,16,1.5,2.9550,M,8.313,M,00,0004*6B
$GPHPD,1957,33532.600,141.60,-0.57,13.95,31.5929122,120.7773812,2.955,13630176.590,24924626.034,2.955,-0.996,0.091,-0.917,0.683,1.256,0.755,0.000,16,16,4*62
$GPGGA,091835.00,3135.5746189,N,12046.6429728,E,4,16,1.5,2.9509,M,8.313,M,01,0004*66
$GPHPD,1957,33532.800,141.62,-0.77,13.91,31.5929103,120.7773829,2.951,13630178.440,24924627.946,2.951,-0.996,0.101,-0.913,0.683,1.256,0.755,0.000,16,16,4*60
$GPGGA,091835.20,3135.5745025,N,12046.6430760,E,4,16,1.5,2.9558,M,8.313,M,01,0004*60
$GPHPD,1957,33533.000,141.84,-0.36,13.87,31.5929084,120.7773846,2.956,13630180.302,24924629.868,2.956,-0.981,0.032,-0.927,0.683,1.256,0.755,0.000,16,16,4*61
$GPGGA,091835.40,3135.5743888,N,12046.6431773,E,4,16,1.5,2.9600,M,8.313,M,01,0004*62
$GPHPD,1957,33533.200,141.77,-0.47,13.86,31.5929065,120.7773863,2.960,13630182.122,24924631.751,2.960,-0.989,0.092,-0.895,0.683,1.256,0.755,0.000,16,16,4*64
$GPGGA,091835.60,3135.5742754,N,12046.6432826,E,4,16,1.5,2.9460,M,8.313,M,00,0004*66
$GPHPD,1957,33533.400,141.89,-0.60,13.87,31.5929046,120.7773880,2.946,13630183.945,24924633.681,2.946,-0.971,0.082,-0.899,0.683,1.256,0.756,0.000,16,16,4*64
$GPGGA,091835.80,3135.5741598,N,12046.6433860,E,4,16,1.5,2.9616,M,8.313,M,00,0004*69
$GPHPD,1957,33533.600,142.00,-0.13,13.86,31.5929027,120.7773898,2.962,13630185.796,24924635.601,2.962,-0.972,0.046,-0.901,0.683,1.256,0.756,0.000,16,16,4*6C
$GPGGA,091836.00,3135.5740481,N,12046.6434895,E,4,16,1.5,2.9351,M,8.313,M,01,0004*60
$GPHPD,1957,33533.800,141.90,-0.23,13.88,31.5929008,120.7773915,2.935,13630187.592,24924637.499,2.935,-1.005,0.060,-0.894,0.683,1.256,0.756,0.000,16,16,4*68
$GPGGA,091836.20,3135.5739309,N,12046.6435943,E,4,16,1.5,2.9419,M,8.313,M,01,0004*6B
$GPHPD,1957,33534.000,141.95,0.00,13.89,31.5928988,120.7773932,2.942,13630189.469,24924639.446,2.942,-0.938,-0.029,-0.948,0.683,1.256,0.756,0.000,16,16,4*6B
$GPGGA,091836.40,3135.5738157,N,12046.6436981,E,4,16,1.5,2.9368,M,8.313,M,01,0004*69
$GPHPD,1957,33534.200,142.30,0.24,13.90,31.5928969,120.7773950,2.937,13630191.315,24924641.368,2.937,-1.000,0.058,-0.911,0.683,1.256,0.756,0.000,16,16,4*45
$GPGGA,091836.60,3135.5737033,N,12046.6438032,E,4,16,1.5,2.9458,M,8.313,M,00,0004*6D
$GPHPD,1957,33534.400,142.15,0.57,13.90,31.5928951,120.7773967,2.946,13630193.124,24924643.290,2.946,-0.962,0.027,-0.916,0.683,1.256,0.756,0.000,16,16,4*4A
$GPGGA,091836.80,3135.5735840,N,12046.6439072,E,4,16,1.5,2.9535,M,8.313,M,00,0004*62
$GPHPD,1957,33534.600,141.93,-0.63,13.88,31.5928931,120.7773985,2.954,13630195.029,24924645.238,2.954,-1.002,0.077,-0.876,0.683,1.256,0.756,0.000,16,16,4*6E
$GPGGA,091837.00,3135.5734672,N,12046.6440111,E,4,16,1.5,2.9556,M,8.313,M,01,0004*6B
$GPHPD,1957,33534.800,142.10,0.01,13.90,31.5928911,120.7774002,2.956,13630196.898,24924647.171,2.956,-1.008,0.074,-0.894,0.742,1.309,0.818,0.000,16,16,4*41
$GPGGA,091837.20,3135.5733513,N,12046.6441163,E,4,16,1.5,2.9633,M,8.313,M,01,0004*6E
$GPHPD,1957,33535.000,142.10,0.24,13.89,31.5928892,120.7774019,2.963,13630198.757,24924649.115,2.963,-1.003,0.059,-0.919,0.683,1.256,0.756,0.000,16,16,4*4B
$GPGGA,091837.40,3135.5732379,N,12046.6442199,E,4,16,1.9,2.9440,M,8.313,M,01,0004*6F
$GPHPD,1957,33535.200,142.11,0.30,13.88,31.5928873,120.7774037,2.944,13630200.577,24924651.024,2.944,-1.002,0.067,-0.907,0.742,1.309,0.818,0.000,16,16,4*46
$GPGGA,091837.60,3135.5731216,N,12046.6443177,E,4,16,1.5,2.9563,M,8.313,M,00,0004*6A
$GPHPD,1957,33535.400,142.01,0.58,13.87,31.5928854,120.7774053,2.956,13630202.427,24924652.881,2.956,-0.965,-0.054,-0.944,0.724,1.699,0.793,0.000,16,16,4*66
$GPGGA,091837.80,3135.5730084,N,12046.6444226,E,4,16,1.9,2.9554,M,8.313,M,00,0004*64
$GPHPD,1957,33535.600,142.27,0.89,13.88,31.5928835,120.7774070,2.955,13630204.247,24924654.805,2.955,-0.968,0.036,-0.925,0.683,1.256,0.756,0.000,16,16,4*48
$GPGGA,091838.00,3135.5728923,N,12046.6445285,E,4,16,1.9,2.9471,M,8.313,M,01,0004*61
$GPHPD,1957,33535.800,142.32,0.59,13.87,31.5928815,120.7774088,2.947,13630206.111,24924656.758,2.947,-0.997,0.097,-0.865,0.683,1.256,0.756,0.000,16,16,4*4C
$GPGGA,091838.20,3135.5727779,N,12046.6446273,E,4,16,1.9,2.9583,M,8.313,M,01,0004*6B
$GPHPD,1957,33536.000,142.14,0.64,13.87,31.5928796,120.7774105,2.958,13630207.935,24924658.615,2.958,-0.975,0.060,-0.910,0.683,1.256,0.756,0.000,16,16,4*43
$GPGGA,091838.40,3135.5726617,N,12046.6447298,E,4,16,1.9,2.9603,M,8.313,M,01,0004*6A
$GPHPD,1957,33536.200,142.12,0.83,13.85,31.5928777,120.7774122,2.960,13630209.793,24924660.528,2.960,-0.979,0.093,-0.879,0.683,1.256,0.756,0.000,16,16,4*42
$GPGGA,091838.60,3135.5725501,N,12046.6448330,E,4,16,1.9,2.9654,M,8.313,M,00,0004*60
$GPHPD,1957,33536.400,142.04,0.76,13.85,31.5928758,120.7774139,2.965,13630211.587,24924662.422,2.965,-0.970,0.034,-0.908,0.683,1.256,0.756,0.000,16,16,4*4A
$GPGGA,091838.80,3135.5724311,N,12046.6449322,E,4,16,1.9,2.9911,M,8.313,M,00,0004*64
$GPHPD,1957,33536.600,141.98,-0.21,13.85,31.5928739,120.7774155,2.991,13630213.478,24924664.311,2.991,-0.975,0.067,-0.863,0.683,1.256,0.756,0.000,16,16,4*61
$GPGGA,091839.00,3135.5723209,N,12046.6450422,E,4,16,1.5,2.9583,M,8.313,M,01,0004*67
$GPHPD,1957,33536.800,141.58,-1.19,13.84,31.5928720,120.7774174,2.958,13630215.266,24924666.279,2.958,-1.021,0.183,-0.849,0.683,1.256,0.756,0.000,16,16,4*6B
$GPGGA,091839.20,3135.5722062,N,12046.6451426,E,4,16,1.5,2.9496,M,8.313,M,01,0004*6B
$GPHPD,1957,33537.000,141.68,-0.82,13.83,31.5928701,120.7774190,2.950,13630217.098,24924668.158,2.950,-0.982,0.017,-0.908,0.683,1.256,0.756,0.000,16,16,4*6A
$GPGGA,091839.40,3135.5720915,N,12046.6452472,E,4,16,1.5,2.9559,M,8.313,M,01,0004*66
$GPHPD,1957,33537.200,141.43,-1.33,13.83,31.5928682,120.7774208,2.956,13630218.939,24924670.087,2.956,-0.957,0.028,-0.916,0.683,1.256,0.756,0.000,16,16,4*6E
$GPGGA,091839.60,3135.5719773,N,12046.6453549,E,4,16,1.5,2.9515,M,8.313,M,00,0004*61
$GPHPD,1957,33537.400,141.05,-2.03,13.83,31.5928663,120.7774226,2.952,13630220.778,24924672.050,2.952,-0.978,0.094,-0.897,0.683,1.256,0.756,0.000,16,16,4*63
$GPGGA,091839.80,3135.5718599,N,12046.6454541,E,4,16,1.5,2.9656,M,8.313,M,00,0004*63
$GPHPD,1957,33537.600,141.09,-2.37,13.81,31.5928643,120.7774242,2.966,13630222.647,24924673.930,2.966,-1.000,0.046,-0.903,0.683,1.256,0.756,0.000,16,16,4*6D
$GPGGA,091840.00,3135.5717472,N,12046.6455589,E,4,16,1.5,2.9540,M,8.313,M,01,0004*6E
$GPHPD,1957,33537.800,141.63,-0.48,13.83,31.5928625,120.7774260,2.954,13630224.459,24924675.850,2.954,-1.008,0.152,-0.868,0.683,1.256,0.756,0.000,16,16,4*6D
$GPGGA,091840.20,3135.5716311,N,12046.6456636,E,4,16,1.5,2.9588,M,8.313,M,01,0004*6F
$GPHPD,1957,33538.000,141.90,-0.13,13.83,31.5928605,120.7774277,2.959,13630226.320,24924677.788,2.959,-0.963,-0.005,-0.919,0.683,1.256,0.756,0.000,16,16,4*43
$GPGGA,091840.40,3135.5715191,N,12046.6457666,E,4,16,1.5,2.9541,M,8.313,M,01,0004*61
$GPHPD,1957,33538.200,141.77,0.03,13.85,31.5928587,120.7774294,2.954,13630228.119,24924679.683,2.954,-1.000,0.041,-0.891,0.683,1.256,0.756,0.000,16,16,4*45
$GPGGA,091840.60,3135.5714037,N,12046.6458677,E,4,16,1.5,2.9612,M,8.313,M,00,0004*64
$GPHPD,1957,33538.400,142.01,0.31,13.84,31.5928567,120.7774311,2.961,13630229.963,24924681.574,2.961,-0.975,0.035,-0.893,0.683,1.256,0.756,0.000,16,16,4*40
$GPGGA,091840.80,3135.5712891,N,12046.6459747,E,4,16,1.5,2.9516,M,8.313,M,00,0004*6C
$GPHPD,1957,33538.600,142.09,0.61,13.82,31.5928548,120.7774329,2.952,13630231.807,24924683.531,2.952,-0.989,0.094,-0.886,0.683,1.256,0.756,0.000,16,16,4*4A
$GPGGA,091841.00,3135.5711754,N,12046.6460776,E,4,16,1.5,2.9635,M,8.313,M,01,0004*6B
$GPHPD,1957,33538.800,141.99,0.57,13.81,31.5928529,120.7774346,2.964,13630233.630,24924685.434,2.964,-0.976,0.043,-0.884,0.683,1.256,0.756,0.000,16,16,4*44
$GPGGA,091841.20,3135.5710603,N,12046.6461818,E,4,16,1.5,2.9535,M,8.313,M,01,0004*6E
$GPHPD,1957,33539.000,142.10,0.63,13.81,31.5928510,120.7774364,2.954,13630235.476,24924687.360,2.954,-1.014,0.090,-0.889,0.683,1.256,0.756,0.000,16,16,4*4F
$GPGGA,091841.40,3135.5709469,N,12046.6462823,E,4,16,1.5,2.9613,M,8.313,M,01,0004*62
$GPHPD,1957,33539.200,142.37,1.42,13.82,31.5928491,120.7774380,2.961,13630237.290,24924689.233,2.961,-0.992,0.073,-0.910,0.683,1.256,0.756,0.000,16,16,4*44
$GPGGA,091841.60,3135.5708305,N,12046.6463882,E,4,16,1.5,2.9588,M,8.313,M,00,0004*66
$GPHPD,1957,33539.400,142.26,0.85,13.84,31.5928472,120.7774398,2.959,13630239.157,24924691.187,2.959,-0.985,0.083,-0.879,0.683,1.256,0.756,0.000,16,16,4*4E
$GPGGA,091841.80,3135.5707143,N,12046.6464926,E,4,16,1.9,2.9563,M,8.313,M,00,0004*66
$GPHPD,1957,33539.600,142.32,0.78,13.84,31.5928452,120.7774415,2.956,13630241.019,24924693.123,2.956,-1.003,0.081,-0.906,0.742,1.309,0.819,0.000,16,16,4*4D
$GPGGA,091842.00,3135.5705995,N,12046.6465955,E,4,16,1.9,2.9505,M,8.313,M,01,0004*68
$GPHPD,1957,33539.800,141.89,-0.19,13.85,31.5928433,120.7774433,2.951,13630242.858,24924695.032,2.951,-1.002,0.014,-0.938,0.724,1.699,0.793,0.000,16,16,4*60
$GPGGA,091842.20,3135.5704834,N,12046.6466967,E,4,16,1.9,2.9620,M,8.313,M,01,0004*67
$GPHPD,1957,33540.000,142.08,0.53,13.85,31.5928414,120.7774449,2.962,13630244.711,24924696.928,2.962,-0.983,0.055,-0.928,0.683,1.256,0.756,0.000,16,16,4*45
$GPGGA,091842.40,3135.5703687,N,12046.6467945,E,4,16,1.9,2.9714,M,8.313,M,01,0004*67
$GPHPD,1957,33540.200,141.85,-0.60,13.86,31.5928395,120.7774466,2.971,13630246.538,24924698.775,2.971,-0.993,0.086,-0.906,0.683,1.256,0.756,0.000,16,16,4*6C
$GPGGA,091842.60,3135.5702540,N,12046.6469010,E,4,16,1.9,2.9709,M,8.313,M,00,0004*66
$GPHPD,1957,33540.400,141.43,-1.26,13.87,31.5928376,120.7774484,2.971,13630248.383,24924700.727,2.971,-0.979,0.047,-0.908,0.683,1.256,0.756,0.000,16,16,4*6B
$GPGGA,091842.80,3135.5701369,N,12046.6470020,E,4,16,1.9,2.9815,M,8.313,M,00,0004*6F
$GPHPD,1957,33540.600,141.82,-0.20,13.87,31.5928356,120.7774500,2.982,13630250.250,24924702.627,2.982,-0.988,0.033,-0.906,0.683,1.256,0.756,0.000,16,16,4*6A
$GPGGA,091843.00,3135.5700216,N,12046.6471084,E,4,16,1.9,2.9807,M,8.313,M,01,0004*63
$GPHPD,1957,33540.800,141.89,-0.48,13.84,31.5928337,120.7774518,2.981,13630252.103,24924704.582,2.981,-1.008,0.081,-0.905,0.683,1.256,0.756,0.000,16,16,4*6B
$GPGGA,091843.20,3135.5699037,N,12046.6472129,E,4,16,1.5,2.9891,M,8.313,M,01,0004*67
$GPHPD,1957,33541.000,141.92,-0.68,13.85,31.5928317,120.7774535,2.989,13630253.989,24924706.528,2.989,-0.996,0.036,-0.919,0.683,1.256,0.756,0.000,16,16,4*61
$GPGGA,091843.40,3135.5697898,N,12046.6473187,E,4,16,1.5,2.9721,M,8.313,M,01,0004*63
$GPHPD,1957,33541.200,141.75,-0.84,13.84,31.5928298,120.7774553,2.972,13630255.821,24924708.467,2.972,-1.010,0.059,-0.927,0.683,1.256,0.756,0.000,16,16,4*6C
$GPGGA,091843.60,3135.5696730,N,12046.6474259,E,4,16,1.5,2.9749,M,8.313,M,00,0004*65
$GPHPD,1957,33541.400,141.70,-0.81,13.84,31.5928279,120.7774571,2.975,13630257.697,24924710.440,2.975,-0.984,0.029,-0.926,0.683,1.256,0.756,0.000,16,16,4*6B
$GPGGA,091843.80,3135.5695539,N,12046.6475303,E,4,16,1.5,2.9723,M,8.313,M,00,0004*60
$GPHPD,1957,33541.600,141.71,-0.50,13.83,31.5928259,120.7774588,2.972,13630259.600,24924712.392,2.972,-1.011,0.095,-0.886,0.683,1.256,0.756,0.000,16,16,4*65
$GPGGA,091844.00,3135.5694388,N,12046.6476333,E,4,16,1.5,2.9769,M,8.313,M,01,0004*6D
$GPHPD,1957,33541.800,141.70,-0.61,13.83,31.5928240,120.7774606,2.977,13630261.443,24924714.304,2.977,-1.004,0.060,-0.929,0.683,1.256,0.756,0.000,16,16,4*68
$GPGGA,091844.20,3135.5693219,N,12046.6477375,E,4,16,1.5,2.9823,M,8.313,M,01,0004*63
$GPHPD,1957,33542.000,141.78,-0.33,13.81,31.5928220,120.7774623,2.982,13630263.314,24924716.241,2.982,-1.013,0.075,-0.893,0.683,1.256,0.756,0.000,16,16,4*68
$GPGGA,091844.40,3135.5692068,N,12046.6478455,E,4,16,1.5,2.9664,M,8.313,M,01,0004*67
$GPHPD,1957,33542.200,141.78,-0.17,13.79,31.5928201,120.7774641,2.966,13630265.167,24924718.214,2.966,-1.012,0.099,-0.890,0.683,1.256,0.756,0.000,16,16,4*62
$GPGGA,091844.60,3135.5690882,N,12046.6479511,E,4,16,1.5,2.9665,M,8.313,M,00,0004*6B
$GPHPD,1957,33542.400,141.89,0.05,13.79,31.5928181,120.7774659,2.967,13630267.066,24924720.178,2.967,-0.990,0.028,-0.917,0.683,1.256,0.756,0.000,16,15,4*43
$GPGGA,091844.80,3135.5689724,N,12046.6480572,E,4,16,1.5,2.9721,M,8.313,M,00,0004*6C
$GPHPD,1957,33542.600,141.90,0.47,13.79,31.5928162,120.7774676,2.972,13630268.925,24924722.131,2.972,-0.998,0.045,-0.930,0.683,1.256,0.756,0.000,16,16,4*44
$GPGGA,091845.00,3135.5688553,N,12046.6481618,E,4,16,1.5,2.9705,M,8.313,M,01,0004*6F
$GPHPD,1957,33542.800,141.97,0.18,13.80,31.5928143,120.7774694,2.971,13630270.800,24924724.075,2.971,-1.022,0.096,-0.918,0.683,1.256,0.756,0.000,16,16,4*4B
$GPGGA,091845.20,3135.5687403,N,12046.6482706,E,4,16,1.5,2.9517,M,8.313,M,01,0004*6A
$GPHPD,1957,33543.000,141.82,0.08,13.82,31.5928123,120.7774712,2.952,13630272.653,24924726.056,2.952,-1.013,0.092,-0.903,0.683,1.256,0.756,0.000,16,16,4*49
$GPGGA,091845.40,3135.5686212,N,12046.6483759,E,4,16,1.5,2.9605,M,8.313,M,01,0004*60
$GPHPD,1957,33543.200,142.03,0.38,13.81,31.5928104,120.7774729,2.961,13630274.558,24924728.019,2.961,-0.993,-0.002,-0.945,0.683,1.256,0.756,0.000,16,16,4*61
$GPGGA,091845.60,3135.5685039,N,12046.6484796,E,4,16,1.9,2.9702,M,8.313,M,00,0004*65
$GPHPD,1957,33543.400,142.10,0.33,13.80,31.5928084,120.7774747,2.970,13630276.434,24924729.953,2.970,-0.993,-0.001,-0.964,0.683,1.256,0.756,0.000,16,16,4*61
$GPGGA,091845.80,3135.5683846,N,12046.6485856,E,4,15,1.9,2.9703,M,8.313,M,00,0004*6D
$GPHPD,1957,33543.600,141.85,-0.72,13.77,31.5928064,120.7774764,2.970,13630278.343,24924731.925,2.970,-1.029,0.107,-0.914,0.724,1.699,0.793,0.000,15,16,4*67
$GPGGA,091846.00,3135.5682674,N,12046.6486914,E,4,15,1.9,2.9693,M,8.313,M,01,0004*65
$GPHPD,1957,33543.800,142.02,-0.05,13.77,31.5928045,120.7774782,2.969,13630280.221,24924733.884,2.969,-1.020,0.081,-0.920,0.724,1.699,0.793,0.000,15,15,4*66
$GPGGA,091846.20,3135.5681507,N,12046.6487961,E,4,15,1.9,2.9703,M,8.313,M,01,0004*68
$GPHPD,1957,33544.000,141.88,-0.08,13.79,31.5928025,120.7774799,2.970,13630282.091,24924735.826,2.970,-0.999,0.051,-0.927,0.724,1.699,0.793,0.000,15,15,4*62
$GPGGA,091846.40,3135.5680317,N,12046.6489026,E,4,15,1.9,2.9708,M,8.313,M,01,0004*67
$GPHPD,1957,33544.200,141.98,0.05,13.78,31.5928005,120.7774817,2.971,13630283.996,24924737.803,2.971,-1.016,0.085,-0.907,0.724,1.699,0.793,0.000,15,15,4*45
$GPGGA,091846.60,3135.5679146,N,12046.6490078,E,4,15,1.9,2.9724,M,8.313,M,00,0004*69
$GPHPD,1957,33544.400,141.93,-0.09,13.77,31.5927986,120.7774835,2.972,13630285.872,24924739.753,2.972,-1.020,0.089,-0.916,0.724,1.699,0.793,0.000,15,15,4*6B
$GPGGA,091846.80,3135.5677971,N,12046.6491109,E,4,16,1.5,2.9744,M,8.313,M,00,0004*6A
$GPHPD,1957,33544.600,142.02,0.09,13.76,31.5927966,120.7774852,2.974,13630287.750,24924741.680,2.974,-1.027,0.099,-0.903,0.724,1.699,0.793,0.000,16,15,4*4D
$GPGGA,091847.00,3135.5676805,N,12046.6492150,E,4,16,1.5,2.9782,M,8.313,M,01,0004*64
$GPHPD,1957,33544.800,141.92,0.06,13.77,31.5927947,120.7774869,2.978,13630289.617,24924743.615,2.978,-0.980,0.029,-0.941,0.683,1.255,0.756,0.000,16,16,4*44
$GPGGA,091847.20,3135.5675622,N,12046.6493250,E,4,16,1.5,2.9745,M,8.313,M,01,0004*67
$GPHPD,1957,33545.000,142.01,-0.28,13.76,31.5927927,120.7774888,2.975,13630291.519,24924745.630,2.975,-1.005,0.069,-0.909,0.683,1.255,0.756,0.000,16,16,4*65
$GPGGA,091847.40,3135.5674445,N,12046.6494308,E,4,16,1.5,2.9732,M,8.313,M,01,0004*68
$GPHPD,1957,33545.200,141.93,-0.50,13.75,31.5927907,120.7774905,2.973,13630293.405,24924747.591,2.973,-1.010,0.031,-0.936,0.683,1.255,0.756,0.000,16,16,4*64
$GPGGA,091847.60,3135.5673253,N,12046.6495344,E,4,16,1.5,2.9870,M,8.313,M,00,0004*6D
$GPHPD,1957,33545.400,141.79,-0.36,13.76,31.5927888,120.7774922,2.987,13630295.308,24924749.534,2.987,-0.998,0.022,-0.962,0.683,1.255,0.756,0.000,16,16,4*60
$GPGGA,091847.80,3135.5672066,N,12046.6496397,E,4,16,1.5,2.9813,M,8.313,M,00,0004*6E
$GPHPD,1957,33545.600,142.07,-0.32,13.77,31.5927868,120.7774940,2.981,13630297.207,24924751.495,2.981,-1.048,0.147,-0.896,0.683,1.255,0.756,0.000,16,16,4*65
$GPGGA,091848.00,3135.5670893,N,12046.6497452,E,4,16,1.5,2.9850,M,8.313,M,01,0004*60
$GPHPD,1957,33545.800,141.86,-0.27,13.77,31.5927848,120.7774958,2.985,13630299.086,24924753.450,2.985,-1.019,0.100,-0.916,0.683,1.255,0.756,0.000,16,16,4*6E
$GPGGA,091848.20,3135.5669718,N,12046.6498514,E,4,16,1.5,2.9755,M,8.313,M,01,0004*60
$GPHPD,1957,33546.000,142.45,0.88,13.74,31.5927829,120.7774975,2.976,13630300.970,24924755.415,2.976,-1.018,0.097,-0.909,0.683,1.255,0.756,0.000,16,16,4*4C
$GPGGA,091848.40,3135.5668537,N,12046.6499573,E,4,16,1.5,2.9698,M,8.313,M,01,0004*68
$GPHPD,1957,33546.200,142.41,0.70,13.73,31.5927809,120.7774993,2.970,13630302.862,24924757.380,2.970,-0.991,-0.010,-0.945,0.683,1.255,0.756,0.000,16,16,4*6A
$GPGGA,091848.60,3135.5667370,N,12046.6500651,E,4,16,1.5,2.9675,M,8.313,M,00,0004*60
$GPHPD,1957,33546.400,142.49,1.40,13.71,31.5927790,120.7775011,2.968,13630304.737,24924759.359,2.968,-0.957,-0.012,-0.952,0.683,1.255,0.756,0.000,16,16,4*64
$GPGGA,091848.80,3135.5666159,N,12046.6501684,E,4,16,1.5,2.9904,M,8.313,M,00,0004*66
$GPHPD,1957,33546.600,142.51,0.96,13.70,31.5927769,120.7775028,2.990,13630306.667,24924761.310,2.990,-0.972,-0.015,-0.966,0.683,1.255,0.756,0.000,16,16,4*6F
$GPGGA,091849.00,3135.5664983,N,12046.6502712,E,4,16,1.5,2.9902,M,8.313,M,01,0004*68
$GPHPD,1957,33546.800,142.35,0.52,13.70,31.5927750,120.7775045,2.990,13630308.545,24924763.234,2.990,-1.050,0.135,-0.915,0.683,1.255,0.756,0.000,16,16,4*40
$GPGGA,091849.20,3135.5663793,N,12046.6503762,E,4,16,1.5,2.9879,M,8.313,M,01,0004*69
$GPHPD,1957,33547.000,142.08,-0.36,13.70,31.5927730,120.7775063,2.988,13630310.447,24924765.193,2.988,-1.009,0.117,-0.905,0.683,1.255,0.756,0.000,16,16,4*65
$GPGGA,091849.40,3135.5662613,N,12046.6504781,E,4,16,1.5,2.9893,M,8.313,M,01,0004*69
$GPHPD,1957,33547.200,142.21,-0.04,13.71,31.5927710,120.7775080,2.989,13630312.330,24924767.109,2.989,-0.990,0.026,-0.943,0.683,1.255,0.756,0.000,16,16,4*6E
$GPGGA,091849.60,3135.5661436,N,12046.6505832,E,4,16,1.5,2.9900,M,8.313,M,00,0004*61
$GPHPD,1957,33547.400,142.16,-0.02,13.69,31.5927691,120.7775097,2.990,13630314.214,24924769.061,2.990,-0.991,0.092,-0.929,0.683,1.255,0.756,0.000,16,16,4*6F
$GPGGA,091849.80,3135.5660260,N,12046.6506841,E,4,16,1.5,2.9868,M,8.313,M,00,0004*63
$GPHPD,1957,33547.600,142.48,0.09,13.70,31.5927671,120.7775114,2.987,13630316.089,24924770.963,2.987,-0.999,0.073,-0.921,0.683,1.255,0.756,0.000,16,16,4*44
$GPGGA,091850.00,3135.5659076,N,12046.6507914,E,4,16,1.5,2.9949,M,8.313,M,01,0004*6F
$GPHPD,1957,33547.800,142.51,0.37,13.70,31.5927651,120.7775132,2.995,13630317.987,24924772.946,2.995,-0.983,0.058,-0.931,0.683,1.255,0.756,0.000,16,16,4*49
$GPGGA,091850.20,3135.5657875,N,12046.6508952,E,4,16,1.5,3.0036,M,8.313,M,01,0004*6C
$GPHPD,1957,33548.000,142.87,0.36,13.70,31.5927631,120.7775149,3.004,13630319.903,24924774.897,3.004,-1.018,0.085,-0.916,0.683,1.255,0.756,0.000,16,16,4*48
$GPGGA,091850.40,3135.5656724,N,12046.6509998,E,4,16,1.5,2.9912,M,8.313,M,01,0004*60
$GPHPD,1957,33548.200,142.69,0.32,13.71,31.5927612,120.7775167,2.991,13630321.750,24924776.828,2.991,-1.011,0.097,-0.928,0.683,1.255,0.756,0.000,16,16,4*40
$GPGGA,091850.60,3135.5655552,N,12046.6511008,E,4,16,1.5,2.9958,M,8.314,M,00,0004*63
$GPHPD,1957,33548.400,142.85,0.94,13.73,31.5927593,120.7775183,2.996,13630323.619,24924778.729,2.996,-0.984,0.020,-0.952,0.683,1.255,0.756,0.000,16,16,4*41
$GPGGA,091850.80,3135.5654377,N,12046.6512055,E,4,16,1.6,2.9946,M,8.314,M,00,0004*6A
$GPHPD,1957,33548.600,142.81,0.53,13.74,31.5927573,120.7775201,2.995,13630325.499,24924780.675,2.995,-0.992,0.084,-0.911,0.742,1.309,0.820,0.000,16,16,4*4B
$GPGGA,091851.00,3135.5653198,N,12046.6513040,E,4,16,1.5,3.0101,M,8.314,M,01,0004*63
$GPHPD,1957,33548.800,142.71,0.17,13.76,31.5927553,120.7775217,3.010,13630327.373,24924782.550,3.010,-0.986,0.047,-0.927,0.742,1.309,0.820,0.000,16,16,4*45
$GPGGA,091851.20,3135.5652036,N,12046.6514063,E,4,16,1.5,3.0093,M,8.314,M,01,0004*69
$GPHPD,1957,33549.000,142.37,-0.56,13.77,31.5927534,120.7775234,3.009,13630329.231,24924784.460,3.009,-1.006,0.156,-0.889,0.742,1.309,0.820,0.000,16,16,4*6E
$GPGGA,091851.40,3135.5650858,N,12046.6515097,E,4,16,1.5,2.9990,M,8.314,M,01,0004*65
$GPHPD,1957,33549.200,142.30,-1.00,13.78,31.5927514,120.7775252,2.999,13630331.113,24924786.392,2.999,-0.982,0.058,-0.919,0.742,1.309,0.820,0.000,16,16,4*65
$GPGGA,091851.60,3135.5649660,N,12046.6516132,E,4,16,1.5,3.0070,M,8.314,M,00,0004*69
$GPHPD,1957,33549.400,142.64,0.06,13.81,31.5927494,120.7775269,3.007,13630333.024,24924788.338,3.007,-0.974,0.013,-0.947,0.683,1.255,0.756,0.000,16,16,4*41
$GPGGA,091851.80,3135.5648511,N,12046.6517163,E,4,16,1.6,2.9872,M,8.314,M,00,0004*67
$GPHPD,1957,33549.600,142.62,-0.69,13.80,31.5927475,120.7775286,2.987,13630334.865,24924790.250,2.987,-1.013,0.081,-0.958,0.683,1.255,0.756,0.000,16,16,4*6E
$GPGGA,091852.00,3135.5647346,N,12046.6518212,E,4,16,1.5,2.9858,M,8.314,M,01,0004*67
$GPHPD,1957,33549.800,142.85,-0.06,13.80,31.5927456,120.7775304,2.986,13630336.732,24924792.193,2.986,-0.935,-0.022,-0.958,0.730,1.708,0.890,0.000,16,16,4*42
$GPGGA,091852.20,3135.5646146,N,12046.6519213,E,4,16,1.5,2.9977,M,8.314,M,01,0004*6A
$GPHPD,1957,33550.000,143.05,0.60,13.82,31.5927436,120.7775320,2.998,13630338.639,24924794.099,2.998,-0.979,0.010,-0.928,0.683,1.255,0.757,0.000,16,16,4*4E
$GPGGA,091852.40,3135.5644977,N,12046.6520245,E,4,16,1.5,3.0011,M,8.314,M,01,0004*6C
$GPHPD,1957,33550.200,142.78,-0.13,13.81,31.5927416,120.7775337,3.001,13630340.508,24924796.024,3.001,-1.022,0.120,-0.908,0.683,1.255,0.757,0.000,16,16,4*65
$GPGGA,091852.60,3135.5643791,N,12046.6521240,E,4,16,1.5,3.0103,M,8.314,M,00,0004*68
$GPHPD,1957,33550.400,142.83,0.09,13.81,31.5927397,120.7775354,3.010,13630342.394,24924797.915,3.010,-1.012,0.124,-0.881,0.683,1.255,0.757,0.000,16,16,4*46
$GPGGA,091852.80,3135.5642624,N,12046.6522252,E,4,16,1.5,3.0007,M,8.314,M,00,0004*6D
$GPHPD,1957,33550.600,142.67,-0.36,13.84,31.5927377,120.7775371,3.001,13630344.256,24924799.814,3.001,-0.975,0.096,-0.898,0.683,1.255,0.757,0.000,16,16,4*6D
$GPGGA,091853.00,3135.5641447,N,12046.6523331,E,4,16,1.5,2.9978,M,8.314,M,01,0004*6D
$GPHPD,1957,33550.800,142.90,0.13,13.83,31.5927357,120.7775389,2.998,13630346.146,24924801.801,2.998,-0.964,0.054,-0.937,0.683,1.255,0.757,0.000,16,16,4*43
$GPGGA,091853.20,3135.5640249,N,12046.6524313,E,4,16,1.5,3.0147,M,8.314,M,01,0004*6D
$GPHPD,1957,33551.000,142.95,0.11,13.81,31.5927337,120.7775405,3.015,13630348.046,24924803.682,3.015,-1.032,0.065,-0.921,0.683,1.255,0.757,0.000,16,16,4*4C
$GPGGA,091853.40,3135.5639088,N,12046.6525336,E,4,16,1.5,3.0004,M,8.314,M,01,0004*6A
$GPHPD,1957,33551.200,142.63,-0.57,13.82,31.5927318,120.7775422,3.000,13630349.902,24924805.592,3.000,-1.020,0.160,-0.915,0.683,1.255,0.757,0.000,16,16,4*6F
$GPGGA,091853.60,3135.5637881,N,12046.6526359,E,4,16,1.5,3.0116,M,8.314,M,00,0004*6E
$GPHPD,1957,33551.400,142.94,0.30,13.77,31.5927298,120.7775439,3.012,13630351.824,24924807.528,3.012,-0.957,0.034,-0.956,0.683,1.255,0.757,0.000,16,16,4*44
$GPGGA,091853.80,3135.5636704,N,12046.6527393,E,4,16,1.5,2.9996,M,8.314,M,00,0004*6C
$GPHPD,1957,33551.600,142.77,-0.43,13.77,31.5927278,120.7775457,3.000,13630353.705,24924809.461,3.000,-0.998,0.116,-0.939,0.683,1.255,0.757,0.000,16,16,4*63
$GPGGA,091854.00,3135.5635549,N,12046.6528366,E,4,16,1.5,3.0097,M,8.314,M,01,0004*6F
$GPHPD,1957,33551.800,142.95,0.41,13.80,31.5927259,120.7775473,3.010,13630355.542,24924811.306,3.010,-0.963,0.059,-0.937,0.683,1.255,0.757,0.000,16,16,4*4B
$GPGGA,091854.20,3135.5634422,N,12046.6529371,E,4,16,1.5,3.0050,M,8.314,M,01,0004*6C
$GPHPD,1957,33552.000,142.66,-0.39,13.85,31.5927240,120.7775490,3.005,13630357.346,24924813.174,3.005,-0.966,0.109,-0.883,0.683,1.255,0.757,0.000,16,16,4*64
$GPGGA,091854.40,3135.5633347,N,12046.6530331,E,4,16,1.5,2.9968,M,8.314,M,01,0004*6F
$GPHPD,1957,33552.200,142.95,-0.10,13.87,31.5927222,120.7775506,2.997,13630359.067,24924814.958,2.997,-0.937,0.052,-0.902,0.683,1.255,0.757,0.000,16,16,4*65
$GPGGA,091854.60,3135.5632302,N,12046.6531214,E,4,16,1.5,3.0067,M,8.314,M,00,0004*65
$GPHPD,1957,33552.400,142.98,0.04,13.86,31.5927205,120.7775520,3.007,13630360.730,24924816.631,3.007,-0.900,0.024,-0.869,0.683,1.255,0.757,0.000,16,16,4*42
$GPGGA,091854.80,3135.5631320,N,12046.6532054,E,4,17,1.5,3.0087,M,8.314,M,00,0004*62
$GPHPD,1957,33552.600,142.86,0.00,13.79,31.5927189,120.7775534,3.009,13630362.295,24924818.216,3.009,-0.866,0.072,-0.787,0.683,1.255,0.757,0.000,17,16,4*42
$GPGGA,091855.00,3135.5630404,N,12046.6532829,E,4,16,1.5,3.0130,M,8.314,M,01,0004*64
$GPHPD,1957,33552.800,142.88,-0.04,13.70,31.5927173,120.7775547,3.013,13630363.753,24924819.684,3.013,-0.810,0.078,-0.761,0.683,1.255,0.757,0.000,16,16,4*61
$GPGGA,091855.20,3135.5629568,N,12046.6533606,E,4,16,1.5,3.0080,M,8.314,M,01,0004*6D
$GPHPD,1957,33553.000,142.90,0.10,13.65,31.5927159,120.7775560,3.008,13630365.098,24924821.107,3.008,-0.768,0.074,-0.718,0.683,1.255,0.757,0.000,16,16,4*43
$GPGGA,091855.40,3135.5628786,N,12046.6534245,E,4,16,1.5,3.0117,M,8.314,M,01,0004*63
$GPHPD,1957,33553.200,143.05,0.07,13.59,31.5927146,120.7775571,3.012,13630366.338,24924822.333,3.012,-0.717,-0.012,-0.686,0.683,1.255,0.757,0.000,16,16,4*64
$GPGGA,091855.60,3135.5628156,N,12046.6534788,E,4,16,1.5,3.0075,M,8.314,M,00,0004*6A
$GPHPD,1957,33553.400,142.92,0.19,13.41,31.5927136,120.7775580,3.008,13630367.342,24924823.355,3.008,-0.638,0.061,-0.606,0.683,1.255,0.757,0.000,16,16,4*42
$GPGGA,091855.80,3135.5627662,N,12046.6535211,E,4,16,1.5,3.0033,M,8.314,M,00,0004*6D
$GPHPD,1957,33553.600,143.09,0.57,13.25,31.5927128,120.7775587,3.003,13630368.130,24924824.152,3.003,-0.507,0.019,-0.519,0.683,1.255,0.757,0.000,16,16,4*44
$GPGGA,091856.00,3135.5627295,N,12046.6535537,E,4,16,1.5,3.0034,M,8.314,M,01,0004*6F
$GPHPD,1957,33553.800,143.01,0.36,13.12,31.5927122,120.7775592,3.003,13630368.717,24924824.759,3.003,-0.395,0.020,-0.400,0.683,1.255,0.757,0.000,16,16,4*4F
