$GPGGA,091716.40,3135.5773395,N,12046.6378886,E,4,16,1.5,2.8526,M,8.313,M,01,0004*61
$GPHPD,1957,33454.200,141.35,0.88,12.69,31.5929557,120.7772981,2.853,13630129.542,24924550.799,2.853,-0.768,0.070,-0.680,0.598,1.231,0.753,0.000,16,16,4*4E
$GPGGA,091716.60,3135.5772433,N,12046.6379759,E,4,16,1.5,2.8534,M,8.313,M,00,0004*67
$GPHPD,1957,33454.400,140.95,-0.03,12.80,31.5929541,120.7772996,2.853,13630131.085,24924552.411,2.853,-0.828,0.107,-0.702,0.598,1.231,0.753,0.000,16,16,4*6C
$GPGGA,091716.80,3135.5771442,N,12046.6380644,E,4,16,1.5,2.8599,M,8.313,M,00,0004*60
$GPHPD,1957,33454.600,141.13,0.66,12.88,31.5929524,120.7773011,2.860,13630132.672,24924554.056,2.860,-0.841,0.065,-0.761,0.598,1.231,0.753,0.000,16,16,4*40
$GPGGA,091717.00,3135.5770452,N,12046.6381593,E,4,16,1.5,2.8514,M,8.313,M,01,0004*65
$GPHPD,1957,33454.800,140.98,0.24,12.92,31.5929508,120.7773027,2.851,13630134.270,24924555.776,2.851,-0.862,0.067,-0.757,0.598,1.231,0.753,0.000,16,16,4*48
$GPGGA,091717.20,3135.5769439,N,12046.6382535,E,4,16,1.5,2.8583,M,8.313,M,01,0004*63
$GPHPD,1957,33455.000,140.92,0.24,12.96,31.5929491,120.7773042,2.858,13630135.899,24924557.502,2.858,-0.874,0.022,-0.803,0.598,1.231,0.753,0.000,16,16,4*4A
$GPGGA,091717.40,3135.5768396,N,12046.6383489,E,4,16,1.5,2.8629,M,8.313,M,01,0004*62
$GPHPD,1957,33455.200,141.11,-0.06,12.99,31.5929473,120.7773058,2.863,13630137.573,24924559.260,2.863,-0.896,0.084,-0.791,0.598,1.231,0.754,0.000,16,16,4*62
$GPGGA,091717.60,3135.5767333,N,12046.6384462,E,4,16,1.5,2.8791,M,8.313,M,00,0004*61
$GPHPD,1957,33455.400,141.31,0.52,13.01,31.5929456,120.7773074,2.879,13630139.280,24924561.052,2.879,-0.915,0.066,-0.805,0.598,1.231,0.754,0.000,16,16,4*4A
$GPGGA,091717.80,3135.5766289,N,12046.6385435,E,4,16,1.5,2.8618,M,8.313,M,00,0004*6D
$GPHPD,1957,33455.600,141.25,0.24,13.04,31.5929438,120.7773091,2.862,13630140.960,24924562.833,2.862,-0.935,0.073,-0.805,0.598,1.231,0.754,0.000,16,16,4*4B
$GPGGA,091718.00,3135.5765198,N,12046.6386423,E,4,16,1.5,2.8587,M,8.313,M,01,0004*6A
$GPHPD,1957,33455.800,141.61,1.03,13.04,31.5929420,120.7773107,2.859,13630142.709,24924564.660,2.859,-0.917,0.037,-0.851,0.630,1.706,0.797,0.000,16,16,4*45
$GPGGA,091718.20,3135.5764097,N,12046.6387400,E,4,16,1.5,2.8700,M,8.313,M,01,0004*6A
$GPHPD,1957,33456.000,141.61,0.66,13.06,31.5929402,120.7773123,2.870,13630144.471,24924566.479,2.870,-0.937,0.025,-0.866,0.598,1.231,0.754,0.000,16,16,4*40
$GPGGA,091718.40,3135.5763023,N,12046.6388417,E,4,16,1.5,2.8601,M,8.313,M,01,0004*6D
$GPHPD,1957,33456.200,141.38,-0.17,13.08,31.5929384,120.7773140,2.860,13630146.202,24924568.330,2.860,-0.961,0.077,-0.855,0.598,1.231,0.754,0.000,16,16,4*67
$GPGGA,091718.60,3135.5761910,N,12046.6389399,E,4,16,1.5,2.8634,M,8.313,M,00,0004*63
$GPHPD,1957,33456.400,141.51,0.35,13.09,31.5929365,120.7773157,2.863,13630147.981,24924570.163,2.863,-0.963,0.056,-0.855,0.598,1.231,0.754,0.000,16,16,4*46
$GPGGA,091718.80,3135.5760809,N,12046.6390396,E,4,16,1.5,2.8728,M,8.313,M,00,0004*6E
$GPHPD,1957,33456.600,141.37,0.16,13.09,31.5929347,120.7773173,2.873,13630149.747,24924572.006,2.873,-0.953,0.072,-0.862,0.598,1.231,0.754,0.000,16,16,4*48
$GPGGA,091719.00,3135.5759719,N,12046.6391411,E,4,16,1.5,2.8706,M,8.313,M,01,0004*67
$GPHPD,1957,33456.800,141.31,-0.70,13.12,31.5929329,120.7773190,2.871,13630151.500,24924573.864,2.871,-0.972,0.094,-0.852,0.598,1.231,0.754,0.000,16,16,4*6F
$GPGGA,091719.20,3135.5758627,N,12046.6392388,E,4,16,1.5,2.8750,M,8.313,M,01,0004*6F
$GPHPD,1957,33457.000,141.42,-0.26,13.15,31.5929310,120.7773206,2.875,13630153.249,24924575.678,2.875,-0.953,0.042,-0.868,0.598,1.231,0.754,0.000,16,16,4*6C
$GPGGA,091719.40,3135.5757499,N,12046.6393408,E,4,16,1.5,2.8766,M,8.313,M,01,0004*6A
$GPHPD,1957,33457.200,141.43,-0.52,13.16,31.5929292,120.7773223,2.877,13630155.057,24924577.565,2.877,-0.947,0.080,-0.858,0.598,1.231,0.754,0.000,16,16,4*6D
$GPGGA,091719.60,3135.5756421,N,12046.6394396,E,4,16,1.5,2.8705,M,8.313,M,00,0004*69
$GPHPD,1957,33457.400,141.54,-0.20,13.16,31.5929274,120.7773240,2.871,13630156.788,24924579.384,2.871,-0.979,0.098,-0.855,0.598,1.231,0.754,0.000,16,16,4*6D
$GPGGA,091719.80,3135.5755340,N,12046.6395390,E,4,16,1.5,2.8652,M,8.313,M,00,0004*60
$GPHPD,1957,33457.600,141.84,0.30,13.18,31.5929256,120.7773257,2.865,13630158.525,24924581.212,2.865,-0.945,0.062,-0.879,0.598,1.231,0.754,0.000,16,16,4*40
$GPGGA,091720.00,3135.5754263,N,12046.6396352,E,4,16,1.5,2.8676,M,8.313,M,01,0004*69
$GPHPD,1957,33457.800,142.22,1.28,13.20,31.5929238,120.7773273,2.868,13630160.249,24924582.999,2.868,-0.917,0.023,-0.881,0.598,1.231,0.754,0.000,16,16,4*44
$GPGGA,091720.20,3135.5753190,N,12046.6397339,E,4,16,1.5,2.8708,M,8.313,M,01,0004*67
$GPHPD,1957,33458.000,141.99,0.71,13.21,31.5929220,120.7773289,2.871,13630161.973,24924584.814,2.871,-0.914,0.038,-0.850,0.598,1.231,0.754,0.000,16,16,4*44
$GPGGA,091720.40,3135.5752101,N,12046.6398305,E,4,16,1.5,2.8703,M,8.313,M,01,0004*63
$GPHPD,1957,33458.200,142.01,0.39,13.23,31.5929202,120.7773305,2.870,13630163.715,24924586.613,2.870,-0.934,0.066,-0.837,0.599,1.233,0.794,0.000,16,16,4*4F
$GPGGA,091720.60,3135.5751033,N,12046.6399290,E,4,16,1.5,2.8618,M,8.313,M,00,0004*64
$GPHPD,1957,33458.400,141.65,-0.36,13.25,31.5929184,120.7773322,2.862,13630165.431,24924588.422,2.862,-0.922,0.026,-0.867,0.599,1.233,0.794,0.000,16,16,4*6F
$GPGGA,091720.80,3135.5749951,N,12046.6400243,E,4,16,1.5,2.8723,M,8.313,M,00,0004*6E
$GPHPD,1957,33458.600,142.05,0.78,13.27,31.5929166,120.7773337,2.872,13630167.161,24924590.202,2.872,-0.903,-0.004,-0.866,0.598,1.231,0.754,0.000,16,16,4*6A
$GPGGA,091721.00,3135.5748835,N,12046.6401182,E,4,16,1.5,2.8836,M,8.313,M,01,0004*60
$GPHPD,1957,33458.800,142.18,0.97,13.29,31.5929147,120.7773353,2.884,13630168.936,24924591.984,2.884,-0.930,0.061,-0.821,0.598,1.231,0.754,0.000,16,16,4*4A
$GPGGA,091721.20,3135.5747771,N,12046.6402183,E,4,16,1.5,2.8756,M,8.313,M,01,0004*69
$GPHPD,1957,33459.000,141.83,0.14,13.29,31.5929130,120.7773370,2.876,13630170.649,24924593.810,2.876,-0.938,0.126,-0.832,0.598,1.231,0.754,0.000,16,16,4*40
$GPGGA,091721.40,3135.5746677,N,12046.6403153,E,4,16,1.5,2.8826,M,8.313,M,01,0004*6D
$GPHPD,1957,33459.200,141.95,-0.05,13.30,31.5929111,120.7773386,2.883,13630172.400,24924595.617,2.883,-0.915,0.008,-0.853,0.598,1.231,0.754,0.000,16,16,4*6D
$GPGGA,091721.60,3135.5745581,N,12046.6404156,E,4,16,1.5,2.8802,M,8.313,M,00,0004*63
$GPHPD,1957,33459.400,141.64,-0.02,13.33,31.5929093,120.7773403,2.880,13630174.159,24924597.464,2.880,-0.920,0.020,-0.847,0.598,1.231,0.754,0.000,16,16,4*62
$GPGGA,091721.80,3135.5744509,N,12046.6405148,E,4,16,1.5,2.8726,M,8.313,M,00,0004*6B
$GPHPD,1957,33459.600,141.81,0.28,13.34,31.5929075,120.7773419,2.873,13630175.882,24924599.285,2.873,-0.944,0.036,-0.868,0.624,1.248,0.798,0.000,16,16,4*41
$GPGGA,091722.00,3135.5743410,N,12046.6406114,E,4,16,1.5,2.8840,M,8.313,M,01,0004*6A
$GPHPD,1957,33459.800,141.91,0.35,13.36,31.5929057,120.7773435,2.884,13630177.639,24924601.089,2.884,-0.943,0.053,-0.865,0.598,1.230,0.754,0.000,16,16,4*4C
$GPGGA,091722.20,3135.5742308,N,12046.6407106,E,4,16,1.5,2.8779,M,8.313,M,01,0004*60
$GPHPD,1957,33460.000,141.71,-0.17,13.39,31.5929038,120.7773452,2.878,13630179.405,24924602.927,2.878,-0.955,0.113,-0.839,0.598,1.230,0.754,0.000,16,16,4*6C
$GPGGA,091722.40,3135.5741217,N,12046.6408113,E,4,16,1.5,2.8705,M,8.313,M,01,0004*6A
$GPHPD,1957,33460.200,141.69,-0.27,13.41,31.5929020,120.7773469,2.871,13630181.158,24924604.777,2.871,-0.939,0.041,-0.877,0.624,1.248,0.799,0.000,16,16,4*61
$GPGGA,091722.60,3135.5740096,N,12046.6409102,E,4,16,1.5,2.8721,M,8.313,M,00,0004*64
$GPHPD,1957,33460.400,142.12,0.81,13.43,31.5929002,120.7773485,2.872,13630182.950,24924606.622,2.872,-0.943,0.009,-0.879,0.598,1.230,0.754,0.000,16,16,4*4C
$GPGGA,091722.80,3135.5739010,N,12046.6410130,E,4,16,1.5,2.8726,M,8.313,M,00,0004*64
$GPHPD,1957,33460.600,142.02,0.56,13.44,31.5928984,120.7773502,2.873,13630184.701,24924608.494,2.873,-0.953,0.064,-0.881,0.598,1.230,0.754,0.000,16,16,4*4A
$GPGGA,091723.00,3135.5737876,N,12046.6411123,E,4,16,1.5,2.8803,M,8.313,M,01,0004*61
$GPHPD,1957,33460.800,142.38,1.25,13.46,31.5928965,120.7773519,2.880,13630186.512,24924610.352,2.880,-0.948,0.011,-0.888,0.598,1.230,0.754,0.000,16,16,4*48
$GPGGA,091723.20,3135.5736760,N,12046.6412160,E,4,16,1.5,2.8787,M,8.313,M,01,0004*6D
$GPHPD,1957,33461.000,142.40,0.90,13.49,31.5928946,120.7773536,2.879,13630188.307,24924612.252,2.879,-0.974,0.105,-0.863,0.598,1.230,0.754,0.000,16,16,4*43
$GPGGA,091723.40,3135.5735614,N,12046.6413183,E,4,16,1.5,2.8778,M,8.313,M,01,0004*66
$GPHPD,1957,33461.200,142.29,0.77,13.50,31.5928927,120.7773553,2.878,13630190.142,24924614.153,2.878,-0.972,0.050,-0.876,0.598,1.230,0.754,0.000,16,16,4*46
$GPGGA,091723.60,3135.5734487,N,12046.6414202,E,4,16,1.5,2.8692,M,8.313,M,00,0004*64
$GPHPD,1957,33461.400,142.54,1.03,13.51,31.5928908,120.7773570,2.869,13630191.948,24924616.038,2.869,-0.980,0.054,-0.891,0.598,1.230,0.754,0.000,16,16,4*48
$GPGGA,091723.80,3135.5733366,N,12046.6415191,E,4,16,1.5,2.8695,M,8.313,M,00,0004*6A
$GPHPD,1957,33461.600,142.58,1.14,13.52,31.5928889,120.7773587,2.870,13630193.741,24924617.883,2.870,-0.972,0.046,-0.888,0.598,1.230,0.754,0.000,16,16,4*49
$GPGGA,091724.00,3135.5732240,N,12046.6416194,E,4,16,1.5,2.8645,M,8.313,M,01,0004*6B
$GPHPD,1957,33461.800,142.69,1.12,13.51,31.5928871,120.7773603,2.865,13630195.543,24924619.748,2.865,-0.981,0.084,-0.876,0.598,1.230,0.754,0.000,16,16,4*4B
$GPGGA,091724.20,3135.5731070,N,12046.6417171,E,4,16,1.5,2.8869,M,8.313,M,01,0004*61
$GPHPD,1957,33462.000,142.51,1.22,13.51,31.5928851,120.7773620,2.887,13630197.403,24924621.607,2.887,-0.961,0.073,-0.896,0.598,1.230,0.754,0.000,16,16,4*45
$GPGGA,091724.40,3135.5729945,N,12046.6418214,E,4,16,1.5,2.8714,M,8.313,M,01,0004*6B
$GPHPD,1957,33462.200,142.51,0.46,13.52,31.5928832,120.7773637,2.871,13630199.211,24924623.520,2.871,-0.995,0.169,-0.869,0.598,1.230,0.754,0.000,16,16,4*4A
$GPGGA,091724.60,3135.5728767,N,12046.6419178,E,4,16,1.5,2.8967,M,8.313,M,00,0004*65
$GPHPD,1957,33462.400,142.79,1.35,13.52,31.5928813,120.7773653,2.897,13630201.080,24924625.368,2.897,-0.968,0.032,-0.911,0.598,1.230,0.754,0.000,16,16,4*45
$GPGGA,091724.80,3135.5727630,N,12046.6420236,E,4,16,1.5,2.8869,M,8.313,M,00,0004*6B
$GPHPD,1957,33462.600,142.53,0.36,13.54,31.5928794,120.7773671,2.887,13630202.909,24924627.306,2.887,-1.004,0.174,-0.863,0.690,1.269,0.755,0.000,16,16,4*49
$GPGGA,091725.00,3135.5726488,N,12046.6421233,E,4,16,1.5,2.8778,M,8.313,M,01,0004*68
$GPHPD,1957,33462.800,142.60,0.41,13.55,31.5928775,120.7773687,2.878,13630204.732,24924629.173,2.878,-0.983,0.057,-0.901,0.690,1.269,0.755,0.000,16,16,4*4C
$GPGGA,091725.20,3135.5725333,N,12046.6422255,E,4,16,1.5,2.8982,M,8.313,M,01,0004*66
$GPHPD,1957,33463.000,142.59,0.09,13.56,31.5928756,120.7773704,2.898,13630206.580,24924631.078,2.898,-0.959,0.061,-0.920,0.598,1.230,0.754,0.000,16,16,4*46
$GPGGA,091725.40,3135.5724203,N,12046.6423265,E,4,16,1.5,2.8897,M,8.313,M,01,0004*64
$GPHPD,1957,33463.200,142.63,-0.26,13.56,31.5928737,120.7773721,2.890,13630208.389,24924632.954,2.890,-1.007,0.111,-0.878,0.598,1.230,0.754,0.000,16,15,4*62
$GPGGA,091725.60,3135.5723031,N,12046.6424280,E,4,16,1.5,2.8964,M,8.313,M,00,0004*62
$GPHPD,1957,33463.400,142.44,-0.09,13.57,31.5928717,120.7773738,2.896,13630210.259,24924634.860,2.896,-0.968,0.075,-0.899,0.598,1.230,0.754,0.000,16,15,4*6F
$GPGGA,091725.80,3135.5721884,N,12046.6425278,E,4,16,1.5,2.8954,M,8.313,M,00,0004*6D
$GPHPD,1957,33463.600,142.37,-1.14,13.59,31.5928698,120.7773755,2.895,13630212.090,24924636.731,2.895,-0.984,0.088,-0.913,0.598,1.230,0.754,0.000,16,15,4*68
$GPGGA,091726.00,3135.5720742,N,12046.6426267,E,4,16,1.5,2.8859,M,8.313,M,01,0004*62
$GPHPD,1957,33463.800,142.30,-1.09,13.62,31.5928679,120.7773771,2.886,13630213.912,24924638.589,2.886,-0.956,0.057,-0.916,0.598,1.230,0.754,0.000,16,15,4*69
$GPGGA,091726.20,3135.5719610,N,12046.6427363,E,4,16,1.5,2.8791,M,8.313,M,01,0004*63
$GPHPD,1957,33464.000,142.69,0.52,13.64,31.5928660,120.7773789,2.879,13630215.742,24924640.570,2.879,-0.943,0.052,-0.922,0.598,1.230,0.754,0.000,16,15,4*43
$GPGGA,091726.40,3135.5718413,N,12046.6428352,E,4,16,1.5,2.8881,M,8.313,M,01,0004*66
$GPHPD,1957,33464.200,142.59,0.12,13.65,31.5928640,120.7773806,2.888,13630217.642,24924642.459,2.888,-0.972,0.016,-0.923,0.598,1.230,0.754,0.000,16,15,4*45
$GPGGA,091726.60,3135.5717236,N,12046.6429367,E,4,16,1.5,2.8859,M,8.313,M,00,0004*69
$GPHPD,1957,33464.400,142.31,0.20,13.66,31.5928621,120.7773823,2.886,13630219.519,24924644.368,2.886,-0.984,0.068,-0.937,0.598,1.230,0.754,0.000,16,15,4*4A
$GPGGA,091726.80,3135.5716086,N,12046.6430406,E,4,16,1.5,2.8781,M,8.313,M,00,0004*6D
$GPHPD,1957,33464.600,142.54,0.30,13.66,31.5928601,120.7773840,2.878,13630221.363,24924646.291,2.878,-0.991,0.070,-0.946,0.598,1.230,0.754,0.000,16,15,4*43
$GPGGA,091727.00,3135.5714947,N,12046.6431431,E,4,16,1.5,2.8767,M,8.313,M,01,0004*6E
$GPHPD,1957,33464.800,142.55,0.69,13.65,31.5928582,120.7773857,2.877,13630223.188,24924648.190,2.877,-0.980,0.027,-0.935,0.624,1.248,0.799,0.000,16,16,4*4B
$GPGGA,091727.20,3135.5713778,N,12046.6432464,E,4,16,1.5,2.8771,M,8.313,M,01,0004*6D
$GPHPD,1957,33465.000,142.58,0.84,13.63,31.5928563,120.7773874,2.877,13630225.057,24924650.116,2.877,-0.973,0.034,-0.910,0.598,1.230,0.754,0.000,16,16,4*45
$GPGGA,091727.40,3135.5712602,N,12046.6433478,E,4,16,1.5,2.8924,M,8.313,M,01,0004*64
$GPHPD,1957,33465.200,142.46,0.78,13.63,31.5928543,120.7773891,2.892,13630226.933,24924652.024,2.892,-0.975,0.032,-0.931,0.598,1.230,0.754,0.000,16,16,4*4B
$GPGGA,091727.60,3135.5711440,N,12046.6434511,E,4,16,1.5,2.8832,M,8.313,M,00,0004*6F
$GPHPD,1957,33465.400,142.24,0.32,13.64,31.5928524,120.7773909,2.883,13630228.792,24924653.946,2.883,-1.004,0.099,-0.899,0.598,1.230,0.754,0.000,16,16,4*4A
$GPGGA,091727.80,3135.5710286,N,12046.6435542,E,4,16,1.5,2.8738,M,8.313,M,00,0004*6E
$GPHPD,1957,33465.600,142.26,0.67,13.64,31.5928505,120.7773926,2.874,13630230.640,24924655.861,2.874,-0.979,0.049,-0.924,0.598,1.230,0.754,0.000,16,16,4*49
$GPGGA,091728.00,3135.5709136,N,12046.6436567,E,4,16,1.5,2.8795,M,8.313,M,01,0004*6B
$GPHPD,1957,33465.800,141.96,0.37,13.63,31.5928486,120.7773943,2.880,13630232.480,24924657.767,2.880,-0.958,-0.022,-0.937,0.598,1.230,0.754,0.000,16,16,4*62
$GPGGA,091728.20,3135.5707989,N,12046.6437617,E,4,16,1.5,2.8847,M,8.313,M,01,0004*6E
$GPHPD,1957,33466.000,142.23,0.56,13.61,31.5928466,120.7773960,2.885,13630234.322,24924659.700,2.885,-0.988,0.068,-0.901,0.598,1.230,0.754,0.000,16,16,4*43
$GPGGA,091728.40,3135.5706827,N,12046.6438672,E,4,16,1.5,2.8787,M,8.313,M,01,0004*63
$GPHPD,1957,33466.200,142.25,0.68,13.62,31.5928447,120.7773978,2.879,13630236.186,24924661.649,2.879,-1.005,0.074,-0.898,0.598,1.230,0.754,0.000,16,16,4*4B
$GPGGA,091728.60,3135.5705696,N,12046.6439665,E,4,16,1.5,2.8845,M,8.313,M,00,0004*61
$GPHPD,1957,33466.400,142.19,1.00,13.62,31.5928428,120.7773994,2.885,13630237.993,24924663.505,2.885,-0.993,0.023,-0.901,0.598,1.230,0.754,0.000,16,16,4*46
$GPGGA,091728.80,3135.5704539,N,12046.6440741,E,4,16,1.5,2.8823,M,8.313,M,00,0004*61
$GPHPD,1957,33466.600,142.10,1.11,13.63,31.5928409,120.7774012,2.882,13630239.854,24924665.476,2.882,-0.984,0.074,-0.891,0.598,1.230,0.754,0.000,16,16,4*44
$GPGGA,091729.00,3135.5703394,N,12046.6441763,E,4,16,1.5,2.8842,M,8.313,M,01,0004*69
$GPHPD,1957,33466.800,142.14,0.80,13.64,31.5928390,120.7774029,2.884,13630241.687,24924667.375,2.884,-0.989,0.035,-0.908,0.598,1.230,0.754,0.000,16,16,4*4F
$GPGGA,091729.20,3135.5702239,N,12046.6442779,E,4,16,1.5,2.8853,M,8.313,M,01,0004*64
$GPHPD,1957,33467.000,142.02,0.77,13.67,31.5928371,120.7774046,2.885,13630243.533,24924669.273,2.885,-0.984,0.053,-0.904,0.598,1.230,0.754,0.000,16,16,4*4A
$GPGGA,091729.40,3135.5701075,N,12046.6443804,E,4,16,1.5,2.8961,M,8.313,M,01,0004*6F
$GPHPD,1957,33467.200,141.88,0.51,13.69,31.5928351,120.7774063,2.896,13630245.394,24924671.187,2.896,-0.967,0.038,-0.903,0.598,1.230,0.754,0.000,16,16,4*4D
$GPGGA,091729.60,3135.5699933,N,12046.6444835,E,4,16,1.5,2.9012,M,8.313,M,00,0004*6E
$GPHPD,1957,33467.400,141.93,0.93,13.68,31.5928332,120.7774081,2.901,13630247.224,24924673.095,2.901,-1.009,0.116,-0.885,0.598,1.230,0.754,0.000,16,16,4*4D
$GPGGA,091729.80,3135.5698786,N,12046.6445878,E,4,16,1.5,2.8990,M,8.313,M,00,0004*6B
$GPHPD,1957,33467.600,141.78,0.22,13.70,31.5928313,120.7774098,2.899,13630249.064,24924675.020,2.899,-0.999,0.120,-0.868,0.598,1.230,0.754,0.000,16,16,4*45
$GPGGA,091730.00,3135.5697638,N,12046.6446883,E,4,16,1.5,2.9047,M,8.313,M,01,0004*64
$GPHPD,1957,33467.800,141.59,-0.26,13.74,31.5928294,120.7774115,2.905,13630250.898,24924676.901,2.905,-0.970,0.051,-0.912,0.598,1.230,0.754,0.000,16,16,4*69
$GPGGA,091730.20,3135.5696502,N,12046.6447934,E,4,16,1.5,2.9026,M,8.313,M,01,0004*66
$GPHPD,1957,33468.000,141.59,-0.87,13.78,31.5928275,120.7774132,2.903,13630252.724,24924678.829,2.903,-0.995,0.098,-0.869,0.624,1.247,0.799,0.000,16,16,4*6A
$GPGGA,091730.40,3135.5695368,N,12046.6448976,E,4,16,1.5,2.8984,M,8.313,M,01,0004*60
$GPHPD,1957,33468.200,141.73,-0.82,13.79,31.5928256,120.7774150,2.898,13630254.546,24924680.746,2.898,-1.001,0.077,-0.888,0.624,1.247,0.799,0.000,16,15,4*68
$GPGGA,091730.60,3135.5694237,N,12046.6449968,E,4,16,1.5,2.9049,M,8.313,M,00,0004*6E
$GPHPD,1957,33468.400,141.72,0.14,13.80,31.5928237,120.7774166,2.905,13630256.353,24924682.601,2.905,-0.998,0.056,-0.892,0.598,1.230,0.754,0.000,16,15,4*4C
$GPGGA,091730.80,3135.5693106,N,12046.6451033,E,4,16,1.5,2.9007,M,8.313,M,00,0004*62
$GPHPD,1957,33468.600,141.60,-0.45,13.82,31.5928218,120.7774184,2.901,13630258.175,24924684.543,2.901,-0.972,0.073,-0.884,0.598,1.230,0.754,0.000,16,15,4*68
$GPGGA,091731.00,3135.5691944,N,12046.6452071,E,4,16,1.5,2.8943,M,8.313,M,01,0004*6B
$GPHPD,1957,33468.800,141.65,-0.45,13.82,31.5928199,120.7774201,2.894,13630260.035,24924686.472,2.894,-0.988,0.049,-0.887,0.598,1.230,0.754,0.000,16,15,4*67
$GPGGA,091731.20,3135.5690818,N,12046.6453099,E,4,16,1.5,2.8933,M,8.313,M,01,0004*60
$GPHPD,1957,33469.000,141.78,0.01,13.82,31.5928180,120.7774218,2.893,13630261.843,24924688.367,2.893,-0.978,0.028,-0.911,0.598,1.230,0.754,0.000,16,15,4*4C
$GPGGA,091731.40,3135.5689681,N,12046.6454136,E,4,16,1.5,2.8882,M,8.313,M,01,0004*68
$GPHPD,1957,33469.200,141.85,0.54,13.81,31.5928161,120.7774236,2.888,13630263.667,24924690.279,2.888,-0.975,0.048,-0.898,0.604,1.239,0.858,0.000,16,15,4*46
$GPGGA,091731.60,3135.5688529,N,12046.6455163,E,4,16,1.5,2.8921,M,8.313,M,00,0004*62
$GPHPD,1957,33469.400,142.25,1.20,13.83,31.5928142,120.7774253,2.892,13630265.511,24924692.188,2.892,-0.988,0.058,-0.898,0.604,1.239,0.858,0.000,16,15,4*43
$GPGGA,091731.80,3135.5687369,N,12046.6456178,E,4,16,1.5,2.9014,M,8.313,M,00,0004*66
$GPHPD,1957,33469.600,142.06,0.15,13.81,31.5928123,120.7774270,2.901,13630267.364,24924694.088,2.901,-0.999,0.080,-0.892,0.598,1.230,0.754,0.000,16,15,4*41
$GPGGA,091732.00,3135.5686215,N,12046.6457231,E,4,16,1.5,2.8990,M,8.313,M,01,0004*6C
$GPHPD,1957,33469.800,142.16,0.41,13.80,31.5928104,120.7774287,2.899,13630269.216,24924696.029,2.899,-0.992,0.084,-0.898,0.598,1.230,0.754,0.000,16,15,4*45
$GPGGA,091732.20,3135.5685057,N,12046.6458265,E,4,16,1.5,2.9009,M,8.313,M,01,0004*6F
$GPHPD,1957,33470.000,142.22,1.00,13.82,31.5928084,120.7774304,2.901,13630271.070,24924697.951,2.901,-0.980,0.083,-0.889,0.598,1.230,0.754,0.000,16,15,4*4F
$GPGGA,091732.40,3135.5683917,N,12046.6459280,E,4,16,1.5,2.8995,M,8.313,M,01,0004*65
$GPHPD,1957,33470.200,142.57,2.00,13.79,31.5928065,120.7774321,2.900,13630272.895,24924699.838,2.900,-1.005,0.105,-0.895,0.598,1.230,0.754,0.000,16,15,4*47
$GPGGA,091732.60,3135.5682768,N,12046.6460316,E,4,16,1.5,2.9074,M,8.313,M,00,0004*62
$GPHPD,1957,33470.400,142.45,1.42,13.77,31.5928046,120.7774339,2.907,13630274.736,24924701.756,2.907,-0.979,0.082,-0.893,0.598,1.230,0.754,0.000,16,16,4*4E
$GPGGA,091732.80,3135.5681595,N,12046.6461355,E,4,16,1.5,2.9061,M,8.313,M,00,0004*6D
$GPHPD,1957,33470.600,142.18,0.67,13.76,31.5928027,120.7774356,2.906,13630276.613,24924703.692,2.906,-0.997,0.059,-0.880,0.598,1.230,0.754,0.000,16,16,4*46
$GPGGA,091733.00,3135.5680441,N,12046.6462351,E,4,16,1.5,2.9195,M,8.313,M,01,0004*61
$GPHPD,1957,33470.800,142.13,0.37,13.76,31.5928007,120.7774373,2.920,13630278.453,24924705.565,2.920,-0.989,0.052,-0.915,0.598,1.230,0.754,0.000,16,16,4*4F
$GPGGA,091733.20,3135.5679248,N,12046.6463386,E,4,16,1.5,2.9278,M,8.313,M,01,0004*61
$GPHPD,1957,33471.000,142.15,-0.12,13.75,31.5927987,120.7774390,2.928,13630280.357,24924707.508,2.928,-1.001,0.096,-0.891,0.598,1.230,0.754,0.000,16,16,4*6A
$GPGGA,091733.40,3135.5678088,N,12046.6464388,E,4,16,1.5,2.9422,M,8.313,M,01,0004*68
$GPHPD,1957,33471.200,141.73,-0.85,13.75,31.5927968,120.7774406,2.942,13630282.207,24924709.391,2.942,-1.007,0.111,-0.906,0.598,1.230,0.755,0.000,16,16,4*64
$GPGGA,091733.60,3135.5676944,N,12046.6465446,E,4,16,1.5,2.9239,M,8.313,M,00,0004*64
$GPHPD,1957,33471.400,141.43,-2.31,13.75,31.5927949,120.7774424,2.924,13630284.046,24924711.333,2.924,-1.007,0.161,-0.887,0.690,1.268,0.756,0.000,16,16,4*65
$GPGGA,091733.80,3135.5675797,N,12046.6466520,E,4,16,1.5,2.9139,M,8.313,M,00,0004*68
$GPHPD,1957,33471.600,141.55,-1.37,13.77,31.5927930,120.7774442,2.914,13630285.893,24924713.296,2.914,-0.974,0.041,-0.925,0.598,1.230,0.755,0.000,16,16,4*67
$GPGGA,091734.00,3135.5674630,N,12046.6467538,E,4,16,1.5,2.9175,M,8.313,M,01,0004*6B
$GPHPD,1957,33471.800,141.73,-0.93,13.77,31.5927911,120.7774459,2.918,13630287.756,24924715.203,2.918,-0.988,-0.004,-0.937,0.598,1.230,0.755,0.000,16,16,4*49
$GPGGA,091734.20,3135.5673464,N,12046.6468565,E,4,16,1.5,2.9251,M,8.313,M,01,0004*6F
$GPHPD,1957,33472.000,141.53,-1.40,13.74,31.5927891,120.7774476,2.925,13630289.620,24924717.121,2.925,-0.977,0.043,-0.923,0.598,1.230,0.755,0.000,16,16,4*6C
$GPGGA,091734.40,3135.5672325,N,12046.6469641,E,4,16,1.5,2.9131,M,8.313,M,01,0004*6B
$GPHPD,1957,33472.200,141.65,-1.43,13.74,31.5927872,120.7774494,2.913,13630291.456,24924719.081,2.913,-0.997,0.072,-0.907,0.598,1.230,0.755,0.000,16,16,4*6C
$GPGGA,091734.60,3135.5671171,N,12046.6470684,E,4,16,1.5,2.9143,M,8.313,M,00,0004*6C
$GPHPD,1957,33472.400,141.92,-0.88,13.75,31.5927853,120.7774511,2.914,13630293.306,24924721.011,2.914,-0.984,0.021,-0.935,0.624,1.247,0.800,0.000,16,16,4*66
$GPGGA,091734.80,3135.5669997,N,12046.6471752,E,4,16,1.5,2.9175,M,8.313,M,00,0004*65
$GPHPD,1957,33472.600,141.93,-0.73,13.74,31.5927833,120.7774529,2.918,13630295.189,24924722.982,2.918,-0.979,0.041,-0.922,0.624,1.247,0.800,0.000,16,16,4*6C
$GPGGA,091735.00,3135.5668842,N,12046.6472798,E,4,16,1.5,2.9106,M,8.313,M,01,0004*64
$GPHPD,1957,33472.800,142.05,-0.35,13.72,31.5927814,120.7774547,2.911,13630297.041,24924724.916,2.911,-1.006,0.043,-0.920,0.624,1.247,0.800,0.000,16,16,4*6B
$GPGGA,091735.20,3135.5667685,N,12046.6473833,E,4,16,1.5,2.9148,M,8.313,M,01,0004*69
$GPHPD,1957,33473.000,142.09,0.22,13.71,31.5927795,120.7774564,2.915,13630298.894,24924726.838,2.915,-0.977,0.025,-0.924,0.624,1.247,0.800,0.000,16,16,4*4B
$GPGGA,091735.40,3135.5666518,N,12046.6474891,E,4,16,1.5,2.9109,M,8.313,M,01,0004*63
$GPHPD,1957,33473.200,142.14,0.36,13.72,31.5927775,120.7774582,2.911,13630300.766,24924728.793,2.911,-1.003,0.072,-0.894,0.624,1.247,0.800,0.000,16,16,4*44
$GPGGA,091735.60,3135.5665357,N,12046.6475922,E,4,16,1.5,2.9153,M,8.313,M,00,0004*69
$GPHPD,1957,33473.400,142.05,0.30,13.70,31.5927756,120.7774599,2.915,13630302.623,24924730.712,2.915,-1.012,0.064,-0.901,0.624,1.247,0.800,0.000,16,16,4*45
$GPGGA,091735.80,3135.5664175,N,12046.6476966,E,4,16,1.5,2.9120,M,8.313,M,00,0004*63
$GPHPD,1957,33473.600,142.12,0.37,13.69,31.5927736,120.7774616,2.912,13630304.513,24924732.659,2.912,-1.014,0.100,-0.899,0.624,1.247,0.800,0.000,16,16,4*43
$GPGGA,091736.00,3135.5663048,N,12046.6478033,E,4,16,1.5,2.9131,M,8.313,M,01,0004*66
$GPHPD,1957,33473.800,142.02,-0.28,13.69,31.5927717,120.7774634,2.913,13630306.330,24924734.602,2.913,-1.000,0.067,-0.920,0.624,1.247,0.800,0.000,16,16,4*67
$GPGGA,091736.20,3135.5661887,N,12046.6479067,E,4,16,1.5,2.9076,M,8.313,M,01,0004*6F
$GPHPD,1957,33474.000,142.08,-0.18,13.70,31.5927698,120.7774651,2.908,13630308.188,24924736.525,2.908,-1.003,0.031,-0.917,0.598,1.230,0.755,0.000,16,16,4*68
$GPGGA,091736.40,3135.5660717,N,12046.6480102,E,4,16,1.5,2.9118,M,8.313,M,01,0004*63
$GPHPD,1957,33474.200,142.15,-0.09,13.70,31.5927679,120.7774668,2.912,13630310.059,24924738.454,2.912,-0.973,0.036,-0.915,0.604,1.239,0.858,0.000,16,16,4*69
$GPGGA,091736.60,3135.5659504,N,12046.6481114,E,4,17,1.5,2.9218,M,8.313,M,00,0004*6E
$GPHPD,1957,33474.400,142.19,0.13,13.71,31.5927658,120.7774685,2.922,13630311.987,24924740.381,2.922,-0.988,0.043,-0.908,0.598,1.230,0.755,0.000,17,16,4*49
$GPGGA,091736.80,3135.5658342,N,12046.6482149,E,4,17,1.5,2.9177,M,8.313,M,00,0004*64
$GPHPD,1957,33474.600,142.09,-0.20,13.73,31.5927639,120.7774702,2.918,13630313.847,24924742.305,2.918,-1.014,0.134,-0.923,0.597,1.210,0.749,0.000,17,17,4*69
$GPGGA,091737.00,3135.5657173,N,12046.6483164,E,4,17,1.5,2.9183,M,8.313,M,01,0004*66
$GPHPD,1957,33474.800,141.95,-0.18,13.74,31.5927620,120.7774719,2.918,13630315.712,24924744.210,2.918,-1.003,0.082,-0.907,0.597,1.210,0.749,0.000,17,17,4*69
$GPGGA,091737.20,3135.5656043,N,12046.6484268,E,4,17,1.5,2.9137,M,8.313,M,01,0004*60
$GPHPD,1957,33475.000,141.94,0.15,13.73,31.5927601,120.7774738,2.914,13630317.541,24924746.199,2.914,-0.979,0.068,-0.928,0.597,1.210,0.749,0.000,17,17,4*4C
$GPGGA,091737.40,3135.5654868,N,12046.6485326,E,4,17,1.5,2.9113,M,8.313,M,01,0004*69
$GPHPD,1957,33475.200,142.07,-0.03,13.73,31.5927581,120.7774755,2.911,13630319.424,24924748.159,2.911,-0.995,0.078,-0.906,0.597,1.210,0.750,0.000,17,17,4*64
$GPGGA,091737.60,3135.5653688,N,12046.6486367,E,4,17,1.5,2.9207,M,8.313,M,00,0004*6D
$GPHPD,1957,33475.400,141.91,-0.16,13.74,31.5927561,120.7774773,2.921,13630321.310,24924750.101,2.921,-0.997,0.049,-0.924,0.597,1.210,0.750,0.000,17,17,4*68
$GPGGA,091737.80,3135.5652506,N,12046.6487403,E,4,17,1.5,2.9186,M,8.313,M,00,0004*69
$GPHPD,1957,33475.600,141.91,0.03,13.72,31.5927542,120.7774790,2.919,13630323.199,24924752.039,2.919,-0.989,0.071,-0.929,0.598,1.214,0.792,0.000,17,17,4*4C
$GPGGA,091738.00,3135.5651345,N,12046.6488404,E,4,17,1.5,2.9143,M,8.313,M,01,0004*6C
$GPHPD,1957,33475.800,141.73,0.06,13.72,31.5927522,120.7774807,2.914,13630325.050,24924753.922,2.914,-1.018,0.056,-0.934,0.598,1.214,0.792,0.000,17,17,4*45
$GPGGA,091738.20,3135.5650180,N,12046.6489491,E,4,17,1.5,2.9120,M,8.313,M,01,0004*6C
$GPHPD,1957,33476.000,142.02,-0.15,13.71,31.5927503,120.7774825,2.912,13630326.925,24924755.911,2.912,-0.992,0.042,-0.914,0.682,1.259,0.752,0.000,17,17,4*6A
$GPGGA,091738.40,3135.5649007,N,12046.6490563,E,4,17,1.5,2.9087,M,8.313,M,01,0004*64
$GPHPD,1957,33476.200,142.38,0.18,13.70,31.5927483,120.7774843,2.909,13630328.808,24924757.886,2.909,-0.995,0.045,-0.920,0.598,1.214,0.792,0.000,17,17,4*4E
$GPGGA,091738.60,3135.5647822,N,12046.6491590,E,4,17,1.5,2.9174,M,8.313,M,00,0004*66
$GPHPD,1957,33476.400,142.29,0.32,13.69,31.5927464,120.7774860,2.917,13630330.699,24924759.815,2.917,-0.994,0.001,-0.958,0.682,1.259,0.752,0.000,17,17,4*48
$GPGGA,091738.80,3135.5646644,N,12046.6492612,E,4,17,1.5,2.9153,M,8.313,M,00,0004*68
$GPHPD,1957,33476.600,142.39,0.53,13.67,31.5927444,120.7774877,2.915,13630332.579,24924761.733,2.915,-1.016,0.096,-0.921,0.597,1.210,0.750,0.000,17,17,4*43
$GPGGA,091739.00,3135.5645501,N,12046.6493702,E,4,17,1.5,2.9148,M,8.313,M,01,0004*6A
$GPHPD,1957,33476.800,141.93,-0.01,13.69,31.5927425,120.7774895,2.915,13630334.423,24924763.713,2.915,-0.991,0.067,-0.934,0.597,1.210,0.750,0.000,17,17,4*64
$GPGGA,091739.20,3135.5644329,N,12046.6494725,E,4,17,1.5,2.9164,M,8.313,M,01,0004*69
$GPHPD,1957,33477.000,142.24,-0.33,13.72,31.5927405,120.7774912,2.916,13630336.294,24924765.629,2.916,-1.007,0.046,-0.914,0.597,1.210,0.750,0.000,17,17,4*65
$GPGGA,091739.40,3135.5643172,N,12046.6495761,E,4,17,1.5,2.9287,M,8.313,M,01,0004*6B
$GPHPD,1957,33477.200,141.85,-0.27,13.74,31.5927386,120.7774929,2.929,13630338.147,24924767.552,2.929,-0.990,0.060,-0.926,0.621,1.233,0.799,0.000,17,17,4*6F
$GPGGA,091739.60,3135.5642021,N,12046.6496821,E,4,17,1.5,2.9212,M,8.313,M,00,0004*6A
$GPHPD,1957,33477.400,141.73,-0.50,13.78,31.5927367,120.7774947,2.921,13630339.996,24924769.500,2.921,-1.000,0.129,-0.881,0.597,1.210,0.750,0.000,17,16,4*6D
$GPGGA,091739.80,3135.5640862,N,12046.6497867,E,4,17,1.5,2.9207,M,8.313,M,00,0004*6E
$GPHPD,1957,33477.600,141.83,-0.27,13.83,31.5927348,120.7774964,2.921,13630341.854,24924771.436,2.921,-0.997,0.054,-0.911,0.597,1.210,0.750,0.000,17,16,4*60
$GPGGA,091740.00,3135.5639712,N,12046.6498917,E,4,17,1.5,2.9126,M,8.313,M,01,0004*66
$GPHPD,1957,33477.800,141.84,0.28,13.86,31.5927329,120.7774982,2.913,13630343.700,24924773.372,2.913,-0.994,0.045,-0.918,0.597,1.210,0.750,0.000,17,16,4*42
$GPGGA,091740.20,3135.5638552,N,12046.6499961,E,4,17,1.5,2.9139,M,8.313,M,01,0004*6D
$GPHPD,1957,33478.000,141.88,0.55,13.90,31.5927309,120.7774999,2.914,13630345.559,24924775.306,2.914,-1.001,0.004,-0.932,0.597,1.210,0.750,0.000,17,16,4*48
$GPGGA,091740.40,3135.5637452,N,12046.6501012,E,4,17,1.5,2.9210,M,8.313,M,01,0004*60
$GPHPD,1957,33478.200,141.85,0.60,13.93,31.5927291,120.7775017,2.921,13630347.334,24924777.214,2.921,-0.994,0.055,-0.903,0.621,1.233,0.799,0.000,17,16,4*4B
$GPGGA,091740.60,3135.5636278,N,12046.6502021,E,4,17,1.5,2.9242,M,8.313,M,00,0004*68
$GPHPD,1957,33478.400,142.06,0.57,13.98,31.5927271,120.7775034,2.924,13630349.205,24924779.114,2.924,-0.969,0.019,-0.915,0.597,1.210,0.750,0.000,17,16,4*42
$GPGGA,091740.80,3135.5635144,N,12046.6503070,E,4,16,1.5,2.9316,M,8.313,M,00,0004*6D
$GPHPD,1957,33478.600,142.09,0.12,13.98,31.5927252,120.7775051,2.932,13630351.028,24924781.039,2.932,-0.999,0.081,-0.916,0.598,1.230,0.755,0.000,16,16,4*45
$GPGGA,091741.00,3135.5633981,N,12046.6504067,E,4,16,1.5,2.9271,M,8.313,M,01,0004*63
$GPHPD,1957,33478.800,142.08,-0.04,14.00,31.5927233,120.7775068,2.927,13630352.882,24924782.919,2.927,-0.998,0.072,-0.890,0.598,1.230,0.755,0.000,16,16,4*6A
$GPGGA,091741.20,3135.5632824,N,12046.6505089,E,4,16,1.5,2.9272,M,8.313,M,01,0004*6C
$GPHPD,1957,33479.000,142.06,-0.25,14.00,31.5927214,120.7775085,2.927,13630354.732,24924784.825,2.927,-0.974,0.058,-0.894,0.598,1.230,0.755,0.000,16,16,4*6C
$GPGGA,091741.40,3135.5631653,N,12046.6506106,E,4,16,1.5,2.9231,M,8.313,M,01,0004*65
$GPHPD,1957,33479.200,141.92,0.12,14.02,31.5927194,120.7775102,2.923,13630356.601,24924786.733,2.923,-0.989,0.087,-0.890,0.598,1.230,0.755,0.000,16,16,4*43
$GPGGA,091741.60,3135.5630500,N,12046.6507140,E,4,16,1.5,2.9283,M,8.313,M,00,0004*68
$GPHPD,1957,33479.400,141.89,0.36,13.95,31.5927175,120.7775119,2.928,13630358.448,24924788.651,2.928,-0.993,0.077,-0.918,0.598,1.230,0.755,0.000,16,16,4*4A
$GPGGA,091741.80,3135.5629325,N,12046.6508245,E,4,16,1.5,2.9255,M,8.314,M,00,0004*6A
$GPHPD,1957,33479.600,141.90,0.30,13.86,31.5927155,120.7775137,2.926,13630360.340,24924790.668,2.926,-0.996,0.070,-0.907,0.598,1.230,0.755,0.000,16,16,4*41
$GPGGA,091742.00,3135.5628125,N,12046.6509349,E,4,16,1.5,2.9209,M,8.314,M,01,0004*66
$GPHPD,1957,33479.800,142.20,-0.16,13.72,31.5927135,120.7775156,2.921,13630362.268,24924792.698,2.921,-1.019,0.006,-0.942,0.598,1.230,0.755,0.000,16,16,4*6F
$GPGGA,091742.20,3135.5626900,N,12046.6510380,E,4,16,1.5,2.9363,M,8.314,M,01,0004*65
$GPHPD,1957,33480.000,141.81,0.20,13.65,31.5927115,120.7775173,2.936,13630364.217,24924794.654,2.936,-1.037,0.039,-0.947,0.598,1.229,0.755,0.000,16,16,4*47
$GPGGA,091742.40,3135.5625747,N,12046.6511426,E,4,16,1.5,2.9321,M,8.314,M,01,0004*61
$GPHPD,1957,33480.200,141.75,0.07,13.70,31.5927096,120.7775190,2.932,13630366.066,24924796.587,2.932,-1.048,0.109,-0.933,0.598,1.229,0.755,0.000,16,16,4*48
$GPGGA,091742.60,3135.5624636,N,12046.6512460,E,4,16,1.5,2.9335,M,8.314,M,00,0004*60
$GPHPD,1957,33480.400,141.92,0.25,13.69,31.5927077,120.7775208,2.934,13630367.853,24924798.480,2.934,-0.979,0.078,-0.919,0.690,1.268,0.756,0.000,16,15,4*4E
$GPGGA,091742.80,3135.5623546,N,12046.6513436,E,4,17,1.5,2.9474,M,8.314,M,00,0004*6C
$GPHPD,1957,33480.600,141.97,-0.08,13.74,31.5927059,120.7775224,2.947,13630369.599,24924800.292,2.947,-0.970,0.022,-0.910,0.690,1.268,0.756,0.000,17,15,4*65
$GPGGA,091743.00,3135.5622517,N,12046.6514373,E,4,16,1.5,2.9373,M,8.314,M,01,0004*61
$GPHPD,1957,33480.800,141.81,-0.02,13.77,31.5927042,120.7775240,2.937,13630371.250,24924802.021,2.937,-0.997,0.101,-0.812,0.682,1.259,0.752,0.000,16,16,4*63
$GPGGA,091743.20,3135.5621603,N,12046.6515233,E,4,16,1.5,2.9492,M,8.314,M,01,0004*6A
$GPHPD,1957,33481.000,141.82,0.29,13.68,31.5927027,120.7775254,2.949,13630372.722,24924803.590,2.949,-0.905,0.095,-0.802,0.682,1.259,0.752,0.000,16,16,4*4E
$GPGGA,091743.40,3135.5620832,N,12046.6515901,E,4,16,1.5,2.9447,M,8.314,M,01,0004*63
$GPHPD,1957,33481.200,141.84,0.27,13.50,31.5927014,120.7775265,2.945,13630373.952,24924804.845,2.945,-0.806,0.090,-0.702,0.682,1.259,0.752,0.000,16,16,4*4F
$GPGGA,091743.60,3135.5620237,N,12046.6516443,E,4,16,1.5,2.9510,M,8.314,M,00,0004*64
$GPHPD,1957,33481.400,141.82,0.64,13.31,31.5927004,120.7775274,2.951,13630374.907,24924805.845,2.951,-0.679,0.080,-0.587,0.682,1.259,0.752,0.000,16,16,4*40
$GPGGA,091743.80,3135.5619863,N,12046.6516796,E,4,16,1.5,2.9391,M,8.314,M,00,0004*6F
$GPHPD,1957,33481.600,141.78,0.41,13.05,31.5926998,120.7775280,2.939,13630375.509,24924806.488,2.939,-0.525,0.031,-0.467,0.682,1.259,0.752,0.000,16,16,4*43
$GPGGA,091744.00,3135.5619675,N,12046.6516937,E,4,16,1.5,2.9376,M,8.314,M,01,0004*64
$GPHPD,1957,33481.800,141.77,0.52,12.82,31.5926995,120.7775282,2.938,13630375.805,24924806.767,2.938,-0.309,-0.016,-0.319,0.682,1.259,0.752,0.000,16,16,4*6C
$GPGGA,091744.20,3135.5619690,N,12046.6516919,E,4,16,1.5,2.9400,M,8.314,M,01,0004*67
$GPHPD,1957,33482.000,141.74,0.45,12.61,31.5926995,120.7775282,2.940,13630375.780,24924806.737,2.940,-0.157,0.009,-0.146,0.682,1.259,0.752,0.000,16,16,4*4A
$GPGGA,091744.40,3135.5619700,N,12046.6516913,E,4,16,1.5,2.9429,M,8.314,M,01,0004*68
$GPHPD,1957,33482.200,141.78,0.59,12.64,31.5926995,120.7775282,2.943,13630375.765,24924806.724,2.943,-0.010,0.009,0.014,0.683,1.259,0.752,0.000,16,16,4*6D
$GPGGA,091744.60,3135.5619712,N,12046.6516896,E,4,16,1.5,2.9401,M,8.314,M,00,0004*6E
$GPHPD,1957,33482.400,141.86,0.35,12.77,31.5926995,120.7775282,2.940,13630375.744,24924806.697,2.940,0.003,0.009,0.019,0.683,1.259,0.752,0.000,16,16,4*4A
$GPGGA,091744.80,3135.5619685,N,12046.6516911,E,4,16,1.5,2.9429,M,8.314,M,00,0004*6B
$GPHPD,1957,33482.600,141.77,0.46,12.81,31.5926995,120.7775282,2.943,13630375.786,24924806.730,2.943,0.014,-0.012,-0.002,0.683,1.259,0.752,0.000,16,16,4*4F
$GPGGA,091745.00,3135.5619708,N,12046.6516913,E,4,17,1.5,2.9374,M,8.314,M,01,0004*6B
$GPHPD,1957,33482.800,141.81,0.47,12.85,31.5926995,120.7775282,2.937,13630375.753,24924806.719,2.937,-0.001,-0.002,-0.008,0.683,1.259,0.752,0.000,17,16,4*6D
$GPGGA,091745.20,3135.5619714,N,12046.6516890,E,4,17,1.5,2.9460,M,8.314,M,01,0004*6C
$GPHPD,1957,33483.000,141.97,0.69,12.89,31.5926995,120.7775282,2.946,13630375.740,24924806.688,2.946,0.003,-0.019,-0.002,0.683,1.259,0.752,0.000,17,17,4*46
$GPGGA,091745.40,3135.5619699,N,12046.6516883,E,4,17,1.5,2.9475,M,8.314,M,01,0004*68
$GPHPD,1957,33483.200,141.81,0.44,12.94,31.5926995,120.7775281,2.948,13630375.760,24924806.688,2.948,0.005,0.007,0.009,0.683,1.259,0.752,0.000,17,17,4*43
$GPGGA,091745.60,3135.5619701,N,12046.6516894,E,4,17,1.5,2.9407,M,8.314,M,00,0004*68
$GPHPD,1957,33483.400,141.75,0.35,13.00,31.5926995,120.7775282,2.941,13630375.759,24924806.701,2.941,0.001,0.015,0.005,0.683,1.259,0.752,0.000,17,17,4*46
$GPGGA,091745.80,3135.5619724,N,12046.6516902,E,4,17,1.5,2.9368,M,8.314,M,00,0004*61
$GPHPD,1957,33483.600,141.99,0.91,13.03,31.5926995,120.7775282,2.937,13630375.728,24924806.697,2.937,0.004,-0.005,-0.010,0.683,1.259,0.752,0.000,17,17,4*43
$GPGGA,091746.00,3135.5619709,N,12046.6516898,E,4,17,1.5,2.9420,M,8.314,M,01,0004*6D
$GPHPD,1957,33483.800,141.97,1.06,13.06,31.5926995,120.7775282,2.942,13630375.749,24924806.701,2.942,0.009,-0.022,-0.004,0.683,1.259,0.752,0.000,17,17,4*4D
$GPGGA,091746.20,3135.5619701,N,12046.6516898,E,4,17,1.5,2.9451,M,8.314,M,01,0004*61
$GPHPD,1957,33484.000,141.88,0.72,13.10,31.5926995,120.7775282,2.945,13630375.760,24924806.705,2.945,0.000,0.008,0.001,0.683,1.259,0.752,0.000,17,17,4*42
$GPGGA,091746.40,3135.5619712,N,12046.6516895,E,4,17,1.5,2.9518,M,8.314,M,01,0004*64
$GPHPD,1957,33484.200,141.76,0.66,13.14,31.5926995,120.7775282,2.952,13630375.744,24924806.695,2.952,-0.007,0.002,-0.001,0.683,1.259,0.752,0.000,17,17,4*43
$GPGGA,091746.60,3135.5619721,N,12046.6516901,E,4,17,1.5,2.9531,M,8.314,M,00,0004*60
$GPHPD,1957,33484.400,141.84,0.07,13.19,31.5926995,120.7775282,2.953,13630375.732,24924806.697,2.953,-0.010,0.012,0.014,0.683,1.259,0.752,0.000,17,17,4*6F
$GPGGA,091746.80,3135.5619719,N,12046.6516902,E,4,17,1.5,2.9341,M,8.314,M,00,0004*67
$GPHPD,1957,33484.600,141.90,0.30,13.22,31.5926995,120.7775282,2.934,13630375.735,24924806.700,2.934,-0.012,0.003,0.015,0.683,1.259,0.752,0.000,17,17,4*6F
$GPGGA,091747.00,3135.5619713,N,12046.6516889,E,4,17,1.5,2.9360,M,8.314,M,01,0004*64
$GPHPD,1957,33484.800,141.82,0.46,13.26,31.5926995,120.7775281,2.936,13630375.741,24924806.687,2.936,0.017,-0.035,-0.013,0.683,1.259,0.752,0.000,17,17,4*42
$GPGGA,091747.20,3135.5619722,N,12046.6516905,E,4,17,1.5,2.9378,M,8.314,M,01,0004*68
$GPHPD,1957,33485.000,141.71,0.41,13.29,31.5926995,120.7775282,2.938,13630375.732,24924806.702,2.938,0.011,-0.010,-0.010,0.683,1.259,0.752,0.000,17,17,4*46
$GPGGA,091747.40,3135.5619741,N,12046.6516875,E,4,17,1.5,2.9441,M,8.314,M,01,0004*60
$GPHPD,1957,33485.200,141.84,0.36,13.31,31.5926996,120.7775281,2.944,13630375.699,24924806.654,2.944,-0.001,-0.007,0.003,0.683,1.259,0.752,0.000,17,17,4*40
$GPGGA,091747.60,3135.5619757,N,12046.6516859,E,4,17,1.5,2.9416,M,8.314,M,00,0004*68
$GPHPD,1957,33485.400,141.82,0.57,13.33,31.5926996,120.7775281,2.942,13630375.673,24924806.626,2.942,0.007,0.013,0.018,0.683,1.259,0.752,0.000,17,17,4*4D
$GPGGA,091747.80,3135.5619806,N,12046.6516822,E,4,17,1.5,2.9407,M,8.314,M,00,0004*61
$GPHPD,1957,33485.600,141.83,0.72,13.34,31.5926997,120.7775280,2.941,13630375.596,24924806.553,2.941,0.016,-0.002,0.012,0.683,1.259,0.752,0.000,17,17,4*60
$GPGGA,091748.00,3135.5619863,N,12046.6516777,E,4,17,1.5,2.9393,M,8.314,M,01,0004*61
$GPHPD,1957,33485.800,141.88,0.51,13.33,31.5926998,120.7775280,2.939,13630375.506,24924806.465,2.939,0.034,-0.010,0.031,0.683,1.259,0.752,0.000,17,17,4*63
