$GPGGA,090339.20,3135.6364543,N,12046.6140408,E,4,18,1.5,2.5992,M,8.311,M,01,0004*62
$GPHPD,0,0.000,61.96,5.19,-11.81,31.5939409,120.7769007,2.599,13629241.370,24923919.024,2.599,0.000,0.000,0.000,0.000,0.000,0.000,0.000,18,17,4*64
$GPGGA,090339.40,3135.6364910,N,12046.6141171,E,4,18,1.5,2.6145,M,8.311,M,01,0004*65
$GPHPD,0,0.000,62.58,5.25,-11.88,31.5939415,120.7769020,2.615,13629241.002,24923919.730,2.615,0.000,0.000,0.000,0.000,0.000,0.000,0.000,18,17,4*6F
$GPGGA,090339.60,3135.6365227,N,12046.6142014,E,4,18,1.5,2.6319,M,8.311,M,00,0004*62
$GPHPD,0,0.000,63.28,6.38,-11.95,31.5939420,120.7769034,2.632,13629240.721,24923920.562,2.632,0.000,0.000,0.000,0.000,0.000,0.000,0.000,18,17,4*61
$GPGGA,090339.80,3135.6365524,N,12046.6142949,E,4,18,1.5,2.6394,M,8.311,M,00,0004*6C
$GPHPD,0,0.000,63.09,4.31,-11.98,31.5939425,120.7769049,2.639,13629240.487,24923921.517,2.639,0.000,0.000,0.000,0.000,0.000,0.000,0.000,18,17,4*67
$GPGGA,090340.00,3135.6365956,N,12046.6143834,E,4,18,1.5,2.6718,M,8.311,M,01,0004*68
$GPHPD,0,0.000,62.12,3.27,-12.02,31.5939433,120.7769064,2.672,13629240.051,24923922.332,2.672,0.000,0.000,0.000,0.000,0.000,0.000,0.000,18,17,4*69
$GPGGA,090340.20,3135.6366382,N,12046.6144700,E,4,18,1.5,2.6804,M,8.311,M,01,0004*67
$GPHPD,0,0.000,62.69,1.86,-12.02,31.5939440,120.7769078,2.680,13629239.620,24923923.128,2.680,0.000,0.000,0.000,0.000,0.000,0.000,0.000,18,17,4*63
$GPGGA,090340.40,3135.6367011,N,12046.6145809,E,4,18,1.5,2.6724,M,8.311,M,01,0004*63
$GPHPD,0,0.000,62.49,2.99,-12.01,31.5939450,120.7769097,2.672,13629238.949,24923924.099,2.672,0.000,0.000,0.000,0.000,0.000,0.000,0.000,18,17,4*62
$GPGGA,090340.60,3135.6367420,N,12046.6146909,E,4,18,1.5,2.6873,M,8.311,M,00,0004*69
$GPHPD,0,0.000,63.38,2.64,-12.00,31.5939457,120.7769115,2.687,13629238.589,24923925.187,2.687,0.000,0.000,0.000,0.000,0.000,0.000,0.000,18,17,4*65
$GPGGA,090340.80,3135.6367954,N,12046.6147952,E,4,18,1.5,2.6905,M,8.311,M,00,0004*66
$GPHPD,0,0.000,61.08,-0.33,-11.99,31.5939466,120.7769133,2.691,13629238.040,24923926.134,2.691,0.000,0.000,0.000,0.000,0.000,0.000,0.000,18,17,4*47
$GPGGA,090341.00,3135.6368337,N,12046.6148804,E,4,18,1.6,2.7400,M,8.311,M,01,0004*69
$GPHPD,0,0.000,63.31,0.27,-11.94,31.5939472,120.7769147,2.740,13629237.667,24923926.938,2.740,0.000,0.000,0.000,0.000,0.000,0.000,0.000,18,16,4*65
$GPGGA,090341.20,3135.6368895,N,12046.6149994,E,4,18,1.6,2.6879,M,8.311,M,01,0004*62
$GPHPD,0,0.000,61.90,-1.35,-11.88,31.5939482,120.7769167,2.688,13629237.113,24923928.048,2.688,0.000,0.000,0.000,0.000,0.000,0.000,0.000,18,16,4*47
$GPGGA,090341.40,3135.6369232,N,12046.6150731,E,4,18,1.5,2.7306,M,8.311,M,01,0004*6A
$GPHPD,0,0.000,60.46,-1.52,-11.83,31.5939487,120.7769179,2.731,13629236.782,24923928.741,2.731,0.000,0.000,0.000,0.000,0.000,0.000,0.000,18,16,4*4C
$GPGGA,090341.60,3135.6369788,N,12046.6152024,E,4,18,1.5,2.6554,M,8.311,M,00,0004*6C
$GPHPD,0,0.000,60.83,-2.00,-11.81,31.5939496,120.7769200,2.655,13629236.252,24923929.976,2.655,0.000,0.000,0.000,0.000,0.000,0.000,0.000,18,16,4*4D
$GPGGA,090341.80,3135.6369997,N,12046.6152681,E,4,18,1.5,2.7022,M,8.311,M,00,0004*6E
$GPHPD,0,0.000,61.59,0.55,-11.77,31.5939500,120.7769211,2.702,13629236.087,24923930.646,2.702,0.000,0.000,0.000,0.000,0.000,0.000,0.000,18,16,4*6D
$GPGGA,090342.00,3135.6370410,N,12046.6153814,E,4,18,1.5,2.6335,M,8.311,M,01,0004*69
$GPHPD,0,0.000,61.51,0.83,-11.73,31.5939507,120.7769230,2.634,13629235.728,24923931.772,2.634,0.000,0.000,0.000,0.000,0.000,0.000,0.000,18,16,4*68
$GPGGA,090342.20,3135.6370853,N,12046.6154843,E,4,18,1.5,2.6334,M,8.311,M,01,0004*64
$GPHPD,0,0.000,60.62,0.75,-11.71,31.5939514,120.7769247,2.633,13629235.305,24923932.755,2.633,0.000,0.000,0.000,0.000,0.000,0.000,0.000,18,16,4*6D
$GPGGA,090342.40,3135.6371087,N,12046.6155716,E,4,18,1.5,2.6453,M,8.311,M,01,0004*6A
$GPHPD,0,0.000,60.43,1.14,-11.72,31.5939518,120.7769262,2.645,13629235.148,24923933.671,2.645,0.000,0.000,0.000,0.000,0.000,0.000,0.000,18,16,4*6D
$GPGGA,090342.60,3135.6371559,N,12046.6156652,E,4,18,1.5,2.6303,M,8.311,M,00,0004*6F
$GPHPD,0,0.000,58.92,2.16,-11.71,31.5939526,120.7769278,2.630,13629234.666,24923934.525,2.630,0.000,0.000,0.000,0.000,0.000,0.000,0.000,18,16,4*61
$GPGGA,090342.80,3135.6372148,N,12046.6157631,E,4,18,1.5,2.6397,M,8.311,M,00,0004*6F
$GPHPD,0,0.000,61.27,4.66,-11.71,31.5939536,120.7769294,2.640,13629234.026,24923935.362,2.640,0.000,0.000,0.000,0.000,0.000,0.000,0.000,18,17,4*60
$GPGGA,090343.00,3135.6372420,N,12046.6158400,E,4,18,1.8,2.6851,M,8.311,M,01,0004*6F
$GPHPD,0,0.000,63.15,3.78,-11.71,31.5939540,120.7769307,2.685,13629233.794,24923936.131,2.685,0.000,0.000,0.000,0.000,0.000,0.000,0.000,18,17,4*6F
$GPGGA,090343.20,3135.6372776,N,12046.6159305,E,4,18,1.7,2.6702,M,8.311,M,01,0004*68
$GPHPD,0,0.000,61.25,3.71,-11.69,31.5939546,120.7769322,2.670,13629233.470,24923937.015,2.670,0.000,0.000,0.000,0.000,0.000,0.000,0.000,18,17,4*60
$GPGGA,090343.40,3135.6373366,N,12046.6160484,E,4,18,1.7,2.6204,M,8.311,M,01,0004*6D
$GPHPD,0,0.000,60.76,1.11,-11.66,31.5939556,120.7769341,2.620,13629232.868,24923938.093,2.620,0.000,0.000,0.000,0.000,0.000,0.000,0.000,18,17,4*6D
$GPGGA,090343.60,3135.6373826,N,12046.6161405,E,4,18,1.7,2.6184,M,8.311,M,00,0004*62
$GPHPD,0,0.000,61.11,1.89,-11.62,31.5939564,120.7769357,2.618,13629232.400,24923938.936,2.618,0.000,0.000,0.000,0.000,0.000,0.000,0.000,18,17,4*6A
$GPGGA,090343.80,3135.6374331,N,12046.6162383,E,4,18,1.7,2.6059,M,8.311,M,00,0004*6D
$GPHPD,0,0.000,60.22,-2.83,-11.56,31.5939572,120.7769373,2.606,13629231.879,24923939.821,2.606,0.000,0.000,0.000,0.000,0.000,0.000,0.000,18,17,4*4E
$GPGGA,090344.00,3135.6374671,N,12046.6163222,E,4,18,1.7,2.6215,M,8.311,M,01,0004*63
$GPHPD,0,0.000,60.62,-2.12,-11.53,31.5939578,120.7769387,2.622,13629231.564,24923940.634,2.622,0.000,0.000,0.000,0.000,0.000,0.000,0.000,18,17,4*43
$GPGGA,090344.20,3135.6374904,N,12046.6163813,E,4,18,1.7,2.6912,M,8.311,M,01,0004*68
$GPHPD,0,0.000,59.46,-3.25,-11.52,31.5939582,120.7769397,2.691,13629231.352,24923941.211,2.691,0.000,0.000,0.000,0.000,0.000,0.000,0.000,18,17,4*4E
$GPGGA,090344.40,3135.6375331,N,12046.6164753,E,4,18,1.7,2.6986,M,8.311,M,01,0004*62
$GPHPD,0,0.000,60.03,-1.56,-11.51,31.5939589,120.7769413,2.699,13629230.934,24923942.096,2.699,0.000,0.000,0.000,0.000,0.000,0.000,0.000,18,17,4*45
$GPGGA,090344.60,3135.6375851,N,12046.6165784,E,4,18,1.7,2.6758,M,8.311,M,00,0004*6A
$GPHPD,0,0.000,59.16,-3.06,-11.53,31.5939598,120.7769430,2.676,13629230.403,24923943.036,2.676,0.000,0.000,0.000,0.000,0.000,0.000,0.000,18,16,4*4C
$GPGGA,090344.80,3135.6376351,N,12046.6166813,E,4,18,1.7,2.6668,M,8.311,M,00,0004*6C
$GPHPD,0,0.000,60.01,-2.63,-11.56,31.5939606,120.7769447,2.667,13629229.899,24923943.986,2.667,0.000,0.000,0.000,0.000,0.000,0.000,0.000,18,17,4*47
$GPGGA,090345.00,3135.6376739,N,12046.6167726,E,4,18,1.7,2.6967,M,8.311,M,01,0004*66
$GPHPD,0,0.000,60.59,0.68,-11.59,31.5939612,120.7769462,2.697,13629229.531,24923944.861,2.697,0.000,0.000,0.000,0.000,0.000,0.000,0.000,18,17,4*63
$GPGGA,090345.20,3135.6377322,N,12046.6168851,E,4,18,1.7,2.6579,M,8.311,M,01,0004*68
$GPHPD,0,0.000,59.32,-0.54,-11.62,31.5939622,120.7769481,2.658,13629228.929,24923945.878,2.658,0.000,0.000,0.000,0.000,0.000,0.000,0.000,18,16,4*4C
$GPGGA,090345.40,3135.6377929,N,12046.6170321,E,4,18,1.7,2.5761,M,8.311,M,01,0004*62
$GPHPD,0,0.000,60.58,3.06,-11.64,31.5939632,120.7769505,2.576,13629228.362,24923947.297,2.576,0.000,0.000,0.000,0.000,0.000,0.000,0.000,18,16,4*65
$GPGGA,090345.60,3135.6378404,N,12046.6171295,E,4,18,1.7,2.5950,M,8.311,M,00,0004*6F
$GPHPD,0,0.000,59.44,5.04,-11.64,31.5939640,120.7769522,2.595,13629227.883,24923948.195,2.595,0.000,0.000,0.000,0.000,0.000,0.000,0.000,18,16,4*63
$GPGGA,090345.80,3135.6378819,N,12046.6172241,E,4,18,1.7,2.6372,M,8.311,M,00,0004*62
$GPHPD,0,0.000,59.87,1.00,-11.66,31.5939647,120.7769537,2.637,13629227.483,24923949.094,2.637,0.000,0.000,0.000,0.000,0.000,0.000,0.000,18,16,4*60
$GPGGA,090346.00,3135.6379386,N,12046.6173552,E,4,18,1.7,2.5931,M,8.311,M,01,0004*6E
$GPHPD,0,0.000,60.17,-2.60,-11.69,31.5939656,120.7769559,2.593,13629226.941,24923950.344,2.593,0.000,0.000,0.000,0.000,0.000,0.000,0.000,18,16,4*48
$GPGGA,090346.20,3135.6379814,N,12046.6174580,E,4,18,1.9,2.6520,M,8.311,M,01,0004*65
$GPHPD,0,0.000,61.27,2.02,-11.70,31.5939664,120.7769576,2.652,13629226.539,24923951.334,2.652,0.000,0.000,0.000,0.000,0.000,0.000,0.000,18,16,4*62
$GPGGA,090346.40,3135.6380362,N,12046.6175714,E,4,18,1.9,2.6306,M,8.311,M,01,0004*63
$GPHPD,0,0.000,58.09,-8.06,-11.74,31.5939673,120.7769595,2.631,13629225.989,24923952.383,2.631,0.000,0.000,0.000,0.000,0.000,0.000,0.000,18,8,4*7C
$GPGGA,090346.60,3135.6381005,N,12046.6177126,E,4,18,1.9,2.5525,M,8.311,M,00,0004*62
$GPHPD,0,0.000,92.61,49.69,-11.78,31.5939683,120.7769619,2.553,13629225.359,24923953.711,2.553,0.000,0.000,0.000,0.000,0.000,0.000,0.000,18,17,4*56
$GPGGA,090346.80,3135.6381417,N,12046.6178359,E,4,18,1.9,2.5434,M,8.311,M,00,0004*6F
$GPHPD,0,0.000,81.24,56.83,-11.83,31.5939690,120.7769639,2.543,13629225.021,24923954.958,2.543,0.000,0.000,0.000,0.000,0.000,0.000,0.000,18,17,5*52
$GPGGA,090347.00,3135.6382043,N,12046.6179506,E,4,18,1.9,2.5348,M,8.311,M,01,0004*60
$GPHPD,0,0.000,73.03,33.97,-11.87,31.5939701,120.7769658,2.535,13629224.362,24923955.976,2.535,0.000,0.000,0.000,0.000,0.000,0.000,0.000,18,16,5*5F
$GPGGA,090347.20,3135.6382375,N,12046.6180307,E,4,18,1.9,2.6610,M,8.311,M,01,0004*6E
$GPHPD,0,0.000,69.36,25.64,-11.92,31.5939706,120.7769672,2.661,13629224.052,24923956.748,2.661,0.000,0.000,0.000,0.000,0.000,0.000,0.000,18,16,5*52
$GPGGA,090347.40,3135.6383067,N,12046.6181702,E,4,18,1.9,2.6155,M,8.311,M,01,0004*6F
$GPHPD,0,0.000,67.84,13.92,-11.97,31.5939718,120.7769695,2.616,13629223.349,24923958.028,2.616,0.000,0.000,0.000,0.000,0.000,0.000,0.000,18,16,5*5B
$GPGGA,090347.60,3135.6383669,N,12046.6183169,E,4,17,1.9,2.5834,M,8.311,M,00,0004*6F
$GPHPD,0,0.000,68.81,9.20,-12.03,31.5939728,120.7769719,2.583,13629222.788,24923959.446,2.583,0.000,0.000,0.000,0.000,0.000,0.000,0.000,17,16,5*61
$GPGGA,090347.80,3135.6384225,N,12046.6184327,E,4,18,1.9,2.6126,M,8.311,M,00,0004*63
$GPHPD,0,0.000,63.41,2.08,-12.07,31.5939737,120.7769739,2.613,13629222.231,24923960.518,2.613,0.000,0.000,0.000,0.000,0.000,0.000,0.000,18,17,5*66
$GPGGA,090348.00,3135.6384709,N,12046.6185299,E,4,18,1.9,2.6920,M,8.311,M,01,0004*65
$GPHPD,0,0.000,59.16,3.68,-12.13,31.5939745,120.7769755,2.692,13629221.738,24923961.408,2.692,0.000,0.000,0.000,0.000,0.000,0.000,0.000,18,17,5*6E
$GPGGA,090348.20,3135.6385280,N,12046.6186542,E,4,18,1.7,2.6691,M,8.311,M,01,0004*6B
$GPHPD,0,0.000,60.38,1.88,-12.14,31.5939755,120.7769776,2.669,13629221.177,24923962.575,2.669,0.000,0.000,0.000,0.000,0.000,0.000,0.000,18,17,5*66
$GPGGA,090348.40,3135.6386052,N,12046.6188113,E,4,18,1.7,2.5872,M,8.311,M,01,0004*6D
$GPHPD,0,0.000,61.41,8.77,-12.15,31.5939768,120.7769802,2.587,13629220.396,24923964.019,2.587,0.000,0.000,0.000,0.000,0.000,0.000,0.000,18,17,5*66
$GPGGA,090348.60,3135.6386584,N,12046.6189066,E,4,18,1.7,2.6634,M,8.311,M,00,0004*6D
$GPHPD,0,0.000,60.32,8.81,-12.17,31.5939776,120.7769818,2.663,13629219.831,24923964.859,2.663,0.000,0.000,0.000,0.000,0.000,0.000,0.000,18,16,5*6D
$GPGGA,090348.80,3135.6387291,N,12046.6190940,E,4,18,1.7,2.5425,M,8.311,M,00,0004*65
$GPHPD,0,0.000,58.05,7.95,-12.20,31.5939788,120.7769849,2.543,13629219.203,24923966.707,2.543,0.000,0.000,0.000,0.000,0.000,0.000,0.000,18,17,5*65
$GPGGA,090349.00,3135.6387447,N,12046.6191748,E,4,18,1.7,2.7163,M,8.311,M,01,0004*62
$GPHPD,0,0.000,58.44,7.21,-12.23,31.5939791,120.7769862,2.716,13629219.144,24923967.590,2.716,0.000,0.000,0.000,0.000,0.000,0.000,0.000,18,16,5*61
$GPGGA,090349.20,3135.6388412,N,12046.6193124,E,4,18,1.5,2.6055,M,8.311,M,01,0004*66
$GPHPD,0,0.000,351.27,6.68,-12.25,31.5939807,120.7769885,2.606,13629218.049,24923968.687,2.606,0.000,0.000,0.000,0.000,0.000,0.000,0.000,18,5,1*6C
$GPGGA,090349.40,3135.6389289,N,12046.6194642,E,4,18,1.5,2.5548,M,8.311,M,01,0004*6F
$GPHPD,0,0.000,75.69,50.84,-12.26,31.5939821,120.7769911,2.555,13629217.108,24923970.007,2.555,0.000,0.000,0.000,0.000,0.000,0.000,0.000,18,15,4*51
$GPGGA,090349.60,3135.6389648,N,12046.6195750,E,4,18,1.9,2.6066,M,8.311,M,00,0004*60
$GPHPD,0,0.000,95.22,54.70,-12.25,31.5939827,120.7769929,2.607,13629216.821,24923971.134,2.607,0.000,0.000,0.000,0.000,0.000,0.000,0.000,18,16,5*50
$GPGGA,090349.80,3135.6390257,N,12046.6197109,E,4,18,1.9,2.5624,M,8.311,M,00,0004*67
$GPHPD,0,0.000,74.77,65.48,-12.24,31.5939838,120.7769952,2.562,13629216.229,24923972.418,2.562,0.000,0.000,0.000,0.000,0.000,0.000,0.000,18,16,5*5F
$GPGGA,090350.00,3135.6390802,N,12046.6198242,E,4,18,1.9,2.5902,M,8.311,M,01,0004*64
$GPHPD,0,0.000,76.60,53.26,-12.22,31.5939847,120.7769971,2.590,13629215.682,24923973.466,2.590,0.000,0.000,0.000,0.000,0.000,0.000,0.000,18,15,5*54
$GPGGA,090350.20,3135.6391539,N,12046.6199573,E,4,18,1.9,2.5821,M,8.311,M,01,0004*66
$GPHPD,0,0.000,77.35,60.18,-12.20,31.5939859,120.7769993,2.582,13629214.902,24923974.642,2.582,0.000,0.000,0.000,0.000,0.000,0.000,0.000,18,15,5*5C
$GPGGA,090350.40,3135.6392179,N,12046.6201020,E,4,18,1.9,2.5125,M,8.311,M,01,0004*6F
$GPHPD,0,0.000,76.81,61.23,-12.16,31.5939870,120.7770017,2.513,13629214.284,24923976.014,2.513,0.000,0.000,0.000,0.000,0.000,0.000,0.000,18,15,5*5A
$GPGGA,090350.60,3135.6392326,N,12046.6201597,E,4,18,2.1,2.6951,M,8.311,M,00,0004*6E
$GPHPD,0,0.000,78.49,60.56,-12.13,31.5939872,120.7770027,2.695,13629214.191,24923976.624,2.695,0.000,0.000,0.000,0.000,0.000,0.000,0.000,18,15,5*55
$GPGGA,090350.80,3135.6393217,N,12046.6203079,E,4,18,1.9,2.6410,M,8.311,M,00,0004*66
$GPHPD,0,0.000,77.25,54.18,-12.15,31.5939887,120.7770051,2.641,13629213.223,24923977.892,2.641,0.000,0.000,0.000,0.000,0.000,0.000,0.000,18,15,5*5F
$GPGGA,090351.00,3135.6394167,N,12046.6204744,E,4,18,2.1,2.5250,M,8.311,M,01,0004*69
$GPHPD,0,0.000,79.19,54.43,-12.18,31.5939903,120.7770079,2.525,13629212.207,24923979.347,2.525,0.000,0.000,0.000,0.000,0.000,0.000,0.000,18,15,5*50
$GPGGA,090351.20,3135.6394071,N,12046.6205281,E,4,18,2.2,2.7192,M,8.311,M,01,0004*6C
$GPHPD,0,0.000,78.03,56.55,-12.18,31.5939901,120.7770088,2.719,13629212.452,24923980.050,2.719,0.000,0.000,0.000,0.000,0.000,0.000,0.000,18,15,5*56
$GPGGA,090351.40,3135.6394843,N,12046.6206604,E,4,18,2.2,2.7075,M,8.311,M,01,0004*61
$GPHPD,0,0.000,74.12,59.51,-12.13,31.5939914,120.7770110,2.708,13629211.621,24923981.196,2.708,0.000,0.000,0.000,0.000,0.000,0.000,0.000,18,14,5*50
$GPGGA,090351.60,3135.6395492,N,12046.6207762,E,4,18,2.2,2.7265,M,8.311,M,00,0004*60
$GPHPD,0,0.000,76.03,63.74,-12.06,31.5939925,120.7770129,2.727,13629210.931,24923982.214,2.727,0.000,0.000,0.000,0.000,0.000,0.000,0.000,18,15,5*54
$GPGGA,090351.80,3135.6396662,N,12046.6209879,E,4,18,2.2,2.4861,M,8.311,M,00,0004*66
$GPHPD,0,0.000,77.36,62.13,-12.02,31.5939944,120.7770165,2.486,13629209.694,24923984.085,2.486,0.000,0.000,0.000,0.000,0.000,0.000,0.000,18,16,5*5F
$GPGGA,090352.00,3135.6397225,N,12046.6210980,E,4,18,2.1,2.4855,M,8.311,M,01,0004*61
$GPHPD,0,0.000,75.51,60.36,-12.00,31.5939954,120.7770183,2.486,13629209.115,24923985.085,2.486,0.000,0.000,0.000,0.000,0.000,0.000,0.000,18,13,5*58
$GPGGA,090352.20,3135.6397692,N,12046.6212060,E,4,18,1.4,2.5913,M,8.311,M,01,0004*6A
$GPHPD,0,0.000,358.03,24.50,-11.96,31.5939962,120.7770201,2.591,13629208.669,24923986.115,2.591,0.000,0.000,0.000,0.000,0.000,0.000,0.000,18,9,1*5A
$GPGGA,090352.40,3135.6398186,N,12046.6213093,E,4,18,1.5,2.6323,M,8.311,M,01,0004*67
$GPHPD,0,0.000,73.47,-28.93,-12.00,31.5939970,120.7770218,2.632,13629208.175,24923987.073,2.632,0.000,0.000,0.000,0.000,0.000,0.000,0.000,18,8,2*41
$GPGGA,090352.60,3135.6398736,N,12046.6214349,E,4,18,1.5,2.6194,M,8.311,M,00,0004*64
$GPHPD,0,0.000,73.43,-23.34,-11.99,31.5939979,120.7770239,2.619,13629207.646,24923988.267,2.619,0.000,0.000,0.000,0.000,0.000,0.000,0.000,18,13,5*77
$GPGGA,090352.80,3135.6399593,N,12046.6215293,E,4,18,1.5,2.6785,M,8.311,M,00,0004*67
$GPHPD,0,0.000,73.53,-7.23,-11.98,31.5939993,120.7770255,2.679,13629206.617,24923988.906,2.679,0.000,0.000,0.000,0.000,0.000,0.000,0.000,18,15,5*46
$GPGGA,090353.00,3135.6399825,N,12046.6216548,E,4,18,1.4,2.6461,M,8.311,M,01,0004*65
$GPHPD,0,0.000,90.39,56.87,-11.98,31.5939997,120.7770276,2.646,13629206.540,24923990.285,2.646,0.000,0.000,0.000,0.000,0.000,0.000,0.000,18,16,5*5E
$GPGGA,090353.20,3135.6400063,N,12046.6217592,E,4,18,1.5,2.6647,M,8.311,M,01,0004*6B
$GPHPD,0,0.000,88.50,55.11,-11.94,31.5940001,120.7770293,2.665,13629206.412,24923991.405,2.665,0.000,0.000,0.000,0.000,0.000,0.000,0.000,18,15,5*51
$GPGGA,090353.40,3135.6400775,N,12046.6219124,E,4,18,1.5,2.6043,M,8.311,M,01,0004*68
$GPHPD,0,0.000,83.72,39.85,-11.86,31.5940013,120.7770319,2.604,13629205.708,24923992.837,2.604,0.000,0.000,0.000,0.000,0.000,0.000,0.000,18,15,5*5B
$GPGGA,090353.60,3135.6401522,N,12046.6220315,E,4,17,1.5,2.6312,M,8.311,M,00,0004*68
$GPHPD,0,0.000,81.92,40.53,-11.86,31.5940025,120.7770339,2.631,13629204.886,24923993.838,2.631,0.000,0.000,0.000,0.000,0.000,0.000,0.000,17,14,5*5D
$GPGGA,090353.80,3135.6402480,N,12046.6221665,E,4,17,1.5,2.5840,M,8.311,M,00,0004*60
$GPHPD,0,0.000,77.08,44.23,-11.94,31.5940041,120.7770361,2.584,13629203.796,24923994.908,2.584,0.000,0.000,0.000,0.000,0.000,0.000,0.000,17,13,5*53
$GPGGA,090354.00,3135.6403159,N,12046.6222874,E,4,17,1.5,2.5760,M,8.311,M,01,0004*6E
$GPHPD,0,0.000,72.48,36.91,-11.98,31.5940053,120.7770381,2.576,13629203.074,24923995.971,2.576,0.000,0.000,0.000,0.000,0.000,0.000,0.000,17,14,5*5C
$GPGGA,090354.20,3135.6403877,N,12046.6224295,E,4,17,1.5,2.5567,M,8.311,M,01,0004*6F
$GPHPD,0,0.000,70.42,35.63,-12.02,31.5940065,120.7770405,2.557,13629202.339,24923997.266,2.557,0.000,0.000,0.000,0.000,0.000,0.000,0.000,17,12,5*56
$GPGGA,090354.40,3135.6404388,N,12046.6225409,E,4,17,1.5,2.5423,M,8.311,M,01,0004*66
$GPHPD,0,0.000,69.95,36.66,-12.06,31.5940073,120.7770423,2.542,13629201.837,24923998.312,2.542,0.000,0.000,0.000,0.000,0.000,0.000,0.000,17,12,5*5E
$GPGGA,090354.60,3135.6404628,N,12046.6226420,E,4,17,1.5,2.5531,M,8.311,M,00,0004*60
$GPHPD,0,0.000,71.11,38.64,-12.11,31.5940077,120.7770440,2.553,13629201.699,24923999.391,2.553,0.000,0.000,0.000,0.000,0.000,0.000,0.000,17,13,5*51
$GPGGA,090354.80,3135.6405499,N,12046.6227624,E,4,17,1.5,2.5731,M,8.311,M,00,0004*62
$GPHPD,0,0.000,68.60,42.15,-12.11,31.5940092,120.7770460,2.573,13629200.704,24924000.335,2.573,0.000,0.000,0.000,0.000,0.000,0.000,0.000,17,13,5*59
$GPGGA,090355.00,3135.6405938,N,12046.6228952,E,4,17,1.5,2.5314,M,8.311,M,01,0004*6E
$GPHPD,0,0.000,68.57,39.85,-12.11,31.5940099,120.7770483,2.531,13629200.347,24924001.681,2.531,0.000,0.000,0.000,0.000,0.000,0.000,0.000,17,15,5*50
$GPGGA,090355.20,3135.6406556,N,12046.6229862,E,4,17,1.6,2.5812,M,8.311,M,01,0004*66
$GPHPD,0,0.000,349.13,34.17,-12.13,31.5940109,120.7770498,2.581,13629199.652,24924002.418,2.581,0.000,0.000,0.000,0.000,0.000,0.000,0.000,17,11,1*65
$GPGGA,090355.40,3135.6407225,N,12046.6231041,E,4,18,1.5,2.5984,M,8.311,M,01,0004*60
$GPHPD,0,0.000,45.52,39.00,-12.14,31.5940120,120.7770517,2.598,13629198.938,24924003.450,2.598,0.000,0.000,0.000,0.000,0.000,0.000,0.000,18,14,2*58
$GPGGA,090355.60,3135.6407624,N,12046.6231835,E,4,18,1.5,2.6411,M,8.311,M,00,0004*6F
$GPHPD,0,0.000,56.11,-34.05,-12.18,31.5940127,120.7770531,2.641,13629198.530,24924004.175,2.641,0.000,0.000,0.000,0.000,0.000,0.000,0.000,18,14,5*71
$GPGGA,090355.80,3135.6408271,N,12046.6233284,E,4,18,1.5,2.5782,M,8.311,M,00,0004*62
$GPHPD,0,0.000,56.05,14.99,-12.26,31.5940138,120.7770555,2.578,13629197.902,24924005.546,2.578,0.000,0.000,0.000,0.000,0.000,0.000,0.000,18,14,5*58
$GPGGA,090356.00,3135.6408642,N,12046.6234050,E,4,18,1.8,2.6560,M,8.311,M,01,0004*60
$GPHPD,0,0.000,48.52,0.77,-12.34,31.5940144,120.7770568,2.656,13629197.529,24924006.253,2.656,0.000,0.000,0.000,0.000,0.000,0.000,0.000,18,14,5*63
$GPGGA,090356.20,3135.6409202,N,12046.6235164,E,4,18,1.8,2.6902,M,8.311,M,01,0004*6C
$GPHPD,0,0.000,47.51,-40.48,-12.38,31.5940153,120.7770586,2.690,13629196.957,24924007.270,2.690,0.000,0.000,0.000,0.000,0.000,0.000,0.000,18,14,5*74
$GPGGA,090356.40,3135.6409959,N,12046.6236484,E,4,18,1.8,2.6189,M,8.311,M,01,0004*6C
$GPHPD,0,0.000,53.92,10.30,-12.41,31.5940166,120.7770608,2.619,13629196.147,24924008.421,2.619,0.000,0.000,0.000,0.000,0.000,0.000,0.000,18,14,5*50
$GPGGA,090356.60,3135.6410555,N,12046.6237801,E,4,18,1.8,2.5455,M,8.311,M,00,0004*60
$GPHPD,0,0.000,54.10,-33.24,-12.45,31.5940176,120.7770630,2.546,13629195.565,24924009.662,2.546,0.000,0.000,0.000,0.000,0.000,0.000,0.000,18,15,5*78
$GPGGA,090356.80,3135.6410719,N,12046.6238559,E,4,18,1.8,2.5791,M,8.311,M,00,0004*60
$GPHPD,0,0.000,51.09,-33.77,-12.48,31.5940179,120.7770643,2.579,13629195.484,24924010.480,2.579,0.000,0.000,0.000,0.000,0.000,0.000,0.000,18,15,5*7D
$GPGGA,090357.00,3135.6411472,N,12046.6239973,E,4,18,1.4,2.5113,M,8.311,M,01,0004*62
$GPHPD,0,0.000,41.48,-22.71,-12.50,31.5940191,120.7770666,2.511,13629194.698,24924011.747,2.511,0.000,0.000,0.000,0.000,0.000,0.000,0.000,18,15,5*70
$GPGGA,090357.20,3135.6411635,N,12046.6240852,E,4,18,1.4,2.5307,M,8.311,M,01,0004*6A
$GPHPD,0,0.000,48.40,-16.28,-12.49,31.5940194,120.7770681,2.531,13629194.643,24924012.712,2.531,0.000,0.000,0.000,0.000,0.000,0.000,0.000,18,15,5*7B
$GPGGA,090357.40,3135.6412090,N,12046.6241453,E,4,18,1.4,2.5795,M,8.311,M,01,0004*65
$GPHPD,0,0.000,50.01,-11.65,-12.47,31.5940202,120.7770691,2.580,13629194.118,24924013.172,2.580,0.000,0.000,0.000,0.000,0.000,0.000,0.000,18,16,5*71
$GPGGA,090357.60,3135.6412572,N,12046.6242426,E,4,18,1.4,2.6015,M,8.311,M,00,0004*62
$GPHPD,0,0.000,49.48,-8.21,-12.44,31.5940210,120.7770707,2.602,13629193.628,24924014.064,2.602,0.000,0.000,0.000,0.000,0.000,0.000,0.000,18,16,5*40
$GPGGA,090357.80,3135.6413141,N,12046.6243660,E,4,18,1.5,2.5557,M,8.311,M,00,0004*69
$GPHPD,0,0.000,50.65,-7.75,-12.39,31.5940219,120.7770728,2.556,13629193.068,24924015.221,2.556,0.000,0.000,0.000,0.000,0.000,0.000,0.000,18,16,5*47
$GPGGA,090358.00,3135.6413721,N,12046.6244373,E,4,18,1.5,2.6175,M,8.311,M,01,0004*68
$GPHPD,0,0.000,51.63,4.53,-12.31,31.5940229,120.7770740,2.618,13629192.387,24924015.743,2.618,0.000,0.000,0.000,0.000,0.000,0.000,0.000,18,15,5*6E
$GPGGA,090358.20,3135.6414142,N,12046.6245369,E,4,18,1.5,2.6153,M,8.311,M,01,0004*60
$GPHPD,0,0.000,351.37,11.77,-12.27,31.5940236,120.7770756,2.615,13629191.989,24924016.698,2.615,0.000,0.000,0.000,0.000,0.000,0.000,0.000,18,14,1*66
$GPGGA,090358.40,3135.6414489,N,12046.6246122,E,4,18,1.5,2.6589,M,8.311,M,01,0004*69
$GPHPD,0,0.000,57.66,-3.57,-12.23,31.5940241,120.7770769,2.659,13629191.647,24924017.404,2.659,0.000,0.000,0.000,0.000,0.000,0.000,0.000,18,15,2*4A
$GPGGA,090358.60,3135.6415265,N,12046.6247547,E,4,18,1.5,2.5914,M,8.311,M,00,0004*62
$GPHPD,0,0.000,43.38,3.28,-12.21,31.5940254,120.7770792,2.591,13629190.831,24924018.670,2.591,0.000,0.000,0.000,0.000,0.000,0.000,0.000,18,15,5*64
$GPGGA,090358.80,3135.6415861,N,12046.6248708,E,4,18,1.5,2.5632,M,8.311,M,00,0004*6F
$GPHPD,0,0.000,53.28,-0.43,-12.19,31.5940264,120.7770812,2.563,13629190.217,24924019.723,2.563,0.000,0.000,0.000,0.000,0.000,0.000,0.000,18,15,5*40
$GPGGA,090359.00,3135.6416400,N,12046.6249862,E,4,18,1.5,2.5379,M,8.311,M,01,0004*67
$GPHPD,0,0.000,54.58,-11.32,-12.15,31.5940273,120.7770831,2.538,13629189.683,24924020.801,2.538,0.000,0.000,0.000,0.000,0.000,0.000,0.000,18,15,5*79
$GPGGA,090359.20,3135.6417051,N,12046.6250938,E,4,18,1.5,2.4950,M,8.311,M,01,0004*62
$GPHPD,0,0.000,54.31,-17.51,-12.14,31.5940284,120.7770849,2.495,13629188.975,24924021.719,2.495,0.000,0.000,0.000,0.000,0.000,0.000,0.000,18,15,5*73
$GPGGA,090359.40,3135.6417338,N,12046.6251762,E,4,18,1.5,2.5245,M,8.311,M,01,0004*66
$GPHPD,0,0.000,54.14,-8.48,-12.13,31.5940289,120.7770863,2.525,13629188.732,24924022.546,2.525,0.000,0.000,0.000,0.000,0.000,0.000,0.000,18,16,5*45
$GPGGA,090359.60,3135.6417767,N,12046.6252580,E,4,18,1.5,2.5338,M,8.311,M,00,0004*6D
$GPHPD,0,0.000,55.36,-11.65,-12.12,31.5940296,120.7770876,2.534,13629188.287,24924023.282,2.534,0.000,0.000,0.000,0.000,0.000,0.000,0.000,18,16,5*7D
$GPGGA,090359.80,3135.6418180,N,12046.6253566,E,4,18,1.5,2.5086,M,8.311,M,00,0004*6C
$GPHPD,0,0.000,53.11,-23.39,-12.10,31.5940303,120.7770893,2.509,13629187.899,24924024.230,2.509,0.000,0.000,0.000,0.000,0.000,0.000,0.000,18,16,5*76
$GPGGA,090400.00,3135.6418392,N,12046.6254286,E,4,18,1.5,2.5181,M,8.311,M,01,0004*67
$GPHPD,0,0.000,50.05,-30.36,-12.11,31.5940307,120.7770905,2.518,13629187.742,24924024.975,2.518,0.000,0.000,0.000,0.000,0.000,0.000,0.000,18,15,5*76
$GPGGA,090400.20,3135.6418891,N,12046.6255109,E,4,18,1.5,2.5320,M,8.311,M,01,0004*61
$GPHPD,0,0.000,49.99,-21.90,-12.12,31.5940315,120.7770918,2.532,13629187.198,24924025.677,2.532,0.000,0.000,0.000,0.000,0.000,0.000,0.000,18,16,5*75
$GPGGA,090400.40,3135.6419425,N,12046.6256045,E,4,18,1.3,2.5329,M,8.311,M,01,0004*60
$GPHPD,0,0.000,52.49,-16.82,-12.18,31.5940324,120.7770934,2.533,13629186.628,24924026.494,2.533,0.000,0.000,0.000,0.000,0.000,0.000,0.000,18,16,5*72
$GPGGA,090400.60,3135.6419787,N,12046.6256686,E,4,18,1.3,2.5639,M,8.311,M,00,0004*65
$GPHPD,0,0.000,52.57,-20.67,-12.24,31.5940330,120.7770945,2.564,13629186.242,24924027.057,2.564,0.000,0.000,0.000,0.000,0.000,0.000,0.000,18,16,5*7D
$GPGGA,090400.80,3135.6420150,N,12046.6257828,E,4,18,1.3,2.5513,M,8.311,M,00,0004*6D
$GPHPD,0,0.000,53.54,-18.37,-12.31,31.5940336,120.7770964,2.551,13629185.956,24924028.222,2.551,0.000,0.000,0.000,0.000,0.000,0.000,0.000,18,16,5*72
$GPGGA,090401.00,3135.6420708,N,12046.6258851,E,4,18,1.3,2.5813,M,8.311,M,01,0004*62
$GPHPD,0,0.000,52.93,-19.45,-12.40,31.5940345,120.7770981,2.581,13629185.369,24924029.131,2.581,0.000,0.000,0.000,0.000,0.000,0.000,0.000,18,16,5*73
$GPGGA,090401.20,3135.6421268,N,12046.6259898,E,4,18,1.3,2.5924,M,8.311,M,01,0004*63
$GPHPD,0,0.000,53.63,-19.11,-12.48,31.5940354,120.7770998,2.592,13629184.783,24924030.067,2.592,0.000,0.000,0.000,0.000,0.000,0.000,0.000,18,16,5*77
$GPGGA,090401.40,3135.6421734,N,12046.6260894,E,4,19,1.3,2.6114,M,8.311,M,01,0004*66
$GPHPD,0,0.000,53.78,-19.62,-12.54,31.5940362,120.7771015,2.611,13629184.321,24924030.997,2.611,0.000,0.000,0.000,0.000,0.000,0.000,0.000,19,16,5*77
$GPGGA,090401.60,3135.6422408,N,12046.6262239,E,4,19,1.2,2.6083,M,8.311,M,00,0004*6B
$GPHPD,0,0.000,54.55,-19.39,-12.60,31.5940373,120.7771037,2.608,13629183.634,24924032.226,2.608,0.000,0.000,0.000,0.000,0.000,0.000,0.000,19,17,5*72
$GPGGA,090401.80,3135.6423069,N,12046.6263694,E,4,19,1.2,2.5689,M,8.311,M,00,0004*6A
$GPHPD,0,0.000,55.86,-17.27,-12.65,31.5940384,120.7771062,2.569,13629182.987,24924033.595,2.569,0.000,0.000,0.000,0.000,0.000,0.000,0.000,19,17,5*79
$GPGGA,090402.00,3135.6423613,N,12046.6264894,E,4,19,1.3,2.5859,M,8.311,M,01,0004*60
$GPHPD,0,0.000,56.64,-10.09,-12.69,31.5940394,120.7771082,2.586,13629182.455,24924034.725,2.586,0.000,0.000,0.000,0.000,0.000,0.000,0.000,19,15,5*70
$GPGGA,090402.20,3135.6424202,N,12046.6266081,E,4,19,1.3,2.5919,M,8.311,M,01,0004*6A
$GPHPD,0,0.000,56.80,-8.67,-12.72,31.5940403,120.7771101,2.592,13629181.857,24924035.814,2.592,0.000,0.000,0.000,0.000,0.000,0.000,0.000,19,16,5*40
$GPGGA,090402.40,3135.6425004,N,12046.6267530,E,4,19,1.3,2.5859,M,8.311,M,01,0004*62
$GPHPD,0,0.000,59.04,-0.21,-12.72,31.5940417,120.7771126,2.586,13629181.009,24924037.094,2.586,0.000,0.000,0.000,0.000,0.000,0.000,0.000,19,16,5*48
$GPGGA,090402.60,3135.6425647,N,12046.6268953,E,4,19,1.3,2.6014,M,8.311,M,00,0004*64
$GPHPD,0,0.000,58.44,-0.96,-12.74,31.5940427,120.7771149,2.601,13629180.381,24924038.435,2.601,0.000,0.000,0.000,0.000,0.000,0.000,0.000,19,15,5*4C
$GPGGA,090402.80,3135.6426339,N,12046.6270504,E,4,19,1.3,2.5796,M,8.311,M,00,0004*6C
$GPHPD,0,0.000,57.41,-3.46,-12.75,31.5940439,120.7771175,2.580,13629179.709,24924039.902,2.580,0.000,0.000,0.000,0.000,0.000,0.000,0.000,19,17,5*41
$GPGGA,090403.00,3135.6427054,N,12046.6271916,E,4,19,1.2,2.5766,M,8.311,M,01,0004*6D
$GPHPD,0,0.000,57.10,-1.44,-12.79,31.5940451,120.7771199,2.577,13629178.977,24924041.188,2.577,0.000,0.000,0.000,0.000,0.000,0.000,0.000,19,16,5*47
$GPGGA,090403.20,3135.6427835,N,12046.6273442,E,4,18,1.2,2.6010,M,8.311,M,01,0004*6A
$GPHPD,0,0.000,55.85,-0.61,-12.83,31.5940464,120.7771224,2.601,13629178.174,24924042.574,2.601,0.000,0.000,0.000,0.000,0.000,0.000,0.000,18,15,5*44
$GPGGA,090403.40,3135.6428636,N,12046.6275106,E,4,17,1.3,2.5769,M,8.311,M,01,0004*69
$GPHPD,0,0.000,52.88,-3.72,-12.81,31.5940477,120.7771252,2.577,13629177.370,24924044.113,2.577,0.000,0.000,0.000,0.000,0.000,0.000,0.000,17,16,5*48
$GPGGA,090403.60,3135.6429436,N,12046.6276757,E,4,18,1.3,2.5555,M,8.311,M,00,0004*6A
$GPHPD,0,0.000,58.25,-0.69,-12.84,31.5940491,120.7771279,2.556,13629176.565,24924045.638,2.556,0.000,0.000,0.000,0.000,0.000,0.000,0.000,18,15,5*48
$GPGGA,090403.80,3135.6430155,N,12046.6278587,E,4,17,1.3,2.5230,M,8.311,M,00,0004*66
$GPHPD,0,0.000,57.52,1.17,-12.86,31.5940503,120.7771310,2.523,13629175.912,24924047.426,2.523,0.000,0.000,0.000,0.000,0.000,0.000,0.000,17,15,5*6B
$GPGGA,090404.00,3135.6431022,N,12046.6280221,E,4,17,1.3,2.5466,M,8.311,M,01,0004*61
$GPHPD,0,0.000,58.65,2.32,-12.86,31.5940517,120.7771337,2.547,13629175.008,24924048.891,2.547,0.000,0.000,0.000,0.000,0.000,0.000,0.000,17,14,5*68
$GPGGA,090404.20,3135.6431797,N,12046.6281723,E,4,17,1.3,2.5759,M,8.311,M,01,0004*63
$GPHPD,0,0.000,60.46,3.11,-12.88,31.5940530,120.7771362,2.576,13629174.209,24924050.251,2.576,0.000,0.000,0.000,0.000,0.000,0.000,0.000,17,14,5*64
$GPGGA,090404.40,3135.6432470,N,12046.6283323,E,4,17,1.3,2.5972,M,8.311,M,01,0004*6D
$GPHPD,0,0.000,56.38,3.25,-12.88,31.5940541,120.7771389,2.597,13629173.574,24924051.788,2.597,0.000,0.000,0.000,0.000,0.000,0.000,0.000,17,14,5*66
$GPGGA,090404.60,3135.6433267,N,12046.6284955,E,4,17,1.3,2.5916,M,8.311,M,00,0004*61
$GPHPD,0,0.000,56.61,4.16,-12.89,31.5940554,120.7771416,2.592,13629172.770,24924053.292,2.592,0.000,0.000,0.000,0.000,0.000,0.000,0.000,17,13,5*65
$GPGGA,090404.80,3135.6434229,N,12046.6286852,E,4,17,1.3,2.5794,M,8.311,M,00,0004*62
$GPHPD,0,0.000,56.84,0.79,-12.89,31.5940570,120.7771448,2.579,13629171.784,24924055.019,2.579,0.000,0.000,0.000,0.000,0.000,0.000,0.000,17,13,5*61
$GPGGA,090405.00,3135.6435046,N,12046.6288590,E,4,17,1.3,2.5955,M,8.311,M,01,0004*6E
$GPHPD,0,0.000,56.08,-1.00,-12.86,31.5940584,120.7771477,2.596,13629170.972,24924056.639,2.596,0.000,0.000,0.000,0.000,0.000,0.000,0.000,17,14,5*49
$GPGGA,090405.20,3135.6435976,N,12046.6290253,E,4,17,1.3,2.6182,M,8.311,M,01,0004*66
$GPHPD,0,0.000,358.04,26.27,-12.85,31.5940600,120.7771504,2.618,13629169.985,24924058.103,2.618,0.000,0.000,0.000,0.000,0.000,0.000,0.000,17,11,1*6D
$GPGGA,090405.40,3135.6436806,N,12046.6292056,E,4,17,1.5,2.6193,M,8.311,M,01,0004*66
$GPHPD,0,0.000,55.58,16.03,-12.84,31.5940613,120.7771534,2.619,13629169.168,24924059.793,2.619,0.000,0.000,0.000,0.000,0.000,0.000,0.000,17,14,2*5C
$GPGGA,090405.60,3135.6437554,N,12046.6294011,E,4,17,1.5,2.5838,M,8.311,M,00,0004*60
$GPHPD,0,0.000,55.02,21.50,-12.84,31.5940626,120.7771567,2.584,13629168.498,24924061.715,2.584,0.000,0.000,0.000,0.000,0.000,0.000,0.000,17,14,5*58
$GPGGA,090405.80,3135.6438421,N,12046.6295753,E,4,17,1.4,2.5753,M,8.311,M,00,0004*61
$GPHPD,0,0.000,53.56,20.63,-12.84,31.5940640,120.7771596,2.575,13629167.616,24924063.310,2.575,0.000,0.000,0.000,0.000,0.000,0.000,0.000,17,14,5*58
$GPGGA,090406.00,3135.6439731,N,12046.6297661,E,4,17,1.4,2.5600,M,8.311,M,01,0004*6D
$GPHPD,0,0.000,53.14,18.80,-12.81,31.5940662,120.7771628,2.560,13629166.138,24924064.848,2.560,0.000,0.000,0.000,0.000,0.000,0.000,0.000,17,14,5*50
$GPGGA,090406.20,3135.6440091,N,12046.6299504,E,4,17,1.3,2.5075,M,8.311,M,01,0004*61
$GPHPD,0,0.000,51.67,23.09,-12.82,31.5940668,120.7771658,2.508,13629165.997,24924066.861,2.508,0.000,0.000,0.000,0.000,0.000,0.000,0.000,17,13,5*51
$GPGGA,090406.40,3135.6441131,N,12046.6301384,E,4,17,1.3,2.5439,M,8.311,M,01,0004*6F
$GPHPD,0,0.000,50.49,12.76,-12.80,31.5940686,120.7771690,2.544,13629164.897,24924068.522,2.544,0.000,0.000,0.000,0.000,0.000,0.000,0.000,17,14,5*53
$GPGGA,090406.60,3135.6442042,N,12046.6303261,E,4,17,1.3,2.5458,M,8.311,M,00,0004*65
$GPHPD,0,0.000,52.92,-4.62,-12.78,31.5940701,120.7771721,2.546,13629163.980,24924070.255,2.546,0.000,0.000,0.000,0.000,0.000,0.000,0.000,17,14,5*44
$GPGGA,090406.80,3135.6442940,N,12046.6305039,E,4,17,1.3,2.5580,M,8.312,M,00,0004*6E
$GPHPD,0,0.000,59.17,-4.79,-12.77,31.5940716,120.7771751,2.558,13629163.061,24924071.876,2.558,0.000,0.000,0.000,0.000,0.000,0.000,0.000,17,14,5*4A
$GPGGA,090407.00,3135.6443559,N,12046.6306948,E,4,17,1.2,2.5390,M,8.312,M,01,0004*69
$GPHPD,0,0.000,60.01,-3.94,-12.78,31.5940726,120.7771782,2.539,13629162.565,24924073.817,2.539,0.000,0.000,0.000,0.000,0.000,0.000,0.000,17,14,5*44
$GPGGA,090407.20,3135.6444736,N,12046.6308799,E,4,17,1.3,2.5691,M,8.312,M,01,0004*6E
$GPHPD,0,0.000,61.62,-7.57,-12.75,31.5940746,120.7771813,2.569,13629161.265,24924075.363,2.569,0.000,0.000,0.000,0.000,0.000,0.000,0.000,17,14,5*4D
$GPGGA,090407.40,3135.6445754,N,12046.6310760,E,4,19,1.2,2.5766,M,8.312,M,01,0004*64
$GPHPD,0,0.000,63.17,-13.38,-12.73,31.5940763,120.7771846,2.577,13629160.213,24924077.135,2.577,0.000,0.000,0.000,0.000,0.000,0.000,0.000,19,14,5*7D
$GPGGA,090407.60,3135.6446511,N,12046.6312709,E,4,19,1.2,2.5570,M,8.312,M,00,0004*6F
$GPHPD,0,0.000,63.91,-13.63,-12.71,31.5940775,120.7771878,2.557,13629159.529,24924079.044,2.557,0.000,0.000,0.000,0.000,0.000,0.000,0.000,19,15,5*79
$GPGGA,090407.80,3135.6447077,N,12046.6314539,E,4,19,1.3,2.5435,M,8.312,M,00,0004*63
$GPHPD,0,0.000,60.21,-19.36,-12.70,31.5940785,120.7771909,2.544,13629159.092,24924080.921,2.544,0.000,0.000,0.000,0.000,0.000,0.000,0.000,19,15,5*7B
$GPGGA,090408.00,3135.6448037,N,12046.6316437,E,4,18,1.3,2.5474,M,8.312,M,01,0004*67
$GPHPD,0,0.000,59.77,-17.31,-12.71,31.5940801,120.7771941,2.547,13629158.110,24924082.651,2.547,0.000,0.000,0.000,0.000,0.000,0.000,0.000,18,15,5*74
$GPGGA,090408.20,3135.6449028,N,12046.6318388,E,4,18,1.3,2.5403,M,8.312,M,01,0004*67
$GPHPD,0,0.000,353.93,31.84,-12.72,31.5940817,120.7771973,2.540,13629157.094,24924084.426,2.540,0.000,0.000,0.000,0.000,0.000,0.000,0.000,18,13,1*61
$GPGGA,090408.40,3135.6449994,N,12046.6320371,E,4,18,1.3,2.5401,M,8.312,M,01,0004*60
$GPHPD,0,0.000,55.92,-22.91,-12.74,31.5940833,120.7772006,2.540,13629156.119,24924086.254,2.540,0.000,0.000,0.000,0.000,0.000,0.000,0.000,18,15,2*77
$GPGGA,090408.60,3135.6450767,N,12046.6322246,E,4,18,1.3,2.5484,M,8.312,M,00,0004*63
$GPHPD,0,0.000,75.83,-0.37,-12.74,31.5940846,120.7772037,2.548,13629155.398,24924088.065,2.548,0.000,0.000,0.000,0.000,0.000,0.000,0.000,18,15,5*48
$GPGGA,090408.80,3135.6451639,N,12046.6324201,E,4,18,1.3,2.5428,M,8.312,M,00,0004*65
$GPHPD,0,0.000,69.64,5.58,-12.74,31.5940861,120.7772070,2.543,13629154.552,24924089.914,2.543,0.000,0.000,0.000,0.000,0.000,0.000,0.000,18,15,5*64
$GPGGA,090409.00,3135.6452520,N,12046.6326124,E,4,18,1.3,2.5327,M,8.312,M,01,0004*6B
$GPHPD,0,0.000,69.37,7.25,-12.76,31.5940875,120.7772102,2.533,13629153.687,24924091.720,2.533,0.000,0.000,0.000,0.000,0.000,0.000,0.000,18,14,5*64
$GPGGA,090409.20,3135.6453447,N,12046.6328028,E,4,18,1.3,2.5460,M,8.312,M,01,0004*6F
$GPHPD,0,0.000,67.98,15.79,-12.77,31.5940891,120.7772134,2.546,13629152.752,24924093.476,2.546,0.000,0.000,0.000,0.000,0.000,0.000,0.000,18,14,5*51
$GPGGA,090409.40,3135.6454049,N,12046.6329922,E,4,18,1.3,2.5394,M,8.312,M,01,0004*6A
$GPHPD,0,0.000,64.40,14.64,-12.76,31.5940901,120.7772165,2.539,13629152.277,24924095.409,2.539,0.000,0.000,0.000,0.000,0.000,0.000,0.000,18,15,5*5A
$GPGGA,090409.60,3135.6455315,N,12046.6331969,E,4,18,1.2,2.5632,M,8.312,M,00,0004*6C
$GPHPD,0,0.000,65.53,19.90,-12.75,31.5940922,120.7772199,2.563,13629150.890,24924097.140,2.563,0.000,0.000,0.000,0.000,0.000,0.000,0.000,18,14,5*54
$GPGGA,090409.80,3135.6456138,N,12046.6333877,E,4,18,1.3,2.5605,M,8.312,M,00,0004*65
$GPHPD,0,0.000,63.04,2.66,-12.75,31.5940936,120.7772231,2.561,13629150.104,24924098.961,2.561,0.000,0.000,0.000,0.000,0.000,0.000,0.000,18,15,5*66
$GPGGA,090410.00,3135.6456882,N,12046.6335728,E,4,17,1.3,2.5501,M,8.312,M,01,0004*67
$GPHPD,0,0.000,61.60,-5.56,-12.74,31.5940948,120.7772262,2.550,13629149.419,24924100.760,2.550,0.000,0.000,0.000,0.000,0.000,0.000,0.000,17,15,5*40
$GPGGA,090410.20,3135.6457780,N,12046.6337634,E,4,17,1.3,2.5603,M,8.312,M,01,0004*66
$GPHPD,0,0.000,62.04,1.46,-12.75,31.5940963,120.7772294,2.560,13629148.526,24924102.535,2.560,0.000,0.000,0.000,0.000,0.000,0.000,0.000,17,15,5*64
$GPGGA,090410.40,3135.6458651,N,12046.6339563,E,4,17,1.3,2.5584,M,8.312,M,01,0004*61
$GPHPD,0,0.000,63.11,2.10,-12.75,31.5940978,120.7772326,2.558,13629147.676,24924104.354,2.558,0.000,0.000,0.000,0.000,0.000,0.000,0.000,17,15,5*6D
$GPGGA,090410.60,3135.6459748,N,12046.6341446,E,4,17,1.3,2.5884,M,8.312,M,00,0004*6E
$GPHPD,0,0.000,64.97,6.88,-12.75,31.5940996,120.7772357,2.588,13629146.495,24924105.985,2.588,0.000,0.000,0.000,0.000,0.000,0.000,0.000,17,15,5*6E
$GPGGA,090410.80,3135.6460534,N,12046.6343388,E,4,17,1.3,2.5924,M,8.312,M,00,0004*6F
$GPHPD,0,0.000,64.85,2.96,-12.76,31.5941009,120.7772390,2.592,13629145.769,24924107.869,2.592,0.000,0.000,0.000,0.000,0.000,0.000,0.000,17,15,5*62
$GPGGA,090411.00,3135.6461149,N,12046.6345292,E,4,17,1.2,2.5396,M,8.312,M,01,0004*66
$GPHPD,0,0.000,65.01,2.43,-12.74,31.5941019,120.7772422,2.540,13629145.278,24924109.807,2.540,0.000,0.000,0.000,0.000,0.000,0.000,0.000,17,12,5*6E
$GPGGA,090411.20,3135.6462097,N,12046.6347212,E,4,17,1.3,2.5398,M,8.312,M,01,0004*60
$GPHPD,0,0.000,65.01,-1.65,-12.72,31.5941035,120.7772454,2.540,13629144.317,24924111.570,2.540,0.000,0.000,0.000,0.000,0.000,0.000,0.000,17,14,5*46
$GPGGA,090411.40,3135.6462997,N,12046.6349132,E,4,17,1.3,2.5428,M,8.312,M,01,0004*6C
$GPHPD,0,0.000,63.02,-8.92,-12.69,31.5941050,120.7772486,2.543,13629143.424,24924113.361,2.543,0.000,0.000,0.000,0.000,0.000,0.000,0.000,17,15,5*41
$GPGGA,090411.60,3135.6463862,N,12046.6351093,E,4,17,1.3,2.5308,M,8.312,M,00,0004*63
$GPHPD,0,0.000,66.79,1.67,-12.66,31.5941064,120.7772518,2.531,13629142.589,24924115.222,2.531,0.000,0.000,0.000,0.000,0.000,0.000,0.000,17,14,5*6E
$GPGGA,090411.80,3135.6464743,N,12046.6353024,E,4,16,1.4,2.5376,M,8.312,M,00,0004*67
$GPHPD,0,0.000,69.62,-0.94,-12.65,31.5941079,120.7772550,2.538,13629141.725,24924117.037,2.538,0.000,0.000,0.000,0.000,0.000,0.000,0.000,16,15,5*4B
$GPGGA,090412.00,3135.6465772,N,12046.6354753,E,4,16,1.3,2.5639,M,8.312,M,01,0004*67
$GPHPD,0,0.000,72.93,-4.46,-12.62,31.5941096,120.7772579,2.564,13629140.610,24924118.522,2.564,0.000,0.000,0.000,0.000,0.000,0.000,0.000,16,15,5*41
$GPGGA,090412.20,3135.6466526,N,12046.6356833,E,4,16,1.4,2.5503,M,8.312,M,01,0004*63
$GPHPD,0,0.000,76.06,-4.26,-12.59,31.5941109,120.7772614,2.550,13629139.957,24924120.591,2.550,0.000,0.000,0.000,0.000,0.000,0.000,0.000,16,14,5*48
$GPGGA,090412.40,3135.6467419,N,12046.6358864,E,4,16,1.4,2.5269,M,8.312,M,01,0004*6E
$GPHPD,0,0.000,76.85,-5.38,-12.58,31.5941124,120.7772648,2.527,13629139.096,24924122.520,2.527,0.000,0.000,0.000,0.000,0.000,0.000,0.000,16,14,5*46
$GPGGA,090412.60,3135.6468323,N,12046.6360643,E,4,16,1.4,2.5515,M,8.312,M,00,0004*60
$GPHPD,0,0.000,77.36,-5.94,-12.56,31.5941139,120.7772677,2.552,13629138.169,24924124.139,2.552,0.000,0.000,0.000,0.000,0.000,0.000,0.000,16,14,5*4D
$GPGGA,090412.80,3135.6469207,N,12046.6362609,E,4,16,1.4,2.5460,M,8.312,M,00,0004*67
$GPHPD,0,0.000,77.27,-8.61,-12.58,31.5941153,120.7772710,2.546,13629137.308,24924125.994,2.546,0.000,0.000,0.000,0.000,0.000,0.000,0.000,16,14,5*4C
$GPGGA,090413.00,3135.6470029,N,12046.6364623,E,4,16,1.3,2.5391,M,8.312,M,01,0004*69
$GPHPD,0,0.000,77.24,-8.97,-12.57,31.5941167,120.7772744,2.539,13629136.545,24924127.944,2.539,0.000,0.000,0.000,0.000,0.000,0.000,0.000,16,14,5*4E
$GPGGA,090413.20,3135.6470973,N,12046.6366518,E,4,16,1.3,2.5462,M,8.312,M,01,0004*6F
$GPHPD,0,0.000,77.17,-9.54,-12.56,31.5941183,120.7772775,2.546,13629135.585,24924129.679,2.546,0.000,0.000,0.000,0.000,0.000,0.000,0.000,16,14,5*49
$GPGGA,090413.40,3135.6471885,N,12046.6368405,E,4,19,1.3,2.5479,M,8.312,M,01,0004*66
$GPHPD,0,0.000,77.53,-7.44,-12.55,31.5941198,120.7772807,2.548,13629134.668,24924131.424,2.548,0.000,0.000,0.000,0.000,0.000,0.000,0.000,19,16,5*4A
$GPGGA,090413.60,3135.6472829,N,12046.6370310,E,4,19,1.3,2.5660,M,8.312,M,00,0004*60
$GPHPD,0,0.000,77.18,-8.94,-12.53,31.5941214,120.7772839,2.566,13629133.709,24924133.171,2.566,0.000,0.000,0.000,0.000,0.000,0.000,0.000,19,16,5*4D
$GPGGA,090413.80,3135.6473775,N,12046.6372232,E,4,19,1.3,2.5636,M,8.312,M,00,0004*69
$GPHPD,0,0.000,76.91,-11.89,-12.48,31.5941230,120.7772871,2.564,13629132.751,24924134.937,2.564,0.000,0.000,0.000,0.000,0.000,0.000,0.000,19,16,5*78
$GPGGA,090414.00,3135.6474690,N,12046.6374214,E,4,18,1.3,2.5765,M,8.312,M,01,0004*6E
$GPHPD,0,0.000,76.86,-11.30,-12.48,31.5941245,120.7772904,2.577,13629131.850,24924136.794,2.577,0.000,0.000,0.000,0.000,0.000,0.000,0.000,18,16,5*74
$GPGGA,090414.20,3135.6475585,N,12046.6376168,E,4,18,1.3,2.5706,M,8.312,M,01,0004*65
$GPHPD,0,0.000,76.90,-12.44,-12.49,31.5941260,120.7772936,2.571,13629130.971,24924138.629,2.571,0.000,0.000,0.000,0.000,0.000,0.000,0.000,18,16,5*7E
$GPGGA,090414.40,3135.6476507,N,12046.6378021,E,4,17,1.3,2.5792,M,8.312,M,01,0004*6A
$GPHPD,0,0.000,76.77,-12.80,-12.48,31.5941275,120.7772967,2.579,13629130.033,24924140.326,2.579,0.000,0.000,0.000,0.000,0.000,0.000,0.000,17,16,5*7B
$GPGGA,090414.60,3135.6477417,N,12046.6379968,E,4,17,1.3,2.5738,M,8.312,M,00,0004*6D
$GPHPD,0,0.000,76.16,-12.59,-12.47,31.5941290,120.7772999,2.574,13629129.131,24924142.144,2.574,0.000,0.000,0.000,0.000,0.000,0.000,0.000,17,15,5*71
$GPGGA,090414.80,3135.6478284,N,12046.6381902,E,4,17,1.3,2.5633,M,8.312,M,00,0004*61
$GPHPD,0,0.000,75.94,-12.85,-12.48,31.5941305,120.7773032,2.563,13629128.288,24924143.971,2.563,0.000,0.000,0.000,0.000,0.000,0.000,0.000,17,14,5*7C
$GPGGA,090415.00,3135.6479287,N,12046.6383794,E,4,17,1.3,2.5675,M,8.312,M,01,0004*6A
$GPHPD,0,0.000,75.17,-12.21,-12.51,31.5941321,120.7773063,2.568,13629127.243,24924145.668,2.568,0.000,0.000,0.000,0.000,0.000,0.000,0.000,17,15,5*7B
$GPGGA,090415.20,3135.6480072,N,12046.6385748,E,4,17,1.3,2.5516,M,8.312,M,01,0004*67
$GPHPD,0,0.000,75.71,-8.48,-12.53,31.5941335,120.7773096,2.552,13629126.520,24924147.567,2.552,0.000,0.000,0.000,0.000,0.000,0.000,0.000,17,15,5*4F
$GPGGA,090415.40,3135.6481003,N,12046.6387668,E,4,17,1.7,2.5407,M,8.312,M,01,0004*62
$GPHPD,0,0.000,74.85,-9.00,-12.55,31.5941350,120.7773128,2.541,13629125.583,24924149.340,2.541,0.000,0.000,0.000,0.000,0.000,0.000,0.000,17,16,5*4D
$GPGGA,090415.60,3135.6481936,N,12046.6389588,E,4,17,1.7,2.5512,M,8.312,M,00,0004*68
$GPHPD,0,0.000,74.86,-5.74,-12.54,31.5941366,120.7773160,2.551,13629124.643,24924151.112,2.551,0.000,0.000,0.000,0.000,0.000,0.000,0.000,17,15,5*48
$GPGGA,090415.80,3135.6482797,N,12046.6391476,E,4,16,1.7,2.5695,M,8.312,M,00,0004*64
$GPHPD,0,0.000,74.13,-6.62,-12.50,31.5941380,120.7773191,2.570,13629123.799,24924152.887,2.570,0.000,0.000,0.000,0.000,0.000,0.000,0.000,16,13,5*42
$GPGGA,090416.00,3135.6483715,N,12046.6393414,E,4,16,1.7,2.5501,M,8.312,M,01,0004*6D
$GPHPD,0,0.000,74.94,-4.35,-12.47,31.5941395,120.7773224,2.550,13629122.884,24924154.689,2.550,0.000,0.000,0.000,0.000,0.000,0.000,0.000,16,17,5*42
$GPGGA,090416.20,3135.6484663,N,12046.6395367,E,4,16,1.7,2.5557,M,8.312,M,01,0004*6E
$GPHPD,0,0.000,347.87,34.85,-12.47,31.5941411,120.7773256,2.556,13629121.930,24924156.492,2.556,0.000,0.000,0.000,0.000,0.000,0.000,0.000,16,6,1*5B
$GPGGA,090416.40,3135.6485572,N,12046.6397200,E,4,16,1.7,2.5798,M,8.312,M,01,0004*69
$GPHPD,0,0.000,62.96,19.94,-12.51,31.5941426,120.7773287,2.580,13629121.007,24924158.173,2.580,0.000,0.000,0.000,0.000,0.000,0.000,0.000,16,14,4*50
$GPGGA,090416.60,3135.6486509,N,12046.6399099,E,4,16,1.7,2.5831,M,8.312,M,00,0004*65
$GPHPD,0,0.000,61.62,18.15,-12.54,31.5941442,120.7773318,2.583,13629120.057,24924159.917,2.583,0.000,0.000,0.000,0.000,0.000,0.000,0.000,16,14,5*5E
$GPGGA,090416.80,3135.6487441,N,12046.6400998,E,4,16,1.7,2.5937,M,8.312,M,00,0004*6F
$GPHPD,0,0.000,57.55,38.89,-12.53,31.5941457,120.7773350,2.594,13629119.114,24924161.664,2.594,0.000,0.000,0.000,0.000,0.000,0.000,0.000,16,14,5*5B
$GPGGA,090417.00,3135.6488326,N,12046.6402827,E,4,16,1.7,2.6114,M,8.312,M,01,0004*63
$GPHPD,0,0.000,57.30,47.38,-12.54,31.5941472,120.7773380,2.611,13629118.224,24924163.354,2.611,0.000,0.000,0.000,0.000,0.000,0.000,0.000,16,14,5*52
$GPGGA,090417.20,3135.6489230,N,12046.6404760,E,4,16,1.9,2.5899,M,8.312,M,01,0004*6D
$GPHPD,0,0.000,58.74,46.21,-12.57,31.5941487,120.7773413,2.590,13629117.328,24924165.158,2.590,0.000,0.000,0.000,0.000,0.000,0.000,0.000,16,14,5*5A
$GPGGA,090417.40,3135.6490124,N,12046.6406604,E,4,16,1.9,2.6077,M,8.312,M,01,0004*6F
$GPHPD,0,0.000,65.07,40.04,-12.62,31.5941502,120.7773443,2.608,13629116.428,24924166.861,2.608,0.000,0.000,0.000,0.000,0.000,0.000,0.000,16,14,5*58
$GPGGA,090417.60,3135.6491008,N,12046.6408400,E,4,15,1.9,2.6252,M,8.312,M,00,0004*6C
$GPHPD,0,0.000,69.86,35.05,-12.69,31.5941517,120.7773473,2.625,13629115.533,24924168.511,2.625,0.000,0.000,0.000,0.000,0.000,0.000,0.000,15,13,5*5A
$GPGGA,090417.80,3135.6491891,N,12046.6410311,E,4,15,1.9,2.6069,M,8.312,M,00,0004*6E
$GPHPD,0,0.000,72.92,33.46,-12.67,31.5941532,120.7773505,2.607,13629114.663,24924170.301,2.607,0.000,0.000,0.000,0.000,0.000,0.000,0.000,15,13,5*54
$GPGGA,090418.00,3135.6492816,N,12046.6412143,E,4,15,1.9,2.6149,M,8.312,M,01,0004*60
$GPHPD,0,0.000,73.21,39.73,-12.61,31.5941547,120.7773536,2.615,13629113.716,24924171.972,2.615,0.000,0.000,0.000,0.000,0.000,0.000,0.000,15,12,5*5F
$GPGGA,090418.20,3135.6493749,N,12046.6413998,E,4,15,1.9,2.6171,M,8.312,M,01,0004*62
$GPHPD,0,0.000,69.03,38.37,-12.55,31.5941562,120.7773567,2.617,13629112.764,24924173.665,2.617,0.000,0.000,0.000,0.000,0.000,0.000,0.000,15,13,5*5F
$GPGGA,090418.40,3135.6494662,N,12046.6416027,E,4,15,1.9,2.5988,M,8.312,M,01,0004*6E
$GPHPD,0,0.000,69.95,37.23,-12.53,31.5941578,120.7773600,2.599,13629111.874,24924175.580,2.599,0.000,0.000,0.000,0.000,0.000,0.000,0.000,15,12,5*57
$GPGGA,090418.60,3135.6495639,N,12046.6417889,E,4,15,1.9,2.5955,M,8.312,M,00,0004*6F
$GPHPD,0,0.000,70.56,39.32,-12.49,31.5941594,120.7773631,2.596,13629110.860,24924177.256,2.596,0.000,0.000,0.000,0.000,0.000,0.000,0.000,15,12,5*5F
$GPGGA,090418.80,3135.6496528,N,12046.6419726,E,4,15,1.9,2.5929,M,8.312,M,00,0004*6E
$GPHPD,0,0.000,70.38,41.33,-12.48,31.5941609,120.7773662,2.593,13629109.966,24924178.953,2.593,0.000,0.000,0.000,0.000,0.000,0.000,0.000,15,12,5*57
$GPGGA,090419.00,3135.6497492,N,12046.6421612,E,4,15,1.9,2.5774,M,8.312,M,01,0004*6C
$GPHPD,0,0.000,70.55,42.72,-12.46,31.5941625,120.7773694,2.577,13629108.975,24924180.666,2.577,0.000,0.000,0.000,0.000,0.000,0.000,0.000,15,16,5*5A
$GPGGA,090419.20,3135.6498371,N,12046.6423476,E,4,15,1.9,2.6029,M,8.312,M,01,0004*65
$GPHPD,0,0.000,344.76,25.32,-12.44,31.5941640,120.7773725,2.603,13629108.101,24924182.402,2.603,0.000,0.000,0.000,0.000,0.000,0.000,0.000,15,6,1*5C
$GPGGA,090419.40,3135.6499261,N,12046.6425322,E,4,17,1.7,2.6023,M,8.312,M,01,0004*64
$GPHPD,0,0.000,73.12,51.37,-12.46,31.5941654,120.7773755,2.602,13629107.207,24924184.109,2.602,0.000,0.000,0.000,0.000,0.000,0.000,0.000,17,14,4*59
$GPGGA,090419.60,3135.6500205,N,12046.6427190,E,4,17,1.7,2.6112,M,8.312,M,00,0004*6E
$GPHPD,0,0.000,70.89,44.86,-12.48,31.5941670,120.7773787,2.611,13629106.241,24924185.812,2.611,0.000,0.000,0.000,0.000,0.000,0.000,0.000,17,14,5*51
$GPGGA,090419.80,3135.6501106,N,12046.6429061,E,4,17,1.7,2.6164,M,8.312,M,00,0004*61
$GPHPD,0,0.000,71.89,36.35,-12.50,31.5941685,120.7773818,2.616,13629105.337,24924187.543,2.616,0.000,0.000,0.000,0.000,0.000,0.000,0.000,17,14,5*5F
$GPGGA,090420.00,3135.6502026,N,12046.6430875,E,4,17,1.7,2.6281,M,8.312,M,01,0004*6F
$GPHPD,0,0.000,55.72,22.26,-12.53,31.5941700,120.7773848,2.628,13629104.394,24924189.194,2.628,0.000,0.000,0.000,0.000,0.000,0.000,0.000,17,14,5*58
$GPGGA,090420.20,3135.6502957,N,12046.6432768,E,4,17,1.7,2.6417,M,8.312,M,01,0004*6A
$GPHPD,0,0.000,71.38,53.22,-12.52,31.5941716,120.7773879,2.642,13629103.452,24924190.935,2.642,0.000,0.000,0.000,0.000,0.000,0.000,0.000,17,14,5*57
$GPGGA,090420.40,3135.6503949,N,12046.6434599,E,4,17,1.7,2.6466,M,8.312,M,01,0004*6E
$GPHPD,0,0.000,74.23,52.87,-12.52,31.5941732,120.7773910,2.647,13629102.410,24924192.565,2.647,0.000,0.000,0.000,0.000,0.000,0.000,0.000,17,14,5*52
$GPGGA,090420.60,3135.6504873,N,12046.6436419,E,4,17,1.7,2.6704,M,8.312,M,00,0004*6E
$GPHPD,0,0.000,59.86,42.51,-12.49,31.5941748,120.7773940,2.670,13629101.463,24924194.221,2.670,0.000,0.000,0.000,0.000,0.000,0.000,0.000,17,14,5*5C
$GPGGA,090420.80,3135.6505882,N,12046.6438306,E,4,17,1.7,2.6561,M,8.312,M,00,0004*69
$GPHPD,0,0.000,63.44,24.13,-12.48,31.5941765,120.7773972,2.656,13629100.408,24924195.909,2.656,0.000,0.000,0.000,0.000,0.000,0.000,0.000,17,15,5*5F
$GPGGA,090421.00,3135.6506779,N,12046.6440151,E,4,17,1.4,2.6471,M,8.312,M,01,0004*65
$GPHPD,0,0.000,62.41,34.73,-12.54,31.5941780,120.7774003,2.647,13629099.505,24924197.611,2.647,0.000,0.000,0.000,0.000,0.000,0.000,0.000,17,15,5*5B
$GPGGA,090421.20,3135.6507669,N,12046.6442045,E,4,17,1.5,2.6442,M,8.312,M,01,0004*61
$GPHPD,0,0.000,61.10,42.16,-12.52,31.5941794,120.7774034,2.644,13629098.621,24924199.377,2.644,0.000,0.000,0.000,0.000,0.000,0.000,0.000,17,15,5*56
$GPGGA,090421.40,3135.6508589,N,12046.6443908,E,4,17,1.5,2.6462,M,8.312,M,01,0004*66
$GPHPD,0,0.000,65.51,53.65,-12.53,31.5941810,120.7774065,2.646,13629097.688,24924201.087,2.646,0.000,0.000,0.000,0.000,0.000,0.000,0.000,17,14,5*56
$GPGGA,090421.60,3135.6509443,N,12046.6445798,E,4,17,1.5,2.6311,M,8.312,M,00,0004*61
$GPHPD,0,0.000,61.76,56.10,-12.52,31.5941824,120.7774097,2.631,13629096.854,24924202.869,2.631,0.000,0.000,0.000,0.000,0.000,0.000,0.000,17,14,5*5E
$GPGGA,090421.80,3135.6510412,N,12046.6447620,E,4,17,1.5,2.6415,M,8.312,M,00,0004*60
$GPHPD,0,0.000,61.09,56.81,-12.49,31.5941840,120.7774127,2.642,13629095.843,24924204.501,2.642,0.000,0.000,0.000,0.000,0.000,0.000,0.000,17,14,5*5C
$GPGGA,090422.00,3135.6511326,N,12046.6449514,E,4,17,1.5,2.6456,M,8.312,M,01,0004*66
$GPHPD,0,0.000,52.88,50.98,-12.50,31.5941855,120.7774159,2.646,13629094.925,24924206.253,2.646,0.000,0.000,0.000,0.000,0.000,0.000,0.000,17,16,5*5E
$GPGGA,090422.20,3135.6512266,N,12046.6451332,E,4,17,1.5,2.6397,M,8.312,M,01,0004*63
$GPHPD,0,0.000,350.55,23.64,-12.50,31.5941871,120.7774189,2.640,13629093.955,24924207.897,2.640,0.000,0.000,0.000,0.000,0.000,0.000,0.000,17,13,1*61
$GPGGA,090422.40,3135.6513080,N,12046.6453211,E,4,17,1.6,2.6659,M,8.312,M,01,0004*68
$GPHPD,0,0.000,67.31,-10.90,-12.47,31.5941885,120.7774220,2.666,13629093.176,24924209.689,2.666,0.000,0.000,0.000,0.000,0.000,0.000,0.000,17,15,2*7C
$GPGGA,090422.60,3135.6514096,N,12046.6455112,E,4,17,1.6,2.6567,M,8.312,M,00,0004*63
$GPHPD,0,0.000,39.41,-44.29,-12.40,31.5941902,120.7774252,2.657,13629092.114,24924211.389,2.657,0.000,0.000,0.000,0.000,0.000,0.000,0.000,17,15,5*71
$GPGGA,090422.80,3135.6514941,N,12046.6457062,E,4,17,1.5,2.6705,M,8.312,M,00,0004*6F
$GPHPD,0,0.000,47.65,-44.48,-12.35,31.5941916,120.7774284,2.671,13629091.306,24924213.249,2.671,0.000,0.000,0.000,0.000,0.000,0.000,0.000,17,14,5*79
$GPGGA,090423.00,3135.6515817,N,12046.6458949,E,4,17,1.5,2.6828,M,8.312,M,01,0004*6B
$GPHPD,0,0.000,50.76,-43.05,-12.30,31.5941930,120.7774316,2.683,13629090.440,24924215.014,2.683,0.000,0.000,0.000,0.000,0.000,0.000,0.000,17,15,5*71
$GPGGA,090423.20,3135.6516715,N,12046.6460848,E,4,17,1.5,2.6754,M,8.312,M,01,0004*68
$GPHPD,0,0.000,49.08,-46.65,-12.30,31.5941945,120.7774347,2.675,13629089.546,24924216.780,2.675,0.000,0.000,0.000,0.000,0.000,0.000,0.000,17,15,5*73
$GPGGA,090423.40,3135.6517643,N,12046.6462823,E,4,17,1.5,2.6512,M,8.312,M,01,0004*62
$GPHPD,0,0.000,56.90,30.02,-12.30,31.5941961,120.7774380,2.651,13629088.624,24924218.621,2.651,0.000,0.000,0.000,0.000,0.000,0.000,0.000,17,15,5*5E
$GPGGA,090423.60,3135.6518467,N,12046.6464691,E,4,16,1.5,2.6705,M,8.312,M,00,0004*6E
$GPHPD,0,0.000,59.09,36.11,-12.30,31.5941974,120.7774412,2.671,13629087.829,24924220.394,2.671,0.000,0.000,0.000,0.000,0.000,0.000,0.000,16,14,5*51
$GPGGA,090423.80,3135.6519355,N,12046.6466586,E,4,16,1.5,2.6833,M,8.312,M,00,0004*6A
$GPHPD,0,0.000,63.39,50.47,-12.29,31.5941989,120.7774443,2.683,13629086.948,24924222.162,2.683,0.000,0.000,0.000,0.000,0.000,0.000,0.000,16,14,5*58
$GPGGA,090424.00,3135.6520239,N,12046.6468632,E,4,16,1.5,2.6519,M,8.312,M,01,0004*62
$GPHPD,0,0.000,64.42,59.08,-12.29,31.5942004,120.7774477,2.652,13629086.103,24924224.114,2.652,0.000,0.000,0.000,0.000,0.000,0.000,0.000,16,14,5*59
$GPGGA,090424.20,3135.6521103,N,12046.6470565,E,4,16,1.5,2.6452,M,8.312,M,01,0004*6D
$GPHPD,0,0.000,65.26,56.46,-12.30,31.5942018,120.7774509,2.645,13629085.263,24924225.941,2.645,0.000,0.000,0.000,0.000,0.000,0.000,0.000,16,13,5*5A
$GPGGA,090424.40,3135.6521999,N,12046.6472590,E,4,16,1.5,2.6172,M,8.313,M,01,0004*6E
$GPHPD,0,0.000,63.69,48.17,-12.25,31.5942033,120.7774543,2.617,13629084.397,24924227.861,2.617,0.000,0.000,0.000,0.000,0.000,0.000,0.000,16,13,5*55
$GPGGA,090424.60,3135.6522867,N,12046.6474542,E,4,16,1.5,2.6320,M,8.313,M,00,0004*62
$GPHPD,0,0.000,65.61,51.53,-12.27,31.5942048,120.7774576,2.632,13629083.556,24924229.709,2.632,0.000,0.000,0.000,0.000,0.000,0.000,0.000,16,14,5*5F
$GPGGA,090424.80,3135.6523744,N,12046.6476211,E,4,16,1.5,2.6891,M,8.313,M,00,0004*61
$GPHPD,0,0.000,62.24,39.32,-12.26,31.5942062,120.7774604,2.689,13629082.646,24924231.211,2.689,0.000,0.000,0.000,0.000,0.000,0.000,0.000,16,13,5*5E
$GPGGA,090425.00,3135.6524553,N,12046.6478458,E,4,15,1.6,2.6594,M,8.313,M,01,0004*67
$GPHPD,0,0.000,59.98,27.97,-12.27,31.5942076,120.7774641,2.659,13629081.948,24924233.449,2.659,0.000,0.000,0.000,0.000,0.000,0.000,0.000,15,16,5*59
$GPGGA,090425.20,3135.6525453,N,12046.6480409,E,4,15,1.6,2.6552,M,8.313,M,01,0004*6C
$GPHPD,0,0.000,359.10,7.84,-12.27,31.5942091,120.7774673,2.655,13629081.061,24924235.278,2.655,0.000,0.000,0.000,0.000,0.000,0.000,0.000,15,5,1*64
$GPGGA,090425.40,3135.6526318,N,12046.6482332,E,4,18,1.2,2.6729,M,8.313,M,01,0004*6B
$GPHPD,0,0.000,81.99,39.11,-12.26,31.5942105,120.7774706,2.673,13629080.218,24924237.093,2.673,0.000,0.000,0.000,0.000,0.000,0.000,0.000,18,16,4*5E
$GPGGA,090425.60,3135.6527154,N,12046.6484401,E,4,18,1.3,2.6617,M,8.313,M,00,0004*6F
$GPHPD,0,0.000,64.23,19.20,-12.30,31.5942119,120.7774740,2.662,13629079.446,24924239.100,2.662,0.000,0.000,0.000,0.000,0.000,0.000,0.000,18,15,5*50
$GPGGA,090425.80,3135.6528010,N,12046.6486380,E,4,18,1.3,2.6491,M,8.313,M,00,0004*6F
$GPHPD,0,0.000,82.62,49.55,-12.35,31.5942134,120.7774773,2.649,13629078.628,24924240.988,2.649,0.000,0.000,0.000,0.000,0.000,0.000,0.000,18,17,5*5F
$GPGGA,090426.00,3135.6528769,N,12046.6488417,E,4,18,1.2,2.6652,M,8.313,M,01,0004*67
$GPHPD,0,0.000,74.58,40.94,-12.41,31.5942146,120.7774807,2.665,13629077.959,24924243.002,2.665,0.000,0.000,0.000,0.000,0.000,0.000,0.000,18,17,5*5F
$GPGGA,090426.20,3135.6529693,N,12046.6490344,E,4,18,1.2,2.6583,M,8.313,M,01,0004*67
$GPHPD,0,0.000,67.82,22.01,-12.45,31.5942162,120.7774839,2.658,13629077.033,24924244.788,2.658,0.000,0.000,0.000,0.000,0.000,0.000,0.000,18,16,5*5B
$GPGGA,090426.40,3135.6530551,N,12046.6492290,E,4,18,1.5,2.6709,M,8.313,M,01,0004*69
$GPHPD,0,0.000,68.32,16.66,-12.47,31.5942176,120.7774872,2.671,13629076.205,24924246.634,2.671,0.000,0.000,0.000,0.000,0.000,0.000,0.000,18,16,5*53
$GPGGA,090426.60,3135.6531404,N,12046.6494298,E,4,18,1.3,2.6782,M,8.313,M,00,0004*61
$GPHPD,0,0.000,67.34,11.94,-12.46,31.5942190,120.7774905,2.678,13629075.396,24924248.559,2.678,0.000,0.000,0.000,0.000,0.000,0.000,0.000,18,15,5*55
$GPGGA,090426.80,3135.6532183,N,12046.6496281,E,4,18,1.2,2.6944,M,8.313,M,00,0004*69
$GPHPD,0,0.000,64.99,2.23,-12.49,31.5942203,120.7774938,2.694,13629074.688,24924250.496,2.694,0.000,0.000,0.000,0.000,0.000,0.000,0.000,18,16,5*64
$GPGGA,090427.00,3135.6533034,N,12046.6498428,E,4,18,1.3,2.6547,M,8.313,M,01,0004*68
$GPHPD,0,0.000,64.69,-0.90,-12.50,31.5942217,120.7774974,2.655,13629073.910,24924252.589,2.655,0.000,0.000,0.000,0.000,0.000,0.000,0.000,18,15,5*4E
$GPGGA,090427.20,3135.6533864,N,12046.6500372,E,4,18,1.3,2.6738,M,8.313,M,01,0004*65
$GPHPD,0,0.000,65.94,6.26,-12.51,31.5942231,120.7775006,2.674,13629073.122,24924254.450,2.674,0.000,0.000,0.000,0.000,0.000,0.000,0.000,18,15,5*69
$GPGGA,090427.40,3135.6534696,N,12046.6502338,E,4,19,1.4,2.6776,M,8.313,M,01,0004*67
$GPHPD,0,0.000,67.29,12.09,-12.50,31.5942245,120.7775039,2.678,13629072.335,24924256.336,2.678,0.000,0.000,0.000,0.000,0.000,0.000,0.000,19,15,5*5A
$GPGGA,090427.60,3135.6535522,N,12046.6504403,E,4,19,1.3,2.6798,M,8.313,M,00,0004*67
$GPHPD,0,0.000,68.27,16.75,-12.47,31.5942259,120.7775073,2.680,13629071.576,24924258.345,2.680,0.000,0.000,0.000,0.000,0.000,0.000,0.000,19,15,5*59
$GPGGA,090427.80,3135.6536402,N,12046.6506296,E,4,18,1.3,2.7128,M,8.313,M,00,0004*6C
$GPHPD,0,0.000,70.57,20.60,-12.44,31.5942273,120.7775105,2.713,13629070.706,24924260.115,2.713,0.000,0.000,0.000,0.000,0.000,0.000,0.000,18,14,5*55
$GPGGA,090428.00,3135.6537244,N,12046.6508300,E,4,18,1.3,2.7091,M,8.313,M,01,0004*6C
$GPHPD,0,0.000,71.62,18.86,-12.45,31.5942287,120.7775138,2.709,13629069.912,24924262.041,2.709,0.000,0.000,0.000,0.000,0.000,0.000,0.000,18,15,5*55
$GPGGA,090428.20,3135.6538035,N,12046.6510471,E,4,18,1.3,2.6827,M,8.313,M,01,0004*69
$GPHPD,0,0.000,73.95,13.20,-12.46,31.5942301,120.7775175,2.683,13629069.225,24924264.198,2.683,0.000,0.000,0.000,0.000,0.000,0.000,0.000,18,16,5*52
$GPGGA,090428.40,3135.6538868,N,12046.6512534,E,4,18,1.3,2.6501,M,8.313,M,01,0004*64
$GPHPD,0,0.000,75.71,11.99,-12.48,31.5942314,120.7775209,2.650,13629068.456,24924266.200,2.650,0.000,0.000,0.000,0.000,0.000,0.000,0.000,18,15,5*5C
$GPGGA,090428.60,3135.6539716,N,12046.6514461,E,4,18,1.3,2.6580,M,8.313,M,00,0004*6E
$GPHPD,0,0.000,73.56,10.96,-12.49,31.5942329,120.7775241,2.658,13629067.638,24924268.030,2.658,0.000,0.000,0.000,0.000,0.000,0.000,0.000,18,15,5*58
$GPGGA,090428.80,3135.6540551,N,12046.6516309,E,4,18,1.3,2.6842,M,8.313,M,00,0004*67
$GPHPD,0,0.000,72.92,11.81,-12.49,31.5942343,120.7775272,2.684,13629066.823,24924269.772,2.684,0.000,0.000,0.000,0.000,0.000,0.000,0.000,18,14,5*5E
$GPGGA,090429.00,3135.6541297,N,12046.6518391,E,4,18,1.3,2.6801,M,8.313,M,01,0004*6B
$GPHPD,0,0.000,72.25,12.64,-12.52,31.5942355,120.7775307,2.680,13629066.182,24924271.848,2.680,0.000,0.000,0.000,0.000,0.000,0.000,0.000,18,15,5*58
$GPGGA,090429.20,3135.6542148,N,12046.6520385,E,4,18,1.3,2.6821,M,8.313,M,01,0004*67
$GPHPD,0,0.000,73.58,12.13,-12.52,31.5942369,120.7775340,2.682,13629065.373,24924273.756,2.682,0.000,0.000,0.000,0.000,0.000,0.000,0.000,18,15,5*52
$GPGGA,090429.40,3135.6542931,N,12046.6522413,E,4,18,1.3,2.6862,M,8.313,M,01,0004*6A
$GPHPD,0,0.000,73.70,11.92,-12.49,31.5942382,120.7775374,2.686,13629064.668,24924275.746,2.686,0.000,0.000,0.000,0.000,0.000,0.000,0.000,18,15,5*53
$GPGGA,090429.60,3135.6543783,N,12046.6524431,E,4,18,1.3,2.6845,M,8.313,M,00,0004*6C
$GPHPD,0,0.000,73.13,10.84,-12.43,31.5942396,120.7775407,2.685,13629063.863,24924277.683,2.685,0.000,0.000,0.000,0.000,0.000,0.000,0.000,18,15,5*54
$GPGGA,090429.80,3135.6544584,N,12046.6526462,E,4,18,1.3,2.6920,M,8.313,M,00,0004*66
$GPHPD,0,0.000,72.10,11.17,-12.40,31.5942410,120.7775441,2.692,13629063.133,24924279.665,2.692,0.000,0.000,0.000,0.000,0.000,0.000,0.000,18,15,5*5F
$GPGGA,090430.00,3135.6545426,N,12046.6528528,E,4,18,1.3,2.6867,M,8.313,M,01,0004*6C
$GPHPD,0,0.000,70.84,10.16,-12.33,31.5942424,120.7775475,2.687,13629062.352,24924281.666,2.687,0.000,0.000,0.000,0.000,0.000,0.000,0.000,18,17,5*56
