$GPGGA,091154.40,3135.4921630,N,12046.7100200,E,4,16,1.5,2.6253,M,8.318,M,01,0004*6B
$GPHPD,1957,33132.200,143.99,-0.46,12.55,31.5915361,120.7785003,2.625,13631485.364,24925916.524,2.625,-0.892,0.100,-0.883,0.598,1.249,0.773,0.000,16,15,4*6C
$GPGGA,091154.60,3135.4920521,N,12046.7101095,E,4,16,1.5,2.6338,M,8.318,M,00,0004*69
$GPHPD,1957,33132.400,144.13,-0.38,12.58,31.5915342,120.7785018,2.634,13631487.120,24925918.249,2.634,-0.892,0.071,-0.889,0.618,1.256,0.767,0.000,16,15,4*6F
$GPGGA,091154.80,3135.4919429,N,12046.7101973,E,4,16,1.5,2.6272,M,8.318,M,00,0004*6A
$GPHPD,1957,33132.600,144.34,0.06,12.62,31.5915324,120.7785033,2.627,13631488.849,24925919.944,2.627,-0.891,0.102,-0.860,0.597,1.247,0.733,0.000,16,15,4*42
$GPGGA,091155.00,3135.4918362,N,12046.7102923,E,4,16,1.5,2.6249,M,8.318,M,01,0004*65
$GPHPD,1957,33132.800,144.09,-0.43,12.68,31.5915306,120.7785049,2.625,13631490.557,24925921.711,2.625,-0.866,0.106,-0.863,0.597,1.247,0.733,0.000,16,15,4*68
$GPGGA,091155.20,3135.4917253,N,12046.7103830,E,4,16,1.5,2.6239,M,8.318,M,01,0004*6E
$GPHPD,1957,33133.000,144.21,-0.10,12.71,31.5915288,120.7785064,2.624,13631492.316,24925923.450,2.624,-0.907,0.094,-0.834,0.597,1.247,0.733,0.000,16,15,4*66
$GPGGA,091155.40,3135.4916174,N,12046.7104685,E,4,16,1.5,2.6183,M,8.318,M,01,0004*6A
$GPHPD,1957,33133.200,144.02,-0.08,12.76,31.5915270,120.7785078,2.618,13631494.022,24925925.109,2.618,-0.890,0.091,-0.867,0.618,1.256,0.767,0.000,16,15,4*65
$GPGGA,091155.60,3135.4915079,N,12046.7105612,E,4,16,1.5,2.6240,M,8.318,M,00,0004*65
$GPHPD,1957,33133.400,144.14,0.30,12.82,31.5915251,120.7785094,2.624,13631495.765,24925926.865,2.624,-0.826,0.038,-0.890,0.597,1.246,0.733,0.000,16,16,4*4C
$GPGGA,091155.80,3135.4913978,N,12046.7106520,E,4,16,1.5,2.6312,M,8.318,M,00,0004*62
$GPHPD,1957,33133.600,144.27,0.42,12.87,31.5915233,120.7785109,2.631,13631497.513,24925928.601,2.631,-0.901,0.105,-0.860,0.618,1.256,0.767,0.000,16,16,4*4C
$GPGGA,091156.00,3135.4912868,N,12046.7107425,E,4,16,1.5,2.6252,M,8.318,M,01,0004*69
$GPHPD,1957,33133.800,144.39,0.65,12.90,31.5915214,120.7785124,2.625,13631499.273,24925930.338,2.625,-0.903,0.116,-0.862,0.597,1.246,0.733,0.000,16,16,4*4B
$GPGGA,091156.20,3135.4911756,N,12046.7108343,E,4,16,1.5,2.6266,M,8.318,M,01,0004*65
$GPHPD,1957,33134.000,144.07,-0.07,12.95,31.5915196,120.7785139,2.627,13631501.038,24925932.093,2.627,-0.889,0.068,-0.889,0.597,1.246,0.733,0.000,16,16,4*63
$GPGGA,091156.40,3135.491041,N,12046.7109275,E,4,16,1.5,2.6271,M,8.318,M,01,0004*66
$GPHPD,1957,33134.200,144.04,0.04,13.01,31.5915177,120.7785155,2.627,13631502.810,24925933.866,2.627,-0.899,0.079,-0.896,0.597,1.246,0.733,0.000,16,16,4*48
$GPGGA,091156.60,3135.4909511,N,12046.7110212,E,4,16,1.5,2.6317,M,8.318,M,00,0004*63
$GPHPD,1957,33134.400,144.07,0.22,13.08,31.5915159,120.7785170,2.632,13631504.605,24925935.654,2.632,-0.905,0.080,-0.883,0.597,1.246,0.733,0.000,16,16,4*48
$GPGGA,091156.80,3135.4908400,N,12046.7111143,E,4,16,1.5,2.6379,M,8.318,M,00,0004*63
$GPHPD,1957,33134.600,144.39,0.93,13.12,31.5915140,120.7785186,2.638,13631506.372,24925937.423,2.638,-0.920,0.092,-0.896,0.597,1.246,0.733,0.000,16,16,4*40
$GPGGA,091157.00,3135.4907254,N,12046.7112070,E,4,16,1.5,2.6373,M,8.318,M,01,0004*6B
$GPHPD,1957,33134.800,144.38,1.31,13.16,31.5915121,120.7785201,2.637,13631508.187,24925939.208,2.637,-0.923,0.106,-0.873,0.597,1.246,0.733,0.000,16,16,4*4A
$GPGGA,091157.20,3135.4906108,N,12046.7113022,E,4,16,1.5,2.6327,M,8.318,M,01,0004*65
$GPHPD,1957,33135.000,144.25,0.74,13.21,31.5915102,120.7785217,2.633,13631510.008,24925941.024,2.633,-0.928,0.142,-0.869,0.597,1.246,0.733,0.000,16,16,4*41
$GPGGA,091157.40,3135.4904963,N,12046.7113978,E,4,16,1.5,2.6298,M,8.318,M,01,0004*67
$GPHPD,1957,33135.200,143.56,-0.35,13.25,31.5915083,120.7785233,2.630,13631511.828,24925942.843,2.630,-0.942,0.116,-0.896,0.597,1.246,0.733,0.000,16,16,4*6E
$GPGGA,091157.60,3135.4903845,N,12046.7114920,E,4,16,1.5,2.6359,M,8.318,M,00,0004*60
$GPHPD,1957,33135.400,143.60,-0.12,13.29,31.5915064,120.7785249,2.636,13631513.606,24925944.630,2.636,-0.906,0.086,-0.927,0.597,1.246,0.733,0.000,16,16,4*6F
$GPGGA,091157.80,3135.4902661,N,12046.7115829,E,4,16,1.5,2.6557,M,8.318,M,00,0004*66
$GPHPD,1957,33135.600,143.26,-1.29,13.33,31.5915044,120.7785264,2.656,13631515.472,24925946.415,2.656,-0.928,0.068,-0.892,0.687,1.285,0.734,0.000,16,16,4*69
$GPGGA,091158.00,3135.4901465,N,12046.7116763,E,4,16,1.5,2.6641,M,8.318,M,01,0004*63
$GPHPD,1957,33135.800,143.80,-0.15,13.37,31.5915024,120.7785279,2.664,13631517.360,24925948.238,2.664,-0.938,0.175,-0.880,0.687,1.285,0.734,0.000,16,15,4*66
$GPGGA,091158.20,3135.4900340,N,12046.7117766,E,4,16,1.5,2.6514,M,8.318,M,01,0004*67
$GPHPD,1957,33136.000,143.62,0.00,13.40,31.5915006,120.7785296,2.651,13631519.161,24925950.102,2.651,-0.960,0.160,-0.886,0.598,1.249,0.774,0.000,16,15,4*41
$GPGGA,091158.40,3135.4899217,N,12046.7118829,E,4,16,1.5,2.6254,M,8.318,M,01,0004*6B
$GPHPD,1957,33136.200,143.96,0.12,13.40,31.5914987,120.7785314,2.625,13631520.972,24925952.038,2.625,-0.961,0.064,-0.930,0.598,1.249,0.774,0.000,16,15,4*43
$GPGGA,091158.60,3135.4898009,N,12046.7119767,E,4,16,1.9,2.6534,M,8.318,M,00,0004*6D
$GPHPD,1957,33136.400,143.77,-0.77,13.39,31.5914967,120.7785329,2.653,13631522.877,24925953.873,2.653,-0.937,-0.056,-0.967,0.598,1.249,0.774,0.000,16,15,4*47
$GPGGA,091158.80,3135.4896822,N,12046.7120756,E,4,16,1.9,2.6501,M,8.318,M,00,0004*62
$GPHPD,1957,33136.600,143.93,-0.80,13.38,31.5914947,120.7785346,2.650,13631524.764,24925955.756,2.650,-1.014,0.204,-0.889,0.625,1.708,0.773,0.000,16,15,4*6A
$GPGGA,091159.00,3135.4895620,N,12046.7121745,E,4,15,1.9,2.6333,M,8.318,M,01,0004*62
$GPHPD,1957,33136.800,144.12,-0.08,13.40,31.5914927,120.7785362,2.633,13631526.671,24925957.649,2.633,-0.960,0.096,-0.933,0.687,1.285,0.734,0.000,15,15,4*65
$GPGGA,091159.20,3135.4894419,N,12046.7122718,E,4,15,1.9,2.6412,M,8.318,M,01,0004*66
$GPHPD,1957,33137.000,143.84,1.23,13.39,31.5914907,120.7785379,2.641,13631528.574,24925959.521,2.641,-0.964,0.087,-0.944,0.649,1.719,0.869,0.000,15,15,4*4D
$GPGGA,091159.40,3135.4893249,N,12046.7123669,E,4,15,1.9,2.6313,M,8.318,M,01,0004*64
$GPHPD,1957,33137.200,143.77,0.75,13.39,31.5914887,120.7785394,2.631,13631530.429,24925961.349,2.631,-0.957,0.083,-0.941,0.644,1.714,0.805,0.000,15,15,4*43
$GPGGA,091159.60,3135.4892054,N,12046.7124631,E,4,15,1.9,2.6316,M,8.318,M,00,0004*67
$GPHPD,1957,33137.400,143.75,1.32,13.40,31.5914868,120.7785411,2.632,13631532.321,24925963.205,2.632,-0.912,0.047,-0.949,0.649,1.719,0.869,0.000,15,15,4*4D
$GPGGA,091159.80,3135.4890866,N,12046.7125620,E,4,15,1.9,2.6330,M,8.318,M,00,0004*67
$GPHPD,1957,33137.600,143.58,1.29,13.42,31.5914848,120.7785427,2.633,13631534.209,24925965.089,2.633,-0.935,0.065,-0.939,0.625,1.708,0.773,0.000,15,15,4*4E
$GPGGA,091200.00,3135.4889714,N,12046.7126627,E,4,16,1.9,2.6425,M,8.318,M,01,0004*67
$GPHPD,1957,33137.800,143.64,1.27,13.43,31.5914829,120.7785444,2.643,13631536.049,24925966.974,2.643,-0.960,0.085,-0.937,0.625,1.708,0.773,0.000,16,15,4*4D
$GPGGA,091200.20,3135.4888515,N,12046.7127580,E,4,16,1.9,2.6509,M,8.318,M,01,0004*67
$GPHPD,1957,33138.000,143.91,0.30,13.44,31.5914809,120.7785460,2.651,13631537.945,24925968.822,2.651,-0.974,0.102,-0.905,0.618,1.256,0.768,0.000,16,15,4*4C
$GPGGA,091200.40,3135.4887341,N,12046.7128589,E,4,16,1.9,2.6421,M,8.318,M,01,0004*64
$GPHPD,1957,33138.200,144.13,-0.55,13.49,31.5914789,120.7785476,2.642,13631539.817,24925970.722,2.642,-0.969,0.134,-0.912,0.618,1.256,0.768,0.000,16,15,4*61
$GPGGA,091200.60,3135.4886180,N,12046.7129576,E,4,16,1.9,2.6457,M,8.318,M,00,0004*69
$GPHPD,1957,33138.400,143.94,0.14,13.52,31.5914770,120.7785493,2.646,13631541.666,24925972.588,2.646,-0.941,0.016,-0.943,0.597,1.246,0.733,0.000,16,15,4*43
$GPGGA,091200.80,3135.4884973,N,12046.7130523,E,4,16,1.5,2.6599,M,8.318,M,00,0004*66
$GPHPD,1957,33138.600,144.15,-0.44,13.55,31.5914750,120.7785509,2.660,13631543.572,24925974.433,2.660,-0.947,0.043,-0.905,0.597,1.246,0.733,0.000,16,15,4*67
$GPGGA,091201.00,3135.4883803,N,12046.7131516,E,4,16,1.5,2.6471,M,8.318,M,01,0004*6F
$GPHPD,1957,33138.800,144.17,0.17,13.60,31.5914730,120.7785525,2.647,13631545.435,24925976.312,2.647,-0.974,0.145,-0.900,0.598,1.249,0.774,0.000,16,15,4*4D
$GPGGA,091201.20,3135.4882670,N,12046.7132558,E,4,16,1.5,2.6596,M,8.318,M,01,0004*67
$GPHPD,1957,33139.000,143.85,-0.24,13.63,31.5914711,120.7785543,2.660,13631547.255,24925978.228,2.660,-0.956,0.091,-0.936,0.598,1.249,0.774,0.000,16,15,4*6C
$GPGGA,091201.40,3135.4881480,N,12046.7133505,E,4,16,1.5,2.6613,M,8.318,M,01,0004*68
$GPHPD,1957,33139.200,143.85,-0.31,13.65,31.5914691,120.7785558,2.661,13631549.137,24925980.063,2.661,-0.955,0.059,-0.950,0.598,1.249,0.774,0.000,16,15,4*6B
$GPGGA,091201.60,3135.4880289,N,12046.7134495,E,4,16,1.5,2.6658,M,8.318,M,00,0004*65
$GPHPD,1957,33139.400,143.83,-0.26,13.65,31.5914671,120.7785575,2.666,13631551.029,24925981.950,2.666,-0.937,0.093,-0.929,0.598,1.249,0.774,0.000,16,16,4*6C
$GPGGA,091201.80,3135.4879082,N,12046.7135464,E,4,16,1.5,2.6709,M,8.318,M,00,0004*6E
$GPHPD,1957,33139.600,144.04,0.37,13.67,31.5914651,120.7785591,2.671,13631552.940,24925983.821,2.671,-0.958,0.097,-0.929,0.598,1.249,0.774,0.000,16,16,4*4C
$GPGGA,091202.00,3135.4877901,N,12046.7136471,E,4,16,1.5,2.6723,M,8.318,M,01,0004*67
$GPHPD,1957,33139.800,143.99,0.88,13.68,31.5914632,120.7785608,2.672,13631554.821,24925985.723,2.672,-0.964,0.103,-0.937,0.598,1.249,0.774,0.000,16,16,4*4B
$GPGGA,091202.20,3135.4876729,N,12046.7137396,E,4,16,1.6,2.6829,M,8.318,M,01,0004*69
$GPHPD,1957,33140.000,143.84,0.57,13.67,31.5914612,120.7785623,2.683,13631556.673,24925987.521,2.683,-0.971,0.084,-0.941,0.598,1.249,0.774,0.000,16,16,4*45
$GPGGA,091202.40,3135.4875500,N,12046.7138382,E,4,16,1.6,2.7015,M,8.318,M,01,0004*69
$GPHPD,1957,33140.200,144.02,0.36,13.68,31.5914592,120.7785640,2.702,13631558.619,24925989.425,2.702,-0.952,0.116,-0.915,0.694,1.292,0.779,0.000,16,16,4*4F
$GPGGA,091202.60,3135.4874316,N,12046.7139368,E,4,16,1.6,2.6973,M,8.318,M,00,0004*67
$GPHPD,1957,33140.400,143.93,0.06,13.69,31.5914572,120.7785656,2.697,13631560.500,24925991.304,2.697,-0.990,0.155,-0.911,0.722,1.752,0.818,0.000,16,16,4*40
$GPGGA,091202.80,3135.4873127,N,12046.7140386,E,4,15,1.6,2.6860,M,8.318,M,00,0004*60
$GPHPD,1957,33140.600,143.99,0.07,13.70,31.5914552,120.7785673,2.686,13631562.395,24925993.223,2.686,-0.991,0.135,-0.911,0.694,1.292,0.779,0.000,15,16,4*43
$GPGGA,091203.00,3135.4871929,N,12046.7141357,E,4,15,1.6,2.6843,M,8.318,M,01,0004*60
$GPHPD,1957,33140.800,144.28,0.67,13.69,31.5914532,120.7785689,2.684,13631564.293,24925995.092,2.684,-0.966,0.053,-0.970,0.694,1.292,0.779,0.000,15,15,4*4F
$GPGGA,091203.20,3135.4870718,N,12046.7142367,E,4,15,1.6,2.6913,M,8.318,M,01,0004*6B
$GPHPD,1957,33141.000,143.88,-0.03,13.69,31.5914512,120.7785706,2.691,13631566.218,24925997.015,2.691,-0.962,0.098,-0.948,0.694,1.292,0.779,0.000,15,15,4*64
$GPGGA,091203.40,3135.4869551,N,12046.7143394,E,4,15,1.6,2.6766,M,8.318,M,01,0004*6B
$GPHPD,1957,33141.200,144.05,-0.36,13.70,31.5914493,120.7785723,2.677,13631568.084,24925998.933,2.677,-0.985,0.121,-0.941,0.694,1.292,0.779,0.000,15,15,4*6D
$GPGGA,091203.60,3135.4868370,N,12046.7144418,E,4,15,1.6,2.6673,M,8.318,M,00,0004*6D
$GPHPD,1957,33141.400,144.08,0.63,13.73,31.5914473,120.7785740,2.667,13631569.968,24926000.855,2.667,-0.944,0.032,-0.948,0.694,1.292,0.779,0.000,15,15,4*44
$GPGGA,091203.80,3135.4867169,N,12046.7145375,E,4,16,1.6,2.6806,M,8.318,M,00,0004*64
$GPHPD,1957,33141.600,144.04,0.21,13.72,31.5914453,120.7785756,2.681,13631571.868,24926002.708,2.681,-0.955,0.058,-0.934,0.694,1.292,0.779,0.000,16,15,4*41
$GPGGA,091204.00,3135.4865979,N,12046.7146353,E,4,16,1.6,2.6761,M,8.318,M,01,0004*68
$GPHPD,1957,33141.800,144.29,0.16,13.74,31.5914433,120.7785773,2.676,13631573.756,24926004.581,2.676,-0.967,0.110,-0.940,0.694,1.292,0.779,0.000,16,15,4*49
$GPGGA,091204.20,3135.4864746,N,12046.7147371,E,4,16,1.6,2.6806,M,8.318,M,01,0004*66
$GPHPD,1957,33142.000,144.25,-0.13,13.76,31.5914412,120.7785790,2.681,13631575.714,24926006.526,2.681,-0.961,0.097,-0.940,0.777,1.339,0.866,0.000,16,15,4*60
$GPGGA,091204.40,3135.4863551,N,12046.7148364,E,4,16,1.6,2.6862,M,8.318,M,01,0004*6A
$GPHPD,1957,33142.200,144.40,0.39,13.76,31.5914393,120.7785806,2.686,13631577.612,24926008.419,2.686,-0.945,0.101,-0.956,0.777,1.339,0.866,0.000,16,15,4*43
$GPGGA,091204.60,3135.4862340,N,12046.7149384,E,4,16,1.6,2.6819,M,8.318,M,00,0004*6D
$GPHPD,1957,33142.400,144.59,0.90,13.77,31.5914372,120.7785823,2.682,13631579.539,24926010.354,2.682,-0.960,0.099,-0.937,0.694,1.292,0.779,0.000,16,15,4*49
$GPGGA,091204.80,3135.4861134,N,12046.7150375,E,4,16,1.6,2.6829,M,8.318,M,00,0004*64
$GPHPD,1957,33142.600,144.50,0.54,13.78,31.5914352,120.7785840,2.683,13631581.453,24926012.252,2.683,-0.967,0.129,-0.961,0.694,1.292,0.779,0.000,16,15,4*43
$GPGGA,091205.00,3135.4859908,N,12046.7151375,E,4,16,1.6,2.6862,M,8.318,M,01,0004*6E
$GPHPD,1957,33142.800,144.67,0.61,13.78,31.5914332,120.7785856,2.686,13631583.397,24926014.171,2.686,-0.951,0.068,-0.949,0.694,1.292,0.779,0.000,16,15,4*4C
$GPGGA,091205.20,3135.4858672,N,12046.7152415,E,4,16,1.6,2.6867,M,8.318,M,01,0004*68
$GPHPD,1957,33143.000,144.41,0.56,13.78,31.5914311,120.7785874,2.687,13631585.363,24926016.145,2.687,-0.975,0.101,-0.942,0.694,1.292,0.779,0.000,16,16,4*4C
$GPGGA,091205.40,3135.4857439,N,12046.7153399,E,4,16,1.6,2.6854,M,8.318,M,01,0004*6E
$GPHPD,1957,33143.200,144.40,0.23,13.79,31.5914291,120.7785890,2.685,13631587.313,24926018.049,2.685,-1.001,0.086,-0.965,0.694,1.292,0.779,0.000,16,15,4*4A
$GPGGA,091205.60,3135.4856217,N,12046.7154409,E,4,16,1.6,2.6940,M,8.318,M,00,0004*6B
$GPHPD,1957,33143.400,144.30,0.17,13.78,31.5914270,120.7785907,2.694,13631589.254,24926019.979,2.694,-0.972,0.072,-0.975,0.694,1.292,0.779,0.000,16,15,4*4C
$GPGGA,091205.80,3135.4854989,N,12046.7155430,E,4,16,1.6,2.6960,M,8.318,M,00,0004*62
$GPHPD,1957,33143.600,144.37,0.46,13.80,31.5914250,120.7785924,2.696,13631591.205,24926021.925,2.696,-0.990,0.117,-0.965,0.694,1.292,0.779,0.000,16,15,4*49
$GPGGA,091206.00,3135.4853769,N,12046.7156404,E,4,16,1.6,2.6910,M,8.318,M,01,0004*6C
$GPHPD,1957,33143.800,144.42,0.55,13.79,31.5914229,120.7785940,2.691,13631593.135,24926023.810,2.691,-0.995,0.130,-0.945,0.694,1.292,0.779,0.000,16,15,4*48
$GPGGA,091206.20,3135.4852540,N,12046.7157427,E,4,16,1.6,2.6944,M,8.318,M,01,0004*67
$GPHPD,1957,33144.000,144.06,0.25,13.79,31.5914209,120.7785957,2.694,13631595.088,24926025.759,2.694,-0.959,0.047,-0.978,0.694,1.292,0.779,0.000,16,15,4*4E
$GPGGA,091206.40,3135.4851319,N,12046.7158428,E,4,17,1.6,2.6980,M,8.318,M,01,0004*61
$GPHPD,1957,33144.200,143.97,0.17,13.82,31.5914189,120.7785974,2.698,13631597.025,24926027.677,2.698,-1.000,0.085,-0.954,0.694,1.292,0.779,0.000,17,15,4*43
$GPGGA,091206.60,3135.4850120,N,12046.7159439,E,4,17,1.6,2.6984,M,8.318,M,00,0004*6E
$GPHPD,1957,33144.400,143.98,0.12,13.84,31.5914169,120.7785991,2.698,13631598.933,24926029.594,2.698,-0.999,0.113,-0.972,0.686,1.284,0.778,0.000,17,16,4*49
$GPGGA,091206.80,3135.4848896,N,12046.7160442,E,4,17,1.6,2.6955,M,8.318,M,00,0004*67
$GPHPD,1957,33144.600,144.06,0.29,13.86,31.5914148,120.7786007,2.696,13631600.874,24926031.516,2.696,-1.015,0.156,-0.924,0.686,1.284,0.778,0.000,17,16,4*4A
$GPGGA,091207.00,3135.4847671,N,12046.7161452,E,4,17,1.5,2.7025,M,8.318,M,01,0004*6B
$GPHPD,1957,33144.800,144.06,0.05,13.90,31.5914128,120.7786024,2.703,13631602.819,24926033.448,2.703,-0.984,0.127,-0.959,0.686,1.284,0.778,0.000,17,16,4*47
$GPGGA,091207.20,3135.4846446,N,12046.7162495,E,4,17,1.5,2.6973,M,8.318,M,01,0004*6D
$GPHPD,1957,33145.000,144.13,-0.04,13.91,31.5914107,120.7786042,2.697,13631604.770,24926035.419,2.697,-0.986,0.104,-0.978,0.597,1.229,0.772,0.000,17,16,4*60
$GPGGA,091207.40,3135.4845216,N,12046.7163495,E,4,17,1.5,2.7132,M,8.318,M,01,0004*66
$GPHPD,1957,33145.200,144.22,0.26,13.90,31.5914087,120.7786058,2.713,13631606.720,24926037.341,2.713,-1.002,0.086,-0.978,0.597,1.229,0.772,0.000,17,16,4*4E
$GPGGA,091207.60,3135.4843974,N,12046.7164517,E,4,17,1.5,2.7057,M,8.318,M,00,0004*62
$GPHPD,1957,33145.400,144.19,-0.30,13.90,31.5914066,120.7786075,2.706,13631608.691,24926039.296,2.706,-1.028,0.183,-0.933,0.597,1.229,0.772,0.000,17,16,4*69
$GPGGA,091207.80,3135.4842728,N,12046.7165544,E,4,17,1.5,2.7064,M,8.318,M,00,0004*6D
$GPHPD,1957,33145.600,144.09,0.31,13.90,31.5914045,120.7786092,2.706,13631610.668,24926041.260,2.706,-0.979,0.124,-0.998,0.597,1.229,0.772,0.000,17,16,4*47
$GPGGA,091208.00,3135.4841500,N,12046.7166536,E,4,17,1.5,2.7150,M,8.318,M,01,0004*60
$GPHPD,1957,33145.800,144.26,0.44,13.89,31.5914025,120.7786109,2.715,13631612.614,24926043.171,2.715,-0.997,0.099,-0.982,0.597,1.229,0.772,0.000,17,16,4*4F
$GPGGA,091208.20,3135.4840287,N,12046.7167564,E,4,17,1.5,2.7139,M,8.318,M,01,0004*62
$GPHPD,1957,33146.000,144.21,-0.07,13.88,31.5914005,120.7786126,2.714,13631614.545,24926045.117,2.714,-1.005,0.152,-0.956,0.620,1.250,0.835,0.000,17,16,4*61
$GPGGA,091208.40,3135.4839062,N,12046.7168623,E,4,17,1.5,2.7170,M,8.318,M,01,0004*61
$GPHPD,1957,33146.200,144.12,-0.04,13.88,31.5913984,120.7786144,2.717,13631616.499,24926047.107,2.717,-0.986,0.129,-0.952,0.597,1.229,0.772,0.000,17,16,4*64
$GPGGA,091208.60,3135.4837835,N,12046.7169650,E,4,17,1.5,2.7180,M,8.318,M,00,0004*6C
$GPHPD,1957,33146.400,144.24,-0.36,13.88,31.5913964,120.7786161,2.718,13631618.450,24926049.060,2.718,-1.003,0.107,-0.964,0.597,1.229,0.772,0.000,17,16,4*66
$GPGGA,091208.80,3135.4836608,N,12046.7170649,E,4,17,1.5,2.7102,M,8.318,M,00,0004*69
$GPHPD,1957,33146.600,144.06,-0.12,13.86,31.5913943,120.7786177,2.710,13631620.395,24926050.979,2.710,-0.998,0.096,-0.962,0.597,1.229,0.772,0.000,17,16,4*67
$GPGGA,091209.00,3135.4835390,N,12046.7171658,E,4,17,1.5,2.7220,M,8.318,M,01,0004*64
$GPHPD,1957,33146.800,144.06,-0.21,13.84,31.5913923,120.7786194,2.722,13631622.329,24926052.905,2.722,-1.015,0.080,-0.999,0.597,1.229,0.772,0.000,17,16,4*62
$GPGGA,091209.20,3135.4834177,N,12046.7172655,E,4,17,1.5,2.7196,M,8.318,M,01,0004*6C
$GPHPD,1957,33147.000,144.34,-0.53,13.85,31.5913903,120.7786211,2.720,13631624.254,24926054.814,2.720,-1.008,0.118,-0.942,0.597,1.229,0.772,0.000,17,16,4*62
$GPGGA,091209.40,3135.4832950,N,12046.7173685,E,4,17,1.5,2.7151,M,8.318,M,01,0004*66
$GPHPD,1957,33147.200,144.05,-0.07,13.87,31.5913883,120.7786228,2.715,13631626.206,24926056.770,2.715,-0.986,0.085,-0.957,0.597,1.229,0.772,0.000,17,16,4*67
$GPGGA,091209.60,3135.4831686,N,12046.7174660,E,4,17,1.5,2.7160,M,8.318,M,00,0004*6C
$GPHPD,1957,33147.400,144.41,-0.41,13.86,31.5913861,120.7786244,2.716,13631628.199,24926058.682,2.716,-0.976,0.075,-0.978,0.597,1.229,0.772,0.000,17,17,4*61
$GPGGA,091209.80,3135.4830467,N,12046.7175689,E,4,17,1.5,2.7175,M,8.318,M,00,0004*6C
$GPHPD,1957,33147.600,144.24,0.07,13.86,31.5913841,120.7786261,2.718,13631630.138,24926060.632,2.718,-0.980,0.158,-0.988,0.597,1.229,0.772,0.000,17,17,4*40
$GPGGA,091210.00,3135.4829243,N,12046.7176695,E,4,17,1.5,2.7191,M,8.318,M,01,0004*61
$GPHPD,1957,33147.800,144.22,-0.19,13.87,31.5913821,120.7786278,2.719,13631632.081,24926062.558,2.719,-0.970,0.068,-0.983,0.597,1.229,0.772,0.000,17,17,4*6F
$GPGGA,091210.20,3135.4828003,N,12046.7177701,E,4,17,1.5,2.7178,M,8.318,M,01,0004*6E
$GPHPD,1957,33148.000,144.41,0.43,13.88,31.5913800,120.7786295,2.718,13631634.046,24926064.493,2.718,-0.989,0.105,-0.953,0.597,1.229,0.772,0.000,17,17,4*4C
$GPGGA,091210.40,3135.4826752,N,12046.7178690,E,4,17,1.5,2.7187,M,8.318,M,01,0004*63
$GPHPD,1957,33148.200,144.27,-0.22,13.87,31.5913779,120.7786312,2.719,13631636.023,24926066.414,2.719,-1.012,0.129,-0.951,0.686,1.284,0.778,0.000,17,17,4*60
$GPGGA,091210.60,3135.4825538,N,12046.7179738,E,4,16,1.5,2.7198,M,8.318,M,01,0004*61
$GPHPD,1957,33148.400,144.25,0.02,13.87,31.5913759,120.7786329,2.720,13631637.960,24926068.385,2.720,-0.964,0.105,-0.995,0.686,1.284,0.778,0.000,16,17,4*41
$GPGGA,091210.80,3135.4824301,N,12046.7180741,E,4,16,1.5,2.7280,M,8.318,M,00,0004*61
$GPHPD,1957,33148.600,144.39,0.30,13.88,31.5913738,120.7786346,2.728,13631639.920,24926070.314,2.728,-0.993,0.099,-0.966,0.686,1.284,0.778,0.000,16,16,4*44
$GPGGA,091211.00,3135.4823082,N,12046.7181742,E,4,16,1.5,2.7292,M,8.318,M,01,0004*67
$GPHPD,1957,33148.800,144.43,-0.08,13.88,31.5913718,120.7786362,2.729,13631641.854,24926072.231,2.729,-1.013,0.146,-0.960,0.686,1.284,0.778,0.000,16,16,4*69
$GPGGA,091211.20,3135.4821846,N,12046.7182736,E,4,16,1.5,2.7311,M,8.318,M,01,0004*6D
$GPHPD,1957,33149.000,144.41,0.08,13.90,31.5913697,120.7786379,2.731,13631643.811,24926074.149,2.731,-0.994,0.117,-0.955,0.686,1.284,0.778,0.000,16,16,4*46
$GPGGA,091211.40,3135.4820611,N,12046.7183717,E,4,16,1.5,2.7311,M,8.318,M,01,0004*64
$GPHPD,1957,33149.200,144.35,-0.06,13.92,31.5913677,120.7786395,2.731,13631645.764,24926076.051,2.731,-0.974,0.129,-0.944,0.686,1.284,0.778,0.000,16,16,4*68
$GPGGA,091211.60,3135.4819424,N,12046.7184757,E,4,16,1.5,2.7356,M,8.319,M,00,0004*68
$GPHPD,1957,33149.400,144.07,0.39,13.96,31.5913657,120.7786413,2.736,13631647.660,24926077.997,2.736,-0.996,0.142,-0.953,0.686,1.284,0.778,0.000,16,16,4*43
$GPGGA,091211.80,3135.4818199,N,12046.7185746,E,4,16,1.5,2.7334,M,8.319,M,00,0004*61
$GPHPD,1957,33149.600,144.38,0.25,13.97,31.5913637,120.7786429,2.733,13631649.601,24926079.903,2.733,-1.012,0.147,-0.920,0.681,1.274,0.731,0.000,16,16,4*44
$GPGGA,091212.00,3135.4816941,N,12046.7186741,E,4,16,1.5,2.7323,M,8.319,M,01,0004*6A
$GPHPD,1957,33149.800,144.09,0.65,13.96,31.5913616,120.7786446,2.732,13631651.589,24926081.835,2.732,-0.980,0.109,-0.957,0.681,1.274,0.731,0.000,16,16,4*47
$GPGGA,091212.20,3135.4815717,N,12046.7187723,E,4,16,1.5,2.7389,M,8.319,M,01,0004*63
$GPHPD,1957,33150.000,144.09,0.82,13.97,31.5913595,120.7786462,2.739,13631653.527,24926083.732,2.739,-0.998,0.101,-0.957,0.681,1.274,0.731,0.000,16,16,4*4C
$GPGGA,091212.40,3135.4814509,N,12046.7188755,E,4,16,1.6,2.7252,M,8.319,M,01,0004*63
$GPHPD,1957,33150.200,143.90,0.75,13.96,31.5913575,120.7786479,2.725,13631655.451,24926085.679,2.725,-0.997,0.128,-0.956,0.681,1.274,0.731,0.000,16,16,4*4F
$GPGGA,091212.60,3135.4813259,N,12046.7189778,E,4,17,1.6,2.7417,M,8.319,M,00,0004*6D
$GPHPD,1957,33150.400,144.04,0.42,13.95,31.5913554,120.7786496,2.742,13631657.434,24926087.641,2.742,-0.961,0.042,-0.989,0.681,1.274,0.731,0.000,17,16,4*49
$GPGGA,091212.80,3135.4812036,N,12046.7190821,E,4,17,1.5,2.7394,M,8.319,M,00,0004*6D
$GPHPD,1957,33150.600,144.20,0.24,13.94,31.5913534,120.7786514,2.739,13631659.382,24926089.611,2.739,-1.005,0.111,-0.963,0.597,1.225,0.729,0.000,17,16,4*4E
$GPGGA,091213.00,3135.4810799,N,12046.7191826,E,4,17,1.5,2.7506,M,8.319,M,01,0004*6E
$GPHPD,1957,33150.800,144.42,0.04,13.93,31.5913513,120.7786530,2.751,13631661.343,24926091.543,2.751,-1.016,0.080,-0.965,0.616,1.240,0.767,0.000,17,17,4*46
$GPGGA,091213.20,3135.4809562,N,12046.7192889,E,4,17,1.5,2.7494,M,8.319,M,01,0004*6E
$GPHPD,1957,33151.000,144.26,0.23,13.92,31.5913493,120.7786548,2.749,13631663.315,24926093.545,2.749,-1.006,0.132,-0.966,0.597,1.225,0.729,0.000,17,17,4*43
$GPGGA,091213.40,3135.4808292,N,12046.7193892,E,4,17,1.5,2.7602,M,8.319,M,01,0004*67
$GPHPD,1957,33151.200,144.56,-0.49,13.87,31.5913472,120.7786565,2.760,13631665.322,24926095.494,2.760,-1.010,0.091,-0.970,0.597,1.229,0.772,0.000,17,17,4*60
$GPGGA,091213.60,3135.4807089,N,12046.7194922,E,4,17,1.5,2.7671,M,8.319,M,00,0004*6A
$GPHPD,1957,33151.400,144.55,-0.68,13.81,31.5913451,120.7786582,2.767,13631667.240,24926097.436,2.767,-1.013,0.118,-0.955,0.597,1.229,0.772,0.000,17,17,4*61
$GPGGA,091213.80,3135.4805860,N,12046.7195924,E,4,17,1.5,2.7581,M,8.319,M,00,0004*62
$GPHPD,1957,33151.600,144.62,-1.01,13.78,31.5913431,120.7786599,2.758,13631669.188,24926099.360,2.758,-1.011,0.134,-0.933,0.597,1.229,0.772,0.000,17,17,4*6C
$GPGGA,091214.00,3135.4804609,N,12046.7196915,E,4,17,1.5,2.7580,M,8.319,M,01,0004*6C
$GPHPD,1957,33151.800,144.52,-0.53,13.78,31.5913410,120.7786615,2.758,13631671.166,24926101.283,2.758,-0.979,0.093,-0.970,0.597,1.229,0.772,0.000,17,17,4*6B
$GPGGA,091214.20,3135.4803408,N,12046.7197865,E,4,17,1.5,2.7455,M,8.319,M,01,0004*64
$GPHPD,1957,33152.000,144.52,-0.04,13.78,31.5913390,120.7786631,2.746,13631673.064,24926103.128,2.746,-0.990,0.124,-0.945,0.597,1.225,0.729,0.000,17,17,4*64
$GPGGA,091214.40,3135.4802132,N,12046.7198885,E,4,17,1.5,2.7510,M,8.319,M,01,0004*6E
$GPHPD,1957,33152.200,144.32,0.06,13.79,31.5913369,120.7786648,2.751,13631675.083,24926105.101,2.751,-0.932,0.075,-0.979,0.597,1.229,0.772,0.000,17,17,4*44
$GPGGA,091214.60,3135.4800911,N,12046.7199923,E,4,17,1.5,2.7522,M,8.319,M,00,0004*6B
$GPHPD,1957,33152.400,144.21,0.12,13.80,31.5913349,120.7786665,2.752,13631677.028,24926107.064,2.752,-0.991,0.123,-0.969,0.597,1.229,0.772,0.000,17,17,4*47
$GPGGA,091214.80,3135.4799665,N,12046.7200900,E,4,17,1.5,2.7566,M,8.319,M,00,0004*64
$GPHPD,1957,33152.600,144.41,-0.10,13.79,31.5913328,120.7786682,2.757,13631678.996,24926108.967,2.757,-1.008,0.111,-0.967,0.597,1.229,0.772,0.000,17,17,4*65
$GPGGA,091215.00,3135.4798420,N,12046.7201929,E,4,17,1.5,2.7563,M,8.319,M,01,0004*61
$GPHPD,1957,33152.800,144.16,-0.58,13.81,31.5913307,120.7786699,2.756,13631680.972,24926110.933,2.756,-1.004,0.141,-0.956,0.597,1.229,0.772,0.000,17,17,4*6B
$GPGGA,091215.20,3135.4797173,N,12046.7202972,E,4,17,1.5,2.7600,M,8.319,M,01,0004*64
$GPHPD,1957,33153.000,144.07,-0.06,13.82,31.5913286,120.7786716,2.760,13631682.955,24926112.917,2.760,-0.981,0.113,-0.961,0.597,1.229,0.772,0.000,17,17,4*61
$GPGGA,091215.40,3135.4795924,N,12046.7203949,E,4,17,1.5,2.7610,M,8.319,M,01,0004*62
$GPHPD,1957,33153.200,143.96,0.26,13.85,31.5913265,120.7786732,2.761,13631684.927,24926114.822,2.761,-1.015,0.116,-0.969,0.597,1.229,0.772,0.000,17,17,4*45
$GPGGA,091215.60,3135.4794742,N,12046.7204976,E,4,17,1.5,2.7518,M,8.319,M,00,0004*6E
$GPHPD,1957,33153.400,143.96,0.20,13.86,31.5913246,120.7786750,2.752,13631686.814,24926116.749,2.752,-0.989,0.108,-0.977,0.686,1.284,0.779,0.000,17,17,4*42
$GPGGA,091215.80,3135.4793519,N,12046.7205967,E,4,17,1.5,2.7541,M,8.319,M,00,0004*66
$GPHPD,1957,33153.600,143.96,0.02,13.89,31.5913225,120.7786766,2.754,13631688.752,24926118.656,2.754,-0.967,0.056,-0.982,0.621,1.250,0.835,0.000,17,17,4*4E
$GPGGA,091216.00,3135.4792300,N,12046.7206978,E,4,17,1.5,2.7551,M,8.319,M,01,0004*6F
$GPHPD,1957,33153.800,143.98,0.13,13.90,31.5913205,120.7786783,2.755,13631690.688,24926120.585,2.755,-0.978,0.082,-0.962,0.621,1.250,0.835,0.000,17,17,4*4F
$GPGGA,091216.20,3135.4791078,N,12046.7208009,E,4,17,1.5,2.7627,M,8.319,M,01,0004*61
$GPHPD,1957,33154.000,144.15,0.51,13.89,31.5913185,120.7786800,2.763,13631692.632,24926122.539,2.763,-0.986,0.109,-0.969,0.621,1.250,0.836,0.000,17,17,4*4E
$GPGGA,091216.40,3135.4789872,N,12046.7209013,E,4,17,1.5,2.7604,M,8.319,M,01,0004*67
$GPHPD,1957,33154.200,144.30,0.52,13.90,31.5913165,120.7786817,2.760,13631694.549,24926124.452,2.760,-1.000,0.100,-0.946,0.597,1.229,0.773,0.000,17,17,4*47
$GPGGA,091216.60,3135.4788659,N,12046.7210050,E,4,17,1.5,2.7719,M,8.319,M,00,0004*60
$GPHPD,1957,33154.400,144.36,0.06,13.91,31.5913144,120.7786834,2.772,13631696.482,24926126.409,2.772,-0.963,0.064,-0.971,0.597,1.229,0.773,0.000,17,17,4*47
$GPGGA,091216.80,3135.4787423,N,12046.7211070,E,4,17,1.5,2.7706,M,8.319,M,00,0004*63
$GPHPD,1957,33154.600,144.80,0.50,13.91,31.5913124,120.7786851,2.771,13631698.444,24926128.359,2.771,-1.023,0.125,-0.913,0.597,1.229,0.773,0.000,17,17,4*4A
$GPGGA,091217.00,3135.4786174,N,12046.7212069,E,4,17,1.5,2.7755,M,8.319,M,01,0004*60
$GPHPD,1957,33154.800,144.65,0.14,13.90,31.5913103,120.7786868,2.776,13631700.420,24926130.291,2.776,-1.006,0.115,-0.972,0.597,1.229,0.773,0.000,17,17,4*4C
$GPGGA,091217.20,3135.4784942,N,12046.7213076,E,4,17,1.5,2.7802,M,8.319,M,01,0004*6F
$GPHPD,1957,33155.000,144.17,-0.32,13.90,31.5913082,120.7786885,2.780,13631702.374,24926132.222,2.780,-1.009,0.151,-0.965,0.597,1.229,0.773,0.000,17,17,4*65
$GPGGA,091217.40,3135.4783693,N,12046.7214087,E,4,17,1.5,2.7739,M,8.319,M,01,0004*63
$GPHPD,1957,33155.200,144.02,-1.63,13.88,31.5913062,120.7786901,2.774,13631704.353,24926134.169,2.774,-1.013,0.126,-0.957,0.597,1.229,0.773,0.000,17,17,4*6F
$GPGGA,091217.60,3135.4782447,N,12046.7215068,E,4,17,1.5,2.7827,M,8.319,M,00,0004*6A
$GPHPD,1957,33155.400,144.41,0.09,13.86,31.5913041,120.7786918,2.783,13631706.321,24926136.077,2.783,-0.985,0.067,-0.997,0.621,1.250,0.836,0.000,17,17,4*43
$GPGGA,091217.80,3135.4781187,N,12046.7216119,E,4,17,1.5,2.7796,M,8.319,M,00,0004*6F
$GPHPD,1957,33155.600,144.34,0.26,13.81,31.5913020,120.7786935,2.780,13631708.324,24926138.078,2.780,-0.995,0.142,-0.962,0.597,1.229,0.773,0.000,17,17,4*48
$GPGGA,091218.00,3135.4779985,N,12046.7217090,E,4,17,1.5,2.7887,M,8.319,M,01,0004*6A
$GPHPD,1957,33155.800,144.35,0.10,13.80,31.5913000,120.7786952,2.789,13631710.228,24926139.949,2.789,-0.994,0.108,-0.990,0.597,1.229,0.773,0.000,17,17,4*4C
$GPGGA,091218.20,3135.4778796,N,12046.7218159,E,4,17,1.5,2.7614,M,8.319,M,01,0004*6A
$GPHPD,1957,33156.000,144.21,0.12,13.81,31.5912980,120.7786969,2.761,13631712.133,24926141.930,2.761,-0.998,0.135,-0.947,0.597,1.229,0.773,0.000,17,17,4*4B
$GPGGA,091218.40,3135.4777546,N,12046.7219128,E,4,17,1.5,2.7816,M,8.319,M,01,0004*67
$GPHPD,1957,33156.200,144.32,0.62,13.80,31.5912959,120.7786985,2.782,13631714.105,24926143.826,2.782,-0.954,0.023,-0.970,0.597,1.229,0.773,0.000,17,17,4*4E
$GPGGA,091218.60,3135.4776311,N,12046.7220134,E,4,17,1.5,2.7801,M,8.319,M,00,0004*60
$GPHPD,1957,33156.400,144.14,0.32,13.80,31.5912939,120.7787002,2.780,13631716.063,24926145.758,2.780,-1.004,0.227,-0.917,0.597,1.229,0.773,0.000,17,17,4*41
$GPGGA,091218.80,3135.4775081,N,12046.7221158,E,4,17,1.5,2.7867,M,8.319,M,00,0004*6C
$GPHPD,1957,33156.600,144.13,-0.09,13.82,31.5912918,120.7787019,2.787,13631718.017,24926147.709,2.787,-0.998,0.105,-0.966,0.597,1.229,0.773,0.000,17,17,4*69
$GPGGA,091219.00,3135.4773856,N,12046.7222162,E,4,17,1.5,2.7815,M,8.319,M,01,0004*6F
$GPHPD,1957,33156.800,143.98,0.04,13.84,31.5912898,120.7787036,2.782,13631719.961,24926149.633,2.782,-1.006,0.112,-0.972,0.597,1.224,0.729,0.000,17,17,4*40
$GPGGA,091219.20,3135.4772634,N,12046.7223223,E,4,17,1.5,2.7739,M,8.319,M,01,0004*60
$GPHPD,1957,33157.000,144.11,-0.08,13.84,31.5912877,120.7787054,2.774,13631721.911,24926151.624,2.774,-0.966,0.052,-0.999,0.597,1.224,0.729,0.000,17,16,4*67
$GPGGA,091219.40,3135.4771391,N,12046.7224237,E,4,17,1.5,2.7808,M,8.319,M,01,0004*60
$GPHPD,1957,33157.200,144.32,-0.04,13.84,31.5912857,120.7787071,2.781,13631723.882,24926153.571,2.781,-0.999,0.014,-0.990,0.597,1.224,0.729,0.000,17,16,4*6E
$GPGGA,091219.60,3135.4770162,N,12046.7225270,E,4,17,1.5,2.7801,M,8.319,M,00,0004*67
$GPHPD,1957,33157.400,144.22,-0.08,13.83,31.5912836,120.7787088,2.780,13631725.837,24926155.532,2.780,-1.015,0.138,-0.968,0.597,1.224,0.729,0.000,17,16,4*6E
$GPGGA,091219.80,3135.4768907,N,12046.7226295,E,4,17,1.6,2.7939,M,8.319,M,00,0004*6A
$GPHPD,1957,33157.600,144.28,0.03,13.81,31.5912815,120.7787105,2.794,13631727.827,24926157.499,2.794,-1.007,0.071,-0.959,0.616,1.240,0.768,0.000,17,16,4*46
$GPGGA,091220.00,3135.4767669,N,12046.7227314,E,4,17,1.6,2.7880,M,8.319,M,01,0004*6B
$GPHPD,1957,33157.800,144.19,0.03,13.79,31.5912794,120.7787122,2.788,13631729.792,24926159.448,2.788,-1.023,0.124,-0.962,0.616,1.240,0.768,0.000,17,16,4*4C
$GPGGA,091220.20,3135.4766427,N,12046.7228321,E,4,17,1.8,2.7779,M,8.319,M,01,0004*6E
$GPHPD,1957,33158.000,144.13,-0.24,13.76,31.5912774,120.7787139,2.778,13631731.760,24926161.386,2.778,-0.991,0.090,-0.976,0.630,1.242,0.921,0.000,17,16,4*67
$GPGGA,091220.40,3135.4765182,N,12046.7229347,E,4,17,1.8,2.7810,M,8.319,M,01,0004*60
$GPHPD,1957,33158.200,144.06,0.26,13.76,31.5912753,120.7787156,2.781,13631733.737,24926163.348,2.781,-0.977,0.090,-0.983,0.630,1.242,0.921,0.000,17,16,4*40
$GPGGA,091220.60,3135.4763960,N,12046.7230365,E,4,16,1.8,2.7892,M,8.319,M,01,0004*63
$GPHPD,1957,33158.400,144.03,-0.30,13.77,31.5912733,120.7787173,2.789,13631735.678,24926165.287,2.789,-1.006,0.122,-0.969,0.616,1.240,0.768,0.000,16,16,4*67
$GPGGA,091220.80,3135.4762738,N,12046.7231420,E,4,16,1.8,2.7941,M,8.319,M,01,0004*67
$GPHPD,1957,33158.600,144.54,0.67,13.77,31.5912712,120.7787190,2.794,13631737.628,24926167.271,2.794,-1.033,0.174,-0.944,0.630,1.242,0.921,0.000,16,16,4*45
$GPGGA,091221.00,3135.4761531,N,12046.7232429,E,4,16,1.8,2.7882,M,8.319,M,02,0004*61
$GPHPD,1957,33158.800,144.97,1.47,13.78,31.5912692,120.7787207,2.788,13631739.547,24926169.190,2.788,-1.057,0.157,-0.919,0.630,1.242,0.921,0.000,16,16,4*41
$GPGGA,091221.20,3135.4760302,N,12046.7233418,E,4,16,1.8,2.7870,M,8.319,M,02,0004*6A
$GPHPD,1957,33159.000,144.72,0.17,13.80,31.5912672,120.7787224,2.787,13631741.493,24926171.098,2.787,-0.990,0.099,-0.955,0.630,1.242,0.922,0.000,16,16,4*43
$GPGGA,091221.40,3135.4759054,N,12046.7234420,E,4,16,1.8,2.7983,M,8.319,M,02,0004*67
$GPHPD,1957,33159.200,144.71,0.64,13.81,31.5912651,120.7787240,2.798,13631743.468,24926173.033,2.798,-0.985,0.094,-0.953,0.630,1.242,0.922,0.000,16,16,4*4E
$GPGGA,091221.60,3135.4757809,N,12046.7235357,E,4,17,1.7,2.7957,M,8.319,M,02,0004*6A
$GPHPD,1957,33159.400,144.66,0.47,13.84,31.5912630,120.7787256,2.796,13631745.426,24926174.888,2.796,-0.993,0.127,-0.974,0.630,1.242,0.922,0.000,17,16,4*43
$GPGGA,091221.80,3135.4756593,N,12046.7236386,E,4,17,1.6,2.8070,M,8.319,M,00,0004*64
$GPHPD,1957,33159.600,144.26,0.31,13.88,31.5912610,120.7787273,2.807,13631747.362,24926176.837,2.807,-0.970,0.121,-0.974,0.616,1.240,0.768,0.000,17,17,4*42
$GPGGA,091222.00,3135.4755358,N,12046.7237346,E,4,17,1.6,2.8302,M,8.319,M,01,0004*67
$GPHPD,1957,33159.800,144.37,0.23,13.92,31.5912589,120.7787289,2.830,13631749.311,24926178.713,2.830,-0.996,0.149,-0.941,0.616,1.240,0.768,0.000,17,17,4*4F
$GPGGA,091222.20,3135.4754160,N,12046.7238419,E,4,17,1.6,2.7949,M,8.319,M,01,0004*65
$GPHPD,1957,33160.000,144.00,-0.69,13.92,31.5912569,120.7787307,2.795,13631751.230,24926180.705,2.795,-1.001,0.201,-0.940,0.616,1.240,0.768,0.000,17,17,4*60
$GPGGA,091222.40,3135.4752931,N,12046.7239418,E,4,17,1.6,2.8095,M,8.319,M,01,0004*6E
$GPHPD,1957,33160.200,144.48,0.69,13.92,31.5912549,120.7787324,2.810,13631753.178,24926182.625,2.810,-0.958,0.004,-1.011,0.764,1.733,0.816,0.000,17,17,4*40
$GPGGA,091222.60,3135.4751704,N,12046.7240408,E,4,17,1.6,2.7960,M,8.319,M,00,0004*65
$GPHPD,1957,33160.400,144.32,0.01,13.93,31.5912528,120.7787340,2.796,13631755.121,24926184.533,2.796,-1.026,0.127,-0.942,0.729,1.310,0.779,0.000,17,16,4*4D
$GPGGA,091222.80,3135.4750470,N,12046.7241403,E,4,17,1.6,2.8048,M,8.319,M,00,0004*6C
$GPHPD,1957,33160.600,144.21,0.00,13.93,31.5912508,120.7787357,2.805,13631757.075,24926186.452,2.805,-0.948,0.053,-1.031,0.729,1.310,0.779,0.000,17,16,4*40
$GPGGA,091223.00,3135.4749253,N,12046.7242425,E,4,17,1.6,2.7934,M,8.319,M,01,0004*61
$GPHPD,1957,33160.800,144.00,-0.29,13.92,31.5912488,120.7787374,2.793,13631759.011,24926188.393,2.793,-0.974,0.091,-0.978,0.750,1.339,0.865,0.000,17,16,4*69
$GPGGA,091223.20,3135.4748025,N,12046.7243444,E,4,17,1.6,2.8075,M,8.319,M,01,0004*64
$GPHPD,1957,33161.000,144.08,0.51,13.92,31.5912467,120.7787391,2.808,13631760.961,24926190.336,2.808,-0.956,0.046,-0.998,0.750,1.339,0.865,0.000,17,17,4*47
$GPGGA,091223.40,3135.4746809,N,12046.7244445,E,4,17,1.6,2.8086,M,8.319,M,01,0004*60
$GPHPD,1957,33161.200,144.26,0.16,13.93,31.5912447,120.7787407,2.809,13631762.891,24926192.251,2.809,-1.005,0.110,-0.951,0.729,1.310,0.779,0.000,17,17,4*41
$GPGGA,091223.60,3135.4745594,N,12046.7245447,E,4,17,1.6,2.8012,M,8.319,M,00,0004*67
$GPHPD,1957,33161.400,144.32,0.09,13.93,31.5912427,120.7787424,2.801,13631764.820,24926194.167,2.801,-0.987,0.095,-0.962,0.729,1.310,0.779,0.000,17,16,4*48
$GPGGA,091223.80,3135.4744387,N,12046.7246442,E,4,17,1.6,2.8057,M,8.319,M,00,0004*6B
$GPHPD,1957,33161.600,144.27,0.47,13.92,31.5912406,120.7787441,2.806,13631766.736,24926196.070,2.806,-0.967,0.068,-0.963,0.729,1.310,0.779,0.000,17,16,4*47
$GPGGA,091224.00,3135.4743156,N,12046.7247486,E,4,17,1.6,2.7952,M,8.319,M,01,0004*66
$GPHPD,1957,33161.800,144.03,0.13,13.93,31.5912386,120.7787458,2.795,13631768.696,24926198.045,2.795,-0.975,0.091,-0.961,0.729,1.310,0.779,0.000,17,16,4*42
$GPGGA,091224.20,3135.4741941,N,12046.7248450,E,4,17,1.6,2.7994,M,8.319,M,01,0004*66
$GPHPD,1957,33162.000,144.20,0.16,13.95,31.5912366,120.7787474,2.799,13631770.617,24926199.915,2.799,-0.985,0.083,-0.975,0.729,1.310,0.779,0.000,17,16,4*4F
$GPGGA,091224.40,3135.4740696,N,12046.7249392,E,4,17,1.6,2.8050,M,8.319,M,01,0004*62
$GPHPD,1957,33162.200,144.18,0.43,13.97,31.5912345,120.7787490,2.805,13631772.576,24926201.776,2.805,-0.971,0.115,-0.972,0.729,1.310,0.779,0.000,17,16,4*42
$GPGGA,091224.60,3135.4739465,N,12046.7250410,E,4,17,1.6,2.8140,M,8.319,M,00,0004*64
$GPHPD,1957,33162.400,144.17,0.31,14.00,31.5912324,120.7787507,2.814,13631774.531,24926203.720,2.814,-0.973,0.131,-0.965,0.729,1.310,0.779,0.000,17,16,4*49
$GPGGA,091224.80,3135.4738217,N,12046.7251447,E,4,17,1.6,2.8300,M,8.319,M,00,0004*6D
$GPHPD,1957,33162.600,144.11,0.25,14.01,31.5912304,120.7787524,2.830,13631776.514,24926205.697,2.830,-0.986,0.143,-0.957,0.681,1.273,0.732,0.000,17,16,4*42
$GPGGA,091225.00,3135.4736986,N,12046.7252494,E,4,17,1.6,2.8375,M,8.319,M,01,0004*67
$GPHPD,1957,33162.800,144.35,0.42,14.02,31.5912283,120.7787542,2.838,13631778.474,24926207.677,2.838,-1.058,0.196,-0.927,0.681,1.273,0.732,0.000,17,16,4*47
$GPGGA,091225.20,3135.4735762,N,12046.7253479,E,4,17,1.6,2.8417,M,8.319,M,01,0004*63
$GPHPD,1957,33163.000,144.14,0.04,14.03,31.5912263,120.7787558,2.842,13631780.412,24926209.577,2.842,-1.022,0.131,-0.950,0.681,1.273,0.732,0.000,17,16,4*41
$GPGGA,091225.40,3135.4734527,N,12046.7254520,E,4,17,1.6,2.8369,M,8.319,M,01,0004*63
$GPHPD,1957,33163.200,144.02,-0.48,14.02,31.5912242,120.7787575,2.837,13631782.377,24926211.552,2.837,-1.023,0.158,-0.936,0.681,1.273,0.732,0.000,17,16,4*6A
$GPGGA,091225.60,3135.4733321,N,12046.7255564,E,4,17,1.6,2.8271,M,8.319,M,00,0004*6E
$GPHPD,1957,33163.400,144.33,-0.14,14.03,31.5912222,120.7787593,2.827,13631784.302,24926213.513,2.827,-1.018,0.122,-0.967,0.681,1.273,0.732,0.000,17,16,4*6A
$GPGGA,091225.80,3135.4732054,N,12046.7256549,E,4,17,1.6,2.8200,M,8.319,M,00,0004*6A
$GPHPD,1957,33163.600,144.32,0.39,14.03,31.5912201,120.7787609,2.820,13631786.301,24926215.438,2.820,-0.992,0.041,-0.969,0.681,1.273,0.732,0.000,17,16,4*45
$GPGGA,091226.00,3135.4730843,N,12046.7257558,E,4,17,1.6,2.8289,M,8.319,M,01,0004*6C
$GPHPD,1957,33163.800,144.15,-0.25,14.03,31.5912181,120.7787626,2.829,13631788.225,24926217.360,2.829,-0.968,0.076,-1.011,0.681,1.273,0.732,0.000,17,16,4*6F
$GPGGA,091226.20,3135.4729622,N,12046.7258585,E,4,17,1.6,2.8228,M,8.319,M,01,0004*6B
$GPHPD,1957,33164.000,143.93,-0.55,14.06,31.5912160,120.7787643,2.823,13631790.168,24926219.309,2.823,-0.985,0.088,-0.971,0.686,1.284,0.779,0.000,17,16,4*69
$GPGGA,091226.40,3135.472869,N,12046.7259591,E,4,17,1.6,2.8266,M,8.319,M,01,0004*68
$GPHPD,1957,33164.200,144.29,-0.03,14.06,31.5912139,120.7787660,2.827,13631792.151,24926221.252,2.827,-0.971,0.064,-0.989,0.686,1.283,0.779,0.000,17,16,4*66
$GPGGA,091226.60,3135.4727114,N,12046.7260589,E,4,17,1.6,2.8284,M,8.319,M,00,0004*63
$GPHPD,1957,33164.400,144.25,-0.15,14.06,31.5912119,120.7787676,2.828,13631794.136,24926223.186,2.828,-0.995,0.100,-0.975,0.686,1.283,0.779,0.000,17,16,4*6B
$GPGGA,091226.80,3135.4725867,N,12046.7261614,E,4,17,1.6,2.8345,M,8.319,M,00,0004*68
$GPHPD,1957,33164.600,144.03,-0.14,14.07,31.5912098,120.7787694,2.835,13631796.115,24926225.148,2.835,-0.996,0.157,-0.978,0.686,1.283,0.779,0.000,17,16,4*62
$GPGGA,091227.00,3135.4724641,N,12046.7262670,E,4,17,1.6,2.8240,M,8.319,M,01,0004*6E
$GPHPD,1957,33164.800,144.10,0.00,14.07,31.5912077,120.7787711,2.824,13631798.070,24926227.135,2.824,-1.019,0.145,-0.960,0.597,1.229,0.773,0.000,17,17,4*42
$GPGGA,091227.20,3135.4723403,N,12046.7263685,E,4,17,1.6,2.8285,M,8.319,M,01,0004*6D
$GPHPD,1957,33165.000,144.50,0.37,14.08,31.5912057,120.7787728,2.829,13631800.034,24926229.080,2.829,-1.014,0.080,-0.970,0.597,1.229,0.773,0.000,17,17,4*47
$GPGGA,091227.40,3135.4722150,N,12046.7264689,E,4,17,1.6,2.8251,M,8.319,M,01,0004*6B
$GPHPD,1957,33165.200,144.62,0.49,14.11,31.5912036,120.7787745,2.825,13631802.017,24926231.020,2.825,-1.007,0.115,-0.970,0.597,1.229,0.773,0.000,17,17,4*46
$GPGGA,091227.60,3135.4720917,N,12046.7265730,E,4,17,1.5,2.8349,M,8.319,M,01,0004*69
$GPHPD,1957,33165.400,144.65,0.73,14.12,31.5912015,120.7787762,2.835,13631803.980,24926232.993,2.835,-0.988,0.098,-0.999,0.597,1.229,0.773,0.000,17,17,4*41
$GPGGA,091227.80,3135.4719667,N,12046.7266719,E,4,17,1.5,2.8370,M,8.319,M,00,0004*66
$GPHPD,1957,33165.600,144.48,1.14,14.12,31.5911994,120.7787779,2.837,13631805.955,24926234.914,2.837,-1.018,0.121,-0.957,0.597,1.229,0.773,0.000,17,17,4*42
$GPGGA,091228.00,3135.4718410,N,12046.7267740,E,4,17,1.5,2.8466,M,8.319,M,01,0004*6E
$GPHPD,1957,33165.800,144.57,0.66,14.12,31.5911974,120.7787796,2.847,13631807.948,24926236.877,2.847,-1.010,0.141,-0.958,0.621,1.250,0.837,0.000,17,17,4*4F
$GPGGA,091228.20,3135.4717175,N,12046.7268761,E,4,17,1.5,2.8441,M,8.319,M,01,0004*6C
$GPHPD,1957,33166.000,144.32,0.15,14.09,31.5911953,120.7787813,2.844,13631809.909,24926238.827,2.844,-1.008,0.121,-0.986,0.597,1.229,0.773,0.000,17,17,4*4D
$GPGGA,091228.40,3135.4715905,N,12046.7269722,E,4,17,1.5,2.8552,M,8.319,M,01,0004*62
$GPHPD,1957,33166.200,144.11,0.40,14.10,31.5911932,120.7787829,2.855,13631811.907,24926240.725,2.855,-0.997,0.101,-0.981,0.597,1.229,0.773,0.000,17,17,4*46
$GPGGA,091228.60,3135.4714658,N,12046.7270751,E,4,17,1.5,2.8555,M,8.319,M,00,0004*6C
$GPHPD,1957,33166.400,144.33,0.70,14.10,31.5911911,120.7787846,2.856,13631813.887,24926242.692,2.856,-1.015,0.125,-0.971,0.621,1.250,0.837,0.000,17,17,4*4B
$GPGGA,091228.80,3135.4713386,N,12046.7271771,E,4,17,1.5,2.8614,M,8.319,M,00,0004*66
$GPHPD,1957,33166.600,144.40,0.18,14.10,31.5911890,120.7787863,2.861,13631815.900,24926244.663,2.861,-1.008,0.114,-1.006,0.621,1.250,0.837,0.000,17,17,4*4A
$GPGGA,091229.00,3135.4712191,N,12046.7272850,E,4,17,1.6,2.8523,M,8.319,M,01,0004*60
$GPHPD,1957,33166.800,144.05,0.02,14.11,31.5911870,120.7787881,2.852,13631817.816,24926246.660,2.852,-1.028,0.114,-1.002,0.642,1.250,1.064,0.000,17,17,4*44
$GPGGA,091229.20,3135.4710928,N,12046.7273859,E,4,17,2.0,2.8555,M,8.319,M,01,0004*66
$GPHPD,1957,33167.000,144.51,0.77,14.12,31.5911849,120.7787898,2.856,13631819.814,24926248.612,2.856,-1.005,0.026,-0.984,0.621,1.250,0.837,0.000,17,17,4*4B
$GPGGA,091229.40,3135.4709700,N,12046.7274873,E,4,17,2.0,2.8528,M,8.319,M,01,0004*69
$GPHPD,1957,33167.200,143.72,-1.46,14.14,31.5911828,120.7787915,2.853,13631821.764,24926250.550,2.853,-1.022,0.110,-0.999,0.650,1.661,0.871,0.000,17,17,4*64
$GPGGA,091229.60,3135.4708475,N,12046.7275901,E,4,16,1.9,2.8588,M,8.319,M,00,0004*6E
$GPHPD,1957,33167.400,143.65,-1.81,14.14,31.5911808,120.7787932,2.859,13631823.712,24926252.503,2.859,-0.997,0.119,-0.973,0.650,1.661,0.871,0.000,16,17,4*65
$GPGGA,091229.80,3135.4707257,N,12046.7276943,E,4,16,1.9,2.8458,M,8.319,M,00,0004*60
$GPHPD,1957,33167.600,144.47,-0.06,14.10,31.5911788,120.7787949,2.846,13631825.653,24926254.468,2.846,-1.013,0.086,-0.953,0.632,1.645,0.948,0.000,16,16,4*60
$GPGGA,091230.00,3135.4706013,N,12046.7277982,E,4,16,1.9,2.8575,M,8.319,M,01,0004*60
$GPHPD,1957,33167.800,144.75,0.61,14.12,31.5911767,120.7787966,2.858,13631827.631,24926256.445,2.858,-0.972,0.022,-0.999,0.626,1.639,0.807,0.000,16,16,4*45
$GPGGA,091230.20,3135.4704732,N,12046.7278980,E,4,16,1.9,2.8729,M,8.319,M,01,0004*62
$GPHPD,1957,33168.000,144.72,0.14,14.11,31.5911746,120.7787983,2.873,13631829.652,24926258.395,2.873,-1.005,0.056,-0.989,0.626,1.639,0.807,0.000,16,16,4*49
$GPGGA,091230.40,3135.4703464,N,12046.7279979,E,4,16,1.9,2.8735,M,8.319,M,01,0004*69
$GPHPD,1957,33168.200,144.75,-0.25,14.09,31.5911724,120.7788000,2.874,13631831.656,24926260.338,2.874,-1.041,0.168,-0.971,0.626,1.639,0.807,0.000,16,16,4*69
$GPGGA,091230.60,3135.4702229,N,12046.7280976,E,4,17,2.0,2.8595,M,8.319,M,00,0004*6E
$GPHPD,1957,33168.400,144.53,-0.21,14.13,31.5911704,120.7788016,2.860,13631833.612,24926262.259,2.860,-1.014,0.133,-0.999,0.626,1.639,0.807,0.000,17,16,4*6E
$GPGGA,091230.80,3135.4700976,N,12046.7281991,E,4,17,1.9,2.8771,M,8.319,M,00,0004*69
$GPHPD,1957,33168.600,144.65,0.29,14.17,31.5911683,120.7788033,2.877,13631835.597,24926264.212,2.877,-0.943,0.087,-0.999,0.686,1.283,0.780,0.000,17,16,4*4B
$GPGGA,091231.00,3135.4699768,N,12046.7282968,E,4,17,1.5,2.8833,M,8.319,M,01,0004*61
$GPHPD,1957,33168.800,144.67,0.02,14.23,31.5911663,120.7788049,2.883,13631837.511,24926266.094,2.883,-1.013,0.142,-0.933,0.686,1.283,0.780,0.000,17,16,4*4D
$GPGGA,091231.20,3135.4698487,N,12046.7283901,E,4,17,1.5,2.8880,M,8.319,M,01,0004*66
$GPHPD,1957,33169.000,144.79,0.16,14.28,31.5911641,120.7788065,2.888,13631839.520,24926267.965,2.888,-0.991,0.148,-0.955,0.681,1.273,0.732,0.000,17,16,4*48
$GPGGA,091231.40,3135.4697296,N,12046.7284881,E,4,17,1.5,2.8933,M,8.319,M,01,0004*6E
$GPHPD,1957,33169.200,144.71,0.44,14.32,31.5911622,120.7788081,2.893,13631841.410,24926269.840,2.893,-0.962,0.154,-0.984,0.681,1.273,0.732,0.000,17,16,4*49
$GPGGA,091231.60,3135.4696099,N,12046.7285860,E,4,17,1.5,2.8900,M,8.319,M,00,0004*6F
$GPHPD,1957,33169.400,144.64,0.20,14.33,31.5911602,120.7788098,2.890,13631843.309,24926271.717,2.890,-0.975,0.141,-0.940,0.681,1.273,0.732,0.000,17,16,4*41
$GPGGA,091231.80,3135.4694922,N,12046.7286798,E,4,16,1.5,2.8928,M,8.319,M,00,0004*6A
$GPHPD,1957,33169.600,144.79,0.40,14.36,31.5911582,120.7788113,2.893,13631845.170,24926273.534,2.893,-0.961,0.097,-0.950,0.681,1.273,0.732,0.000,16,16,4*41
$GPGGA,091232.00,3135.4693814,N,12046.7287699,E,4,16,1.5,2.8911,M,8.319,M,01,0004*68
$GPHPD,1957,33169.800,144.95,1.26,14.24,31.5911564,120.7788128,2.891,13631846.927,24926275.265,2.891,-0.929,0.076,-0.929,0.681,1.273,0.732,0.000,16,16,4*4E
