$GPGGA,090921.60,3135.5218309,N,12046.6957800,E,4,16,1.5,2.6417,M,8.317,M,00,0004*64
$GPHPD,1957,32979.400,324.21,-0.34,10.81,31.5920305,120.7782630,2.642,13631035.004,24925572.075,2.642,0.281,-0.042,0.276,0.679,1.280,0.719,0.000,16,16,4*46
$GPGGA,090921.80,3135.5218722,N,12046.6957444,E,4,16,1.5,2.6484,M,8.317,M,00,0004*61
$GPHPD,1957,32979.600,324.26,-0.39,11.04,31.5920312,120.7782624,2.648,13631034.345,24925571.406,2.648,0.302,-0.024,0.312,0.679,1.280,0.719,0.000,16,16,4*4C
$GPGGA,090922.00,3135.5219256,N,12046.6957004,E,4,16,1.5,2.6508,M,8.317,M,01,0004*69
$GPHPD,1957,32979.800,324.33,-0.23,11.26,31.5920321,120.7782617,2.651,13631033.498,24925570.564,2.651,0.346,-0.009,0.370,0.679,1.280,0.719,0.000,16,16,4*42
$GPGGA,090922.20,3135.5219847,N,12046.6956551,E,4,16,1.5,2.6493,M,8.317,M,01,0004*66
$GPHPD,1957,32980.000,324.01,0.06,11.45,31.5920331,120.7782609,2.649,13631032.567,24925569.674,2.649,0.418,-0.045,0.420,0.679,1.280,0.719,0.000,16,16,4*60
$GPGGA,090922.40,3135.5220493,N,12046.6956011,E,4,16,1.5,2.6487,M,8.317,M,01,0004*6B
$GPHPD,1957,32980.200,323.99,0.08,11.63,31.5920342,120.7782600,2.649,13631031.540,24925568.646,2.649,0.468,-0.049,0.458,0.679,1.280,0.719,0.000,16,15,4*62
$GPGGA,090922.60,3135.5221224,N,12046.6955409,E,4,16,1.5,2.6615,M,8.317,M,00,0004*64
$GPHPD,1957,32980.400,323.96,0.32,11.81,31.5920354,120.7782590,2.662,13631030.379,24925567.495,2.662,0.539,-0.058,0.511,0.679,1.280,0.719,0.000,16,15,4*64
$GPGGA,090922.80,3135.5221994,N,12046.6954728,E,4,16,1.5,2.6476,M,8.317,M,00,0004*6C
$GPHPD,1957,32980.600,323.86,-0.12,11.97,31.5920367,120.7782579,2.648,13631029.148,24925566.225,2.648,0.558,-0.001,0.617,0.679,1.280,0.719,0.000,16,15,4*42
$GPGGA,090923.00,3135.5222816,N,12046.6954018,E,4,16,1.5,2.6602,M,8.317,M,01,0004*69
$GPHPD,1957,32980.800,323.63,0.34,12.12,31.5920380,120.7782567,2.660,13631027.837,24925564.891,2.660,0.683,-0.097,0.577,0.723,1.310,0.761,0.000,16,15,4*68
$GPGGA,090923.20,3135.5223669,N,12046.6953256,E,4,16,1.5,2.6671,M,8.317,M,01,0004*67
$GPHPD,1957,32981.000,323.65,-0.14,12.23,31.5920394,120.7782554,2.667,13631026.471,24925563.475,2.667,0.675,-0.032,0.663,0.680,1.280,0.719,0.000,16,15,4*4E
$GPGGA,090923.40,3135.5224577,N,12046.6952499,E,4,16,1.5,2.6681,M,8.317,M,01,0004*61
$GPHPD,1957,32981.200,324.21,-0.15,12.32,31.5920410,120.7782542,2.668,13631025.028,24925562.034,2.668,0.724,-0.037,0.690,0.680,1.280,0.719,0.000,16,15,4*41
$GPGGA,090923.60,3135.5225564,N,12046.6951720,E,4,16,1.5,2.6680,M,8.317,M,00,0004*62
$GPHPD,1957,32981.400,324.27,0.02,12.42,31.5920426,120.7782529,2.668,13631023.468,24925560.520,2.668,0.732,-0.037,0.713,0.680,1.280,0.719,0.000,16,15,4*6C
$GPGGA,090923.80,3135.5226515,N,12046.6950864,E,4,16,1.5,2.6762,M,8.317,M,00,0004*6A
$GPHPD,1957,32981.600,324.44,0.14,12.49,31.5920442,120.7782514,2.676,13631021.944,24925558.934,2.676,0.782,-0.087,0.772,0.689,1.284,0.843,0.000,16,15,4*62
$GPGGA,090924.00,3135.5227553,N,12046.6950095,E,4,14,2.0,2.6591,M,8.317,M,01,0004*6B
$GPHPD,1957,32981.800,324.59,-0.01,12.56,31.5920459,120.7782502,2.659,13631020.314,24925557.402,2.659,0.802,-0.066,0.771,0.749,1.310,0.931,0.000,14,15,4*4F
$GPGGA,090924.20,3135.5228568,N,12046.6949272,E,4,14,2.0,2.6532,M,8.317,M,01,0004*64
$GPHPD,1957,32982.000,324.22,0.46,12.63,31.5920476,120.7782488,2.653,13631018.706,24925555.819,2.653,0.872,-0.164,0.735,0.777,1.716,0.957,0.000,14,14,4*6C
$GPGGA,090924.40,3135.5229599,N,12046.6948394,E,4,14,2.0,2.6682,M,8.317,M,01,0004*6D
$GPHPD,1957,32982.200,324.15,0.12,12.70,31.5920493,120.7782473,2.668,13631017.064,24925554.160,2.668,0.818,-0.096,0.798,0.777,1.716,0.957,0.000,14,14,4*6B
$GPGGA,090924.60,3135.5230647,N,12046.6947551,E,4,14,2.0,2.6644,M,8.317,M,00,0004*6C
$GPHPD,1957,32982.400,324.28,-0.39,12.77,31.5920511,120.7782459,2.664,13631015.404,24925552.533,2.664,0.800,-0.038,0.848,0.777,1.716,0.957,0.000,14,14,4*48
$GPGGA,090924.80,3135.5231702,N,12046.6946682,E,4,14,2.0,2.6739,M,8.317,M,00,0004*64
$GPHPD,1957,32982.600,324.36,-1.03,12.85,31.5920528,120.7782445,2.674,13631013.730,24925550.871,2.674,0.819,-0.078,0.821,0.717,1.691,0.869,0.000,14,14,4*4B
$GPGGA,090925.00,3135.5232804,N,12046.6945802,E,4,14,2.0,2.6711,M,8.317,M,01,0004*69
$GPHPD,1957,32982.800,324.02,-0.70,12.93,31.5920547,120.7782430,2.671,13631011.986,24925549.168,2.671,0.801,-0.004,0.857,0.717,1.691,0.869,0.000,14,14,4*40
$GPGGA,090925.20,3135.5233860,N,12046.6944876,E,4,14,2.0,2.6796,M,8.317,M,01,0004*65
$GPHPD,1957,32983.000,323.49,0.61,13.01,31.5920564,120.7782415,2.680,13631010.299,24925547.436,2.680,0.857,-0.075,0.861,0.777,1.716,0.957,0.000,14,14,4*60
$GPGGA,090925.40,3135.5234931,N,12046.6943954,E,4,14,2.0,2.6735,M,8.317,M,01,0004*6E
$GPHPD,1957,32983.200,323.56,0.06,13.05,31.5920582,120.7782399,2.674,13631008.591,24925545.701,2.674,0.856,-0.015,0.868,0.777,1.716,0.957,0.000,14,14,4*6F
$GPGGA,090925.60,3135.5236047,N,12046.6943040,E,4,14,2.0,2.6646,M,8.317,M,00,0004*6E
$GPHPD,1957,32983.400,323.72,0.14,13.11,31.5920601,120.7782384,2.665,13631006.821,24925543.949,2.665,0.890,-0.073,0.827,0.777,1.716,0.957,0.000,14,14,4*60
$GPGGA,090925.80,3135.5237178,N,12046.6942134,E,4,14,2.0,2.6586,M,8.317,M,00,0004*60
$GPHPD,1957,32983.600,323.65,1.05,13.16,31.5920620,120.7782369,2.659,13631005.031,24925542.198,2.659,0.916,-0.120,0.857,0.717,1.691,0.869,0.000,14,14,4*66
$GPGGA,090926.00,3135.5238259,N,12046.6941188,E,4,14,2.0,2.6745,M,8.317,M,01,0004*6C
$GPHPD,1957,32983.800,323.61,0.83,13.16,31.5920638,120.7782353,2.675,13631003.304,24925540.428,2.675,0.915,-0.157,0.866,0.717,1.691,0.869,0.000,14,14,4*6D
$GPGGA,090926.20,3135.5239340,N,12046.6940267,E,4,16,2.0,2.6822,M,8.317,M,01,0004*69
$GPHPD,1957,32984.000,323.78,0.44,13.16,31.5920656,120.7782338,2.682,13631001.582,24925538.688,2.682,0.880,-0.032,0.883,0.717,1.691,0.869,0.000,16,14,4*6F
$GPGGA,090926.40,3135.5240423,N,12046.6939387,E,4,16,2.0,2.6759,M,8.317,M,01,0004*61
$GPHPD,1957,32984.200,323.90,0.13,13.18,31.5920674,120.7782323,2.676,13630999.866,24925536.996,2.676,0.874,-0.038,0.870,0.685,1.291,0.767,0.000,16,16,4*6D
$GPGGA,090926.60,3135.5241462,N,12046.6938484,E,4,16,2.0,2.6769,M,8.317,M,00,0004*60
$GPHPD,1957,32984.400,324.07,-0.34,13.23,31.5920691,120.7782308,2.677,13630998.207,24925535.302,2.677,0.883,-0.119,0.833,0.680,1.280,0.720,0.000,16,16,4*43
$GPGGA,090926.80,3135.5242536,N,12046.6937567,E,4,16,1.5,2.7042,M,8.317,M,00,0004*67
$GPHPD,1957,32984.600,323.86,0.07,13.24,31.5920709,120.7782293,2.704,13630996.496,24925533.571,2.704,0.871,-0.119,0.844,0.723,1.310,0.761,0.000,16,16,4*6A
$GPGGA,090927.00,3135.5243590,N,12046.6936693,E,4,16,1.5,2.7062,M,8.317,M,01,0004*69
$GPHPD,1957,32984.800,324.10,-0.62,13.25,31.5920727,120.7782278,2.706,13630994.822,24925531.904,2.706,0.877,-0.095,0.838,0.680,1.280,0.720,0.000,16,16,4*4A
$GPGGA,090927.20,3135.5244660,N,12046.6935811,E,4,16,1.5,2.7110,M,8.317,M,01,0004*63
$GPHPD,1957,32985.000,324.23,-0.80,13.28,31.5920744,120.7782264,2.711,13630993.124,24925530.217,2.711,0.870,-0.080,0.841,0.680,1.280,0.720,0.000,16,16,4*47
$GPGGA,090927.40,3135.5245707,N,12046.6934916,E,4,16,1.6,2.7196,M,8.317,M,01,0004*6E
$GPHPD,1957,32985.200,323.98,0.12,13.32,31.5920762,120.7782249,2.720,13630991.456,24925528.528,2.720,0.856,-0.072,0.847,0.685,1.291,0.768,0.000,16,16,4*62
$GPGGA,090927.60,3135.5246791,N,12046.6934028,E,4,16,1.5,2.7183,M,8.317,M,01,0004*63
$GPHPD,1957,32985.400,324.39,-0.70,13.34,31.5920780,120.7782234,2.718,13630989.736,24925526.826,2.718,0.855,-0.056,0.841,0.680,1.280,0.720,0.000,16,16,4*4A
$GPGGA,090927.80,3135.5247889,N,12046.6933171,E,4,16,1.5,2.7155,M,8.317,M,01,0004*6B
$GPHPD,1957,32985.600,324.37,-0.64,13.39,31.5920798,120.7782220,2.716,13630988.003,24925525.153,2.716,0.853,-0.066,0.843,0.680,1.280,0.720,0.000,16,15,4*4E
$GPGGA,090928.00,3135.5248986,N,12046.6932289,E,4,16,1.5,2.6939,M,8.317,M,02,0004*68
$GPHPD,1957,32985.800,324.38,-1.24,13.42,31.5920816,120.7782205,2.694,13630986.266,24925523.451,2.694,0.851,-0.021,0.876,0.680,1.280,0.720,0.000,16,15,4*41
$GPGGA,090928.20,3135.5250082,N,12046.6931396,E,4,16,1.5,2.6857,M,8.317,M,02,0004*6B
$GPHPD,1957,32986.000,324.15,-0.59,13.46,31.5920835,120.7782190,2.686,13630984.529,24925521.736,2.686,0.870,-0.090,0.871,0.680,1.280,0.720,0.000,16,15,4*44
$GPGGA,090928.40,3135.5251186,N,12046.6930489,E,4,16,1.5,2.6871,M,8.317,M,02,0004*65
$GPHPD,1957,32986.200,324.13,-0.59,13.50,31.5920853,120.7782175,2.687,13630982.777,24925520.000,2.687,0.886,-0.091,0.862,0.680,1.280,0.720,0.000,16,15,4*4A
$GPGGA,090928.60,3135.5252291,N,12046.6929568,E,4,16,1.5,2.6848,M,8.317,M,02,0004*6D
$GPHPD,1957,32986.400,324.24,-1.51,13.53,31.5920872,120.7782159,2.685,13630981.021,24925518.246,2.685,0.892,-0.078,0.878,0.680,1.280,0.720,0.000,16,15,4*4A
$GPGGA,090928.80,3135.5253394,N,12046.6928678,E,4,16,1.5,2.6817,M,8.317,M,00,0004*6D
$GPHPD,1957,32986.600,324.07,-0.77,13.55,31.5920890,120.7782145,2.682,13630979.274,24925516.530,2.682,0.910,-0.118,0.848,0.680,1.280,0.720,0.000,16,15,4*49
$GPGGA,090929.00,3135.5254494,N,12046.6927752,E,4,16,1.5,2.6833,M,8.316,M,01,0004*64
$GPHPD,1957,32986.800,323.94,-0.61,13.56,31.5920908,120.7782129,2.683,13630977.524,24925514.773,2.683,0.869,-0.081,0.891,0.709,1.687,0.752,0.000,16,15,4*43
$GPGGA,090929.20,3135.5255581,N,12046.6926739,E,4,16,1.5,2.7074,M,8.316,M,01,0004*64
$GPHPD,1957,32987.000,323.77,0.17,13.60,31.5920926,120.7782112,2.707,13630975.775,24925512.919,2.707,0.909,-0.118,0.857,0.680,1.280,0.720,0.000,16,15,4*60
$GPGGA,090929.40,3135.5256739,N,12046.6925872,E,4,16,1.5,2.6859,M,8.316,M,01,0004*65
$GPHPD,1957,32987.200,323.80,0.80,13.60,31.5920946,120.7782098,2.686,13630973.955,24925511.199,2.686,0.907,-0.018,0.885,0.680,1.280,0.720,0.000,16,15,4*68
$GPGGA,090929.60,3135.5257874,N,12046.6924939,E,4,16,1.5,2.6766,M,8.316,M,00,0004*6D
$GPHPD,1957,32987.400,323.82,0.25,13.62,31.5920965,120.7782082,2.677,13630972.154,24925509.413,2.677,0.935,-0.191,0.853,0.680,1.280,0.720,0.000,16,15,4*67
$GPGGA,090929.80,3135.5259004,N,12046.6923975,E,4,16,1.5,2.6952,M,8.316,M,00,0004*64
$GPHPD,1957,32987.600,323.39,1.05,13.65,31.5920983,120.7782066,2.695,13630970.354,24925507.593,2.695,0.934,-0.139,0.863,0.680,1.280,0.720,0.000,16,15,4*64
$GPGGA,090930.00,3135.5260137,N,12046.6923020,E,4,16,1.5,2.6795,M,8.316,M,01,0004*62
$GPHPD,1957,32987.800,323.80,0.25,13.66,31.5921002,120.7782050,2.680,13630968.551,24925505.781,2.680,0.894,0.014,0.948,0.709,1.687,0.752,0.000,16,15,4*43
$GPGGA,090930.20,3135.5261275,N,12046.6922057,E,4,16,1.5,2.6971,M,8.316,M,01,0004*61
$GPHPD,1957,32988.000,323.69,0.83,13.68,31.5921021,120.7782034,2.697,13630966.740,24925503.958,2.697,0.952,-0.165,0.865,0.680,1.280,0.720,0.000,16,15,4*6B
$GPGGA,090930.40,3135.5262440,N,12046.6921088,E,4,16,1.5,2.6940,M,8.316,M,01,0004*67
$GPHPD,1957,32988.200,323.71,0.55,13.70,31.5921041,120.7782018,2.694,13630964.889,24925502.111,2.694,0.901,-0.035,0.928,0.680,1.280,0.720,0.000,16,15,4*6C
$GPGGA,090930.60,3135.5263578,N,12046.6920148,E,4,16,1.5,2.6866,M,8.316,M,00,0004*66
$GPHPD,1957,32988.400,324.08,-0.26,13.73,31.5921060,120.7782002,2.687,13630963.082,24925500.315,2.687,0.941,-0.062,0.924,0.709,1.687,0.752,0.000,16,15,4*4D
$GPGGA,090930.80,3135.5264704,N,12046.6919153,E,4,16,1.5,2.7079,M,8.316,M,00,0004*61
$GPHPD,1957,32988.600,324.15,-0.43,13.74,31.5921078,120.7781986,2.708,13630961.281,24925498.459,2.708,0.935,-0.098,0.896,0.680,1.280,0.720,0.000,16,15,4*4C
$GPGGA,090931.00,3135.5265858,N,12046.6918237,E,4,16,1.5,2.7080,M,8.316,M,01,0004*68
$GPHPD,1957,32988.800,324.38,-0.50,13.75,31.5921098,120.7781971,2.708,13630959.457,24925496.683,2.708,0.907,0.006,0.932,0.680,1.280,0.720,0.000,16,15,4*61
$GPGGA,090931.20,3135.5266982,N,12046.6917276,E,4,16,1.5,2.7085,M,8.316,M,01,0004*60
$GPHPD,1957,32989.000,323.95,0.25,13.76,31.5921116,120.7781955,2.709,13630957.666,24925494.870,2.709,0.928,-0.092,0.905,0.680,1.280,0.720,0.000,16,15,4*62
$GPGGA,090931.40,3135.5268161,N,12046.6916309,E,4,16,1.5,2.7036,M,8.316,M,01,0004*6D
$GPHPD,1957,32989.200,323.94,-0.06,13.79,31.5921136,120.7781938,2.704,13630955.795,24925493.017,2.704,0.932,-0.081,0.892,0.680,1.280,0.720,0.000,16,15,4*4C
$GPGGA,090931.60,3135.5269308,N,12046.6915374,E,4,16,1.5,2.7042,M,8.316,M,00,0004*68
$GPHPD,1957,32989.400,324.03,-0.40,13.83,31.5921155,120.7781923,2.704,13630953.977,24925491.222,2.704,0.938,-0.092,0.902,0.680,1.280,0.720,0.000,16,15,4*49
$GPGGA,090931.80,3135.5270437,N,12046.6914415,E,4,16,1.5,2.6999,M,8.316,M,00,0004*6A
$GPHPD,1957,32989.600,323.86,-0.03,13.85,31.5921174,120.7781907,2.700,13630952.179,24925489.408,2.700,0.937,-0.100,0.905,0.680,1.280,0.720,0.000,16,15,4*47
$GPGGA,090932.00,3135.5271583,N,12046.6913458,E,4,16,1.5,2.7009,M,8.316,M,01,0004*60
$GPHPD,1957,32989.800,323.74,0.15,13.86,31.5921193,120.7781891,2.701,13630950.358,24925487.587,2.701,0.941,-0.115,0.890,0.680,1.280,0.720,0.000,16,15,4*69
$GPGGA,090932.20,3135.5272730,N,12046.6912470,E,4,16,1.5,2.7098,M,8.316,M,01,0004*68
$GPHPD,1957,32990.000,323.82,0.03,13.89,31.5921212,120.7781875,2.710,13630948.529,24925485.727,2.710,0.949,-0.114,0.878,0.680,1.280,0.720,0.000,16,15,4*64
$GPGGA,090932.40,3135.5273880,N,12046.6911496,E,4,16,1.5,2.7188,M,8.316,M,01,0004*60
$GPHPD,1957,32990.200,324.06,-0.51,13.90,31.5921231,120.7781858,2.719,13630946.698,24925483.883,2.719,0.952,-0.089,0.901,0.680,1.280,0.720,0.000,16,15,4*41
$GPGGA,090932.60,3135.5275057,N,12046.6910541,E,4,16,1.5,2.7199,M,8.316,M,00,0004*6D
$GPHPD,1957,32990.400,324.06,-0.41,13.91,31.5921251,120.7781842,2.720,13630944.833,24925482.046,2.720,0.921,-0.049,0.918,0.680,1.280,0.720,0.000,16,15,4*47
$GPGGA,090932.80,3135.5276204,N,12046.6909584,E,4,16,1.5,2.7226,M,8.316,M,00,0004*62
$GPHPD,1957,32990.600,324.01,-0.40,13.92,31.5921270,120.7781826,2.723,13630943.010,24925480.225,2.723,0.921,-0.052,0.956,0.680,1.280,0.720,0.000,16,15,4*4A
$GPGGA,090933.00,3135.5277396,N,12046.6908615,E,4,16,1.5,2.7122,M,8.316,M,01,0004*6C
$GPHPD,1957,32990.800,324.07,-0.74,13.92,31.5921290,120.7781810,2.712,13630941.121,24925478.362,2.712,0.919,-0.042,0.923,0.680,1.280,0.720,0.000,16,15,4*42
$GPGGA,090933.20,3135.5278535,N,12046.6907626,E,4,16,1.5,2.7177,M,8.316,M,01,0004*61
$GPHPD,1957,32991.000,323.99,-0.34,13.93,31.5921309,120.7781794,2.718,13630939.303,24925476.506,2.718,0.975,-0.135,0.913,0.680,1.280,0.720,0.000,16,15,4*43
$GPGGA,090933.40,3135.5279688,N,12046.6906645,E,4,16,1.5,2.7268,M,8.316,M,01,0004*6A
$GPHPD,1957,32991.200,323.94,0.02,13.93,31.5921328,120.7781777,2.727,13630937.466,24925474.652,2.727,0.969,-0.094,0.905,0.680,1.280,0.720,0.000,16,15,4*60
$GPGGA,090933.60,3135.5280866,N,12046.6905718,E,4,16,1.5,2.7210,M,8.316,M,00,0004*64
$GPHPD,1957,32991.400,323.91,0.01,13.93,31.5921348,120.7781762,2.721,13630935.605,24925472.848,2.721,0.953,-0.076,0.908,0.680,1.280,0.720,0.000,16,15,4*6C
$GPGGA,090933.80,3135.5282015,N,12046.6904723,E,4,16,1.5,2.7271,M,8.316,M,00,0004*6A
$GPHPD,1957,32991.600,323.91,-0.23,13.94,31.5921367,120.7781745,2.727,13630933.772,24925470.980,2.727,0.942,-0.114,0.916,0.709,1.687,0.753,0.000,16,15,4*41
$GPGGA,090934.00,3135.5283193,N,12046.6903744,E,4,16,1.5,2.7299,M,8.316,M,01,0004*6A
$GPHPD,1957,32991.800,323.96,0.32,13.92,31.5921387,120.7781729,2.730,13630931.901,24925469.113,2.730,0.934,-0.058,0.933,0.680,1.280,0.720,0.000,16,15,4*6D
$GPGGA,090934.20,3135.5284375,N,12046.6902789,E,4,16,1.5,2.7239,M,8.316,M,01,0004*6F
$GPHPD,1957,32992.000,324.06,0.10,13.92,31.5921406,120.7781713,2.724,13630930.028,24925467.273,2.724,0.941,-0.087,0.939,0.680,1.280,0.720,0.000,16,15,4*6D
$GPGGA,090934.40,3135.5285539,N,12046.6901803,E,4,16,1.5,2.7387,M,8.316,M,01,0004*6C
$GPHPD,1957,32992.200,324.10,0.23,13.92,31.5921426,120.7781697,2.739,13630928.175,24925465.407,2.739,0.964,-0.101,0.920,0.680,1.280,0.720,0.000,16,15,4*60
$GPGGA,090934.60,3135.5286718,N,12046.6900832,E,4,16,1.5,2.7381,M,8.316,M,00,0004*68
$GPHPD,1957,32992.400,324.39,-0.42,13.93,31.5921445,120.7781681,2.738,13630926.304,24925463.549,2.738,0.943,-0.080,0.933,0.680,1.280,0.720,0.000,16,15,4*4C
$GPGGA,090934.80,3135.5287932,N,12046.6899842,E,4,16,1.5,2.7402,M,8.316,M,00,0004*6B
$GPHPD,1957,32992.600,324.47,-0.45,13.93,31.5921466,120.7781664,2.740,13630924.379,24925461.649,2.740,0.942,-0.084,0.927,0.680,1.280,0.720,0.000,16,15,4*43
$GPGGA,090935.00,3135.5289115,N,12046.6898877,E,4,16,1.5,2.7377,M,8.316,M,01,0004*62
$GPHPD,1957,32992.800,324.00,-0.16,13.91,31.5921485,120.7781648,2.738,13630922.504,24925459.796,2.738,0.965,-0.093,0.946,0.680,1.280,0.720,0.000,16,15,4*4F
$GPGGA,090935.20,3135.5290317,N,12046.6897893,E,4,16,1.5,2.7388,M,8.316,M,01,0004*6D
$GPHPD,1957,32993.000,324.38,-0.26,13.90,31.5921505,120.7781632,2.739,13630920.597,24925457.910,2.739,0.961,-0.126,0.927,0.680,1.280,0.720,0.000,16,15,4*41
$GPGGA,090935.40,3135.5291509,N,12046.6896936,E,4,16,1.5,2.7365,M,8.316,M,01,0004*6F
$GPHPD,1957,32993.200,324.17,-0.13,13.89,31.5921525,120.7781616,2.737,13630918.710,24925456.062,2.737,0.964,-0.095,0.944,0.680,1.280,0.720,0.000,16,15,4*46
$GPGGA,090935.60,3135.5292722,N,12046.6895949,E,4,16,1.5,2.7338,M,8.316,M,00,0004*67
$GPHPD,1957,32993.400,324.15,-0.02,13.88,31.5921545,120.7781599,2.734,13630916.788,24925454.165,2.734,0.947,-0.074,0.953,0.680,1.280,0.720,0.000,16,15,4*42
$GPGGA,090935.80,3135.5293932,N,12046.6894954,E,4,16,1.5,2.7359,M,8.316,M,00,0004*6D
$GPHPD,1957,32993.600,324.24,-0.02,13.85,31.5921566,120.7781583,2.736,13630914.867,24925452.261,2.736,0.966,-0.094,0.960,0.680,1.280,0.720,0.000,16,15,4*45
$GPGGA,090936.00,3135.5295114,N,12046.6893958,E,4,16,1.5,2.7424,M,8.316,M,01,0004*6B
$GPHPD,1957,32993.800,324.23,0.13,13.86,31.5921585,120.7781566,2.742,13630912.987,24925450.372,2.742,0.972,-0.090,0.950,0.680,1.280,0.720,0.000,16,15,4*6E
$GPGGA,090936.20,3135.5296327,N,12046.6892962,E,4,16,1.5,2.7389,M,8.316,M,01,0004*60
$GPHPD,1957,32994.000,324.44,-0.27,13.85,31.5921605,120.7781549,2.739,13630911.062,24925448.464,2.739,0.965,-0.049,0.962,0.680,1.280,0.720,0.000,16,15,4*44
$GPGGA,090936.40,3135.5297531,N,12046.6891982,E,4,16,1.5,2.7397,M,8.316,M,01,0004*64
$GPHPD,1957,32994.200,324.53,-0.41,13.83,31.5921626,120.7781533,2.740,13630909.154,24925446.582,2.740,0.973,-0.096,0.954,0.680,1.280,0.720,0.000,16,15,4*40
$GPGGA,090936.60,3135.5298751,N,12046.6890994,E,4,16,1.5,2.7496,M,8.316,M,00,0004*6C
$GPHPD,1957,32994.400,324.55,-0.29,13.82,31.5921646,120.7781517,2.750,13630907.221,24925444.680,2.750,0.962,-0.078,0.950,0.680,1.280,0.720,0.000,16,15,4*47
$GPGGA,090936.80,3135.5299937,N,12046.6890020,E,4,16,1.5,2.7501,M,8.316,M,00,0004*64
$GPHPD,1957,32994.600,324.55,-0.59,13.82,31.5921666,120.7781500,2.750,13630905.339,24925442.815,2.750,0.954,-0.074,0.974,0.680,1.280,0.720,0.000,16,15,4*47
$GPGGA,090937.00,3135.5301136,N,12046.6889016,E,4,16,1.5,2.7590,M,8.316,M,01,0004*60
$GPHPD,1957,32994.800,324.44,-0.38,13.81,31.5921686,120.7781484,2.759,13630903.433,24925440.906,2.759,0.947,-0.083,0.956,0.680,1.280,0.720,0.000,16,15,4*4E
$GPGGA,090937.20,3135.5302344,N,12046.6888034,E,4,16,1.5,2.7513,M,8.316,M,01,0004*6C
$GPHPD,1957,32995.000,324.51,-0.47,13.80,31.5921706,120.7781467,2.751,13630901.518,24925439.018,2.751,0.934,-0.058,0.969,0.680,1.280,0.720,0.000,16,15,4*42
$GPGGA,090937.40,3135.5303579,N,12046.6887061,E,4,16,1.5,2.7480,M,8.316,M,01,0004*67
$GPHPD,1957,32995.200,324.26,0.20,13.80,31.5921726,120.7781451,2.748,13630899.567,24925437.126,2.748,0.948,-0.100,0.949,0.680,1.280,0.720,0.000,16,15,4*64
$GPGGA,090937.60,3135.5304754,N,12046.6886049,E,4,16,1.5,2.7521,M,8.316,M,00,0004*6F
$GPHPD,1957,32995.400,324.14,-0.06,13.82,31.5921746,120.7781434,2.752,13630897.693,24925435.222,2.752,0.978,-0.159,0.947,0.680,1.280,0.720,0.000,16,15,4*4F
$GPGGA,090937.80,3135.5305955,N,12046.6885075,E,4,16,1.5,2.7561,M,8.316,M,00,0004*67
$GPHPD,1957,32995.600,324.09,0.64,13.83,31.5921766,120.7781418,2.756,13630895.790,24925433.348,2.756,0.977,-0.111,0.941,0.680,1.280,0.720,0.000,16,15,4*6B
$GPGGA,090938.00,3135.5307153,N,12046.6884051,E,4,16,1.5,2.7604,M,8.316,M,01,0004*6A
$GPHPD,1957,32995.800,324.07,0.88,13.84,31.5921786,120.7781401,2.760,13630893.881,24925431.416,2.760,0.961,-0.095,0.946,0.680,1.280,0.720,0.000,16,15,4*62
$GPGGA,090938.20,3135.5308324,N,12046.6883023,E,4,16,1.5,2.7745,M,8.316,M,01,0004*63
$GPHPD,1957,32996.000,324.03,0.19,13.85,31.5921805,120.7781384,2.775,13630892.010,24925429.494,2.775,0.957,-0.056,0.962,0.680,1.280,0.720,0.000,16,15,4*64
$GPGGA,090938.40,3135.5309527,N,12046.6882061,E,4,16,1.5,2.7756,M,8.316,M,01,0004*64
$GPHPD,1957,32996.200,324.08,0.00,13.86,31.5921825,120.7781368,2.776,13630890.107,24925427.634,2.776,0.957,-0.021,0.957,0.680,1.280,0.720,0.000,16,15,4*63
$GPGGA,090938.60,3135.5310722,N,12046.6881091,E,4,16,1.5,2.7704,M,8.316,M,00,0004*63
$GPHPD,1957,32996.400,323.89,0.05,13.85,31.5921845,120.7781352,2.770,13630888.213,24925425.768,2.770,0.940,-0.068,0.962,0.680,1.280,0.720,0.000,16,15,4*6A
$GPGGA,090938.80,3135.5311904,N,12046.6880113,E,4,16,1.5,2.7747,M,8.316,M,00,0004*6B
$GPHPD,1957,32996.600,323.90,-0.38,13.84,31.5921865,120.7781335,2.775,13630886.336,24925423.901,2.775,0.958,-0.083,0.930,0.724,1.310,0.762,0.000,16,15,4*44
$GPGGA,090939.00,3135.5313074,N,12046.6879180,E,4,16,1.5,2.7694,M,8.316,M,01,0004*6C
$GPHPD,1957,32996.800,324.09,-0.60,13.87,31.5921885,120.7781320,2.769,13630884.485,24925422.094,2.769,0.957,-0.059,0.939,0.680,1.280,0.720,0.000,16,15,4*40
$GPGGA,090939.20,3135.5314268,N,12046.6878190,E,4,16,1.5,2.7680,M,8.316,M,01,0004*63
$GPHPD,1957,32997.000,324.12,-1.11,13.88,31.5921904,120.7781303,2.768,13630882.589,24925420.205,2.768,0.951,-0.129,0.910,0.680,1.280,0.720,0.000,16,15,4*4A
$GPGGA,090939.40,3135.5315442,N,12046.6877207,E,4,16,1.5,2.7730,M,8.316,M,01,0004*62
$GPHPD,1957,32997.200,323.88,-0.81,13.89,31.5921924,120.7781287,2.773,13630880.722,24925418.336,2.773,0.958,-0.094,0.944,0.680,1.280,0.720,0.000,16,15,4*4E
$GPGGA,090939.60,3135.5316668,N,12046.6876203,E,4,16,1.5,2.7639,M,8.316,M,00,0004*65
$GPHPD,1957,32997.400,324.18,-0.93,13.90,31.5921944,120.7781270,2.764,13630878.778,24925416.412,2.764,0.953,-0.076,0.939,0.680,1.280,0.720,0.000,16,15,4*49
$GPGGA,090939.80,3135.5317816,N,12046.6875231,E,4,16,1.5,2.7632,M,8.316,M,00,0004*64
$GPHPD,1957,32997.600,324.30,-0.62,13.89,31.5921964,120.7781254,2.763,13630876.950,24925414.571,2.763,0.981,-0.116,0.946,0.680,1.280,0.720,0.000,16,15,4*4F
$GPGGA,090940.00,3135.5319007,N,12046.6874266,E,4,16,1.5,2.7735,M,8.316,M,01,0004*60
$GPHPD,1957,32997.800,324.12,-0.36,13.89,31.5921983,120.7781238,2.774,13630875.063,24925412.714,2.774,0.981,-0.125,0.925,0.724,1.310,0.763,0.000,16,15,4*4B
$GPGGA,090940.20,3135.5320177,N,12046.6873268,E,4,16,1.5,2.7660,M,8.316,M,01,0004*66
$GPHPD,1957,32998.000,324.16,-0.15,13.89,31.5922003,120.7781221,2.766,13630873.199,24925410.830,2.766,0.941,-0.081,0.943,0.724,1.310,0.763,0.000,16,15,4*49
$GPGGA,090940.40,3135.5321346,N,12046.6872286,E,4,16,1.5,2.7779,M,8.316,M,01,0004*69
$GPHPD,1957,32998.200,324.24,0.14,13.88,31.5922022,120.7781205,2.778,13630871.340,24925408.965,2.778,0.974,-0.123,0.912,0.680,1.280,0.721,0.000,16,15,4*64
$GPGGA,090940.60,3135.5322520,N,12046.6871330,E,4,16,1.5,2.7703,M,8.316,M,00,0004*6D
$GPHPD,1957,32998.400,324.55,-0.43,13.87,31.5922042,120.7781189,2.770,13630869.479,24925407.128,2.770,0.918,-0.046,0.955,0.680,1.280,0.721,0.000,16,15,4*44
$GPGGA,090940.80,3135.5323722,N,12046.6870376,E,4,16,1.5,2.7711,M,8.316,M,00,0004*62
$GPHPD,1957,32998.600,324.41,0.46,13.88,31.5922062,120.7781173,2.771,13630867.579,24925405.278,2.771,0.952,-0.107,0.918,0.680,1.280,0.721,0.000,16,15,4*6B
$GPGGA,090941.00,3135.5324908,N,12046.6869406,E,4,16,1.5,2.7744,M,8.316,M,01,0004*63
$GPHPD,1957,32998.800,324.48,0.08,13.86,31.5922082,120.7781157,2.774,13630865.698,24925403.418,2.774,0.929,-0.075,0.950,0.680,1.280,0.721,0.000,16,15,4*6C
$GPGGA,090941.20,3135.5326124,N,12046.6868437,E,4,16,1.5,2.7687,M,8.316,M,01,0004*68
$GPHPD,1957,32999.000,324.82,0.13,13.85,31.5922102,120.7781141,2.769,13630863.774,24925401.542,2.769,0.940,-0.092,0.948,0.680,1.280,0.721,0.000,16,15,4*62
$GPGGA,090941.40,3135.5327321,N,12046.6867458,E,4,16,1.5,2.7737,M,8.316,M,01,0004*64
$GPHPD,1957,32999.200,324.69,-0.04,13.86,31.5922122,120.7781124,2.774,13630861.876,24925399.664,2.774,0.948,-0.111,0.947,0.680,1.280,0.721,0.000,16,15,4*4F
$GPGGA,090941.60,3135.5328503,N,12046.6866501,E,4,16,1.5,2.7741,M,8.316,M,00,0004*63
$GPHPD,1957,32999.400,324.90,-0.02,13.86,31.5922142,120.7781108,2.774,13630860.003,24925397.822,2.774,0.951,-0.103,0.945,0.680,1.280,0.721,0.000,16,15,4*41
$GPGGA,090941.80,3135.5329687,N,12046.6865538,E,4,16,1.5,2.7777,M,8.316,M,00,0004*6F
$GPHPD,1957,32999.600,324.67,0.10,13.86,31.5922161,120.7781092,2.778,13630858.127,24925395.971,2.778,0.948,-0.147,0.922,0.680,1.280,0.721,0.000,16,15,4*66
$GPGGA,090942.00,3135.5330877,N,12046.6864582,E,4,16,1.5,2.7922,M,8.316,M,01,0004*62
$GPHPD,1957,32999.800,324.65,0.41,13.88,31.5922181,120.7781076,2.792,13630856.243,24925394.126,2.792,0.950,-0.116,0.933,0.680,1.280,0.721,0.000,16,15,4*6D
$GPGGA,090942.20,3135.5332070,N,12046.6863594,E,4,16,1.5,2.7935,M,8.316,M,01,0004*6B
$GPHPD,1957,33000.000,324.53,-0.04,13.87,31.5922201,120.7781060,2.794,13630854.348,24925392.240,2.794,0.907,-0.053,0.980,0.680,1.280,0.721,0.000,16,14,4*41
$GPGGA,090942.40,3135.5333272,N,12046.6862612,E,4,16,1.5,2.7948,M,8.316,M,01,0004*6A
$GPHPD,1957,33000.200,324.57,-0.15,13.88,31.5922221,120.7781044,2.795,13630852.442,24925390.356,2.795,0.925,-0.033,0.965,0.680,1.280,0.721,0.000,16,15,4*4F
$GPGGA,090942.60,3135.5334417,N,12046.6861626,E,4,16,1.5,2.7761,M,8.316,M,00,0004*6A
$GPHPD,1957,33000.400,324.58,-0.12,13.88,31.5922240,120.7781027,2.776,13630850.616,24925388.500,2.776,0.957,-0.082,0.957,0.680,1.280,0.721,0.000,16,15,4*40
$GPGGA,090942.80,3135.5335649,N,12046.6860686,E,4,16,1.6,2.7919,M,8.316,M,00,0004*65
$GPHPD,1957,33000.600,324.51,0.14,13.89,31.5922261,120.7781011,2.792,13630848.676,24925386.649,2.792,0.986,-0.111,0.913,0.680,1.280,0.721,0.000,16,15,4*6F
$GPGGA,090943.00,3135.5336832,N,12046.6859693,E,4,16,1.7,2.7917,M,8.316,M,01,0004*6D
$GPHPD,1957,33000.800,324.34,-0.04,13.90,31.5922281,120.7780995,2.792,13630846.795,24925384.763,2.792,0.938,-0.116,0.939,0.685,1.290,0.769,0.000,16,14,4*46
$GPGGA,090943.20,3135.5338024,N,12046.6858729,E,4,16,1.5,2.7815,M,8.316,M,01,0004*6E
$GPHPD,1957,33001.000,324.44,0.06,13.90,31.5922300,120.7780979,2.782,13630844.906,24925382.906,2.782,0.992,-0.129,0.913,0.699,1.291,0.933,0.000,16,14,4*69
$GPGGA,090943.40,3135.5339189,N,12046.6857734,E,4,16,1.5,2.7875,M,8.316,M,01,0004*6A
$GPHPD,1957,33001.200,324.59,-0.41,13.88,31.5922320,120.7780962,2.788,13630843.050,24925381.028,2.788,1.001,-0.174,0.894,0.685,1.290,0.769,0.000,16,14,4*4A
$GPGGA,090943.60,3135.5340404,N,12046.6856781,E,4,16,1.5,2.7843,M,8.316,M,00,0004*6D
$GPHPD,1957,33001.400,324.42,-0.44,13.89,31.5922340,120.7780946,2.784,13630841.131,24925379.172,2.784,0.967,-0.097,0.920,0.724,1.310,0.763,0.000,16,14,4*4C
$GPGGA,090943.80,3135.5341582,N,12046.6855774,E,4,16,1.5,2.7831,M,8.316,M,00,0004*61
$GPHPD,1957,33001.600,324.25,-0.48,13.88,31.5922360,120.7780930,2.783,13630839.254,24925377.271,2.783,0.965,-0.143,0.910,0.724,1.310,0.763,0.000,16,14,4*49
$GPGGA,090944.00,3135.5342799,N,12046.6854805,E,4,16,1.6,2.7903,M,8.316,M,01,0004*6F
$GPHPD,1957,33001.800,324.53,-0.47,13.88,31.5922380,120.7780913,2.790,13630837.330,24925375.394,2.790,0.975,-0.105,0.920,0.724,1.310,0.763,0.000,16,14,4*43
$GPGGA,090944.20,3135.5343992,N,12046.6853843,E,4,16,1.5,2.7983,M,8.316,M,01,0004*67
$GPHPD,1957,33002.000,324.36,0.08,13.88,31.5922400,120.7780897,2.798,13630835.440,24925373.540,2.798,0.977,-0.135,0.944,0.744,1.337,0.846,0.000,16,14,4*6C
$GPGGA,090944.40,3135.5345179,N,12046.6852876,E,4,16,1.5,2.7901,M,8.316,M,01,0004*67
$GPHPD,1957,33002.200,324.43,-0.47,13.87,31.5922420,120.7780881,2.790,13630833.559,24925371.683,2.790,0.957,-0.095,0.925,0.724,1.310,0.763,0.000,16,14,4*44
$GPGGA,090944.60,3135.5346378,N,12046.6851886,E,4,16,1.5,2.8048,M,8.316,M,00,0004*63
$GPHPD,1957,33002.400,324.30,0.20,13.89,31.5922440,120.7780865,2.805,13630831.655,24925369.791,2.805,0.971,-0.120,0.920,0.680,1.280,0.721,0.000,16,14,4*61
$GPGGA,090944.80,3135.5347591,N,12046.6850924,E,4,16,1.5,2.8089,M,8.316,M,00,0004*68
$GPHPD,1957,33002.600,324.40,-0.35,13.87,31.5922460,120.7780849,2.809,13630829.737,24925367.924,2.809,0.947,-0.084,0.978,0.680,1.280,0.721,0.000,16,14,4*4A
$GPGGA,090945.00,3135.5348758,N,12046.6849917,E,4,16,1.5,2.7985,M,8.316,M,01,0004*6A
$GPHPD,1957,33002.800,324.10,-0.16,13.87,31.5922479,120.7780832,2.799,13630827.876,24925366.031,2.799,0.935,-0.099,0.957,0.680,1.280,0.721,0.000,16,14,4*48
$GPGGA,090945.20,3135.5349939,N,12046.6848940,E,4,16,1.5,2.8057,M,8.316,M,01,0004*6A
$GPHPD,1957,33003.000,324.25,-0.09,13.89,31.5922499,120.7780816,2.806,13630826.001,24925364.165,2.806,0.970,-0.123,0.930,0.680,1.280,0.721,0.000,16,14,4*44
$GPGGA,090945.40,3135.5351135,N,12046.6847966,E,4,16,1.5,2.7958,M,8.316,M,01,0004*63
$GPHPD,1957,33003.200,324.30,-0.12,13.92,31.5922519,120.7780799,2.796,13630824.105,24925362.294,2.796,0.931,-0.066,0.953,0.680,1.280,0.721,0.000,16,14,4*4F
$GPGGA,090945.60,3135.5352331,N,12046.6846991,E,4,16,1.5,2.8096,M,8.316,M,00,0004*68
$GPHPD,1957,33003.400,324.21,0.04,13.93,31.5922539,120.7780783,2.810,13630822.209,24925360.422,2.810,0.970,-0.115,0.930,0.680,1.280,0.721,0.000,16,15,4*6F
$GPGGA,090945.80,3135.5353505,N,12046.6846005,E,4,16,1.5,2.8147,M,8.316,M,00,0004*6F
$GPHPD,1957,33003.600,324.29,-0.25,13.92,31.5922558,120.7780767,2.815,13630820.342,24925358.549,2.815,0.917,-0.071,0.967,0.680,1.280,0.721,0.000,16,15,4*4C
$GPGGA,090946.00,3135.5354698,N,12046.6845039,E,4,16,1.5,2.8061,M,8.316,M,01,0004*6C
$GPHPD,1957,33003.800,324.03,-0.69,13.93,31.5922578,120.7780751,2.806,13630818.451,24925356.690,2.806,0.952,-0.079,0.942,0.680,1.280,0.721,0.000,16,15,4*4D
$GPGGA,090946.20,3135.5355868,N,12046.6844033,E,4,16,1.5,2.8165,M,8.316,M,01,0004*60
$GPHPD,1957,33004.000,324.39,0.07,13.92,31.5922598,120.7780734,2.817,13630816.586,24925354.795,2.817,0.958,-0.116,0.932,0.680,1.280,0.721,0.000,16,15,4*64
$GPGGA,090946.40,3135.5357059,N,12046.6843071,E,4,16,1.5,2.8248,M,8.316,M,01,0004*63
$GPHPD,1957,33004.200,324.50,0.06,13.90,31.5922618,120.7780718,2.825,13630814.700,24925352.942,2.825,0.931,-0.045,0.953,0.680,1.280,0.721,0.000,16,15,4*6C
$GPGGA,090946.60,3135.5358236,N,12046.6842064,E,4,16,1.5,2.8135,M,8.316,M,00,0004*68
$GPHPD,1957,33004.400,324.28,-0.15,13.90,31.5922637,120.7780701,2.814,13630812.824,24925351.042,2.814,0.941,-0.101,0.952,0.680,1.280,0.721,0.000,16,14,4*4C
$GPGGA,090946.80,3135.5359407,N,12046.6841038,E,4,16,1.5,2.8481,M,8.316,M,00,0004*63
$GPHPD,1957,33004.600,324.48,-0.15,13.90,31.5922657,120.7780684,2.848,13630810.953,24925349.123,2.848,1.001,-0.116,0.910,0.680,1.280,0.721,0.000,16,14,4*42
$GPGGA,090947.00,3135.5360585,N,12046.6840028,E,4,16,1.5,2.8622,M,8.316,M,01,0004*61
$GPHPD,1957,33004.800,324.42,-0.31,13.90,31.5922676,120.7780667,2.862,13630809.076,24925347.220,2.862,0.922,0.024,0.991,0.680,1.280,0.721,0.000,16,14,4*6B
$GPGGA,090947.20,3135.5361806,N,12046.6839136,E,4,16,1.5,2.8460,M,8.316,M,01,0004*60
$GPHPD,1957,33005.000,324.65,-0.91,13.88,31.5922697,120.7780652,2.846,13630807.161,24925345.433,2.846,0.886,0.103,1.020,0.754,1.718,0.797,0.000,16,14,4*6A
$GPGGA,090947.40,3135.5363022,N,12046.6838213,E,4,16,1.5,2.8317,M,8.316,M,01,0004*68
$GPHPD,1957,33005.200,324.69,-0.43,13.88,31.5922717,120.7780637,2.832,13630805.246,24925343.612,2.832,0.910,-0.025,0.971,0.754,1.718,0.797,0.000,16,14,4*48
$GPGGA,090947.60,3135.5364199,N,12046.6837225,E,4,16,1.5,2.8266,M,8.316,M,00,0004*60
$GPHPD,1957,33005.400,324.48,-0.41,13.87,31.5922737,120.7780620,2.827,13630803.375,24925341.735,2.827,0.955,-0.134,0.937,0.680,1.280,0.721,0.000,16,14,4*46
$GPGGA,090947.80,3135.5365390,N,12046.6836256,E,4,16,1.5,2.8178,M,8.316,M,00,0004*6D
$GPHPD,1957,33005.600,324.67,-0.24,13.87,31.5922757,120.7780604,2.818,13630801.487,24925339.873,2.818,0.978,-0.156,0.908,0.724,1.310,0.763,0.000,16,14,4*46
$GPGGA,090948.00,3135.5366561,N,12046.6835320,E,4,16,1.5,2.8194,M,8.316,M,01,0004*61
$GPHPD,1957,33005.800,324.68,0.12,13.87,31.5922776,120.7780589,2.819,13630799.634,24925338.063,2.819,0.993,-0.154,0.892,0.724,1.310,0.763,0.000,16,14,4*63
$GPGGA,090948.20,3135.5367752,N,12046.6834335,E,4,16,1.5,2.8257,M,8.316,M,01,0004*69
$GPHPD,1957,33006.000,324.71,-0.47,13.90,31.5922796,120.7780572,2.826,13630797.743,24925336.182,2.826,0.958,-0.134,0.903,0.724,1.310,0.763,0.000,16,14,4*46
$GPGGA,090948.40,3135.5368921,N,12046.6833389,E,4,16,1.5,2.8316,M,8.316,M,01,0004*6E
$GPHPD,1957,33006.200,324.66,-0.17,13.92,31.5922815,120.7780556,2.832,13630795.891,24925334.360,2.832,0.949,-0.094,0.932,0.680,1.280,0.721,0.000,16,14,4*41
$GPGGA,090948.60,3135.5370101,N,12046.6832403,E,4,16,1.5,2.8205,M,8.316,M,00,0004*69
$GPHPD,1957,33006.400,324.65,-0.76,13.94,31.5922835,120.7780540,2.821,13630794.015,24925332.484,2.821,0.901,-0.045,0.957,0.680,1.280,0.721,0.000,16,14,4*4D
$GPGGA,090948.80,3135.5371316,N,12046.6831456,E,4,16,1.5,2.8117,M,8.316,M,00,0004*61
$GPHPD,1957,33006.600,324.64,0.40,13.95,31.5922855,120.7780524,2.812,13630792.098,24925330.635,2.812,0.956,-0.083,0.919,0.680,1.279,0.721,0.000,16,14,4*6E
$GPGGA,090949.00,3135.5372497,N,12046.6830493,E,4,16,1.5,2.8259,M,8.316,M,01,0004*65
$GPHPD,1957,33006.800,324.48,0.50,13.96,31.5922875,120.7780508,2.826,13630790.225,24925328.786,2.826,0.956,-0.103,0.937,0.680,1.279,0.721,0.000,16,14,4*63
$GPGGA,090949.20,3135.5373680,N,12046.6829518,E,4,16,1.5,2.8208,M,8.316,M,01,0004*6C
$GPHPD,1957,33007.000,324.39,0.20,13.97,31.5922895,120.7780492,2.821,13630788.348,24925326.922,2.821,0.940,-0.093,0.941,0.680,1.279,0.721,0.000,16,14,4*65
$GPGGA,090949.40,3135.5374877,N,12046.6828560,E,4,16,1.5,2.8276,M,8.316,M,01,0004*6C
$GPHPD,1957,33007.200,324.34,1.04,13.97,31.5922915,120.7780476,2.828,13630786.454,24925325.069,2.828,0.972,-0.118,0.913,0.680,1.279,0.721,0.000,16,14,4*6B
$GPGGA,090949.60,3135.5376017,N,12046.6827555,E,4,16,1.5,2.8341,M,8.316,M,00,0004*6F
$GPHPD,1957,33007.400,324.24,0.07,13.95,31.5922934,120.7780459,2.834,13630784.631,24925323.194,2.834,0.963,-0.113,0.954,0.680,1.279,0.721,0.000,16,13,4*6B
$GPGGA,090949.80,3135.5377240,N,12046.6826583,E,4,16,1.5,2.8335,M,8.316,M,00,0004*69
$GPHPD,1957,33007.600,324.18,0.33,13.95,31.5922954,120.7780443,2.834,13630782.697,24925321.310,2.834,0.971,-0.069,0.909,0.680,1.279,0.721,0.000,16,13,4*6D
$GPGGA,090950.00,3135.5378402,N,12046.6825599,E,4,16,1.5,2.8494,M,8.316,M,01,0004*63
$GPHPD,1957,33007.800,324.43,-0.12,13.95,31.5922973,120.7780427,2.849,13630780.847,24925319.446,2.849,0.963,-0.096,0.944,0.680,1.279,0.721,0.000,16,13,4*40
$GPGGA,090950.20,3135.5379575,N,12046.6824600,E,4,16,1.5,2.8660,M,8.316,M,01,0004*6A
$GPHPD,1957,33008.000,324.28,0.15,13.93,31.5922993,120.7780410,2.866,13630778.979,24925317.559,2.866,0.924,-0.026,0.977,0.680,1.279,0.721,0.000,16,13,4*6E
$GPGGA,090950.40,3135.5380777,N,12046.6823606,E,4,16,1.5,2.8658,M,8.316,M,01,0004*60
$GPHPD,1957,33008.200,324.57,0.04,13.92,31.5923013,120.7780393,2.866,13630777.071,24925315.660,2.866,0.932,-0.035,0.966,0.680,1.279,0.721,0.000,16,13,4*69
$GPGGA,090950.60,3135.5381963,N,12046.6822655,E,4,16,1.5,2.8745,M,8.316,M,00,0004*63
$GPHPD,1957,33008.400,324.19,0.09,13.92,31.5923033,120.7780378,2.875,13630775.193,24925313.823,2.875,0.981,-0.080,0.955,0.680,1.279,0.721,0.000,16,13,4*69
$GPGGA,090950.80,3135.5383158,N,12046.6821679,E,4,16,1.7,2.8428,M,8.316,M,00,0004*68
$GPHPD,1957,33008.600,324.22,-0.07,13.93,31.5923053,120.7780361,2.843,13630773.299,24925311.950,2.843,0.918,-0.051,0.944,0.689,1.283,0.844,0.000,16,13,4*4B
$GPGGA,090951.00,3135.5384364,N,12046.6820727,E,4,16,1.5,2.8461,M,8.316,M,01,0004*6E
$GPHPD,1957,33008.800,324.27,-0.08,13.92,31.5923073,120.7780345,2.846,13630771.393,24925310.100,2.846,0.998,-0.179,0.902,0.689,1.283,0.844,0.000,16,13,4*4E
$GPGGA,090951.20,3135.5385559,N,12046.6819742,E,4,16,1.5,2.8459,M,8.316,M,01,0004*67
$GPHPD,1957,33009.000,324.16,-0.31,13.93,31.5923093,120.7780329,2.846,13630769.496,24925308.217,2.846,0.964,-0.154,0.916,0.680,1.279,0.721,0.000,16,13,4*44
$GPGGA,090951.40,3135.5386736,N,12046.6818766,E,4,16,1.5,2.8465,M,8.316,M,01,0004*61
$GPHPD,1957,33009.200,324.21,-0.61,13.96,31.5923112,120.7780313,2.847,13630767.627,24925306.354,2.847,0.988,-0.128,0.939,0.680,1.279,0.721,0.000,16,13,4*49
$GPGGA,090951.60,3135.5387927,N,12046.6817757,E,4,16,1.5,2.8384,M,8.316,M,00,0004*68
$GPHPD,1957,33009.400,323.87,-0.16,13.99,31.5923132,120.7780296,2.838,13630765.731,24925304.444,2.838,0.984,-0.128,0.910,0.724,1.310,0.764,0.000,16,14,4*45
$GPGGA,090951.80,3135.5389105,N,12046.6816785,E,4,16,1.5,2.8538,M,8.316,M,00,0004*6F
$GPHPD,1957,33009.600,324.17,-0.34,14.00,31.5923152,120.7780280,2.854,13630763.861,24925302.586,2.854,1.010,-0.150,0.907,0.724,1.310,0.764,0.000,16,15,4*47
$GPGGA,090952.00,3135.5390282,N,12046.6815774,E,4,16,1.5,2.8378,M,8.316,M,01,0004*6E
$GPHPD,1957,33009.800,324.11,0.06,14.02,31.5923171,120.7780263,2.838,13630761.984,24925300.682,2.838,0.961,-0.074,0.933,0.680,1.279,0.721,0.000,16,15,4*6E
$GPGGA,090952.20,3135.5391476,N,12046.6814771,E,4,16,1.5,2.8463,M,8.316,M,01,0004*69
$GPHPD,1957,33010.000,324.19,0.28,14.04,31.5923191,120.7780246,2.846,13630760.085,24925298.777,2.846,0.973,-0.102,0.922,0.680,1.279,0.721,0.000,16,15,4*64
$GPGGA,090952.40,3135.5392676,N,12046.6813761,E,4,16,1.5,2.8490,M,8.316,M,01,0004*64
$GPHPD,1957,33010.200,324.01,-0.06,14.05,31.5923211,120.7780229,2.849,13630758.177,24925296.861,2.849,0.957,-0.083,0.959,0.680,1.279,0.721,0.000,16,15,4*4E
$GPGGA,090952.60,3135.5393871,N,12046.6812774,E,4,16,1.5,2.8430,M,8.316,M,00,0004*60
$GPHPD,1957,33010.400,324.11,-0.54,14.06,31.5923231,120.7780213,2.843,13630756.279,24925294.975,2.843,0.967,-0.064,0.953,0.680,1.279,0.721,0.000,16,15,4*43
$GPGGA,090952.80,3135.5395083,N,12046.6811762,E,4,16,1.5,2.8575,M,8.316,M,00,0004*69
$GPHPD,1957,33010.600,323.95,0.51,14.07,31.5923251,120.7780196,2.858,13630754.353,24925293.049,2.858,0.984,-0.118,0.931,0.680,1.279,0.721,0.000,16,15,4*62
$GPGGA,090953.00,3135.5396297,N,12046.6810805,E,4,16,1.5,2.8454,M,8.316,M,01,0004*68
$GPHPD,1957,33010.800,323.76,0.01,14.08,31.5923272,120.7780180,2.845,13630752.435,24925291.188,2.845,0.951,-0.036,0.975,0.680,1.279,0.721,0.000,16,15,4*67
$GPGGA,090953.20,3135.5397487,N,12046.6809800,E,4,16,1.5,2.8585,M,8.316,M,01,0004*6C
$GPHPD,1957,33011.000,323.61,0.30,14.10,31.5923291,120.7780163,2.859,13630750.541,24925289.283,2.859,0.979,-0.143,0.924,0.680,1.279,0.721,0.000,16,15,4*6F
$GPGGA,090953.40,3135.5398636,N,12046.6808809,E,4,16,1.5,2.8622,M,8.316,M,01,0004*6B
$GPHPD,1957,33011.200,323.55,0.25,14.11,31.5923311,120.7780147,2.862,13630748.709,24925287.419,2.862,0.944,-0.049,0.968,0.680,1.279,0.721,0.000,16,15,4*61
$GPGGA,090953.60,3135.5399821,N,12046.6807804,E,4,16,1.5,2.8596,M,8.316,M,00,0004*6F
$GPHPD,1957,33011.400,323.78,0.20,14.13,31.5923330,120.7780130,2.860,13630746.822,24925285.517,2.860,0.937,-0.032,0.931,0.680,1.279,0.721,0.000,16,15,4*6D
$GPGGA,090953.80,3135.5400962,N,12046.6806821,E,4,16,1.5,2.8752,M,8.316,M,00,0004*6C
$GPHPD,1957,33011.600,323.87,-0.11,14.13,31.5923349,120.7780114,2.875,13630745.003,24925283.667,2.875,0.977,-0.116,0.926,0.680,1.279,0.721,0.000,16,15,4*47
$GPGGA,090954.00,3135.5402162,N,12046.6805870,E,4,16,1.5,2.8680,M,8.316,M,01,0004*61
$GPHPD,1957,33011.800,324.17,-0.13,14.13,31.5923369,120.7780098,2.868,13630743.106,24925281.822,2.868,0.917,-0.025,0.958,0.680,1.279,0.721,0.000,16,15,4*43
$GPGGA,090954.20,3135.5403316,N,12046.6804872,E,4,16,1.5,2.8829,M,8.316,M,01,0004*6D
$GPHPD,1957,33012.000,324.12,0.13,14.16,31.5923389,120.7780081,2.883,13630741.264,24925279.947,2.883,0.964,-0.128,0.921,0.680,1.279,0.721,0.000,16,15,4*65
$GPGGA,090954.40,3135.5404488,N,12046.6803858,E,4,16,1.5,2.8847,M,8.316,M,01,0004*6B
$GPHPD,1957,33012.200,323.99,0.07,14.19,31.5923408,120.7780064,2.885,13630739.395,24925278.041,2.885,0.923,-0.022,0.945,0.680,1.279,0.721,0.000,16,15,4*68
$GPGGA,090954.60,3135.5405706,N,12046.6802875,E,4,16,1.5,2.8867,M,8.316,M,00,0004*60
$GPHPD,1957,33012.400,323.92,0.01,14.20,31.5923428,120.7780048,2.887,13630737.466,24925276.147,2.887,0.945,-0.050,0.940,0.685,1.290,0.769,0.000,16,15,4*67
$GPGGA,090954.80,3135.5406897,N,12046.6801898,E,4,16,1.5,2.8909,M,8.316,M,00,0004*63
$GPHPD,1957,33012.600,323.70,0.36,14.20,31.5923448,120.7780032,2.891,13630735.576,24925274.275,2.891,0.976,-0.086,0.957,0.680,1.279,0.722,0.000,16,15,4*64
$GPGGA,090955.00,3135.5408060,N,12046.6800888,E,4,16,1.5,2.8951,M,8.316,M,01,0004*68
$GPHPD,1957,33012.800,323.65,0.49,14.23,31.5923468,120.7780015,2.895,13630733.720,24925272.380,2.895,0.960,-0.083,0.953,0.680,1.279,0.722,0.000,16,15,4*6E
$GPGGA,090955.20,3135.5409236,N,12046.6799927,E,4,16,1.5,2.8805,M,8.316,M,01,0004*61
$GPHPD,1957,33013.000,323.55,0.23,14.27,31.5923487,120.7779999,2.881,13630731.855,24925270.537,2.881,0.955,-0.057,0.936,0.680,1.279,0.722,0.000,16,15,4*6D
$GPGGA,090955.40,3135.5410364,N,12046.6798927,E,4,16,1.5,2.8789,M,8.316,M,01,0004*63
$GPHPD,1957,33013.200,323.61,0.64,14.30,31.5923506,120.7779982,2.879,13630730.050,24925268.674,2.879,0.969,-0.133,0.882,0.680,1.279,0.722,0.000,16,15,4*6C
$GPGGA,090955.60,3135.5411500,N,12046.6797962,E,4,16,1.5,2.8958,M,8.316,M,00,0004*69
$GPHPD,1957,33013.400,323.80,0.64,14.31,31.5923525,120.7779966,2.896,13630728.242,24925266.849,2.896,0.960,-0.073,0.878,0.680,1.279,0.722,0.000,16,15,4*60
$GPGGA,090955.80,3135.5412705,N,12046.6796994,E,4,16,1.5,2.8916,M,8.316,M,00,0004*61
$GPHPD,1957,33013.600,323.85,-0.12,14.32,31.5923545,120.7779950,2.892,13630726.334,24925264.980,2.892,0.910,-0.029,0.918,0.680,1.279,0.722,0.000,16,15,4*4C
$GPGGA,090956.00,3135.5413848,N,12046.6796023,E,4,16,1.5,2.8947,M,8.316,M,01,0004*6D
$GPHPD,1957,33013.800,323.60,0.26,14.30,31.5923564,120.7779934,2.895,13630724.514,24925263.144,2.895,0.943,-0.076,0.963,0.680,1.279,0.722,0.000,16,15,4*61
$GPGGA,090956.20,3135.5415028,N,12046.6795032,E,4,16,1.5,2.8907,M,8.316,M,01,0004*60
$GPHPD,1957,33014.000,323.61,0.11,14.29,31.5923584,120.7779917,2.891,13630722.637,24925261.262,2.891,0.939,-0.059,0.906,0.680,1.279,0.722,0.000,16,15,4*6E
$GPGGA,090956.40,3135.5416174,N,12046.6794067,E,4,16,1.5,2.9013,M,8.316,M,01,0004*61
$GPHPD,1957,33014.200,323.27,0.88,14.21,31.5923603,120.7779901,2.901,13630720.814,24925259.431,2.901,0.975,-0.132,0.917,0.680,1.279,0.722,0.000,16,15,4*6F
$GPGGA,090956.60,3135.5417267,N,12046.6793114,E,4,16,1.5,2.9031,M,8.315,M,00,0004*63
$GPHPD,1957,33014.400,323.43,0.01,14.15,31.5923621,120.7779885,2.903,13630719.069,24925257.645,2.903,0.939,-0.074,0.930,0.680,1.279,0.722,0.000,16,15,4*69
$GPGGA,090956.80,3135.5418244,N,12046.6792292,E,4,16,1.5,2.8940,M,8.315,M,00,0004*61
$GPHPD,1957,33014.600,323.56,-0.21,14.12,31.5923637,120.7779872,2.894,13630717.515,24925256.085,2.894,0.898,-0.049,0.860,0.680,1.279,0.722,0.000,16,15,4*43
$GPGGA,090957.00,3135.5419092,N,12046.6791534,E,4,16,1.5,2.9039,M,8.315,M,01,0004*6F
$GPHPD,1957,33014.800,323.53,0.20,13.99,31.5923652,120.7779859,2.904,13630716.157,24925254.677,2.904,0.833,-0.104,0.753,0.680,1.279,0.722,0.000,16,15,4*66
$GPGGA,090957.20,3135.5419813,N,12046.6790934,E,4,16,1.5,2.9091,M,8.315,M,01,0004*63
$GPHPD,1957,33015.000,323.37,0.64,13.82,31.5923664,120.7779849,2.909,13630715.011,24925253.534,2.909,0.701,-0.047,0.686,0.680,1.279,0.722,0.000,16,15,4*61
$GPGGA,090957.40,3135.5420366,N,12046.6790507,E,4,16,1.5,2.9049,M,8.315,M,01,0004*6F
$GPHPD,1957,33015.200,323.39,0.39,13.61,31.5923673,120.7779842,2.905,13630714.140,24925252.697,2.905,0.569,-0.035,0.571,0.680,1.279,0.722,0.000,16,15,4*68
$GPGGA,090957.60,3135.5420792,N,12046.6790166,E,4,16,1.5,2.9085,M,8.315,M,00,0004*60
$GPHPD,1957,33015.400,323.46,0.38,13.43,31.5923680,120.7779836,2.909,13630713.465,24925252.038,2.909,0.443,-0.048,0.442,0.680,1.279,0.722,0.000,16,15,4*6C
$GPGGA,090957.80,3135.5421059,N,12046.6789947,E,4,16,1.5,2.9084,M,8.315,M,00,0004*6D
$GPHPD,1957,33015.600,323.35,0.10,13.26,31.5923684,120.7779832,2.908,13630713.042,24925251.618,2.908,0.318,-0.019,0.338,0.680,1.279,0.722,0.000,16,15,4*62
$GPGGA,090958.00,3135.5421176,N,12046.6789841,E,4,16,1.5,2.9062,M,8.315,M,01,0004*68
$GPHPD,1957,33015.800,323.43,0.04,13.10,31.5923686,120.7779831,2.906,13630712.854,24925251.422,2.906,0.218,-0.033,0.213,0.680,1.279,0.722,0.000,16,14,4*69
$GPGGA,090958.20,3135.5421160,N,12046.6789857,E,4,16,1.5,2.9061,M,8.315,M,01,0004*69
$GPHPD,1957,33016.000,323.42,0.20,12.98,31.5923686,120.7779831,2.906,13630712.880,24925251.451,2.906,0.098,-0.007,0.091,0.680,1.279,0.722,0.000,16,15,4*6D
$GPGGA,090958.40,3135.5421151,N,12046.6789858,E,4,16,1.5,2.9064,M,8.315,M,01,0004*67
$GPHPD,1957,33016.200,323.43,0.10,13.04,31.5923686,120.7779831,2.906,13630712.893,24925251.458,2.906,-0.010,0.006,-0.008,0.680,1.279,0.722,0.000,16,15,4*4E
$GPGGA,090958.60,3135.5421142,N,12046.6789842,E,4,16,1.5,2.9051,M,8.315,M,00,0004*6B
$GPHPD,1957,33016.400,323.42,0.32,13.14,31.5923686,120.7779831,2.905,13630712.903,24925251.443,2.905,-0.007,0.002,-0.008,0.680,1.279,0.722,0.000,16,15,4*48
