$GPGGA,093821.80,3135.5183973,N,12046.3509778,E,4,16,2.4,2.6374,M,8.295,M,00,0004*67
$GPHPD,1957,34719.600,61.98,1.77,17.12,31.5919733,120.7725163,2.637,13630389.939,24921434.505,2.637,-2.102,-1.920,1.289,0.646,1.565,0.840,0.000,16,15,4*76
$GPGGA,093822.00,3135.5185619,N,12046.3513615,E,4,16,2.5,2.6145,M,8.295,M,01,0004*68
$GPHPD,1957,34719.800,61.71,-0.49,17.22,31.5919760,120.7725227,2.615,13630388.372,24921438.174,2.615,-2.121,-2.078,1.305,0.646,1.565,0.840,0.000,16,14,4*50
$GPGGA,093822.20,3135.5187247,N,12046.3517398,E,4,16,2.3,2.6341,M,8.295,M,01,0004*63
$GPHPD,1957,34720.000,62.11,0.94,17.29,31.5919787,120.7725290,2.634,13630386.820,24921441.787,2.634,-2.122,-2.344,1.252,0.664,1.567,0.840,0.000,16,13,4*7B
$GPGGA,093822.40,3135.5189043,N,12046.3521442,E,4,16,2.3,2.6180,M,8.295,M,01,0004*67
$GPHPD,1957,34720.200,62.90,0.59,17.28,31.5919817,120.7725357,2.618,13630385.081,24921445.618,2.618,-2.166,-2.534,1.243,0.664,1.567,0.840,0.000,16,13,4*7E
$GPGGA,093822.60,3135.5190800,N,12046.3525433,E,4,16,2.3,2.6526,M,8.295,M,00,0004*69
$GPHPD,1957,34720.400,63.10,-0.61,17.12,31.5919847,120.7725424,2.653,13630383.387,24921449.407,2.653,-2.278,-2.331,1.386,0.664,1.567,0.840,0.000,16,13,4*5C
$GPGGA,093822.80,3135.5192534,N,12046.3529697,E,4,16,2.3,2.6108,M,8.295,M,00,0004*67
$GPHPD,1957,34720.600,62.66,0.35,17.02,31.5919876,120.7725495,2.611,13630381.781,24921453.539,2.611,-2.361,-2.381,1.401,0.664,1.567,0.840,0.000,16,13,4*76
$GPGGA,093823.00,3135.5194537,N,12046.3533762,E,4,16,2.4,2.7198,M,8.295,M,01,0004*65
$GPHPD,1957,34720.800,62.10,1.03,16.97,31.5919909,120.7725563,2.720,13630379.753,24921457.274,2.720,-2.382,-2.221,1.549,0.664,1.567,0.840,0.000,16,13,4*78
$GPGGA,093823.20,3135.5196441,N,12046.3538138,E,4,16,2.4,2.7119,M,8.295,M,01,0004*6E
$GPHPD,1957,34721.000,62.53,0.22,16.86,31.5919941,120.7725636,2.712,13630377.927,24921461.442,2.712,-2.481,-2.525,1.441,0.646,1.565,0.840,0.000,16,14,4*75
$GPGGA,093823.40,3135.5198369,N,12046.3542525,E,4,16,2.4,2.7576,M,8.295,M,01,0004*63
$GPHPD,1957,34721.200,62.74,0.33,16.76,31.5919973,120.7725709,2.758,13630376.070,24921465.609,2.758,-2.492,-2.609,1.501,0.646,1.565,0.840,0.000,16,14,4*78
$GPGGA,093823.60,3135.5200382,N,12046.3547117,E,4,16,2.4,2.7553,M,8.295,M,00,0004*60
$GPHPD,1957,34721.400,62.59,0.24,16.67,31.5920006,120.7725785,2.755,13630374.134,24921469.974,2.755,-2.570,-2.589,1.563,0.646,1.565,0.840,0.000,16,14,4*7A
$GPGGA,093823.80,3135.5202387,N,12046.3551699,E,4,16,2.4,2.7734,M,8.295,M,00,0004*6C
$GPHPD,1957,34721.600,62.58,-0.22,16.63,31.5920040,120.7725862,2.773,13630372.206,24921474.332,2.773,-2.638,-2.673,1.553,0.646,1.565,0.840,0.000,16,14,4*58
$GPGGA,093824.00,3135.5204414,N,12046.3556359,E,4,16,2.4,2.7364,M,8.295,M,01,0004*66
$GPHPD,1957,34721.800,62.74,-0.08,16.50,31.5920074,120.7725939,2.736,13630370.263,24921478.771,2.736,-2.658,-2.687,1.606,0.646,1.565,0.840,0.000,16,14,4*58
$GPGGA,093824.20,3135.5206348,N,12046.3560834,E,4,16,2.4,2.7251,M,8.295,M,01,0004*6A
$GPHPD,1957,34722.000,62.91,0.36,16.27,31.5920106,120.7726014,2.725,13630368.415,24921483.040,2.725,-2.606,-2.710,1.566,0.646,1.565,0.840,0.000,16,14,4*77
$GPGGA,093824.40,3135.5208216,N,12046.3565227,E,4,16,2.4,2.7002,M,8.295,M,01,0004*61
$GPHPD,1957,34722.200,62.65,0.96,15.93,31.5920137,120.7726087,2.700,13630366.645,24921487.250,2.700,-2.550,-2.631,1.530,0.646,1.565,0.840,0.000,16,14,4*7F
$GPGGA,093824.60,3135.5210006,N,12046.3569364,E,4,16,2.4,2.6999,M,8.295,M,00,0004*68
$GPHPD,1957,34722.400,62.72,0.52,15.43,31.5920167,120.7726156,2.700,13630364.933,24921491.196,2.700,-2.485,-2.519,1.472,0.646,1.565,0.840,0.000,16,14,4*77
$GPGGA,093824.80,3135.5211667,N,12046.3573260,E,4,16,2.4,2.7099,M,8.295,M,00,0004*60
$GPHPD,1957,34722.600,63.14,-0.05,15.06,31.5920194,120.7726221,2.710,13630363.357,24921494.927,2.710,-2.366,-2.270,1.470,0.646,1.565,0.840,0.000,16,14,4*5D
$GPGGA,093825.00,3135.5213273,N,12046.3577006,E,4,16,2.4,2.7101,M,8.295,M,01,0004*6D
$GPHPD,1957,34722.800,63.08,0.14,14.79,31.5920221,120.7726283,2.710,13630361.828,24921498.508,2.710,-2.217,-2.267,1.334,0.646,1.565,0.840,0.000,16,14,4*75
$GPGGA,093825.20,3135.5214750,N,12046.3581037,E,4,16,2.1,2.5217,M,8.295,M,01,0004*64
$GPHPD,1957,34723.000,62.57,-0.37,14.57,31.5920246,120.7726351,2.522,13630360.540,24921502.509,2.522,-2.138,-2.266,1.224,0.646,1.565,0.840,0.000,16,14,4*56
$GPGGA,093825.40,3135.5216211,N,12046.3584171,E,4,16,2.1,2.5987,M,8.295,M,01,0004*64
$GPHPD,1957,34723.200,62.67,-0.25,14.38,31.5920270,120.7726403,2.599,13630359.095,24921505.437,2.599,-2.010,-1.938,1.272,0.646,1.565,0.840,0.000,16,14,4*5F
$GPGGA,093825.60,3135.5217611,N,12046.3587361,E,4,16,2.1,2.5961,M,8.295,M,00,0004*6A
$GPHPD,1957,34723.400,62.54,-0.52,14.30,31.5920294,120.7726456,2.596,13630357.747,24921508.469,2.596,-1.915,-1.939,1.153,0.646,1.565,0.840,0.000,16,15,4*54
$GPGGA,093825.80,3135.5218933,N,12046.3590605,E,4,16,2.0,2.5571,M,8.295,M,00,0004*69
$GPHPD,1957,34723.600,62.83,0.09,14.21,31.5920316,120.7726510,2.557,13630356.521,24921511.610,2.557,-1.845,-1.961,1.053,0.646,1.565,0.840,0.000,16,15,4*78
$GPGGA,093826.00,3135.5220305,N,12046.3593759,E,4,16,2.0,2.5405,M,8.295,M,01,0004*6E
$GPHPD,1957,34723.800,62.87,0.09,14.14,31.5920338,120.7726563,2.541,13630355.206,24921514.615,2.541,-1.821,-1.860,1.078,0.646,1.565,0.840,0.000,16,15,4*76
$GPGGA,093826.20,3135.5221627,N,12046.3596852,E,4,16,2.0,2.5377,M,8.295,M,01,0004*6B
$GPHPD,1957,34724.000,62.89,-0.07,14.08,31.5920360,120.7726614,2.538,13630353.950,24921517.574,2.538,-1.807,-1.850,1.043,0.646,1.565,0.840,0.000,16,15,4*51
$GPGGA,093826.40,3135.5222908,N,12046.3599946,E,4,16,2.0,2.5253,M,8.295,M,01,0004*60
$GPHPD,1957,34724.200,62.95,0.47,14.04,31.5920382,120.7726666,2.525,13630352.752,24921520.559,2.525,-1.766,-1.799,1.042,0.646,1.565,0.840,0.000,16,15,4*77
$GPGGA,093826.60,3135.5224226,N,12046.3602900,E,4,16,2.0,2.5491,M,8.295,M,00,0004*69
$GPHPD,1957,34724.400,62.95,0.91,14.06,31.5920404,120.7726715,2.549,13630351.473,24921523.354,2.549,-1.732,-1.770,1.024,0.646,1.565,0.840,0.000,16,15,4*79
$GPGGA,093826.80,3135.5225498,N,12046.3605854,E,4,16,2.0,2.5837,M,8.295,M,00,0004*62
$GPHPD,1957,34724.600,63.18,1.32,14.06,31.5920425,120.7726764,2.584,13630350.260,24921526.175,2.584,-1.707,-1.725,1.056,0.646,1.565,0.840,0.000,16,15,4*70
$GPGGA,093827.00,3135.5226755,N,12046.3608803,E,4,16,2.0,2.6165,M,8.295,M,01,0004*69
$GPHPD,1957,34724.800,63.32,-0.11,14.07,31.5920446,120.7726813,2.617,13630349.067,24921528.999,2.617,-1.744,-1.780,0.991,0.646,1.565,0.840,0.000,16,15,4*52
$GPGGA,093827.20,3135.5228022,N,12046.3612136,E,4,16,2.0,2.4883,M,8.295,M,01,0004*65
$GPHPD,1957,34725.000,63.49,-0.82,14.02,31.5920467,120.7726869,2.488,13630347.937,24921532.280,2.488,-1.750,-1.732,1.011,0.646,1.565,0.840,0.000,16,15,4*50
$GPGGA,093827.40,3135.5229298,N,12046.3615135,E,4,16,2.0,2.5001,M,8.295,M,01,0004*66
$GPHPD,1957,34725.200,63.02,-0.43,13.97,31.5920488,120.7726919,2.500,13630346.727,24921535.153,2.500,-1.733,-1.602,1.068,0.646,1.565,0.840,0.000,16,15,4*51
$GPGGA,093827.60,3135.5230615,N,12046.3618025,E,4,16,2.0,2.5346,M,8.296,M,00,0004*62
$GPHPD,1957,34725.400,62.85,0.07,13.95,31.5920510,120.7726967,2.535,13630345.437,24921537.871,2.535,-1.768,-1.662,1.058,0.646,1.565,0.840,0.000,16,14,4*7F
$GPGGA,093827.80,3135.5231999,N,12046.3621187,E,4,16,2.0,2.4996,M,8.296,M,00,0004*63
$GPHPD,1957,34725.600,63.09,-0.45,14.04,31.5920533,120.7727020,2.500,13630344.107,24921540.878,2.500,-1.747,-1.677,1.046,0.646,1.565,0.840,0.000,16,14,4*5E
$GPGGA,093828.00,3135.5233338,N,12046.3624502,E,4,16,2.0,2.4516,M,8.296,M,01,0004*6E
$GPHPD,1957,34725.800,63.23,-0.13,14.30,31.5920556,120.7727075,2.452,13630342.871,24921544.096,2.452,-1.761,-1.919,0.957,0.646,1.565,0.840,0.000,16,14,4*56
$GPGGA,093828.20,3135.5234815,N,12046.3627841,E,4,16,2.0,2.5117,M,8.296,M,01,0004*62
$GPHPD,1957,34726.000,63.37,0.31,14.64,31.5920580,120.7727131,2.512,13630341.444,24921547.262,2.512,-1.835,-1.877,1.094,0.646,1.565,0.840,0.000,16,14,4*7D
$GPGGA,093828.40,3135.5236396,N,12046.3631726,E,4,16,2.0,2.4765,M,8.296,M,01,0004*6D
$GPHPD,1957,34726.200,63.28,1.88,14.93,31.5920607,120.7727195,2.477,13630339.979,24921551.026,2.477,-2.000,-2.070,1.140,0.646,1.565,0.840,0.000,16,14,4*78
$GPGGA,093828.60,3135.5238116,N,12046.3635472,E,4,16,2.0,2.6025,M,8.296,M,00,0004*6D
$GPHPD,1957,34726.400,63.30,1.12,15.14,31.5920635,120.7727258,2.603,13630338.288,24921554.541,2.603,-2.175,-2.151,1.273,0.646,1.565,0.840,0.000,16,14,4*7E
$GPGGA,093828.80,3135.5239885,N,12046.3640226,E,4,16,2.0,2.4182,M,8.296,M,00,0004*6A
$GPHPD,1957,34726.600,62.75,0.97,15.37,31.5920665,120.7727337,2.418,13630336.731,24921559.244,2.418,-2.341,-2.230,1.353,0.712,1.688,1.035,0.000,16,14,4*73
$GPGGA,093829.00,3135.5241840,N,12046.3644170,E,4,16,2.0,2.5955,M,8.296,M,01,0004*63
$GPHPD,1957,34726.800,63.06,0.59,15.55,31.5920697,120.7727403,2.596,13630334.746,24921562.861,2.596,-2.454,-2.193,1.592,0.646,1.565,0.840,0.000,16,14,4*7D
$GPGGA,093829.20,3135.5243840,N,12046.3649039,E,4,16,2.0,2.5437,M,8.296,M,01,0004*6B
$GPHPD,1957,34727.000,63.77,-1.47,15.72,31.5920731,120.7727484,2.544,13630332.884,24921567.567,2.544,-2.525,-2.719,1.424,0.706,1.676,0.962,0.000,16,14,4*55
$GPGGA,093829.40,3135.5245953,N,12046.3654120,E,4,16,2.0,2.4783,M,8.296,M,01,0004*60
$GPHPD,1957,34727.200,63.00,-0.36,15.85,31.5920766,120.7727569,2.478,13630330.903,24921572.464,2.478,-2.693,-2.872,1.495,0.706,1.676,0.962,0.000,16,14,4*54
$GPGGA,093829.60,3135.5248204,N,12046.3659144,E,4,15,2.0,2.5505,M,8.296,M,00,0004*66
$GPHPD,1957,34727.400,62.83,1.81,15.95,31.5920803,120.7727652,2.551,13630328.715,24921577.211,2.551,-2.814,-2.920,1.656,0.706,1.676,0.962,0.000,15,14,4*76
$GPGGA,093829.80,3135.5250504,N,12046.3664562,E,4,15,2.0,2.5157,M,8.296,M,00,0004*6B
$GPHPD,1957,34727.600,63.01,1.02,16.10,31.5920842,120.7727743,2.516,13630326.537,24921582.405,2.516,-2.993,-2.962,1.817,0.706,1.676,0.962,0.000,15,14,4*78
$GPGGA,093830.00,3135.5252938,N,12046.3670018,E,4,15,2.0,2.5571,M,8.296,M,01,0004*66
$GPHPD,1957,34727.800,62.91,-0.19,16.25,31.5920882,120.7727834,2.557,13630324.176,24921587.566,2.557,-3.076,-3.007,1.881,0.706,1.676,0.962,0.000,15,14,4*58
$GPGGA,093830.20,3135.5255399,N,12046.3675725,E,4,15,2.0,2.5700,M,8.296,M,01,0004*6A
$GPHPD,1957,34728.000,62.43,3.03,16.37,31.5920923,120.7727929,2.570,13630321.827,24921593.015,2.570,-3.168,-3.327,1.837,0.706,1.676,0.962,0.000,15,14,4*7F
$GPGGA,093830.40,3135.5257996,N,12046.3681972,E,4,15,2.0,2.4486,M,8.296,M,01,0004*60
$GPHPD,1957,34728.200,62.88,-1.22,16.42,31.5920967,120.7728033,2.449,13630319.393,24921599.035,2.449,-3.298,-3.203,2.054,0.706,1.676,0.962,0.000,15,14,4*5B
$GPGGA,093830.60,3135.5260631,N,12046.3687966,E,4,15,2.0,2.4833,M,8.296,M,00,0004*64
$GPHPD,1957,34728.400,63.21,-4.02,16.49,31.5921011,120.7728133,2.483,13630316.854,24921604.729,2.483,-3.372,-3.475,2.050,0.706,1.676,0.962,0.000,15,14,4*5F
$GPGGA,093830.80,3135.5263417,N,12046.3694119,E,4,15,2.0,2.5463,M,8.296,M,00,0004*65
$GPHPD,1957,34728.600,62.55,0.80,16.72,31.5921057,120.7728235,2.546,13630314.133,24921610.526,2.546,-3.463,-3.753,1.979,0.706,1.676,0.962,0.000,15,14,4*70
$GPGGA,093831.00,3135.5266207,N,12046.3700566,E,4,15,2.0,2.5492,M,8.296,M,01,0004*61
$GPHPD,1957,34728.800,63.13,-0.19,16.72,31.5921103,120.7728343,2.549,13630311.466,24921616.675,2.549,-3.575,-3.761,2.201,0.706,1.676,0.962,0.000,15,14,4*53
$GPGGA,093831.20,3135.5269120,N,12046.3707102,E,4,15,2.0,2.5608,M,8.296,M,01,0004*6A
$GPHPD,1957,34729.000,62.55,-0.45,16.50,31.5921152,120.7728452,2.561,13630308.641,24921622.860,2.561,-3.688,-3.759,2.263,0.646,1.564,0.840,0.000,15,14,4*5B
$GPGGA,093831.40,3135.5272026,N,12046.3713728,E,4,15,2.0,2.5773,M,8.296,M,01,0004*67
$GPHPD,1957,34729.200,62.44,0.71,16.43,31.5921200,120.7728562,2.577,13630305.845,24921629.157,2.577,-3.719,-3.826,2.293,0.646,1.564,0.840,0.000,15,14,4*77
$GPGGA,093831.60,3135.5275019,N,12046.3720520,E,4,15,2.0,2.5543,M,8.296,M,00,0004*64
$GPHPD,1957,34729.400,62.80,-3.13,16.51,31.5921250,120.7728675,2.554,13630302.958,24921635.604,2.554,-3.781,-3.869,2.310,0.646,1.564,0.840,0.000,15,14,4*56
$GPGGA,093831.80,3135.5277993,N,12046.3727473,E,4,15,2.0,2.4770,M,8.296,M,00,0004*60
$GPHPD,1957,34729.600,62.28,-0.30,16.31,31.5921300,120.7728791,2.477,13630300.130,24921642.257,2.477,-3.832,-4.137,2.253,0.646,1.564,0.840,0.000,15,14,4*5F
$GPGGA,093832.00,3135.5281017,N,12046.3734170,E,4,15,2.0,2.5175,M,8.296,M,01,0004*60
$GPHPD,1957,34729.800,62.18,0.65,16.31,31.5921350,120.7728903,2.518,13630297.181,24921648.571,2.518,-3.862,-4.016,2.359,0.646,1.564,0.840,0.000,15,14,4*7F
$GPGGA,093832.20,3135.5284107,N,12046.3740940,E,4,15,2.0,2.5366,M,8.296,M,01,0004*6F
$GPHPD,1957,34730.000,61.90,0.07,16.28,31.5921402,120.7729016,2.537,13630294.151,24921654.935,2.537,-3.887,-3.853,2.467,0.646,1.564,0.840,0.000,15,14,4*7C
$GPGGA,093832.40,3135.5287161,N,12046.3747641,E,4,15,2.0,2.6071,M,8.296,M,01,0004*65
$GPHPD,1957,34730.200,61.45,0.80,16.26,31.5921453,120.7729127,2.607,13630291.160,24921661.237,2.607,-3.853,-4.122,2.371,0.646,1.564,0.840,0.000,15,14,4*79
$GPGGA,093832.60,3135.5290284,N,12046.3754505,E,4,15,2.3,2.6369,M,8.296,M,00,0004*60
$GPHPD,1957,34730.400,61.80,-0.54,16.23,31.5921505,120.7729242,2.637,13630288.103,24921667.695,2.637,-3.929,-3.865,2.524,0.646,1.564,0.840,0.000,15,14,4*55
$GPGGA,093832.80,3135.5293449,N,12046.3761539,E,4,15,2.3,2.6307,M,8.296,M,00,0004*6B
$GPHPD,1957,34730.600,62.11,-2.55,16.19,31.5921557,120.7729359,2.631,13630285.020,24921674.334,2.631,-3.958,-4.025,2.445,0.646,1.564,0.840,0.000,15,14,4*50
$GPGGA,093833.00,3135.5296615,N,12046.3768903,E,4,15,2.0,2.5153,M,8.296,M,01,0004*62
$GPHPD,1957,34730.800,62.28,1.30,16.12,31.5921610,120.7729482,2.515,13630282.003,24921681.370,2.515,-3.950,-4.306,2.436,0.646,1.564,0.840,0.000,15,14,4*71
$GPGGA,093833.20,3135.5299667,N,12046.3775752,E,4,15,2.0,2.5966,M,8.296,M,01,0004*62
$GPHPD,1957,34731.000,62.52,2.71,16.07,31.5921661,120.7729596,2.597,13630279.043,24921687.851,2.597,-4.019,-4.081,2.553,0.646,1.564,0.840,0.000,15,14,4*76
$GPGGA,093833.40,3135.5302866,N,12046.3783072,E,4,16,2.0,2.5262,M,8.296,M,01,0004*68
$GPHPD,1957,34731.200,62.06,0.80,16.04,31.5921714,120.7729718,2.526,13630275.970,24921694.815,2.526,-4.039,-4.165,2.418,0.706,1.676,0.963,0.000,16,14,4*7B
$GPGGA,093833.60,3135.5306025,N,12046.3790260,E,4,16,2.0,2.5242,M,8.297,M,00,0004*60
$GPHPD,1957,34731.400,62.55,0.03,15.95,31.5921767,120.7729838,2.524,13630272.927,24921701.643,2.524,-4.056,-4.206,2.497,0.646,1.564,0.840,0.000,16,14,4*7A
$GPGGA,093833.80,3135.5309192,N,12046.3797575,E,4,16,2.0,2.5141,M,8.297,M,00,0004*68
$GPHPD,1957,34731.600,62.16,0.81,15.96,31.5921820,120.7729960,2.514,13630269.898,24921708.619,2.514,-4.090,-4.358,2.425,0.706,1.676,0.963,0.000,16,14,4*73
$GPGGA,093834.00,3135.5312422,N,12046.3804777,E,4,16,2.0,2.5227,M,8.297,M,01,0004*64
$GPHPD,1957,34731.800,62.20,0.84,15.89,31.5921874,120.7730080,2.523,13630266.757,24921715.423,2.523,-4.134,-4.234,2.544,0.646,1.564,0.840,0.000,16,14,4*7E
$GPGGA,093834.20,3135.5315662,N,12046.3811787,E,4,16,2.0,2.6225,M,8.297,M,01,0004*6D
$GPHPD,1957,34732.000,62.00,1.04,15.78,31.5921928,120.7730196,2.623,13630263.563,24921721.989,2.623,-4.113,-4.309,2.519,0.646,1.564,0.840,0.000,16,14,4*76
$GPGGA,093834.40,3135.5318885,N,12046.3818973,E,4,16,2.3,2.6600,M,8.297,M,01,0004*6D
$GPHPD,1957,34732.200,62.65,0.03,15.68,31.5921981,120.7730316,2.660,13630260.429,24921728.777,2.660,-4.138,-4.063,2.638,0.706,1.676,0.963,0.000,16,14,4*70
$GPGGA,093834.60,3135.5322068,N,12046.3826247,E,4,16,2.3,2.6714,M,8.297,M,00,0004*69
$GPHPD,1957,34732.400,62.47,0.97,15.62,31.5922034,120.7730437,2.671,13630257.369,24921735.695,2.671,-4.148,-4.357,2.481,0.646,1.564,0.840,0.000,16,14,4*71
$GPGGA,093834.80,3135.5325287,N,12046.3833615,E,4,16,2.3,2.6755,M,8.297,M,00,0004*61
$GPHPD,1957,34732.600,62.51,0.22,15.71,31.5922088,120.7730560,2.676,13630254.277,24921742.705,2.676,-4.189,-4.247,2.527,0.646,1.564,0.840,0.000,16,14,4*79
$GPGGA,093835.00,3135.5328483,N,12046.3841001,E,4,16,2.3,2.6817,M,8.297,M,01,0004*69
$GPHPD,1957,34732.800,62.63,0.76,15.62,31.5922141,120.7730683,2.682,13630251.221,24921749.750,2.682,-4.194,-4.223,2.602,0.646,1.564,0.840,0.000,16,14,4*78
$GPGGA,093835.20,3135.5331753,N,12046.3848640,E,4,16,2.0,2.5774,M,8.297,M,01,0004*6D
$GPHPD,1957,34733.000,62.16,1.35,15.40,31.5922196,120.7730811,2.577,13630248.111,24921757.057,2.577,-4.214,-4.391,2.488,0.646,1.564,0.840,0.000,16,14,4*7E
$GPGGA,093835.40,3135.5334956,N,12046.3856261,E,4,16,2.0,2.5234,M,8.297,M,01,0004*6C
$GPHPD,1957,34733.200,63.23,-0.81,15.38,31.5922249,120.7730938,2.523,13630245.093,24921764.381,2.523,-4.221,-4.186,2.651,0.646,1.564,0.840,0.000,16,14,4*56
$GPGGA,093835.60,3135.5338228,N,12046.3863789,E,4,16,2.0,2.5232,M,8.297,M,01,0004*63
$GPHPD,1957,34733.400,62.69,0.06,15.46,31.5922304,120.7731063,2.523,13630241.958,24921771.553,2.523,-4.255,-4.405,2.517,0.646,1.564,0.840,0.000,16,14,4*71
$GPGGA,093835.80,3135.5341477,N,12046.3871285,E,4,16,2.0,2.5398,M,8.297,M,01,0004*64
$GPHPD,1957,34733.600,62.90,1.96,15.47,31.5922358,120.7731188,2.540,13630238.849,24921778.700,2.540,-4.282,-4.469,2.546,0.646,1.564,0.840,0.000,16,14,4*77
$GPGGA,093836.00,3135.5344829,N,12046.3878821,E,4,16,2.0,2.5279,M,8.297,M,02,0004*6D
$GPHPD,1957,34733.800,62.71,0.61,15.35,31.5922414,120.7731314,2.528,13630235.601,24921785.835,2.528,-4.346,-4.283,2.628,0.646,1.564,0.840,0.000,16,14,4*76
$GPGGA,093836.20,3135.5348068,N,12046.3886328,E,4,16,2.0,2.5826,M,8.297,M,02,0004*6D
$GPHPD,1957,34734.000,62.85,0.24,15.33,31.5922468,120.7731439,2.583,13630232.509,24921793.001,2.583,-4.281,-4.415,2.581,0.646,1.564,0.840,0.000,16,14,4*71
$GPGGA,093836.40,3135.5351324,N,12046.3894129,E,4,16,2.0,2.5088,M,8.297,M,02,0004*64
$GPHPD,1957,34734.200,62.98,0.27,15.34,31.5922522,120.7731569,2.509,13630229.451,24921800.511,2.509,-4.365,-4.293,2.637,0.646,1.564,0.840,0.000,16,14,4*7A
$GPGGA,093836.60,3135.5354633,N,12046.3901790,E,4,16,2.0,2.4895,M,8.297,M,02,0004*6C
$GPHPD,1957,34734.400,62.60,-0.16,15.27,31.5922577,120.7731697,2.490,13630226.290,24921807.822,2.490,-4.362,-4.516,2.538,0.646,1.564,0.840,0.000,16,14,4*5B
$GPGGA,093836.80,3135.5357966,N,12046.3909369,E,4,16,2.0,2.4851,M,8.297,M,00,0004*6E
$GPHPD,1957,34734.600,62.77,0.35,15.17,31.5922633,120.7731823,2.485,13630223.079,24921815.020,2.485,-4.355,-4.398,2.620,0.646,1.564,0.840,0.000,16,14,4*75
$GPGGA,093837.00,3135.5361224,N,12046.3916891,E,4,16,2.0,2.5374,M,8.297,M,01,0004*61
$GPHPD,1957,34734.800,62.84,0.57,15.01,31.5922687,120.7731948,2.537,13630219.962,24921822.193,2.537,-4.371,-4.356,2.655,0.646,1.564,0.840,0.000,16,14,4*76
$GPGGA,093837.20,3135.5364512,N,12046.3924679,E,4,16,2.0,2.4724,M,8.297,M,01,0004*6D
$GPHPD,1957,34735.000,63.34,-1.26,14.92,31.5922742,120.7732078,2.472,13630216.856,24921829.669,2.472,-4.385,-4.098,2.761,0.646,1.564,0.840,0.000,16,14,4*59
$GPGGA,093837.40,3135.5367856,N,12046.3932108,E,4,16,2.0,2.5510,M,8.297,M,01,0004*67
$GPHPD,1957,34735.200,62.48,-0.04,14.97,31.5922798,120.7732202,2.551,13630213.599,24921836.680,2.551,-4.367,-4.522,2.552,0.646,1.564,0.840,0.000,16,14,4*55
$GPGGA,093837.60,3135.5371148,N,12046.3939448,E,4,16,2.3,2.6637,M,8.297,M,00,0004*69
$GPHPD,1957,34735.400,62.70,1.51,15.01,31.5922852,120.7732324,2.664,13630210.397,24921843.614,2.664,-4.361,-4.559,2.573,0.646,1.564,0.840,0.000,16,14,4*7B
$GPGGA,093837.80,3135.5374442,N,12046.3947144,E,4,16,2.3,2.6572,M,8.297,M,00,0004*6F
$GPHPD,1957,34735.600,62.96,-1.61,14.89,31.5922907,120.7732452,2.657,13630207.265,24921850.976,2.657,-4.445,-4.150,2.729,0.646,1.564,0.840,0.000,16,14,4*5B
$GPGGA,093838.00,3135.5377857,N,12046.3954788,E,4,16,2.3,2.6496,M,8.298,M,01,0004*62
$GPHPD,1957,34735.800,62.17,-0.50,14.94,31.5922964,120.7732580,2.650,13630203.950,24921858.204,2.650,-4.387,-4.594,2.508,0.646,1.564,0.840,0.000,16,14,4*53
$GPGGA,093838.20,3135.5381124,N,12046.3962469,E,4,16,2.3,2.6519,M,8.298,M,01,0004*6B
$GPHPD,1957,34736.000,63.40,0.91,15.04,31.5923019,120.7732708,2.652,13630200.852,24921865.564,2.652,-4.316,-4.619,2.617,0.646,1.564,0.840,0.000,16,14,4*7F
$GPGGA,093838.40,3135.5384403,N,12046.3970111,E,4,16,2.3,2.7015,M,8.298,M,01,0004*69
$GPHPD,1957,34736.200,62.91,0.74,14.69,31.5923073,120.7732835,2.702,13630197.730,24921872.869,2.702,-4.451,-4.330,2.653,0.646,1.564,0.840,0.000,16,14,4*76
$GPGGA,093838.60,3135.5387660,N,12046.3978177,E,4,16,2.0,2.5595,M,8.298,M,00,0004*6A
$GPHPD,1957,34736.400,62.97,-0.06,14.32,31.5923128,120.7732970,2.560,13630194.724,24921880.698,2.560,-4.450,-4.489,2.565,0.646,1.564,0.840,0.000,16,14,4*56
$GPGGA,093838.80,3135.5390928,N,12046.3985892,E,4,16,2.0,2.5304,M,8.298,M,00,0004*6F
$GPHPD,1957,34736.600,62.89,1.33,14.34,31.5923182,120.7733098,2.530,13630191.632,24921888.098,2.530,-4.396,-4.527,2.572,0.646,1.564,0.840,0.000,16,14,4*7A
$GPGGA,093839.00,3135.5394239,N,12046.3993653,E,4,16,2.0,2.4958,M,8.298,M,01,0004*6E
$GPHPD,1957,34736.800,62.98,0.08,14.64,31.5923237,120.7733228,2.496,13630188.489,24921895.528,2.496,-4.392,-4.208,2.674,0.646,1.564,0.840,0.000,16,14,4*7F
$GPGGA,093839.20,3135.5397559,N,12046.4001328,E,4,16,2.0,2.5012,M,8.298,M,01,0004*64
$GPHPD,1957,34737.000,63.03,0.24,14.81,31.5923293,120.7733355,2.501,13630185.315,24921902.850,2.501,-4.396,-4.526,2.543,0.646,1.564,0.840,0.000,16,14,4*7F
$GPGGA,093839.40,3135.5400829,N,12046.4008914,E,4,16,2.0,2.5183,M,8.298,M,01,0004*64
$GPHPD,1957,34737.200,62.83,1.00,14.64,31.5923347,120.7733482,2.518,13630182.194,24921910.093,2.518,-4.401,-4.489,2.615,0.646,1.564,0.840,0.000,16,14,4*78
$GPGGA,093839.60,3135.5404103,N,12046.4016464,E,4,16,2.0,2.5255,M,8.298,M,00,0004*6F
$GPHPD,1957,34737.400,62.81,0.21,14.24,31.5923402,120.7733608,2.526,13630179.060,24921917.290,2.526,-4.401,-4.367,2.664,0.646,1.564,0.840,0.000,16,15,4*74
$GPGGA,093839.80,3135.5407320,N,12046.4023911,E,4,16,2.0,2.5231,M,8.298,M,00,0004*6A
$GPHPD,1957,34737.600,62.88,-0.38,14.02,31.5923455,120.7733732,2.523,13630175.987,24921924.397,2.523,-4.347,-4.308,2.652,0.646,1.564,0.840,0.000,16,15,4*57
$GPGGA,093840.00,3135.5410524,N,12046.4031191,E,4,16,2.0,2.5386,M,8.298,M,01,0004*67
$GPHPD,1957,34737.800,62.82,0.39,13.89,31.5923509,120.7733853,2.539,13630172.898,24921931.309,2.539,-4.246,-4.479,2.467,0.646,1.564,0.840,0.000,16,15,4*75
$GPGGA,093840.20,3135.5413694,N,12046.4038377,E,4,16,2.0,2.5564,M,8.298,M,01,0004*67
$GPHPD,1957,34738.000,62.54,0.64,13.74,31.5923562,120.7733973,2.556,13630169.839,24921938.128,2.556,-4.176,-4.316,2.503,0.646,1.564,0.840,0.000,16,15,4*79
$GPGGA,093840.40,3135.5416825,N,12046.4045433,E,4,16,2.0,2.5598,M,8.298,M,01,0004*6E
$GPHPD,1957,34738.200,62.32,1.00,13.55,31.5923614,120.7734091,2.560,13630166.809,24921944.813,2.560,-4.124,-4.235,2.509,0.646,1.564,0.840,0.000,16,14,4*71
$GPGGA,093840.60,3135.5419852,N,12046.4052496,E,4,16,2.0,2.5206,M,8.298,M,00,0004*6B
$GPHPD,1957,34738.400,62.72,-1.01,13.40,31.5923664,120.7734208,2.521,13630163.929,24921951.567,2.521,-4.034,-4.008,2.537,0.646,1.564,0.840,0.000,16,15,4*52
$GPGGA,093840.80,3135.5422846,N,12046.4059326,E,4,16,2.0,2.5371,M,8.298,M,00,0004*6E
$GPHPD,1957,34738.600,62.54,0.12,13.40,31.5923714,120.7734322,2.537,13630161.048,24921958.059,2.537,-3.961,-4.140,2.362,0.646,1.564,0.840,0.000,16,15,4*7D
$GPGGA,093841.00,3135.5425878,N,12046.4066161,E,4,16,2.0,2.4939,M,8.298,M,01,0004*66
$GPHPD,1957,34738.800,62.13,0.43,13.54,31.5923765,120.7734436,2.494,13630158.114,24921964.535,2.494,-3.915,-4.029,2.350,0.646,1.564,0.840,0.000,16,15,4*7B
$GPGGA,093841.20,3135.5428900,N,12046.4072900,E,4,16,2.0,2.5150,M,8.298,M,01,0004*6B
$GPHPD,1957,34739.000,61.95,1.16,13.52,31.5923815,120.7734548,2.515,13630155.176,24921970.902,2.515,-3.845,-3.902,2.428,0.646,1.564,0.840,0.000,16,15,4*77
$GPGGA,093841.40,3135.5431909,N,12046.4079473,E,4,16,2.0,2.5460,M,8.298,M,01,0004*68
$GPHPD,1957,34739.200,62.00,0.32,13.41,31.5923865,120.7734658,2.546,13630152.222,24921977.075,2.546,-3.855,-3.923,2.432,0.646,1.564,0.840,0.000,16,15,4*78
$GPGGA,093841.60,3135.5434772,N,12046.4086350,E,4,16,2.0,2.5121,M,8.298,M,00,0004*6A
$GPHPD,1957,34739.400,62.66,-0.05,13.42,31.5923913,120.7734773,2.512,13630149.537,24921983.700,2.512,-3.811,-4.024,2.317,0.646,1.564,0.840,0.000,16,15,4*52
$GPGGA,093841.80,3135.5437624,N,12046.4093187,E,4,16,2.0,2.4823,M,8.298,M,00,0004*63
$GPHPD,1957,34739.600,63.01,0.00,13.44,31.5923960,120.7734886,2.482,13630146.859,24921990.284,2.482,-3.888,-4.012,2.217,0.646,1.564,0.840,0.000,16,15,4*7A
$GPGGA,093842.00,3135.5440425,N,12046.4099814,E,4,16,2.0,2.5475,M,8.298,M,01,0004*6D
$GPHPD,1957,34739.800,63.78,0.64,13.40,31.5924007,120.7734997,2.548,13630144.212,24921996.643,2.548,-3.908,-3.924,2.242,0.646,1.564,0.840,0.000,16,14,4*7F
$GPGGA,093842.20,3135.5443115,N,12046.4106806,E,4,16,2.0,2.4963,M,8.298,M,01,0004*65
$GPHPD,1957,34740.000,64.13,1.42,13.49,31.5924052,120.7735113,2.496,13630141.796,24922003.508,2.496,-3.936,-3.941,2.168,0.646,1.564,0.840,0.000,16,14,4*79
$GPGGA,093842.40,3135.5445771,N,12046.4113551,E,4,15,2.0,2.5428,M,8.298,M,01,0004*6A
$GPHPD,1957,34740.200,64.87,-0.16,13.71,31.5924096,120.7735226,2.543,13630139.379,24922010.094,2.543,-3.993,-3.648,2.280,0.646,1.564,0.840,0.000,15,14,4*5A
$GPGGA,093842.60,3135.5448454,N,12046.4120435,E,4,16,2.0,2.5453,M,8.299,M,00,0004*6D
$GPHPD,1957,34740.400,65.10,-0.75,13.73,31.5924141,120.7735341,2.545,13630136.951,24922016.833,2.545,-4.016,-3.739,2.159,0.707,1.676,0.964,0.000,16,14,4*50
$GPGGA,093842.80,3135.5451065,N,12046.4127445,E,4,16,2.0,2.5046,M,8.299,M,00,0004*6D
$GPHPD,1957,34740.600,65.84,0.67,13.64,31.5924184,120.7735457,2.505,13630134.651,24922023.765,2.505,-3.990,-4.135,1.995,0.646,1.563,0.840,0.000,16,14,4*7B
$GPGGA,093843.00,3135.5453630,N,12046.4134441,E,4,16,2.0,2.4641,M,8.299,M,01,0004*67
$GPHPD,1957,34740.800,65.70,1.17,13.64,31.5924227,120.7735574,2.464,13630132.413,24922030.707,2.464,-4.049,-3.857,2.070,0.646,1.563,0.840,0.000,16,14,4*77
$GPGGA,093843.20,3135.5456281,N,12046.4141109,E,4,16,2.0,2.5444,M,8.299,M,01,0004*63
$GPHPD,1957,34741.000,65.58,0.92,13.67,31.5924271,120.7735685,2.544,13630129.987,24922037.204,2.544,-4.066,-3.675,2.144,0.646,1.563,0.840,0.000,16,14,4*7B
$GPGGA,093843.40,3135.5458822,N,12046.4148102,E,4,16,2.0,2.5199,M,8.299,M,01,0004*6F
$GPHPD,1957,34741.200,66.01,-0.53,13.63,31.5924314,120.7735802,2.520,13630127.783,24922044.156,2.520,-3.996,-4.070,1.955,0.646,1.563,0.840,0.000,16,14,4*5B
$GPGGA,093843.60,3135.5461457,N,12046.4154971,E,4,16,2.0,2.5180,M,8.299,M,00,0004*61
$GPHPD,1957,34741.400,65.44,-0.09,13.59,31.5924358,120.7735916,2.518,13630125.421,24922050.904,2.518,-4.046,-3.959,1.964,0.646,1.563,0.840,0.000,16,14,4*52
$GPGGA,093843.80,3135.5464055,N,12046.4161916,E,4,16,2.0,2.4849,M,8.299,M,00,0004*66
$GPHPD,1957,34741.600,65.72,0.25,13.66,31.5924401,120.7736032,2.485,13630123.126,24922057.765,2.485,-4.018,-3.907,2.021,0.646,1.563,0.840,0.000,16,14,4*7C
$GPGGA,093844.00,3135.5466661,N,12046.4168758,E,4,16,2.0,2.5104,M,8.299,M,01,0004*67
$GPHPD,1957,34741.800,65.84,0.70,13.72,31.5924444,120.7736146,2.510,13630120.799,24922064.498,2.510,-4.014,-3.891,2.030,0.707,1.676,0.964,0.000,16,14,4*7B
$GPGGA,093844.20,3135.5469308,N,12046.4175477,E,4,16,2.0,2.5704,M,8.299,M,01,0004*64
$GPHPD,1957,34742.000,65.71,0.90,13.67,31.5924488,120.7736258,2.570,13630118.389,24922071.058,2.570,-4.045,-3.802,2.085,0.646,1.563,0.840,0.000,16,14,4*7A
$GPGGA,093844.40,3135.5471931,N,12046.4182278,E,4,16,2.0,2.6143,M,8.299,M,01,0004*6C
$GPHPD,1957,34742.200,65.72,1.44,13.63,31.5924532,120.7736371,2.614,13630116.030,24922077.732,2.614,-3.991,-4.007,2.006,0.707,1.676,0.964,0.000,16,14,4*7D
$GPGGA,093844.60,3135.5474537,N,12046.4189325,E,4,16,2.0,2.5532,M,8.299,M,00,0004*63
$GPHPD,1957,34742.400,65.77,1.28,13.66,31.5924576,120.7736489,2.553,13630113.744,24922084.711,2.553,-4.034,-4.184,1.866,0.646,1.563,0.840,0.000,16,14,4*7F
$GPGGA,093844.80,3135.5477178,N,12046.4196413,E,4,16,2.0,2.5147,M,8.299,M,00,0004*6B
$GPHPD,1957,34742.600,65.65,-0.07,13.60,31.5924620,120.7736607,2.515,13630111.417,24922091.720,2.515,-3.996,-4.080,1.972,0.646,1.563,0.840,0.000,16,14,4*5B
$GPGGA,093845.00,3135.5479971,N,12046.4203379,E,4,16,2.2,2.5492,M,8.299,M,01,0004*67
$GPHPD,1957,34742.800,65.29,1.16,13.58,31.5924666,120.7736723,2.549,13630108.850,24922098.493,2.549,-4.044,-3.979,2.047,0.646,1.563,0.840,0.000,16,14,4*7F
$GPGGA,093845.20,3135.5482591,N,12046.4209851,E,4,16,2.5,2.7151,M,8.299,M,01,0004*67
$GPHPD,1957,34743.000,65.38,1.92,13.69,31.5924710,120.7736831,2.715,13630106.428,24922104.771,2.715,-4.095,-3.872,2.091,0.646,1.563,0.840,0.000,16,14,4*7F
$GPGGA,093845.40,3135.5485302,N,12046.4216880,E,4,16,2.5,2.6916,M,8.299,M,01,0004*62
$GPHPD,1957,34743.200,65.26,0.17,13.69,31.5924755,120.7736948,2.692,13630103.990,24922111.668,2.692,-4.140,-3.678,2.151,0.646,1.563,0.840,0.000,16,14,4*76
$GPGGA,093845.60,3135.5487913,N,12046.4223763,E,4,16,2.4,2.7212,M,8.299,M,00,0004*62
$GPHPD,1957,34743.400,64.71,0.08,13.61,31.5924799,120.7737063,2.721,13630101.664,24922118.447,2.721,-4.069,-4.032,2.087,0.713,1.688,1.037,0.000,16,14,4*75
$GPGGA,093845.80,3135.5490659,N,12046.4230749,E,4,16,2.4,2.7139,M,8.299,M,00,0004*6B
$GPHPD,1957,34743.600,65.12,0.14,13.65,31.5924844,120.7737179,2.714,13630099.167,24922125.272,2.714,-4.080,-4.009,2.145,0.713,1.688,1.037,0.000,16,14,4*75
$GPGGA,093846.00,3135.5493391,N,12046.4237710,E,4,16,2.4,2.6995,M,8.299,M,01,0004*67
$GPHPD,1957,34743.800,65.36,-0.10,13.76,31.5924890,120.7737295,2.700,13630096.685,24922132.075,2.700,-4.050,-4.038,2.151,0.713,1.688,1.037,0.000,16,14,4*53
$GPGGA,093846.20,3135.5496255,N,12046.4244587,E,4,16,2.4,2.7129,M,8.299,M,01,0004*6F
$GPHPD,1957,34744.000,64.16,0.68,13.77,31.5924938,120.7737410,2.713,13630093.999,24922138.699,2.713,-4.043,-3.965,2.131,0.713,1.688,1.037,0.000,16,14,4*7F
$GPGGA,093846.40,3135.5499117,N,12046.4251462,E,4,16,2.4,2.7420,M,8.299,M,01,0004*61
$GPHPD,1957,34744.200,63.67,0.64,13.67,31.5924985,120.7737524,2.742,13630091.315,24922145.322,2.742,-3.999,-3.929,2.270,0.713,1.688,1.037,0.000,16,14,4*75
$GPGGA,093846.60,3135.5502162,N,12046.4258339,E,4,16,2.4,2.7286,M,8.299,M,00,0004*69
$GPHPD,1957,34744.400,62.77,0.61,13.55,31.5925036,120.7737639,2.729,13630088.371,24922151.842,2.729,-4.008,-3.951,2.294,0.646,1.563,0.840,0.000,16,14,4*77
$GPGGA,093846.80,3135.5505324,N,12046.4265113,E,4,16,2.4,2.7425,M,8.299,M,00,0004*6B
$GPHPD,1957,34744.600,61.77,-0.15,13.49,31.5925089,120.7737752,2.743,13630085.240,24922158.168,2.743,-3.929,-4.013,2.385,0.646,1.563,0.840,0.000,16,14,4*5F
$GPGGA,093847.00,3135.5508503,N,12046.4271916,E,4,16,2.4,2.7272,M,8.299,M,01,0004*61
$GPHPD,1957,34744.800,61.27,-0.49,13.57,31.5925142,120.7737865,2.727,13630082.091,24922164.520,2.727,-3.867,-4.030,2.489,0.646,1.563,0.840,0.000,16,14,4*50
$GPGGA,093847.20,3135.5511848,N,12046.4278583,E,4,16,2.4,2.7402,M,8.299,M,01,0004*61
$GPHPD,1957,34745.000,59.41,3.42,13.67,31.5925197,120.7737976,2.740,13630078.679,24922170.612,2.740,-3.800,-4.039,2.533,0.646,1.563,0.840,0.000,16,14,4*75
$GPGGA,093847.40,3135.5515299,N,12046.4285330,E,4,16,2.4,2.7273,M,8.299,M,01,0004*69
$GPHPD,1957,34745.200,59.47,-0.64,13.58,31.5925255,120.7738089,2.727,13630075.132,24922176.738,2.727,-3.743,-4.243,2.533,0.646,1.563,0.840,0.000,16,14,4*51
$GPGGA,093847.60,3135.5518882,N,12046.4291982,E,4,16,2.4,2.7422,M,8.300,M,00,0004*62
$GPHPD,1957,34745.400,57.68,0.57,13.47,31.5925315,120.7738200,2.742,13630071.378,24922182.673,2.742,-3.655,-4.373,2.606,0.646,1.563,0.840,0.000,16,14,4*7D
$GPGGA,093847.80,3135.5522517,N,12046.4298528,E,4,16,2.4,2.7494,M,8.300,M,00,0004*6C
$GPHPD,1957,34745.600,57.44,-0.28,13.45,31.5925375,120.7738309,2.749,13630067.529,24922188.449,2.749,-3.645,-4.090,2.867,0.707,1.676,0.964,0.000,16,14,4*5E
$GPGGA,093848.00,3135.5526228,N,12046.4305022,E,4,16,2.4,2.7494,M,8.300,M,01,0004*6F
$GPHPD,1957,34745.800,56.31,0.29,13.52,31.5925437,120.7738417,2.749,13630063.562,24922194.119,2.749,-3.567,-4.259,2.800,0.646,1.563,0.840,0.000,16,14,4*77
$GPGGA,093848.20,3135.5530065,N,12046.4311452,E,4,16,2.4,2.7516,M,8.300,M,01,0004*6C
$GPHPD,1957,34746.000,55.12,0.59,13.64,31.5925501,120.7738524,2.752,13630059.403,24922199.638,2.752,-3.495,-4.173,2.957,0.646,1.563,0.840,0.000,16,14,4*7B
$GPGGA,093848.40,3135.5533981,N,12046.4317853,E,4,16,2.4,2.7619,M,8.300,M,01,0004*6D
$GPHPD,1957,34746.200,54.60,0.84,13.70,31.5925566,120.7738631,2.762,13630055.125,24922205.076,2.762,-3.432,-4.164,3.046,0.707,1.676,0.964,0.000,16,14,4*7E
$GPGGA,093848.60,3135.5537946,N,12046.4324287,E,4,16,2.4,2.7604,M,8.300,M,00,0004*6E
$GPHPD,1957,34746.400,54.11,0.29,13.40,31.5925632,120.7738738,2.760,13630050.785,24922210.526,2.760,-3.369,-4.224,3.098,0.707,1.676,0.964,0.000,16,14,4*70
$GPGGA,093848.80,3135.5541877,N,12046.4330663,E,4,16,2.4,2.7508,M,8.300,M,00,0004*66
$GPHPD,1957,34746.600,53.71,0.31,13.14,31.5925698,120.7738844,2.751,13630046.481,24922215.925,2.751,-3.376,-4.221,3.124,0.646,1.563,0.840,0.000,16,14,4*7C
$GPGGA,093849.00,3135.5545763,N,12046.4337331,E,4,16,2.1,2.6272,M,8.300,M,01,0004*6B
$GPHPD,1957,34746.800,54.20,-0.10,13.33,31.5925763,120.7738956,2.627,13630042.300,24922221.703,2.627,-3.365,-4.163,3.111,0.646,1.563,0.840,0.000,16,14,4*5B
$GPGGA,093849.20,3135.5549544,N,12046.4343791,E,4,16,2.1,2.6055,M,8.300,M,01,0004*68
$GPHPD,1957,34747.000,54.60,0.34,13.50,31.5925826,120.7739063,2.606,13630038.226,24922227.291,2.606,-3.364,-4.007,3.172,0.646,1.563,0.840,0.000,16,14,4*7F
$GPGGA,093849.40,3135.5553263,N,12046.4350330,E,4,16,2.1,2.6023,M,8.300,M,01,0004*6B
$GPHPD,1957,34747.200,55.25,0.54,13.50,31.5925888,120.7739172,2.602,13630034.257,24922233.010,2.602,-3.414,-4.166,3.000,0.646,1.563,0.840,0.000,16,14,4*78
$GPGGA,093849.60,3135.5556945,N,12046.4356822,E,4,16,2.1,2.6050,M,8.300,M,00,0004*68
$GPHPD,1957,34747.400,56.16,0.28,13.46,31.5925949,120.7739280,2.605,13630030.330,24922238.694,2.605,-3.510,-4.114,2.954,0.646,1.563,0.840,0.000,16,15,4*7E
$GPGGA,093849.80,3135.5560504,N,12046.4363338,E,4,16,2.1,2.6159,M,8.300,M,00,0004*64
$GPHPD,1957,34747.600,56.86,0.44,13.50,31.5926008,120.7739389,2.616,13630026.583,24922244.479,2.616,-3.531,-4.061,2.966,0.646,1.563,0.840,0.000,16,15,4*7D
$GPGGA,093850.00,3135.5563933,N,12046.4370056,E,4,16,2.1,2.5895,M,8.300,M,01,0004*6D
$GPHPD,1957,34747.800,57.87,0.53,13.48,31.5926066,120.7739501,2.590,13630023.062,24922250.583,2.590,-3.575,-4.119,2.816,0.707,1.676,0.964,0.000,16,15,4*70
$GPGGA,093850.20,3135.5567296,N,12046.4376827,E,4,16,2.1,2.5568,M,8.300,M,01,0004*68
$GPHPD,1957,34748.000,58.89,-0.21,13.44,31.5926122,120.7739614,2.557,13630019.645,24922256.789,2.557,-3.663,-4.106,2.716,0.646,1.563,0.840,0.000,16,15,4*51
$GPGGA,093850.40,3135.5570477,N,12046.4383562,E,4,16,2.1,2.5583,M,8.300,M,01,0004*62
$GPHPD,1957,34748.200,60.14,0.85,13.61,31.5926175,120.7739726,2.558,13630016.479,24922263.058,2.558,-3.718,-4.092,2.637,0.646,1.563,0.840,0.000,16,15,4*76
$GPGGA,093850.60,3135.5573526,N,12046.4390464,E,4,16,2.1,2.5455,M,8.300,M,00,0004*68
$GPHPD,1957,34748.400,61.87,0.27,13.82,31.5926225,120.7739841,2.546,13630013.535,24922269.605,2.546,-3.799,-4.077,2.492,0.646,1.563,0.840,0.000,16,15,4*71
$GPGGA,093850.80,3135.5576340,N,12046.4397383,E,4,16,2.1,2.5744,M,8.300,M,00,0004*6F
$GPHPD,1957,34748.600,63.60,0.06,13.96,31.5926272,120.7739956,2.574,13630010.927,24922276.309,2.574,-3.921,-4.050,2.358,0.646,1.563,0.840,0.000,16,15,4*79
$GPGGA,093851.00,3135.5578991,N,12046.4404422,E,4,16,2.1,2.5844,M,8.300,M,01,0004*61
$GPHPD,1957,34748.800,65.09,0.92,14.11,31.5926317,120.7740074,2.584,13630008.576,24922283.253,2.584,-4.032,-4.016,2.214,0.707,1.676,0.964,0.000,16,15,4*78
$GPGGA,093851.20,3135.5581460,N,12046.4411592,E,4,16,2.1,2.5652,M,8.300,M,01,0004*61
$GPHPD,1957,34749.000,66.87,0.58,14.25,31.5926358,120.7740193,2.565,13630006.510,24922290.461,2.565,-4.145,-3.919,2.108,0.707,1.676,0.964,0.000,16,15,4*73
$GPGGA,093851.40,3135.5583772,N,12046.4418848,E,4,16,2.1,2.5433,M,8.300,M,01,0004*63
$GPHPD,1957,34749.200,68.50,0.99,14.30,31.5926396,120.7740314,2.543,13630004.684,24922297.863,2.543,-4.259,-3.854,1.975,0.646,1.563,0.840,0.000,16,15,4*75
$GPGGA,093851.60,3135.5585772,N,12046.4426157,E,4,16,2.0,2.5286,M,8.300,M,00,0004*65
$GPHPD,1957,34749.400,70.26,1.27,14.29,31.5926430,120.7740436,2.529,13630003.312,24922305.512,2.529,-4.334,-3.885,1.790,0.646,1.563,0.840,0.000,16,15,4*74
$GPGGA,093851.80,3135.5587775,N,12046.4433424,E,4,16,2.0,2.5139,M,8.300,M,00,0004*6C
$GPHPD,1957,34749.600,71.18,0.37,14.17,31.5926463,120.7740557,2.514,13630001.928,24922313.108,2.514,-4.447,-3.894,1.593,0.707,1.676,0.964,0.000,16,15,4*78
$GPGGA,093852.00,3135.5589642,N,12046.4440330,E,4,16,2.0,2.6205,M,8.300,M,01,0004*64
$GPHPD,1957,34749.800,71.97,0.20,14.01,31.5926494,120.7740672,2.621,13630000.664,24922320.348,2.621,-4.424,-3.665,1.604,0.707,1.676,0.964,0.000,16,15,4*74
$GPGGA,093852.20,3135.5591462,N,12046.4447577,E,4,16,2.0,2.5535,M,8.300,M,01,0004*6A
$GPHPD,1957,34750.000,72.28,-0.82,13.88,31.5926524,120.7740793,2.554,13629999.536,24922328.026,2.554,-4.429,-3.679,1.492,0.707,1.676,0.964,0.000,16,15,4*5F
$GPGGA,093852.40,3135.5593288,N,12046.4454601,E,4,16,2.0,2.5216,M,8.300,M,01,0004*6A
$GPHPD,1957,34750.200,72.36,-0.97,13.72,31.5926555,120.7740910,2.522,13629998.354,24922335.432,2.522,-4.376,-3.650,1.429,0.646,1.563,0.840,0.000,16,15,4*5C
$GPGGA,093852.60,3135.5595112,N,12046.4461392,E,4,16,2.0,2.5292,M,8.301,M,00,0004*6B
$GPHPD,1957,34750.400,72.27,0.35,13.58,31.5926585,120.7741023,2.529,13629997.128,24922342.558,2.529,-4.275,-3.628,1.398,0.597,1.128,0.807,0.000,16,15,4*7E
$GPGGA,093852.80,3135.5597006,N,12046.4468172,E,4,16,2.0,2.5152,M,8.301,M,00,0004*69
$GPHPD,1957,34750.600,71.74,0.62,13.45,31.5926617,120.7741136,2.515,13629995.800,24922349.630,2.515,-4.193,-3.465,1.453,0.597,1.128,0.807,0.000,16,15,4*7D
$GPGGA,093853.00,3135.5598909,N,12046.4474742,E,4,16,2.0,2.5474,M,8.301,M,01,0004*61
$GPHPD,1957,34750.800,71.25,1.47,13.28,31.5926648,120.7741246,2.547,13629994.418,24922356.444,2.547,-4.094,-3.514,1.466,0.597,1.128,0.807,0.000,16,15,4*78
$GPGGA,093853.20,3135.5600820,N,12046.4481270,E,4,16,2.0,2.5346,M,8.301,M,01,0004*63
$GPHPD,1957,34751.000,70.87,-0.62,13.09,31.5926680,120.7741355,2.535,13629993.015,24922363.202,2.535,-4.050,-3.364,1.569,0.597,1.128,0.807,0.000,16,15,4*5C
$GPGGA,093853.40,3135.5602814,N,12046.4487705,E,4,16,2.0,2.4895,M,8.301,M,01,0004*65
$GPHPD,1957,34751.200,69.94,-0.88,13.04,31.5926714,120.7741462,2.490,13629991.476,24922369.800,2.490,-3.950,-3.490,1.494,0.597,1.128,0.807,0.000,16,15,4*52
$GPGGA,093853.60,3135.5604867,N,12046.4493778,E,4,16,2.0,2.5521,M,8.301,M,00,0004*68
$GPHPD,1957,34751.400,68.88,-0.25,12.96,31.5926748,120.7741563,2.552,13629989.781,24922375.928,2.552,-3.831,-3.558,1.470,0.597,1.128,0.807,0.000,16,15,4*51
$GPGGA,093853.80,3135.5606932,N,12046.4499868,E,4,16,2.0,2.5563,M,8.301,M,00,0004*67
$GPHPD,1957,34751.600,68.61,0.48,12.84,31.5926782,120.7741664,2.556,13629988.071,24922382.068,2.556,-3.710,-3.400,1.604,0.597,1.128,0.807,0.000,16,15,4*7E
$GPGGA,093854.00,3135.5609031,N,12046.4505869,E,4,16,2.0,2.5252,M,8.301,M,01,0004*6C
$GPHPD,1957,34751.800,67.53,1.13,12.72,31.5926817,120.7741764,2.525,13629986.296,24922388.082,2.525,-3.635,-3.362,1.615,0.597,1.128,0.807,0.000,16,15,4*74
$GPGGA,093854.20,3135.5611185,N,12046.4511455,E,4,16,2.0,2.6210,M,8.301,M,01,0004*6A
$GPHPD,1957,34752.000,66.38,1.92,12.75,31.5926853,120.7741858,2.621,13629984.358,24922393.563,2.621,-3.511,-3.308,1.702,0.597,1.128,0.807,0.000,16,15,4*72
$GPGGA,093854.40,3135.5613360,N,12046.4517423,E,4,16,2.0,2.5388,M,8.301,M,01,0004*63
$GPHPD,1957,34752.200,65.94,-1.39,12.81,31.5926889,120.7741957,2.539,13629982.468,24922399.493,2.539,-3.446,-3.052,1.782,0.597,1.128,0.807,0.000,16,15,4*5A
$GPGGA,093854.60,3135.5615630,N,12046.4523247,E,4,16,2.0,2.4987,M,8.301,M,00,0004*61
$GPHPD,1957,34752.400,65.19,-0.55,12.71,31.5926927,120.7742054,2.499,13629980.414,24922405.193,2.499,-3.339,-3.446,1.612,0.597,1.128,0.807,0.000,16,15,4*59
$GPGGA,093854.80,3135.5617956,N,12046.4528768,E,4,16,2.1,2.5530,M,8.301,M,00,0004*61
$GPHPD,1957,34752.600,64.76,0.29,12.61,31.5926966,120.7742146,2.553,13629978.219,24922410.496,2.553,-3.288,-3.391,1.708,0.643,1.198,0.911,0.000,16,15,4*70
$GPGGA,093855.00,3135.5620156,N,12046.4534314,E,4,16,2.1,2.5677,M,8.301,M,01,0004*67
$GPHPD,1957,34752.800,64.81,0.79,12.53,31.5927003,120.7742239,2.568,13629976.208,24922415.902,2.568,-3.250,-3.256,1.819,0.597,1.128,0.807,0.000,16,15,4*7E
$GPGGA,093855.20,3135.5622369,N,12046.4539714,E,4,16,2.0,2.5885,M,8.301,M,01,0004*62
$GPHPD,1957,34753.000,63.97,0.39,12.45,31.5927039,120.7742329,2.589,13629974.149,24922421.125,2.589,-3.274,-3.114,1.793,0.597,1.128,0.807,0.000,16,15,4*7D
$GPGGA,093855.40,3135.5624697,N,12046.4545026,E,4,17,2.3,2.6633,M,8.301,M,01,0004*69
$GPHPD,1957,34753.200,63.20,0.71,12.41,31.5927078,120.7742417,2.663,13629971.910,24922426.174,2.663,-3.214,-3.106,1.772,0.597,1.128,0.807,0.000,17,15,4*7D
$GPGGA,093855.60,3135.5627011,N,12046.4550486,E,4,17,2.3,2.6590,M,8.301,M,00,0004*61
$GPHPD,1957,34753.400,63.32,-0.79,12.50,31.5927117,120.7742508,2.659,13629969.720,24922431.411,2.659,-3.180,-3.278,1.741,0.601,1.180,0.822,0.000,17,16,4*50
$GPGGA,093855.80,3135.5629347,N,12046.4555941,E,4,16,2.3,2.6503,M,8.301,M,00,0004*69
$GPHPD,1957,34753.600,63.06,-0.50,12.64,31.5927156,120.7742599,2.650,13629967.497,24922436.628,2.650,-3.143,-3.148,1.849,0.601,1.180,0.822,0.000,16,15,4*50
$GPGGA,093856.00,3135.5631694,N,12046.4561387,E,4,16,2.3,2.6495,M,8.301,M,01,0004*68
$GPHPD,1957,34753.800,62.67,1.37,12.71,31.5927195,120.7742690,2.650,13629965.258,24922441.828,2.650,-3.100,-3.299,1.764,0.644,1.272,0.941,0.000,16,15,4*7E
$GPGGA,093856.20,3135.5634032,N,12046.4566779,E,4,16,2.3,2.6611,M,8.301,M,01,0004*69
$GPHPD,1957,34754.000,62.87,0.57,12.78,31.5927234,120.7742780,2.661,13629963.020,24922446.968,2.661,-3.133,-3.146,1.842,0.601,1.180,0.822,0.000,16,15,4*71
$GPGGA,093856.40,3135.5636392,N,12046.4572200,E,4,16,2.3,2.6742,M,8.301,M,01,0004*6D
$GPHPD,1957,34754.200,62.47,0.47,12.88,31.5927273,120.7742870,2.674,13629960.756,24922452.131,2.674,-3.117,-3.108,1.882,0.601,1.180,0.822,0.000,16,15,4*76
$GPGGA,093856.60,3135.5638796,N,12046.4577543,E,4,16,2.3,2.7095,M,8.301,M,00,0004*69
$GPHPD,1957,34754.400,62.11,2.00,12.89,31.5927313,120.7742959,2.710,13629958.415,24922457.173,2.710,-3.121,-3.215,1.805,0.601,1.180,0.822,0.000,16,15,4*77
$GPGGA,093856.80,3135.5641145,N,12046.4583568,E,4,16,2.0,2.4840,M,8.301,M,00,0004*63
$GPHPD,1957,34754.600,62.51,-0.39,12.84,31.5927352,120.7743059,2.484,13629956.289,24922463.070,2.484,-3.089,-3.196,1.850,0.597,1.128,0.807,0.000,16,16,4*5D
$GPGGA,093857.00,3135.5643501,N,12046.4588752,E,4,16,2.0,2.5432,M,8.301,M,01,0004*65
$GPHPD,1957,34754.800,62.06,-0.48,12.71,31.5927392,120.7743146,2.543,13629953.983,24922467.949,2.543,-3.116,-3.109,1.893,0.597,1.128,0.807,0.000,16,16,4*53
$GPGGA,093857.20,3135.5645804,N,12046.4594024,E,4,16,2.0,2.5015,M,8.301,M,01,0004*63
$GPHPD,1957,34755.000,61.84,0.12,12.65,31.5927430,120.7743234,2.502,13629951.771,24922472.965,2.502,-3.047,-3.165,1.838,0.597,1.128,0.807,0.000,16,16,4*78
$GPGGA,093857.40,3135.5647990,N,12046.4599031,E,4,17,2.0,2.5246,M,8.301,M,01,0004*67
$GPHPD,1957,34755.200,62.57,0.29,12.65,31.5927467,120.7743317,2.525,13629949.672,24922477.730,2.525,-2.947,-3.122,1.770,0.597,1.128,0.807,0.000,17,16,4*74
$GPGGA,093857.60,3135.5650172,N,12046.4603965,E,4,17,2.0,2.5505,M,8.301,M,00,0004*6E
$GPHPD,1957,34755.400,62.76,0.01,12.47,31.5927503,120.7743399,2.551,13629947.563,24922482.408,2.551,-2.908,-3.044,1.697,0.617,1.130,0.807,0.000,17,16,4*71
$GPGGA,093857.80,3135.5652256,N,12046.4608709,E,4,17,2.0,2.5858,M,8.301,M,00,0004*6D
$GPHPD,1957,34755.600,62.22,0.88,12.36,31.5927538,120.7743478,2.586,13629945.556,24922486.915,2.586,-2.871,-2.879,1.700,0.617,1.130,0.807,0.000,17,16,4*73
$GPGGA,093858.00,3135.5654323,N,12046.4613478,E,4,17,1.6,2.5812,M,8.301,M,01,0004*6A
$GPHPD,1957,34755.800,61.97,2.30,12.34,31.5927572,120.7743558,2.581,13629943.578,24922491.462,2.581,-2.771,-2.770,1.701,0.617,1.130,0.807,0.000,17,16,4*77
$GPGGA,093858.20,3135.5656330,N,12046.4618115,E,4,17,1.6,2.6065,M,8.301,M,01,0004*66
$GPHPD,1957,34756.000,62.55,-1.24,12.35,31.5927606,120.7743635,2.607,13629941.659,24922495.884,2.607,-2.719,-2.626,1.700,0.617,1.130,0.807,0.000,17,16,4*5C
$GPGGA,093858.40,3135.5658353,N,12046.4622803,E,4,17,1.5,2.5508,M,8.302,M,01,0004*61
$GPHPD,1957,34756.200,62.18,-0.98,12.38,31.5927639,120.7743713,2.551,13629939.727,24922500.359,2.551,-2.701,-2.807,1.527,0.617,1.130,0.807,0.000,17,16,4*57
$GPGGA,093858.60,3135.5660348,N,12046.4627441,E,4,17,1.5,2.5280,M,8.302,M,00,0004*6B
$GPHPD,1957,34756.400,61.76,0.09,12.43,31.5927672,120.7743791,2.528,13629937.825,24922504.790,2.528,-2.630,-2.836,1.555,0.597,1.128,0.807,0.000,17,17,4*77
$GPGGA,093858.80,3135.5662438,N,12046.4631890,E,4,17,1.6,2.5810,M,8.302,M,00,0004*60
$GPHPD,1957,34756.600,62.32,0.94,12.58,31.5927707,120.7743865,2.581,13629935.750,24922508.938,2.581,-2.598,-2.778,1.560,0.597,1.128,0.807,0.000,17,17,4*72
$GPGGA,093859.00,3135.5664389,N,12046.4636597,E,4,17,1.6,2.5503,M,8.302,M,01,0004*61
$GPHPD,1957,34756.800,62.77,1.24,12.66,31.5927740,120.7743943,2.550,13629933.924,24922513.477,2.550,-2.556,-2.813,1.589,0.597,1.128,0.807,0.000,17,17,4*7C
$GPGGA,093859.20,3135.5666391,N,12046.4641179,E,4,17,1.6,2.5661,M,8.302,M,01,0004*6B
$GPHPD,1957,34757.000,62.47,0.33,12.77,31.5927773,120.7744020,2.566,13629932.001,24922517.836,2.566,-2.678,-2.614,1.608,0.597,1.128,0.807,0.000,17,17,4*74
$GPGGA,093859.40,3135.5668497,N,12046.4645673,E,4,17,1.6,2.6389,M,8.302,M,01,0004*6B
$GPHPD,1957,34757.200,61.97,1.94,12.94,31.5927808,120.7744095,2.639,13629929.912,24922522.029,2.639,-2.654,-2.655,1.598,0.597,1.128,0.807,0.000,17,16,4*75
$GPGGA,093859.60,3135.5670576,N,12046.4650609,E,4,17,1.6,2.5721,M,8.302,M,00,0004*63
$GPHPD,1957,34757.400,61.73,1.47,13.12,31.5927843,120.7744177,2.572,13629927.950,24922526.770,2.572,-2.673,-2.726,1.611,0.597,1.128,0.807,0.000,17,16,4*7F
$GPGGA,093859.80,3135.5672718,N,12046.4655416,E,4,17,1.6,2.5915,M,8.302,M,00,0004*65
$GPHPD,1957,34757.600,62.37,-0.08,13.20,31.5927879,120.7744257,2.592,13629925.873,24922531.319,2.592,-2.732,-2.543,1.807,0.597,1.128,0.807,0.000,17,16,4*53
$GPGGA,093900.00,3135.5674952,N,12046.4660343,E,4,17,1.6,2.6240,M,8.302,M,01,0004*6E
$GPHPD,1957,34757.800,62.01,-0.50,13.22,31.5927916,120.7744339,2.624,13629923.690,24922535.959,2.624,-2.770,-3.061,1.573,0.597,1.128,0.807,0.000,17,16,4*55
$GPGGA,093900.20,3135.5677235,N,12046.4665501,E,4,17,1.6,2.5742,M,8.302,M,01,0004*64
$GPHPD,1957,34758.000,61.79,-0.52,13.25,31.5927954,120.7744425,2.574,13629921.483,24922540.849,2.574,-2.867,-2.977,1.711,0.597,1.128,0.807,0.000,17,16,4*57
$GPGGA,093900.40,3135.5679494,N,12046.4670625,E,4,17,1.6,2.5823,M,8.302,M,01,0004*68
$GPHPD,1957,34758.200,62.22,0.63,13.32,31.5927992,120.7744510,2.582,13629919.303,24922545.712,2.582,-2.859,-3.034,1.797,0.597,1.128,0.807,0.000,17,16,4*70
$GPGGA,093900.60,3135.5681835,N,12046.4675860,E,4,17,1.6,2.5946,M,8.302,M,01,0004*62
$GPHPD,1957,34758.400,61.88,0.88,13.41,31.5928031,120.7744598,2.595,13629917.029,24922550.661,2.595,-2.939,-2.950,1.824,0.643,1.197,0.912,0.000,17,16,4*7E
$GPGGA,093900.80,3135.5684191,N,12046.4681109,E,4,17,1.6,2.6139,M,8.302,M,01,0004*60
$GPHPD,1957,34758.600,61.96,0.15,13.47,31.5928070,120.7744685,2.614,13629914.737,24922555.618,2.614,-3.019,-2.955,1.848,0.597,1.128,0.807,0.000,17,16,4*75
$GPGGA,093901.00,3135.5686477,N,12046.4686302,E,4,17,1.6,2.6037,M,8.302,M,02,0004*64
$GPHPD,1957,34758.800,62.34,0.12,13.40,31.5928108,120.7744772,2.604,13629912.533,24922560.549,2.604,-3.001,-3.132,1.829,0.597,1.128,0.807,0.000,17,16,4*70
$GPGGA,093901.20,3135.5688720,N,12046.4691454,E,4,17,1.6,2.5873,M,8.302,M,02,0004*60
$GPHPD,1957,34759.000,62.33,0.39,13.28,31.5928145,120.7744858,2.587,13629910.382,24922565.455,2.587,-2.948,-3.067,1.796,0.597,1.128,0.807,0.000,17,16,4*7F
$GPGGA,093901.40,3135.5690918,N,12046.4696424,E,4,17,1.6,2.5942,M,8.302,M,02,0004*69
$GPHPD,1957,34759.200,62.45,0.31,13.02,31.5928182,120.7744940,2.594,13629908.258,24922570.168,2.594,-2.919,-2.945,1.791,0.597,1.128,0.807,0.000,17,16,4*74
$GPGGA,093901.60,3135.5693041,N,12046.4701218,E,4,17,1.6,2.5913,M,8.302,M,02,0004*6F
$GPHPD,1957,34759.400,62.25,0.12,12.79,31.5928217,120.7745020,2.591,13629906.205,24922574.712,2.591,-2.861,-2.863,1.733,0.597,1.128,0.807,0.000,17,16,4*73
$GPGGA,093901.80,3135.5695107,N,12046.4705890,E,4,17,1.6,2.5870,M,8.302,M,00,0004*6C
$GPHPD,1957,34759.600,61.98,0.67,12.85,31.5928252,120.7745098,2.587,13629904.209,24922579.143,2.587,-2.725,-2.839,1.661,0.597,1.128,0.807,0.000,17,16,4*70
$GPGGA,093902.00,3135.5697271,N,12046.4710340,E,4,17,1.6,2.6411,M,8.302,M,01,0004*6C
$GPHPD,1957,34759.800,61.44,0.56,13.06,31.5928288,120.7745172,2.641,13629902.029,24922583.248,2.641,-2.622,-2.781,1.642,0.643,1.197,0.912,0.000,17,16,4*7E
$GPGGA,093902.20,3135.5699420,N,12046.4714802,E,4,17,1.6,2.6378,M,8.302,M,01,0004*63
$GPHPD,1957,34760.000,60.72,0.17,13.16,31.5928324,120.7745247,2.638,13629899.873,24922587.377,2.638,-2.594,-2.721,1.701,0.597,1.127,0.807,0.000,17,16,4*75
$GPGGA,093902.40,3135.5701635,N,12046.4719366,E,4,17,1.6,2.6118,M,8.302,M,01,0004*63
$GPHPD,1957,34760.200,60.20,0.41,13.42,31.5928361,120.7745323,2.612,13629897.643,24922591.591,2.612,-2.524,-2.675,1.715,0.597,1.127,0.807,0.000,17,16,4*74
$GPGGA,093902.60,3135.5703846,N,12046.4723909,E,4,17,1.6,2.5902,M,8.302,M,00,0004*62
$GPHPD,1957,34760.400,59.48,0.84,13.73,31.5928397,120.7745398,2.590,13629895.415,24922595.781,2.590,-2.496,-2.694,1.735,0.643,1.197,0.912,0.000,17,16,4*71
$GPGGA,093902.80,3135.5706185,N,12046.4728409,E,4,17,1.6,2.6004,M,8.302,M,00,0004*65
$GPHPD,1957,34760.600,58.71,1.31,13.94,31.5928436,120.7745473,2.600,13629892.996,24922599.845,2.600,-2.491,-2.778,1.765,0.597,1.127,0.807,0.000,17,16,4*7F
$GPGGA,093903.00,3135.5708671,N,12046.4732886,E,4,17,1.6,2.6308,M,8.302,M,01,0004*60
$GPHPD,1957,34760.800,58.12,1.24,14.04,31.5928478,120.7745548,2.631,13629890.364,24922603.796,2.631,-2.506,-2.684,1.921,0.597,1.127,0.807,0.000,17,16,4*7A
$GPGGA,093903.20,3135.5711208,N,12046.4737489,E,4,17,1.6,2.6573,M,8.302,M,01,0004*6C
$GPHPD,1957,34761.000,57.31,1.15,14.07,31.5928520,120.7745625,2.657,13629887.684,24922607.869,2.657,-2.512,-2.779,1.991,0.597,1.127,0.808,0.000,17,16,4*7C
$GPGGA,093903.40,3135.5713796,N,12046.4742193,E,4,17,1.6,2.6558,M,8.302,M,01,0004*6F
$GPHPD,1957,34761.200,56.82,1.06,14.06,31.5928563,120.7745703,2.656,13629884.952,24922612.034,2.656,-2.558,-2.862,2.033,0.597,1.127,0.808,0.000,17,16,4*7C
$GPGGA,093903.60,3135.5716498,N,12046.4746912,E,4,17,1.6,2.6737,M,8.302,M,00,0004*6A
$GPHPD,1957,34761.400,56.66,1.03,14.03,31.5928608,120.7745782,2.674,13629882.062,24922616.151,2.674,-2.577,-2.852,2.120,0.597,1.127,0.808,0.000,17,17,4*71
$GPGGA,093903.80,3135.5719171,N,12046.4751679,E,4,17,1.6,2.6840,M,8.302,M,00,0004*62
$GPHPD,1957,34761.600,56.56,0.78,14.22,31.5928653,120.7745861,2.684,13629879.222,24922620.343,2.684,-2.570,-2.928,2.159,0.597,1.127,0.808,0.000,17,17,4*71
$GPGGA,093904.00,3135.5721875,N,12046.4756556,E,4,17,1.6,2.6841,M,8.302,M,01,0004*62
$GPHPD,1957,34761.800,56.39,1.00,14.47,31.5928698,120.7745943,2.684,13629876.360,24922624.649,2.684,-2.604,-2.956,2.153,0.597,1.127,0.808,0.000,17,17,4*7D
$GPGGA,093904.20,3135.5724688,N,12046.4761445,E,4,17,1.6,2.7021,M,8.302,M,01,0004*61
$GPHPD,1957,34762.000,56.42,1.24,14.55,31.5928745,120.7746024,2.702,13629873.346,24922628.906,2.702,-2.642,-3.069,2.168,0.597,1.127,0.808,0.000,17,17,4*72
$GPGGA,093904.40,3135.5727535,N,12046.4766490,E,4,17,1.6,2.7081,M,8.302,M,01,0004*64
$GPHPD,1957,34762.200,56.37,1.17,14.44,31.5928792,120.7746108,2.708,13629870.315,24922633.331,2.708,-2.680,-3.103,2.232,0.597,1.127,0.808,0.000,17,17,4*79
$GPGGA,093904.60,3135.5730421,N,12046.4771606,E,4,17,1.6,2.7337,M,8.302,M,00,0004*60
$GPHPD,1957,34762.400,56.67,0.81,14.10,31.5928840,120.7746193,2.734,13629867.243,24922637.820,2.734,-2.742,-3.138,2.286,0.597,1.127,0.808,0.000,17,17,4*74
$GPGGA,093904.80,3135.5733306,N,12046.4776718,E,4,17,1.6,2.7468,M,8.302,M,00,0004*6B
$GPHPD,1957,34762.600,56.63,0.42,13.95,31.5928888,120.7746279,2.747,13629864.171,24922642.304,2.747,-2.793,-3.217,2.286,0.597,1.127,0.808,0.000,17,17,4*78
$GPGGA,093905.00,3135.5736214,N,12046.4781976,E,4,17,1.6,2.7491,M,8.302,M,01,0004*6C
$GPHPD,1957,34762.800,56.75,0.47,13.99,31.5928937,120.7746366,2.749,13629861.096,24922646.951,2.749,-2.811,-3.308,2.265,0.597,1.127,0.808,0.000,17,17,4*76
$GPGGA,093905.20,3135.5739176,N,12046.4787249,E,4,17,1.6,2.7647,M,8.302,M,01,0004*6E
$GPHPD,1957,34763.000,56.82,0.03,14.21,31.5928986,120.7746454,2.765,13629857.947,24922651.584,2.765,-2.846,-3.316,2.315,0.597,1.127,0.808,0.000,17,17,4*76
$GPGGA,093905.40,3135.5742173,N,12046.4792778,E,4,17,1.6,2.7235,M,8.303,M,01,0004*62
$GPHPD,1957,34763.200,56.98,0.46,14.27,31.5929036,120.7746546,2.724,13629854.800,24922656.506,2.724,-2.886,-3.405,2.316,0.597,1.127,0.808,0.000,17,17,4*7F
$GPGGA,093905.60,3135.5745178,N,12046.4798263,E,4,17,1.6,2.7241,M,8.303,M,00,0004*6B
$GPHPD,1957,34763.400,57.07,0.45,14.38,31.5929086,120.7746638,2.724,13629851.633,24922661.370,2.724,-2.935,-3.405,2.379,0.597,1.127,0.808,0.000,17,17,4*7A
$GPGGA,093905.80,3135.5748190,N,12046.4803864,E,4,17,1.6,2.7226,M,8.303,M,00,0004*6F
$GPHPD,1957,34763.600,57.14,0.42,14.37,31.5929137,120.7746731,2.723,13629848.480,24922666.370,2.723,-2.975,-3.447,2.387,0.597,1.127,0.808,0.000,17,17,4*77
$GPGGA,093906.00,3135.5751294,N,12046.4809459,E,4,17,1.6,2.7568,M,8.303,M,01,0004*6F
$GPHPD,1957,34763.800,57.25,0.45,14.05,31.5929188,120.7746824,2.757,13629845.194,24922671.309,2.757,-3.042,-3.526,2.382,0.597,1.127,0.808,0.000,17,17,4*78
$GPGGA,093906.20,3135.5754450,N,12046.4815235,E,4,17,1.6,2.7522,M,8.303,M,01,0004*69
$GPHPD,1957,34764.000,57.24,-0.10,13.91,31.5929241,120.7746921,2.752,13629841.871,24922676.436,2.752,-3.083,-3.562,2.459,0.597,1.127,0.808,0.000,17,17,4*55
$GPGGA,093906.40,3135.5757595,N,12046.4821098,E,4,17,1.6,2.7401,M,8.303,M,01,0004*66
$GPHPD,1957,34764.200,57.34,-0.16,14.21,31.5929293,120.7747018,2.740,13629838.580,24922681.674,2.740,-3.128,-3.624,2.474,0.597,1.127,0.808,0.000,17,17,4*5E
$GPGGA,093906.60,3135.5760851,N,12046.4827270,E,4,17,1.6,2.7288,M,8.303,M,01,0004*60
$GPHPD,1957,34764.400,57.38,0.01,14.11,31.5929348,120.7747121,2.729,13629835.195,24922687.220,2.729,-3.182,-3.740,2.466,0.597,1.127,0.808,0.000,17,17,4*7E
$GPGGA,093906.80,3135.5764204,N,12046.4833449,E,4,17,1.6,2.7308,M,8.303,M,00,0004*61
$GPHPD,1957,34764.600,57.44,-0.51,13.76,31.5929403,120.7747224,2.731,13629831.673,24922692.718,2.731,-3.343,-3.835,2.556,0.597,1.127,0.808,0.000,17,17,4*56
$GPGGA,093907.00,3135.5767557,N,12046.4839750,E,4,17,1.6,2.7274,M,8.303,M,01,0004*60
$GPHPD,1957,34764.800,57.73,-0.64,13.98,31.5929459,120.7747329,2.727,13629828.175,24922698.363,2.727,-3.376,-3.950,2.603,0.597,1.127,0.808,0.000,17,17,4*55
$GPGGA,093907.20,3135.5770900,N,12046.4846293,E,4,17,1.6,2.6894,M,8.303,M,01,0004*6D
$GPHPD,1957,34765.000,58.07,-0.04,14.53,31.5929515,120.7747438,2.689,13629824.740,24922704.306,2.689,-3.443,-4.019,2.581,0.597,1.127,0.808,0.000,17,17,4*58
$GPGGA,093907.40,3135.5774291,N,12046.4852967,E,4,17,1.5,2.6670,M,8.303,M,01,0004*6E
$GPHPD,1957,34765.200,58.45,0.03,14.77,31.5929572,120.7747549,2.667,13629821.264,24922710.379,2.667,-3.532,-4.045,2.620,0.597,1.127,0.808,0.000,17,17,4*7B
$GPGGA,093907.60,3135.5777737,N,12046.4859826,E,4,17,1.5,2.6583,M,8.303,M,00,0004*67
$GPHPD,1957,34765.400,58.89,0.22,14.91,31.5929629,120.7747664,2.658,13629817.746,24922716.643,2.658,-3.673,-4.175,2.639,0.597,1.127,0.808,0.000,17,17,4*71
$GPGGA,093907.80,3135.5781199,N,12046.4866835,E,4,17,1.5,2.6369,M,8.303,M,00,0004*6E
$GPHPD,1957,34765.600,59.35,0.16,14.95,31.5929687,120.7747781,2.637,13629814.236,24922723.079,2.637,-3.796,-4.183,2.694,0.597,1.127,0.808,0.000,17,17,4*74
$GPGGA,093908.00,3135.5784668,N,12046.4873873,E,4,17,1.5,2.6519,M,8.303,M,01,0004*63
$GPHPD,1957,34765.800,59.84,0.28,14.95,31.5929744,120.7747898,2.652,13629810.722,24922729.545,2.652,-3.864,-4.314,2.679,0.597,1.127,0.808,0.000,17,17,4*7D
$GPGGA,093908.20,3135.5788097,N,12046.4881089,E,4,17,1.5,2.6446,M,8.303,M,01,0004*60
$GPHPD,1957,34766.000,60.23,-0.20,15.08,31.5929802,120.7748018,2.645,13629807.301,24922736.249,2.645,-3.950,-4.300,2.714,0.597,1.127,0.808,0.000,17,17,4*5C
$GPGGA,093908.40,3135.5791513,N,12046.4888424,E,4,17,1.5,2.6407,M,8.303,M,01,0004*68
$GPHPD,1957,34766.200,60.65,0.02,14.93,31.5929859,120.7748140,2.641,13629803.921,24922743.104,2.641,-4.038,-4.387,2.664,0.597,1.127,0.808,0.000,17,17,4*7D
$GPGGA,093908.60,3135.5794943,N,12046.4895873,E,4,17,1.5,2.5987,M,8.303,M,00,0004*63
$GPHPD,1957,34766.400,61.03,-0.69,14.83,31.5929916,120.7748265,2.599,13629800.545,24922750.089,2.599,-4.136,-4.398,2.708,0.597,1.127,0.808,0.000,17,17,4*54
$GPGGA,093908.80,3135.5798322,N,12046.4903342,E,4,17,1.5,2.5965,M,8.303,M,00,0004*67
$GPHPD,1957,34766.600,61.26,0.13,15.22,31.5929972,120.7748389,2.597,13629797.246,24922757.127,2.597,-4.131,-4.509,2.634,0.597,1.127,0.808,0.000,17,17,4*7A
$GPGGA,093909.00,3135.5801738,N,12046.4910951,E,4,17,1.5,2.5805,M,8.303,M,01,0004*62
$GPHPD,1957,34766.800,61.63,-0.32,15.47,31.5930029,120.7748516,2.581,13629793.922,24922764.313,2.581,-4.218,-4.431,2.676,0.597,1.127,0.808,0.000,17,17,4*5B
$GPGGA,093909.20,3135.5805176,N,12046.4918655,E,4,17,1.5,2.5675,M,8.303,M,01,0004*62
$GPHPD,1957,34767.000,61.85,0.40,15.41,31.5930086,120.7748644,2.568,13629790.586,24922771.600,2.568,-4.297,-4.508,2.679,0.597,1.127,0.808,0.000,17,17,4*74
$GPGGA,093909.40,3135.5808631,N,12046.4926356,E,4,17,1.5,2.5866,M,8.303,M,01,0004*6A
$GPHPD,1957,34767.200,62.02,-0.01,15.36,31.5930144,120.7748773,2.587,13629787.225,24922778.874,2.587,-4.362,-4.540,2.710,0.597,1.127,0.808,0.000,17,17,4*5D
$GPGGA,093909.60,3135.5812080,N,12046.4934175,E,4,17,1.5,2.5822,M,8.303,M,00,0004*6E
$GPHPD,1957,34767.400,62.34,0.33,15.41,31.5930201,120.7748903,2.582,13629783.896,24922786.294,2.582,-4.399,-4.611,2.667,0.597,1.127,0.808,0.000,17,17,4*78
$GPGGA,093909.80,3135.5815520,N,12046.4942173,E,4,17,1.5,2.5410,M,8.303,M,00,0004*62
$GPHPD,1957,34767.600,62.66,0.51,15.47,31.5930259,120.7749036,2.541,13629780.616,24922793.935,2.541,-4.440,-4.616,2.738,0.597,1.127,0.808,0.000,17,17,4*72
$GPGGA,093910.00,3135.5819086,N,12046.4949930,E,4,17,1.5,2.6357,M,8.303,M,01,0004*65
$GPHPD,1957,34767.800,62.42,1.03,15.58,31.5930318,120.7749166,2.636,13629777.109,24922801.211,2.636,-4.481,-4.867,2.560,0.597,1.127,0.808,0.000,17,17,4*70
$GPGGA,093910.20,3135.5822595,N,12046.4958231,E,4,17,1.5,2.6069,M,8.303,M,01,0004*6C
$GPHPD,1957,34768.000,63.11,1.48,15.63,31.5930377,120.7749304,2.607,13629773.792,24922809.177,2.607,-4.556,-4.778,2.780,0.597,1.127,0.808,0.000,17,17,4*75
$GPGGA,093910.40,3135.5826147,N,12046.4966444,E,4,17,1.6,2.5860,M,8.304,M,01,0004*6A
$GPHPD,1957,34768.200,62.28,0.18,15.55,31.5930436,120.7749441,2.586,13629770.396,24922817.012,2.586,-4.675,-4.583,2.832,0.597,1.127,0.808,0.000,17,17,4*75
$GPGGA,093910.60,3135.5829669,N,12046.4974759,E,4,17,1.5,2.5408,M,8.304,M,00,0004*60
$GPHPD,1957,34768.400,63.08,0.17,15.45,31.5930494,120.7749579,2.541,13629767.063,24922824.987,2.541,-4.659,-4.818,2.781,0.597,1.127,0.808,0.000,17,17,4*70
$GPGGA,093910.80,3135.5833283,N,12046.4982951,E,4,17,1.5,2.5711,M,8.304,M,00,0004*61
$GPHPD,1957,34768.600,62.97,0.32,15.39,31.5930555,120.7749716,2.571,13629763.575,24922832.760,2.571,-4.683,-4.874,2.726,0.597,1.127,0.808,0.000,17,17,4*78
$GPGGA,093911.00,3135.5836800,N,12046.4991448,E,4,17,1.5,2.5657,M,8.304,M,01,0004*69
$GPHPD,1957,34768.800,63.16,0.90,15.45,31.5930613,120.7749857,2.566,13629760.286,24922840.958,2.566,-4.679,-4.841,2.808,0.597,1.127,0.808,0.000,17,17,4*7E
$GPGGA,093911.20,3135.5840376,N,12046.4999714,E,4,17,1.7,2.6174,M,8.304,M,01,0004*65
